uid,name,cat_L1,cat_L2,province,city,area,address,street_id,detail,child_num,loc_lng,loc_lat,telephone,type,detail_url,price,shop_hours,overall_rating,taste_rating,service_rating,environment_rating,facility_rating,hygiene_rating,technology_rating,image_num,comment_num,groupon_num,discount_num,favorite_num,checkin_num,brand,content_tag,naviloc_lng,naviloc_lat,child_num
ea0da0d642a39ff280a00c29,吊车出租,汽车服务,汽车租赁,广东省,广州市,南沙区,广州市南沙区大鹏路潭山中学南侧约30米,ea0da0d642a39ff280a00c29,1,0,113.389175,22.792275,,life,http://api.map.baidu.com/place/detail?uid=ea0da0d642a39ff280a00c29&output=html&source=placeapi_v2,,,,,,,,,,1,,,,,,,,,,0
2e02a3c7eebde20297031974,广州奕嘉租赁有限公司,汽车服务,汽车租赁,广东省,广州市,南沙区,广州市南沙区环镇西路二湾社区西侧约90米,2e02a3c7eebde20297031974,1,0,113.413794,22.803942,,life,http://api.map.baidu.com/place/detail?uid=2e02a3c7eebde20297031974&output=html&source=placeapi_v2,,,,,,,,,,,1,,,,,,,,,0
0474768713189d7cdbecedd0,桦少汽车信息咨询部,汽车服务,汽车租赁,广东省,广州市,南沙区,广州市南沙区S111中国石化加油站(江灵站)东南侧约90米,0474768713189d7cdbecedd0,1,0,113.437961,22.804676,,life,http://api.map.baidu.com/place/detail?uid=0474768713189d7cdbecedd0&output=html&source=placeapi_v2,,,,,,,,,,1,,,,,,,,,,0
2abf55e46b484572f6c59c61,雄英汇汽车租赁(南沙店),汽车服务,汽车租赁,广东省,广州市,南沙区,广东省广州市南沙区进港大道22号奥园金莎广场1楼,2abf55e46b484572f6c59c61,1,0,113.552274,22.806044,15374022699,life,http://api.map.baidu.com/place/detail?uid=2abf55e46b484572f6c59c61&output=html&source=placeapi_v2,,08:00-22:00,,,,,,,,11,4,,,,,,,,,0
08f4208a94aaa3a971455b9d,顺璐租车,汽车服务,汽车租赁,广东省,广州市,南沙区,板头一街1附近,08f4208a94aaa3a971455b9d,1,0,113.555685,22.796057,"13570259121,4000685536",life,http://api.map.baidu.com/place/detail?uid=08f4208a94aaa3a971455b9d&output=html&source=placeapi_v2,,,,,,,,,,1,,,,,,,,,,0
e52534a69d2e6ff79222e093,大叶汽车租赁,汽车服务,汽车租赁,广东省,东莞市,,虎门镇捷南路654号,e52534a69d2e6ff79222e093,1,0,113.704132,22.809772,13925863128,life,http://api.map.baidu.com/place/detail?uid=e52534a69d2e6ff79222e093&output=html&source=placeapi_v2,,,5,,,,,,,9,2,,,,,,,113.70391618609,22.809784103633,0
62acd651a77c1590901fc94e,金东中港汽车租赁,汽车服务,汽车租赁,广东省,东莞市,,东莞市金捷路金洲梁屋公园西北侧约90米,62acd651a77c1590901fc94e,1,0,113.699204,22.814229,"13414222884,13431111550",life,http://api.map.baidu.com/place/detail?uid=62acd651a77c1590901fc94e&output=html&source=placeapi_v2,,,,,,,,,,2,,,,,,,,,,0
12d995f35991d823b64f54ca,低息押车,汽车服务,汽车租赁,广东省,东莞市,,东莞市开源路东莞市长安镇厦岗小学西侧约30米,,1,0,113.74779,22.804032,18033000936,life,http://api.map.baidu.com/place/detail?uid=12d995f35991d823b64f54ca&output=html&source=placeapi_v2,,,,,,,,,,4,,,,,,,,113.74766459506,22.804030678514,0
14c8affcf9c9aeeefbf0cbaa,瑞卡租车(柏尔送车点),汽车服务,汽车租赁,广东省,东莞市,,东莞市长安镇福海路肯德基旁,14c8affcf9c9aeeefbf0cbaa,1,0,113.752923,22.801719,,life,http://api.map.baidu.com/place/detail?uid=14c8affcf9c9aeeefbf0cbaa&output=html&source=placeapi_v2,,09:00-21:00,,,,,,,,,,,,,,,,,,0
1ba3c8bc170b49b002294fae,河南专车,汽车服务,汽车租赁,广东省,东莞市,,东莞市象岗东街广华楼西侧约50米,,1,0,113.790542,22.795511,13712257165,life,http://api.map.baidu.com/place/detail?uid=1ba3c8bc170b49b002294fae&output=html&source=placeapi_v2,,,,,,,,,,5,,,,,,,,,,0
e13c5ea64a2d3d8a4c6d4605,东莞市双联汽车租赁有限公司,汽车服务,汽车租赁,广东省,东莞市,,广东省东莞市靖海东路30号,e13c5ea64a2d3d8a4c6d4605,1,0,113.777118,22.787605,13829235275,life,http://api.map.baidu.com/place/detail?uid=e13c5ea64a2d3d8a4c6d4605&output=html&source=placeapi_v2,,08:30-19:30,4,,,,,,,11,1,,,,,,,113.77717813692,22.787595897964,0
865ba7d1ef94c81c931fc9ac,联动云(步步高大道用车点),汽车服务,汽车租赁,广东省,东莞市,,广东省东莞市步步高大道23号,865ba7d1ef94c81c931fc9ac,1,0,113.787609,22.78417,,life,http://api.map.baidu.com/place/detail?uid=865ba7d1ef94c81c931fc9ac&output=html&source=placeapi_v2,,,,,,,,,,4,,,,,,,,113.78774628083,22.784159884945,0
0583ee522b4ad774c27da2bb,大方租车(长安沙头服务点),汽车服务,汽车租赁,广东省,东莞市,,广东省东莞市振安中路337号(滨海公馆),0583ee522b4ad774c27da2bb,1,0,113.779293,22.783333,4006668818,life,http://api.map.baidu.com/place/detail?uid=0583ee522b4ad774c27da2bb&output=html&source=placeapi_v2,,08:00-20:00,0,,,,,,,6,1,,,,,,,113.77913299613,22.78336546489,0
ed56a1d1db7f24e302294fe9,六天租车,汽车服务,汽车租赁,广东省,东莞市,,广东省东莞市振安中路333号108号,ed56a1d1db7f24e302294fe9,1,0,113.779262,22.783273,13650066506,life,http://api.map.baidu.com/place/detail?uid=ed56a1d1db7f24e302294fe9&output=html&source=placeapi_v2,,08:00-20:00,,,,,,,,3,,,,,,,,113.77914218759,22.783403428975,0
eddd261348ac7847a9f0cd9c,惠捷汽车租赁公司,汽车服务,汽车租赁,广东省,东莞市,,广东省东莞市合意路7号1楼,eddd261348ac7847a9f0cd9c,1,0,113.826658,22.810607,13751390511,life,http://api.map.baidu.com/place/detail?uid=eddd261348ac7847a9f0cd9c&output=html&source=placeapi_v2,,08:00-18:30,,,,,,,,,,,,,,,,,,0
7ef6f56bc16bd6af81a12eb7,华粤租车服务有限公司,汽车服务,汽车租赁,广东省,东莞市,,广东省东莞市锦江路366号,7ef6f56bc16bd6af81a12eb7,1,0,113.807775,22.800723,13662976188,life,http://api.map.baidu.com/place/detail?uid=7ef6f56bc16bd6af81a12eb7&output=html&source=placeapi_v2,,08:30-22:00,5,,,,,,,14,3,,,,,,,113.80769438895,22.800749342971,0
c9854b2bd240f32952e5c566,蓉滔租车,汽车服务,汽车租赁,广东省,东莞市,,东莞市锦厦步行街锦江花园西南侧约30米,c9854b2bd240f32952e5c566,1,0,113.80778,22.79942,"13532820121,13902615437",life,http://api.map.baidu.com/place/detail?uid=c9854b2bd240f32952e5c566&output=html&source=placeapi_v2,,,,,,,,,,6,2,,,,,,,113.8076315381,22.799418879221,0
af4e225a6143f1e5dbd89107,悦行租车,汽车服务,汽车租赁,广东省,东莞市,,广东省东莞市锦江路196号,af4e225a6143f1e5dbd89107,1,0,113.80772,22.797026,"(0769)85077073,13712356889,13712820919,13922959940",life,http://api.map.baidu.com/place/detail?uid=af4e225a6143f1e5dbd89107&output=html&source=placeapi_v2,,08:30-20:00,,,,,,,,7,,,,,,,,113.80759583405,22.797028758799,0
d8f8976731f60f4c80a00cfa,游侠客租售房车新能源车,汽车服务,汽车租赁,广东省,东莞市,,东莞市京港线溪东商业楼东南侧约100米,d8f8976731f60f4c80a00cfa,1,0,113.836192,22.804578,(0769)81669819,life,http://api.map.baidu.com/place/detail?uid=d8f8976731f60f4c80a00cfa&output=html&source=placeapi_v2,,,,,,,,,,7,,,,,,,,113.83620557816,22.804676772793,0
d54e34385d569d5c82288a5a,鑫劲速充充店租赁电车工作室,汽车服务,汽车租赁,广东省,东莞市,,霄边村上洋小区育兴三巷11号101,,1,0,113.82368,22.814391,17876078172,life,http://api.map.baidu.com/place/detail?uid=d54e34385d569d5c82288a5a&output=html&source=placeapi_v2,,09:00-23:30,,,,,,,,6,,,,,,,,113.82368218697,22.814441614018,0
3426ca02ccc43d7a8415415f,东莞前线汽车信息服务部,汽车服务,汽车租赁,广东省,东莞市,,东莞市上洋路霄边农民公寓,3426ca02ccc43d7a8415415f,1,0,113.820626,22.81242,(0769)81550062,life,http://api.map.baidu.com/place/detail?uid=3426ca02ccc43d7a8415415f&output=html&source=placeapi_v2,,,,,,,,,,5,,,,,,,,113.82062396425,22.812365330415,0
883fbf68afa4d7b6a204641f,海通恒信国际租赁有限公司,汽车服务,汽车租赁,广东省,东莞市,,广东省东莞市东门中路82号中正广场9楼,883fbf68afa4d7b6a204641f,1,0,113.813862,22.816376,,life,http://api.map.baidu.com/place/detail?uid=883fbf68afa4d7b6a204641f&output=html&source=placeapi_v2,,09:00-18:00,,,,,,,,,,,,,,,,113.81393656032,22.816110758429,0
a90aa5d594ad7acba8f72905,日强租车,汽车服务,汽车租赁,广东省,东莞市,,东莞市锦厦步行街锦江花园西侧约30米,,1,0,113.807802,22.800861,,life,http://api.map.baidu.com/place/detail?uid=a90aa5d594ad7acba8f72905&output=html&source=placeapi_v2,,,,,,,,,,1,,,,,,,,113.80770222487,22.80087230259,0
a278f386a54939bbca1b9500,神州租车(大良南国中路服务点),汽车服务,汽车租赁,广东省,佛山市,顺德区,广东省佛山市顺德区南国中路53号汇成华庭地铺40号铺,a278f386a54939bbca1b9500,1,0,113.259771,22.827605,4006166666,life,http://api.map.baidu.com/place/detail?uid=a278f386a54939bbca1b9500&output=html&source=placeapi_v2,,08:00-21:00,5,,,,,,,11,5,,,,,,,113.25986767053,22.827603585567,0
35f1522b67bc666babf72984,雄英汇汽车租赁(四十五分店),汽车服务,汽车租赁,广东省,佛山市,顺德区,广东省佛山市顺德区南国中路55号逸峻闲庭4栋6号铺,35f1522b67bc666babf72984,1,0,113.258709,22.8267,18138356207,life,http://api.map.baidu.com/place/detail?uid=35f1522b67bc666babf72984&output=html&source=placeapi_v2,,08:00-22:00,,,,,,,,4,,,,,,,,113.25866319915,22.826753570533,0
e09344060870d9ac940319d1,二顺汽车租赁,汽车服务,汽车租赁,广东省,佛山市,顺德区,广东省佛山市顺德区永和路16号,e09344060870d9ac940319d1,1,0,113.275662,22.832339,18144707872,life,http://api.map.baidu.com/place/detail?uid=e09344060870d9ac940319d1&output=html&source=placeapi_v2,,10:00-22:00,0.0,,,,,,,14,,,,,,,,113.2757303876,22.832321011549,0
36d088e25e11972fb4265531,深霖汽车租赁,汽车服务,汽车租赁,广东省,佛山市,顺德区,广东省佛山市顺德区环城路198号5号铺,36d088e25e11972fb4265531,1,0,113.26312,22.848398,(0757)22667576,life,http://api.map.baidu.com/place/detail?uid=36d088e25e11972fb4265531&output=html&source=placeapi_v2,,,,,,,,,,5,,,,,,,,,,0
446ff1735d30720a9e9d685b,迈达豪车租赁,汽车服务,汽车租赁,广东省,佛山市,顺德区,广东省佛山市顺德区环市东路21号富华楼2号铺,,1,0,113.269228,22.849401,18689267132,life,http://api.map.baidu.com/place/detail?uid=446ff1735d30720a9e9d685b&output=html&source=placeapi_v2,,10:00-22:00,,,,,,,,3,,,,,,,,113.26915932232,22.8493331546,0
0196749c5b8f7062b5f42fc3,复印机出租,,,广东省,佛山市,顺德区,佛山市顺德区新基一路佳广楼,0196749c5b8f7062b5f42fc3,1,0,113.254459,22.850962,(0757)22221893,life,http://api.map.baidu.com/place/detail?uid=0196749c5b8f7062b5f42fc3&output=html&source=placeapi_v2,,,,,,,,,,3,,,,,,,,113.25439928874,22.851020217656,0
da34c344ea8aee11744ff151,联动云租车(顺峰山公园北门停车场取还车点),汽车服务,汽车租赁,广东省,佛山市,顺德区,广东省佛山市顺德区良逢路顺峰山公园北门停车场,,1,0,113.285703,22.832556,,life,http://api.map.baidu.com/place/detail?uid=da34c344ea8aee11744ff151&output=html&source=placeapi_v2,,,,,,,,,,,,,,,,,,,,0
158cf65146965a4433621244,动感租车(南沙分公司),汽车服务,汽车租赁,广东省,广州市,南沙区,广州市南沙区市南路京华合木东晖幼儿园西北侧约120米,158cf65146965a4433621244,1,0,113.516228,22.838843,(020)39091620,life,http://api.map.baidu.com/place/detail?uid=158cf65146965a4433621244&output=html&source=placeapi_v2,,,0,,,,,,,15,1,,,,,,,113.51618718229,22.838793081181,0
29716809bfeae46e62685863,广东羊旅汽车租赁有限公司,汽车服务,汽车租赁,广东省,广州市,南沙区,广州市南沙区莲溪拓展路方圆南沙水恋东侧约120米,29716809bfeae46e62685863,1,0,113.516713,22.840391,,life,http://api.map.baidu.com/place/detail?uid=29716809bfeae46e62685863&output=html&source=placeapi_v2,,,,,,,,,,6,,,,,,,,113.51660720839,22.840464963369,0
4ae73c8acce9d4076e20b999,广州交通集团出租汽车有限公司,汽车服务,汽车租赁,广东省,广州市,南沙区,广东广州市南沙区新市南路34号黄阁公交总站办公楼2楼,4ae73c8acce9d4076e20b999,1,0,113.517688,22.840949,,life,http://api.map.baidu.com/place/detail?uid=4ae73c8acce9d4076e20b999&output=html&source=placeapi_v2,,,,,,,,,,,0,,,,,,,113.51768760671,22.840949128862,0
94230b4816bb5c2c1df74db7,东莞市马思汽车租赁有限公司,汽车服务,汽车租赁,广东省,东莞市,,广东省东莞市体育路长江大厦1楼,94230b4816bb5c2c1df74db7,1,0,113.678308,22.837434,"13826902424,13826907311,15015156161",life,http://api.map.baidu.com/place/detail?uid=94230b4816bb5c2c1df74db7&output=html&source=placeapi_v2,,,0,,,,,,,7,2,,,,,,,,,0
be2bfb8a9cf87b146d20b936,雄英汇租车(虎门店),汽车服务,汽车租赁,广东省,东莞市,,广东省东莞市虎门大道113号,be2bfb8a9cf87b146d20b936,1,0,113.689711,22.826774,15015200209,life,http://api.map.baidu.com/place/detail?uid=be2bfb8a9cf87b146d20b936&output=html&source=placeapi_v2,,00:00-24:00,,,,,,,,6,1,,,,,,,113.68938954576,22.826776374594,0
5f5210519411f8c8ab175a42,嘀嗒租车(虎门店),汽车服务,汽车租赁,广东省,东莞市,,东莞市虎门镇教育路一嗨租车西北侧50米,5f5210519411f8c8ab175a42,1,0,113.69383,22.821489,18820618217,life,http://api.map.baidu.com/place/detail?uid=5f5210519411f8c8ab175a42&output=html&source=placeapi_v2,,09:00-19:30,5,,,,,,,46,7,,,,,,,113.69414719452,22.821415388001,0
e5fc0174d211e802441a3256,棋睿租车(虎门店),汽车服务,汽车租赁,广东省,东莞市,,广东省东莞市虎门镇教育路虎门淘宝园停车场旁边,,1,0,113.694188,22.821269,18825223018,life,http://api.map.baidu.com/place/detail?uid=e5fc0174d211e802441a3256&output=html&source=placeapi_v2,,00:00-24:00,,,,,,,,12,2,,,,,,,113.69419228856,22.821414175309,0
b9a5217aae5344e2bbbd63f7,大方租车(虎门万达广场店),汽车服务,汽车租赁,广东省,东莞市,,广东省东莞市虎门镇连升路143号客天下连升广场1栋1008室,,1,0,113.687099,22.840709,4006668818,life,http://api.map.baidu.com/place/detail?uid=b9a5217aae5344e2bbbd63f7&output=html&source=placeapi_v2,,08:00-20:00,,,,,,,,,,,,,,,,,,0
0d25ab5c8cfe81b52b201a55,一嗨租车(虎门中心客运站便捷点),汽车服务,汽车租赁,广东省,东莞市,,东莞市教育路与培英路交叉路口西南侧(虎门公园南侧约50米),0d25ab5c8cfe81b52b201a55,1,0,113.694416,22.82127,4008886608,life,http://api.map.baidu.com/place/detail?uid=0d25ab5c8cfe81b52b201a55&output=html&source=placeapi_v2,,00:00-24:00,0,,,,,,,4,0,,,,,,,113.69439524901,22.821426976027,0
02f30ec040002ba9f21937fd,叉车出租,汽车服务,汽车租赁,广东省,东莞市,,东莞市怀德路大亨综合市场南侧约250米,02f30ec040002ba9f21937fd,1,0,113.733757,22.835064,13538318888,life,http://api.map.baidu.com/place/detail?uid=02f30ec040002ba9f21937fd&output=html&source=placeapi_v2,,,,,,,,,,,,,,,,,,,,0
7a7da43d570fc7d1f523105c,联动云用车点(长安体育公园网点),汽车服务,汽车租赁,广东省,东莞市,,东莞市长青北路长安体育公园,7a7da43d570fc7d1f523105c,1,0,113.806485,22.827144,,life,http://api.map.baidu.com/place/detail?uid=7a7da43d570fc7d1f523105c&output=html&source=placeapi_v2,,,,,,,,,,,,,,,,,,,,0
f9dd8a8543a29eeb17948e9f,一嗨租车(长安店),汽车服务,汽车租赁,广东省,东莞市,,广东省东莞市莲峰北路20号,f9dd8a8543a29eeb17948e9f,1,0,113.815515,22.818907,4008886608,life,http://api.map.baidu.com/place/detail?uid=f9dd8a8543a29eeb17948e9f&output=html&source=placeapi_v2,567.5,08:00-20:00,5,,,,,,,17,3,,,,,,,113.8153884996,22.818864933229,0
8c036ea194fb7fa7afee7ab7,杨业汽车租凭,汽车服务,汽车租赁,广东省,佛山市,顺德区,鸡洲工业区环村大道东,,1,0,113.275471,22.870162,,life,http://api.map.baidu.com/place/detail?uid=8c036ea194fb7fa7afee7ab7&output=html&source=placeapi_v2,,,,,,,,,,,,,,,,,,,,0
6c1207dff227c7f2354aaee1,诚皆汽车租赁,汽车服务,汽车租赁,广东省,佛山市,顺德区,云桂四街三巷1号,,1,0,113.261112,22.856285,13727333381,life,http://api.map.baidu.com/place/detail?uid=6c1207dff227c7f2354aaee1&output=html&source=placeapi_v2,,,,,,,,,,5,,,,,,,,113.26118878778,22.856345722381,0
feaa5d3dc2667e73fb2213a4,博盛汽车租赁有限公司(顺德总店),汽车服务,汽车租赁,广东省,佛山市,顺德区,广东省佛山市顺德区新市良路怡景湾22号,,1,0,113.276708,22.862102,15875773926,life,http://api.map.baidu.com/place/detail?uid=feaa5d3dc2667e73fb2213a4&output=html&source=placeapi_v2,,10:00-18:00,0,,,,,,,13,0,,,,,,,,,0
cd3926b32153236fb020a865,广州市库马汽车租赁有限公司(顺德分公司),汽车服务,汽车租赁,广东省,佛山市,顺德区,广东省佛山市顺德区新桂北路238号,cd3926b32153236fb020a865,1,0,113.268087,22.85468,(0757)29282812,life,http://api.map.baidu.com/place/detail?uid=cd3926b32153236fb020a865&output=html&source=placeapi_v2,,08:30-22:00,5.0,,,,,,,,2,,,,,,,,,0
a31d309f71c8ef76adb22a32,复印机出租,,,广东省,佛山市,顺德区,佛山市顺德区桂畔路连平花园西北侧约50米,,1,0,113.261483,22.860843,18038847444,life,http://api.map.baidu.com/place/detail?uid=a31d309f71c8ef76adb22a32&output=html&source=placeapi_v2,,,,,,,,,,4,,,,,,,,,,0
5f7eb809fb7b57977bf79667,代步车租赁殿点,汽车服务,汽车租赁,广东省,佛山市,顺德区,佛山市顺德区建设东路8号长鹿旅游休博园,,1,0,113.296357,22.884645,,life,http://api.map.baidu.com/place/detail?uid=5f7eb809fb7b57977bf79667&output=html&source=placeapi_v2,,,,,,,,,,,,,,,,,,,,0
49165b5092576d0557bfffae,广州鼎隆吊篮租赁有限公司,汽车服务,汽车租赁,广东省,广州市,南沙区,广州市南沙区人绿路人民村市场西侧约220米,,1,0,113.34741,22.858765,15933292609,life,http://api.map.baidu.com/place/detail?uid=49165b5092576d0557bfffae&output=html&source=placeapi_v2,,00:00-24:00,,,,,,,,9,1,,,,,,,113.34740654803,22.858765002366,0
d80418445082905cf603b858,广州中鑫吊篮租赁有限公司,汽车服务,汽车租赁,广东省,广州市,南沙区,广东省广州市南沙区国泰街353-4-101号,,1,0,113.328013,22.873478,18620926789,life,http://api.map.baidu.com/place/detail?uid=d80418445082905cf603b858&output=html&source=placeapi_v2,,00:00-24:00,,,,,,,,11,4,,,,,,,,,0
777433382baa6aa9d4851f5b,小游租赁,汽车服务,汽车租赁,广东省,广州市,南沙区,广东省广州市南沙区小乌北街2号,777433382baa6aa9d4851f5b,1,0,113.434356,22.866233,13911782010,life,http://api.map.baidu.com/place/detail?uid=777433382baa6aa9d4851f5b&output=html&source=placeapi_v2,,,,,,,,,,4,,,,,,,,113.43420606798,22.866119321153,0
e9894b3408c7c78816c90544,广东省虎门镇莞太路白沙一村201之一星耀豪车租赁,汽车服务,汽车租赁,广东省,东莞市,,虎门镇莞太路白沙一村201号,,1,0,113.677155,22.865353,"18300077580,18922922233",life,http://api.map.baidu.com/place/detail?uid=e9894b3408c7c78816c90544&output=html&source=placeapi_v2,,00:00-24:00,,,,,,,,3,,,,,,,,113.67740537772,22.865572953332,0
165f5788bc65217cd6b74e13,广晟租车,汽车服务,汽车租赁,广东省,东莞市,,东莞市莞太路,165f5788bc65217cd6b74e13,1,0,113.686234,22.859235,,life,http://api.map.baidu.com/place/detail?uid=165f5788bc65217cd6b74e13&output=html&source=placeapi_v2,,,,,,,,,,,,,,,,,,113.68626820002,22.859103070734,0
960f02ccf004ca224054d7f7,广东鑫兴租赁有限公司,汽车服务,汽车租赁,广东省,广州市,南沙区,广州市南沙区榄灵路柏邦家具北侧约120米,,1,0,113.37004,22.892332,18024188068,life,http://api.map.baidu.com/place/detail?uid=960f02ccf004ca224054d7f7&output=html&source=placeapi_v2,,,,,,,,,,6,2,,,,,,,,,0
73433964647ebcd4b45f1ea5,兴业租车,汽车服务,汽车租赁,广东省,广州市,番禺区,广州市番禺区兴业大道陈涌小学西北门南侧约80米,73433964647ebcd4b45f1ea5,1,0,113.377162,22.921839,,life,http://api.map.baidu.com/place/detail?uid=73433964647ebcd4b45f1ea5&output=html&source=placeapi_v2,,,,,,,,,,4,,,,,,,,113.37701166405,22.921861317417,0
d0c53389caa9ee9bc17da22d,志桂设备租赁,汽车服务,汽车租赁,广东省,广州市,南沙区,广东省广州市南沙区励业路26号,d0c53389caa9ee9bc17da22d,1,0,113.475638,22.904381,(020)39133711,life,http://api.map.baidu.com/place/detail?uid=d0c53389caa9ee9bc17da22d&output=html&source=placeapi_v2,,,,,,,,,,6,,,,,,,,113.4755397985,22.904382267624,0
436651ae68ee6a0c4f3a59e6,神州租车(南沙东涌镇服务点),汽车服务,汽车租赁,广东省,广州市,南沙区,广州市南沙区东涌镇培贤路13号晋隆大厦停车场内,436651ae68ee6a0c4f3a59e6,1,0,113.467375,22.888845,4006166666,life,http://api.map.baidu.com/place/detail?uid=436651ae68ee6a0c4f3a59e6&output=html&source=placeapi_v2,,08:00-21:00,,,,,,,,,,,,,,,,,,0
6616624144fd3eb538e4a65d,东莞沙田镇民田诚信华仔汽车租赁有公司,汽车服务,汽车租赁,广东省,东莞市,,东莞市沙田镇民田村官洲小组551号4楼,6616624144fd3eb538e4a65d,1,0,113.621553,22.898546,,life,http://api.map.baidu.com/place/detail?uid=6616624144fd3eb538e4a65d&output=html&source=placeapi_v2,,,,,,,,,,,,,,,,,,113.62144045759,22.89849930997,0
76b09e6945aa277ac929150a,天顺达汽车租赁服务有限公司,汽车服务,汽车租赁,广东省,东莞市,,东莞市沙田大道沙田东港城,76b09e6945aa277ac929150a,1,0,113.62497,22.91142,(0769)87037661,life,http://api.map.baidu.com/place/detail?uid=76b09e6945aa277ac929150a&output=html&source=placeapi_v2,,,0,,,,,,,6,1,,,,,,,,,0
ff0f5194c7969ed680a00c3c,龙旋租车,汽车服务,汽车租赁,广东省,东莞市,,广东省东莞市沙田镇港口大道沙田段79号102号,ff0f5194c7969ed680a00c3c,1,0,113.62999,22.91886,"(0769)89954088,13412084342",life,http://api.map.baidu.com/place/detail?uid=ff0f5194c7969ed680a00c3c&output=html&source=placeapi_v2,,08:00-20:00,4.2,,,,,,,14,5,,,,,,,113.62999783984,22.918683135218,0
8997afbc562ae7971ef74d26,三合吊车租赁公司,汽车服务,汽车租赁,广东省,东莞市,,东莞市运河西路滨江豪园东南侧约220米,8997afbc562ae7971ef74d26,1,0,113.621197,22.921573,"13392959755,13602332479",life,http://api.map.baidu.com/place/detail?uid=8997afbc562ae7971ef74d26&output=html&source=placeapi_v2,,,,,,,,,,3,,,,,,,,113.62129308338,22.921493710193,0
4c384dbcd9468f29102935ab,方俊汽车租赁服务有限公司,汽车服务,汽车租赁,广东省,东莞市,,东莞市东溪西路华庭居东南侧约80米,4c384dbcd9468f29102935ab,1,0,113.662447,22.902614,13925588855,life,http://api.map.baidu.com/place/detail?uid=4c384dbcd9468f29102935ab&output=html&source=placeapi_v2,,09:00-20:30,,,,,,,,6,,,,,,,,113.66246563274,22.902714036844,0
a362d2273c09db3fbda240ea,捷成起重搬运,汽车服务,汽车租赁,广东省,东莞市,,东莞市村中路南路设计师酒店东北侧约240米,a362d2273c09db3fbda240ea,1,0,113.660382,22.911576,13713390958,life,http://api.map.baidu.com/place/detail?uid=a362d2273c09db3fbda240ea&output=html&source=placeapi_v2,,,,,,,,,,4,,,,,,,,113.66036808938,22.911360480018,0
606b468a904aa5715cd4fe9b,永隆叉车出租,汽车服务,汽车租赁,广东省,东莞市,,广东省东莞市东坑街9号,606b468a904aa5715cd4fe9b,1,0,113.671423,22.908419,18523513829,life,http://api.map.baidu.com/place/detail?uid=606b468a904aa5715cd4fe9b&output=html&source=placeapi_v2,,00:00-24:00,,,,,,,,,0,,,,,,,,,0
21fe87514ad8bd7ca0acc404,一嗨租车(领尚购物广场店),汽车服务,汽车租赁,广东省,东莞市,,广东省东莞市玉屏路11号领尚天地7栋1027号,21fe87514ad8bd7ca0acc404,1,0,113.834778,22.912336,(0769)81600206,life,http://api.map.baidu.com/place/detail?uid=21fe87514ad8bd7ca0acc404&output=html&source=placeapi_v2,,08:00-20:00,,,,,,,,1,,,,,,,,113.83418065202,22.912282868006,0
822335940a1b4f27353a7175,神州租车(大岭山服务点),汽车服务,汽车租赁,广东省,东莞市,,广东省东莞市玉屏路11号1046号,822335940a1b4f27353a7175,1,0,113.834075,22.913308,15814131328,life,http://api.map.baidu.com/place/detail?uid=822335940a1b4f27353a7175&output=html&source=placeapi_v2,,08:00-20:00,5.0,,,,,,,7,1,,,,,,,113.83400045104,22.913402718876,0
51839074c7c6fd509e82ea8c,小冯叉车出租,汽车服务,汽车租赁,广东省,广州市,番禺区,广州市番禺区福酒民营工业一街横二巷与高|坊大街交叉路口往东约110米,51839074c7c6fd509e82ea8c,1,0,113.340929,22.929905,15217600765,life,http://api.map.baidu.com/place/detail?uid=51839074c7c6fd509e82ea8c&output=html&source=placeapi_v2,,00:00-24:00,,,,,,,,8,,,,,,,,,,0
d194bd037385271cbd484223,嘉力叉车出租,汽车服务,汽车租赁,广东省,广州市,番禺区,广东省广州市番禺区沙渡公路2号,d194bd037385271cbd484223,1,0,113.347696,22.928958,13928820960,life,http://api.map.baidu.com/place/detail?uid=d194bd037385271cbd484223&output=html&source=placeapi_v2,,,,,,,,,,12,1,,,,,,,113.34776762013,22.928930090473,0
a6f1a4ff59d8ed179f09f73c,祥力叉车出租,汽车服务,汽车租赁,广东省,广州市,番禺区,广州市番禺区福龙路渡头公园南侧约40米,a6f1a4ff59d8ed179f09f73c,1,0,113.349567,22.929951,18655250483,life,http://api.map.baidu.com/place/detail?uid=a6f1a4ff59d8ed179f09f73c&output=html&source=placeapi_v2,,,,,,,,,,5,,,,,,,,113.34962346092,22.930126573892,0
c490ec190d3145bdbea240a7,纯记叉车出租,汽车服务,汽车租赁,广东省,广州市,番禺区,广州市番禺区金井大道街新村公园西南侧约70米,c490ec190d3145bdbea240a7,1,0,113.34745,22.926152,,life,http://api.map.baidu.com/place/detail?uid=c490ec190d3145bdbea240a7&output=html&source=placeapi_v2,,,,,,,,,,5,,,,,,,,,,0
497a9b956bde705e400245c6,志统租车,汽车服务,汽车租赁,广东省,广州市,番禺区,番禹区光明北路5号,497a9b956bde705e400245c6,1,0,113.367681,22.946535,15914361351,life,http://api.map.baidu.com/place/detail?uid=497a9b956bde705e400245c6&output=html&source=placeapi_v2,,09:00-18:00,5,,,,,,,45,29,,,,,,,113.36779078257,22.946548291728,0
73a427f9d4f94f6843e192e6,耀信行,汽车服务,汽车租赁,广东省,广州市,番禺区,广东省广州市番禺区广华南路152号,73a427f9d4f94f6843e192e6,1,0,113.3987,22.932758,(020)31040449,life,http://api.map.baidu.com/place/detail?uid=73a427f9d4f94f6843e192e6&output=html&source=placeapi_v2,,08:00-18:00,5,,,,,,,5,2,,,,,,,113.39874865775,22.932865126086,0
9aafb8f277f2e6b5acee7a3e,万鑫脚手架,汽车服务,汽车租赁,广东省,广州市,番禺区,广东省广州市番禺区中亿百货商场,9aafb8f277f2e6b5acee7a3e,1,0,113.383591,22.956253,13202052075,life,http://api.map.baidu.com/place/detail?uid=9aafb8f277f2e6b5acee7a3e&output=html&source=placeapi_v2,,,,,,,,,,6,1,,,,,,,113.38368560058,22.956254614978,0
3d24910f7abc1659213bf21c,瑞卡租车(钻汇珠宝广场接送车点),汽车服务,汽车租赁,广东省,广州市,番禺区,广州市番禺区富华西路2号,3d24910f7abc1659213bf21c,1,0,113.369973,22.953307,,life,http://api.map.baidu.com/place/detail?uid=3d24910f7abc1659213bf21c&output=html&source=placeapi_v2,,09:00-21:00,,,,,,,,,,,,,,,,,,0
8997afbc562ae7971ef74d26,三合吊车租赁公司,汽车服务,汽车租赁,广东省,东莞市,,东莞市运河西路滨江豪园东南侧约220米,8997afbc562ae7971ef74d26,1,0,113.621197,22.921573,"13392959755,13602332479",life,http://api.map.baidu.com/place/detail?uid=8997afbc562ae7971ef74d26&output=html&source=placeapi_v2,,,,,,,,,,3,,,,,,,,113.62129308338,22.921493710193,0
2e4ebbf5643b590abb17e7f0,银生汽车租赁有限公司,汽车服务,汽车租赁,广东省,东莞市,,东莞市友谊路厚德华庭西侧约70米,,1,0,113.664019,22.940822,,life,http://api.map.baidu.com/place/detail?uid=2e4ebbf5643b590abb17e7f0&output=html&source=placeapi_v2,,,,,,,,,,5,,,,,,,,,,0
c1ade84815f5fe08d8131825,八达通租车,汽车服务,汽车租赁,广东省,东莞市,,广东省东莞市厚沙东路149号,c1ade84815f5fe08d8131825,1,0,113.671258,22.929273,13612798688,life,http://api.map.baidu.com/place/detail?uid=c1ade84815f5fe08d8131825&output=html&source=placeapi_v2,,08:00-20:00,,,,,,,,8,,,,,,,,113.67119994614,22.929138422194,0
e52b68f05322e914b7265519,东莞市宇根世轩汽车租赁有限公司,汽车服务,汽车租赁,广东省,东莞市,,东莞市三星路湖景大道高科技工业园东侧约260米,,1,0,113.706862,22.931007,13266186081,life,http://api.map.baidu.com/place/detail?uid=e52b68f05322e914b7265519&output=html&source=placeapi_v2,,,,,,,,,,7,,,,,,,,113.70651787738,22.931095581871,0
62b7d4020f00fe5d1f38941e,深圳市深港顺安通汽车租赁有限公司东莞分公司,汽车服务,汽车租赁,广东省,东莞市,,东莞市三星路与鞋业总部二路交叉路口往东南约120米,,1,0,113.707379,22.93076,,life,http://api.map.baidu.com/place/detail?uid=62b7d4020f00fe5d1f38941e&output=html&source=placeapi_v2,,,,,,,,,,5,,,,,,,,,,0
90f83f5fbd304343b020a872,租售高空车,汽车服务,汽车租赁,广东省,东莞市,,东莞市莞长路东莞市三鸟批发市场北侧约120米,90f83f5fbd304343b020a872,1,0,113.788463,22.948717,"(0769)23111102,(0769)23111107",life,http://api.map.baidu.com/place/detail?uid=90f83f5fbd304343b020a872&output=html&source=placeapi_v2,,,,,,,,,,4,,,,,,,,,,0
048f3483f0af15dd0c0e6b78,东莞市祥鑫达泵车租赁有限公司,汽车服务,汽车租赁,广东省,东莞市,,广东省东莞市长坑路8号,,1,0,113.817424,22.939153,13421365900,life,http://api.map.baidu.com/place/detail?uid=048f3483f0af15dd0c0e6b78&output=html&source=placeapi_v2,,00:00-24:00,,,,,,,,,,,,,,,,113.81731877309,22.939059889143,0
63d4759367a8f28e018972b2,押车收车,汽车服务,汽车租赁,广东省,广州市,番禺区,广州市番禺区屏阳大街屏二幼儿园东南侧约220米,,1,0,113.297028,22.964413,15800028718,life,http://api.map.baidu.com/place/detail?uid=63d4759367a8f28e018972b2&output=html&source=placeapi_v2,,,,,,,,,,3,,,,,,,,,,0
9ed759df6e051366f7eafc38,广州市阳轩汽车租赁服务有限公司,汽车服务,汽车租赁,广东省,广州市,番禺区,广东省广州市番禺区钟韦路锦绣趣园13座411号,9ed759df6e051366f7eafc38,1,0,113.311359,22.981333,"(020)31123969,13822168568",life,http://api.map.baidu.com/place/detail?uid=9ed759df6e051366f7eafc38&output=html&source=placeapi_v2,,09:00-20:00,0.0,,,,,,,23,,,,,,,,113.31132453789,22.981515758361,0
9b1de1339e17a51548cc4aab,喜旺租车行,汽车服务,汽车租赁,广东省,广州市,番禺区,广东省广州市番禺区骏业路南区2座33号铺,,1,0,113.317282,22.973339,13570565375,life,http://api.map.baidu.com/place/detail?uid=9b1de1339e17a51548cc4aab&output=html&source=placeapi_v2,,,,,,,,,,4,,,,,,,,113.31731900961,22.97312935926,0
6fd0986317d175c338221caa,一嗨租车(祈福新店),汽车服务,汽车租赁,广东省,广州市,番禺区,广东省广州市番禺区钟屏盆路砖厂路2号锦博智慧小镇A10-2室,6fd0986317d175c338221caa,1,0,113.323079,22.973275,(020)31063737,life,http://api.map.baidu.com/place/detail?uid=6fd0986317d175c338221caa&output=html&source=placeapi_v2,,00:00-24:00,,,,,,,,,,,,,,,,113.32303765033,22.973501240343,0
cd49aedd08e134754d2fdfef,领速新能源(番禺店),汽车服务,汽车租赁,广东省,广州市,番禺区,广东省广州市番禺区迎星东路267号,cd49aedd08e134754d2fdfef,1,0,113.388514,22.975377,19925850626,life,http://api.map.baidu.com/place/detail?uid=cd49aedd08e134754d2fdfef&output=html&source=placeapi_v2,,,,,,,,,,8,,,,,,,,113.3884900286,22.97530237442,0
892783129cf76954220220f4,广州市晔华租赁有限公司,汽车服务,汽车租赁,广东省,广州市,番禺区,广东省广州市番禺区南村镇樟边村高头岗工业区广州市晔华租赁有限公司,,1,0,113.386694,22.981391,,life,http://api.map.baidu.com/place/detail?uid=892783129cf76954220220f4&output=html&source=placeapi_v2,,,,,,,,,,3,,,,,,,,,,0
ca916b8a5874b228276e98d5,广州海滴汽车租赁有限公司,汽车服务,汽车租赁,广东省,广州市,番禺区,广东省广州市番禺区市新路31号,ca916b8a5874b228276e98d5,1,0,113.379287,22.962537,15817077817,life,http://api.map.baidu.com/place/detail?uid=ca916b8a5874b228276e98d5&output=html&source=placeapi_v2,,09:00-21:00,,,,,,,,,,,,,,,,113.37938572292,22.962460896064,0
c2981127b03b54efd4851f4b,神州租车-市桥服务点停车场,汽车服务,汽车租赁,广东省,广州市,番禺区,广东省广州市番禺区东环路228号,,1,0,113.368429,22.961931,,life,http://api.map.baidu.com/place/detail?uid=c2981127b03b54efd4851f4b&output=html&source=placeapi_v2,,,,,,,,,,,,,,,,,,113.36843102736,22.961888571764,0
9aafb8f277f2e6b5acee7a3e,万鑫脚手架,汽车服务,汽车租赁,广东省,广州市,番禺区,广东省广州市番禺区中亿百货商场,9aafb8f277f2e6b5acee7a3e,1,0,113.383591,22.956253,13202052075,life,http://api.map.baidu.com/place/detail?uid=9aafb8f277f2e6b5acee7a3e&output=html&source=placeapi_v2,,,,,,,,,,6,1,,,,,,,113.38368560058,22.956254614978,0
fbe2a5b8470f772bce04ef38,速度出行番禹诚信汽车租赁总代理,汽车服务,汽车租赁,广东省,广州市,番禺区,茶东村下约中街康乐巷2号,,1,0,113.418312,22.963994,18922105352,life,http://api.map.baidu.com/place/detail?uid=fbe2a5b8470f772bce04ef38&output=html&source=placeapi_v2,,00:00-24:00,,,,,,,,3,,,,,,,,,,0
100ed95a3fb72a4beedfca37,庆文网约车中心(九分店),汽车服务,汽车租赁,广东省,广州市,番禺区,广东省广州市番禺区市莲路71号,100ed95a3fb72a4beedfca37,1,0,113.432622,22.959604,"18027316833,18922136190",life,http://api.map.baidu.com/place/detail?uid=100ed95a3fb72a4beedfca37&output=html&source=placeapi_v2,,08:30-17:30,,,,,,,,8,,,,,,,,113.43262316474,22.959560846342,0
bea12222e60e422e8bf15d58,彩色豪车租赁,汽车服务,汽车租赁,广东省,广州市,番禺区,广东省广州市番禺区念慈街3号,bea12222e60e422e8bf15d58,1,0,113.462481,22.960911,15218260277,life,http://api.map.baidu.com/place/detail?uid=bea12222e60e422e8bf15d58&output=html&source=placeapi_v2,,10:00-22:00,5,,,,,,,28,4,,,,,,,113.46252055794,22.960825661972,0
37d32829632771c141e1925e,神州租车(石地铁口停车网点),汽车服务,汽车租赁,广东省,广州市,番禺区,广州市番禺区地铁4号线石站A出口地面停车场,37d32829632771c141e1925e,1,0,113.471784,22.963837,4006166666,life,http://api.map.baidu.com/place/detail?uid=37d32829632771c141e1925e&output=html&source=placeapi_v2,,,,,,,,,,1,,,,,,,,113.47182973566,22.963855931709,0
536b2f1b72218b872102621a,神州租车(石地铁站服务点),汽车服务,汽车租赁,广东省,广州市,番禺区,广州市番禺区市莲路地铁4号线石站B出口停车场内(女子学院西门正对面),536b2f1b72218b872102621a,1,0,113.472333,22.962491,,life,http://api.map.baidu.com/place/detail?uid=536b2f1b72218b872102621a&output=html&source=placeapi_v2,,08:00-21:00,5,,,,,,,7,3,,,,,,,113.47248774804,22.962504261588,0
27ed48f1d53dbc03cc06a426,一嗨租车(石地铁站便捷点),汽车服务,汽车租赁,广东省,广州市,番禺区,广东省广州市番禺区石基镇石地铁站旁停车场(地铁石站B出口),27ed48f1d53dbc03cc06a426,1,0,113.472477,22.962216,(020)87654655,life,http://api.map.baidu.com/place/detail?uid=27ed48f1d53dbc03cc06a426&output=html&source=placeapi_v2,,08:00-21:00,0.0,,,,,,,1,1,,,,,,,113.47235193144,22.962265256177,0
a9dc632934e9797ba2d2306d,广州成锋汽车租赁有限公司,汽车服务,汽车租赁,广东省,广州市,番禺区,广东省广州市番禺区港口大道8号,a9dc632934e9797ba2d2306d,1,0,113.506065,22.974835,(020)31100192,life,http://api.map.baidu.com/place/detail?uid=a9dc632934e9797ba2d2306d&output=html&source=placeapi_v2,,,,,,,,,,6,,,,,,,,,,0
5683b69176f73982d13ce34e,点点汽车租赁有限公司厚街分公司,汽车服务,汽车租赁,广东省,东莞市,,广东省东莞市环区路南1号,5683b69176f73982d13ce34e,1,0,113.703369,22.977048,15999730016,life,http://api.map.baidu.com/place/detail?uid=5683b69176f73982d13ce34e&output=html&source=placeapi_v2,,,,,,,,,,9,,,,,,,,113.70344295246,22.977147231282,0
1f365b0ef3a938ede956facb,龙婕汽修,汽车服务,汽车租赁,广东省,东莞市,,广东省东莞市西环路赤岭段36号,1f365b0ef3a938ede956facb,1,0,113.696099,22.973985,13922927731,life,http://api.map.baidu.com/place/detail?uid=1f365b0ef3a938ede956facb&output=html&source=placeapi_v2,,08:00-22:00,,,,,,,,6,,,,,,,,113.69597195934,22.974004764163,0
da4b7622bee3e91bf4b916eb,网约车服务中心(厚街店),汽车服务,汽车租赁,广东省,东莞市,,广东省东莞市阳明路21号,da4b7622bee3e91bf4b916eb,1,0,113.705637,22.968456,18666887986,life,http://api.map.baidu.com/place/detail?uid=da4b7622bee3e91bf4b916eb&output=html&source=placeapi_v2,,08:00-20:00,,,,,,,,5,,,,,,,,113.70573843296,22.968531916719,0
4338849adb2a529ecf06a4c7,东莞市杰恒汽车租赁服务有限公司,汽车服务,汽车租赁,广东省,东莞市,,广东省东莞市宏图路(乾元智能装备公司旁),4338849adb2a529ecf06a4c7,1,0,113.712898,22.98145,13532999511,life,http://api.map.baidu.com/place/detail?uid=4338849adb2a529ecf06a4c7&output=html&source=placeapi_v2,,,,,,,,,,1,,,,,,,,,,0
602ad1ab5398e59e13293518,雄英汇租车(厚街店),汽车服务,汽车租赁,广东省,东莞市,,广东省东莞市厚街镇厚道路西12号1247室,602ad1ab5398e59e13293518,1,0,113.687796,22.961528,13622606220,life,http://api.map.baidu.com/place/detail?uid=602ad1ab5398e59e13293518&output=html&source=placeapi_v2,,10:00-23:00,,,,,,,,4,,,,,,,,113.6880011086,22.961543867532,0
38405624094756bb276e987f,一嗨租车(万科金域国际店),汽车服务,汽车租赁,广东省,东莞市,,广东省东莞市厚道路万科金域国际花园12栋12-0号,38405624094756bb276e987f,1,0,113.688614,22.960601,(0769)82580017,life,http://api.map.baidu.com/place/detail?uid=38405624094756bb276e987f&output=html&source=placeapi_v2,,00:00-24:00,,,,,,,,9,,,,,,,,113.68878411331,22.960612157106,0
33ea6af7bedbcbc3120daaa4,一嗨ehi(厚道路店),汽车服务,汽车租赁,广东省,东莞市,,东莞市厚道路万科・金域国际,,1,0,113.688589,22.960545,,life,http://api.map.baidu.com/place/detail?uid=33ea6af7bedbcbc3120daaa4&output=html&source=placeapi_v2,,,,,,,,,,4,,,,,,,,,,0
4ebee7910b002b14fb221331,华洋网约车服务中心,汽车服务,汽车租赁,广东省,东莞市,,广东省东莞市新南路11号,,1,0,113.73785,22.971821,(0769)27229081,life,http://api.map.baidu.com/place/detail?uid=4ebee7910b002b14fb221331&output=html&source=placeapi_v2,,,0,,,,,,,10,1,,,,,,,113.73797145102,22.971781761384,0
72176e57b02faf4804026f28,房车销售房车租赁,汽车服务,汽车租赁,广东省,东莞市,,东莞市莞长路东莞市润德汽车用品中心,72176e57b02faf4804026f28,1,0,113.780493,22.988576,,life,http://api.map.baidu.com/place/detail?uid=72176e57b02faf4804026f28&output=html&source=placeapi_v2,,,,,,,,,,1,,,,,,,,,,0
582595dea5f2487c38e4a61d,旺缘租车(广州南站店),汽车服务,汽车租赁,广东省,广州市,番禺区,广东省广州市番禺区南边路3号,582595dea5f2487c38e4a61d,1,0,113.267976,22.995508,17727336589,life,http://api.map.baidu.com/place/detail?uid=582595dea5f2487c38e4a61d&output=html&source=placeapi_v2,,08:00-23:00,0,,,,,,,,0,,,,,,,113.26795181915,22.995430614071,0
06b5151193a3b18eb426559f,神州租车(广州高铁南站服务点),汽车服务,汽车租赁,广东省,广州市,番禺区,广州市番禺区石壁街道南站北路北二广州高铁南站P8停车场A区,06b5151193a3b18eb426559f,1,0,113.273954,22.997663,18922446190,life,http://api.map.baidu.com/place/detail?uid=06b5151193a3b18eb426559f&output=html&source=placeapi_v2,,08:00-22:30,,,,,,,,,,,,,,,,113.27391427167,22.997707132063,0
dedce0391d298b6c95f08c06,广州囱笃车租赁有限公司,汽车服务,汽车租赁,广东省,广州市,番禺区,大石街道大石工业路644号巨大产业园孵化中心11栋403室,,1,0,113.291937,23.02033,(020)39921314,life,http://api.map.baidu.com/place/detail?uid=dedce0391d298b6c95f08c06&output=html&source=placeapi_v2,,,0.0,,,,,,,1,1,,,,,,,,,0
0e2d33ff13719babf4b916cc,创办公设备租赁,,,广东省,广州市,番禺区,广州市番禺区石南二路会江实验学校东侧,0e2d33ff13719babf4b916cc,1,0,113.298871,23.013988,,life,http://api.map.baidu.com/place/detail?uid=0e2d33ff13719babf4b916cc&output=html&source=placeapi_v2,,,,,,,,,,4,,,,,,,,,,0
2159c0d012ca025578f79658,金诚月租长租,汽车服务,汽车租赁,广东省,广州市,番禺区,广州市番禺区南大路植村幼儿园西北侧约40米,2159c0d012ca025578f79658,1,0,113.330969,23.017787,18666072558,life,http://api.map.baidu.com/place/detail?uid=2159c0d012ca025578f79658&output=html&source=placeapi_v2,,,,,,,,,,11,,,,,,,,113.33109922004,23.017794376754,0
97f2857f6ff550911df74d79,一嗨租车(华南碧桂园店),汽车服务,汽车租赁,广东省,广州市,番禺区,广东省广州市番禺区商业一街3号,97f2857f6ff550911df74d79,1,0,113.356239,23.002745,4008886608,life,http://api.map.baidu.com/place/detail?uid=97f2857f6ff550911df74d79&output=html&source=placeapi_v2,,00:00-24:00,5,,,,,,,18,3,,,,,,,113.35612424996,23.002715749053,0
bb7f982db21197da250bd07d,一速有车网约车服务中心(番禺店),汽车服务,汽车租赁,广东省,广州市,番禺区,广东省广州市番禺区番禺大道107~109号和缘广场a座107号,bb7f982db21197da250bd07d,1,0,113.342071,23.024015,13726774585,life,http://api.map.baidu.com/place/detail?uid=bb7f982db21197da250bd07d&output=html&source=placeapi_v2,,09:00-18:00,0.0,,,,,,,4,,,,,,,,113.342088,23.023904009173,0
338b9ba9a4a466c0ca09f039,永合力叉车租赁公司,汽车服务,汽车租赁,广东省,广州市,番禺区,广东省广州市番禺区南里路8号,338b9ba9a4a466c0ca09f039,1,0,113.381861,22.996535,18655250483,life,http://api.map.baidu.com/place/detail?uid=338b9ba9a4a466c0ca09f039&output=html&source=placeapi_v2,,,0.0,,,,,,,3,1,,,,,,,113.38184741598,22.99679839414,0
1d2e27911de32178b5147fb7,一嗨租车(员岗地铁站E出口便捷点),汽车服务,汽车租赁,广东省,广州市,番禺区,广东省广州市番禺区兴南大道476号,1d2e27911de32178b5147fb7,1,0,113.373863,23.022662,(020)34767107,life,http://api.map.baidu.com/place/detail?uid=1d2e27911de32178b5147fb7&output=html&source=placeapi_v2,,00:00-24:00,,,,,,,,0,,,,,,,,,,0
4271d794e0da7b5776e5b662,广东玖隆网约车服务有限公司(广州分公司),汽车服务,汽车租赁,广东省,广州市,番禺区,广州市番禺区南村镇员岗村员岗中路2号122~123铺,4271d794e0da7b5776e5b662,1,0,113.370593,23.022517,13046820888,life,http://api.map.baidu.com/place/detail?uid=4271d794e0da7b5776e5b662&output=html&source=placeapi_v2,,09:00-20:00,,,,,,,,3,1,,,,,,,113.3704759872,23.022477556009,0
1ab6928d9ac1679ee115f9ca,广州鸿雨燕新能源科技有限公司,汽车服务,汽车租赁,广东省,广州市,番禺区,南村东兴路7号之二101号,1ab6928d9ac1679ee115f9ca,1,0,113.405118,23.008113,18924067388,life,http://api.map.baidu.com/place/detail?uid=1ab6928d9ac1679ee115f9ca&output=html&source=placeapi_v2,,,,,,,,,,9,,,,,,,,113.40519345811,23.007805925467,0
8cf6b850952b02345d0d024d,叉车出租,汽车服务,汽车租赁,广东省,广州市,番禺区,广东省广州市番禺区永宁大道东23号,8cf6b850952b02345d0d024d,1,0,113.410415,22.995971,18200668568,life,http://api.map.baidu.com/place/detail?uid=8cf6b850952b02345d0d024d&output=html&source=placeapi_v2,,,5.0,,,,,,,7,4,,,,,,,113.41046675579,22.995863822737,0
21fb05891c642bd9d13ce356,东莞市金顺吊车租赁有限公司,汽车服务,汽车租赁,广东省,东莞市,,东莞市商业街聚兴楼东北侧约230米,,1,0,113.618909,23.004285,15655216571,life,http://api.map.baidu.com/place/detail?uid=21fb05891c642bd9d13ce356&output=html&source=placeapi_v2,,,,,,,,,,2,,,,,,,,,,0
385f34478e7c0585601c67da,东莞市胜丰汽车租赁有限公司,汽车服务,汽车租赁,广东省,东莞市,,广东省东莞市虎斗沿河路3号,385f34478e7c0585601c67da,1,0,113.703491,23.017794,,life,http://api.map.baidu.com/place/detail?uid=385f34478e7c0585601c67da&output=html&source=placeapi_v2,,,,,,,,,,,,,,,,,,,,0
a430308bb5749460adcb6648,浩顺租车,汽车服务,汽车租赁,广东省,东莞市,,东莞市白马中心路南城街道阳光第五小学东北侧,a430308bb5749460adcb6648,1,0,113.716548,22.996715,"13824490283,13922529323",life,http://api.map.baidu.com/place/detail?uid=a430308bb5749460adcb6648&output=html&source=placeapi_v2,,,,,,,,,,2,,,,,,,,113.7164903073,22.996640580664,0
3da33f0f0f4e2c44a6da39f1,小黄鸭租车,汽车服务,汽车租赁,广东省,东莞市,,广东省东莞市莞太路南城路段88号,,1,0,113.741968,23.01281,15377777000,life,http://api.map.baidu.com/place/detail?uid=3da33f0f0f4e2c44a6da39f1&output=html&source=placeapi_v2,,08:00-22:00,,,,,,,,11,1,,,,,,,113.74218051089,23.012901116899,0
eafe0448e08399c1c9fa5fac,DD出行运营总部,汽车服务,汽车租赁,广东省,东莞市,,广东省东莞市南城区三元里11号万平写字楼216室,,1,0,113.749611,23.012731,13798821550,life,http://api.map.baidu.com/place/detail?uid=eafe0448e08399c1c9fa5fac&output=html&source=placeapi_v2,,,,,,,,,,3,,,,,,,,,,0
3bc73cdf8a83085b02294fcd,天下行租车(东莞南城店),汽车服务,汽车租赁,广东省,东莞市,,广东省东莞市红棉路3号,3bc73cdf8a83085b02294fcd,1,0,113.749484,23.01991,,life,http://api.map.baidu.com/place/detail?uid=3bc73cdf8a83085b02294fcd&output=html&source=placeapi_v2,,10:00-22:00,5,,,,,,,26,13,,,,,,,113.74945215296,23.019774393994,0
2235a6c39d46064ba5da3991,东莞市鑫程汽车租赁有限公司,汽车服务,汽车租赁,广东省,东莞市,,东莞市众利北二路万科金悦香树,,1,0,113.734222,22.995141,,life,http://api.map.baidu.com/place/detail?uid=2235a6c39d46064ba5da3991&output=html&source=placeapi_v2,,,,,,,,,,5,,,,,,,,113.73400018429,22.994863693015,0
a01f767f8620d346725e80e1,雄英汇汽车租赁(南城73分店),汽车服务,汽车租赁,广东省,东莞市,,广东省东莞市鸿福西路77号天诚康桥117室,a01f767f8620d346725e80e1,1,0,113.744534,23.023985,13652500989,life,http://api.map.baidu.com/place/detail?uid=a01f767f8620d346725e80e1&output=html&source=placeapi_v2,,08:00-22:00,,,,,,,,3,1,,,,,,,113.74452211308,23.023924520367,0
7d26135d45a0512e63180991,安吉汽车租赁(元美路店),汽车服务,汽车租赁,广东省,东莞市,,东莞市第一国际百安中心A座906室,7d26135d45a0512e63180991,1,0,113.759717,23.010952,,life,http://api.map.baidu.com/place/detail?uid=7d26135d45a0512e63180991&output=html&source=placeapi_v2,,08:00-21:00,,,,,,,,,,,,,,,,,,0
3a3d3e57b90e083ec356ac97,华胜租车,汽车服务,汽车租赁,广东省,东莞市,,广东省东莞市金丰路明景居b8,3a3d3e57b90e083ec356ac97,1,0,113.731566,23.024025,13650004333,life,http://api.map.baidu.com/place/detail?uid=3a3d3e57b90e083ec356ac97&output=html&source=placeapi_v2,,10:00-22:00,5,,,,,,,22,2,,,,,,,113.7316050377,23.024045026049,0
0fd9c9f4b300507b4c2fdf27,东胜学车租车,汽车服务,汽车租赁,广东省,东莞市,,东莞市新科路金丰花园,,1,0,113.730838,23.023229,"13694907666,18312383232",life,http://api.map.baidu.com/place/detail?uid=0fd9c9f4b300507b4c2fdf27&output=html&source=placeapi_v2,,,,,,,,,,1,,,,,,,,,,0
caf3df7eb7c00a9b7adbd2fc,仲利国际租赁有限公司,汽车服务,汽车租赁,广东省,东莞市,,广东省东莞市东莞大道11号,caf3df7eb7c00a9b7adbd2fc,1,0,113.766667,23.015687,(0769)88055688,life,http://api.map.baidu.com/place/detail?uid=caf3df7eb7c00a9b7adbd2fc&output=html&source=placeapi_v2,,08:30-20:00,,,,,,,,,,,,,,,,,,0
4e54687bbf62ebf7b6147f11,广州市卡来驿汽车租赁有限公司,汽车服务,汽车租赁,广东省,广州市,番禺区,广东省广州市番禺区沿沙路15号,4e54687bbf62ebf7b6147f11,1,0,113.300763,23.044285,13794428085,life,http://api.map.baidu.com/place/detail?uid=4e54687bbf62ebf7b6147f11&output=html&source=placeapi_v2,,08:00-20:00,,,,,,,,,,,,,,,,,,0
735913b50289262ba90dd84a,安品网约车招募中心,汽车服务,汽车租赁,广东省,广州市,番禺区,广东省广州市番禺区吉祥北道292号,735913b50289262ba90dd84a,1,0,113.303874,23.050761,13533530430,life,http://api.map.baidu.com/place/detail?uid=735913b50289262ba90dd84a&output=html&source=placeapi_v2,,10:00-22:00,,,,,,,,5,,,,,,,,113.30382506489,23.050677775933,0
be00e48201ac70a5c61b7556,神州租车(东海花园店),汽车服务,汽车租赁,广东省,广州市,番禺区,105国道东海花园底商,be00e48201ac70a5c61b7556,1,0,113.319868,23.039934,4006166666,life,http://api.map.baidu.com/place/detail?uid=be00e48201ac70a5c61b7556&output=html&source=placeapi_v2,,09:00-20:00,4,,,,,,,14,,,,,,,,113.31979593074,23.040010603867,0
5faac176c0b02c2bb817e76b,广裕租车(东风日产明珠专营店),汽车服务,汽车租赁,广东省,广州市,番禺区,广东省广州市番禺区迎宾路111号东风日产明珠专营店二楼,5faac176c0b02c2bb817e76b,1,0,113.332019,23.041875,(020)31197038,life,http://api.map.baidu.com/place/detail?uid=5faac176c0b02c2bb817e76b&output=html&source=placeapi_v2,,09:00-18:00,5,,,,,,,1,1,,,,,,,113.33196777367,23.041668511594,0
8dbba121b9d1855b16a19088,雄英汇汽车租赁(番禺店),汽车服务,汽车租赁,广东省,广州市,番禺区,广州市番禺区厦蚰下菲裘未匆倒愠《侧约50米,8dbba121b9d1855b16a19088,1,0,113.327086,23.043209,18819806620,life,http://api.map.baidu.com/place/detail?uid=8dbba121b9d1855b16a19088&output=html&source=placeapi_v2,,08:00-22:00,,,,,,,,,,,,,,,,113.32710292832,23.043236473858,0
10446c78f2953d79c03644b0,证程网约车,汽车服务,汽车租赁,广东省,广州市,番禺区,广东省广州市番禺区迎宾路198号五洲城B座409号,,1,0,113.327362,23.039924,,life,http://api.map.baidu.com/place/detail?uid=10446c78f2953d79c03644b0&output=html&source=placeapi_v2,,09:30-18:00,,,,,,,,,,,,,,,,113.32753882209,23.039929150557,0
87fac0940f8dfc5abca8227b,广州牛跑汽车租赁有限公司,汽车服务,汽车租赁,广东省,广州市,番禺区,广东省广州市番禺区朝阳东路373号,87fac0940f8dfc5abca8227b,1,0,113.328671,23.033073,18565554625,life,http://api.map.baidu.com/place/detail?uid=87fac0940f8dfc5abca8227b&output=html&source=placeapi_v2,,00:00-24:00,,,,,,,,,,,,,,,,,,0
e7e5715a8c866290deee8bd1,幸福叮咚共享汽车,汽车服务,汽车租赁,广东省,广州市,番禺区,广东省广州市番禺区同丰新街9-2号,e7e5715a8c866290deee8bd1,1,0,113.4945,23.048241,,life,http://api.map.baidu.com/place/detail?uid=e7e5715a8c866290deee8bd1&output=html&source=placeapi_v2,,09:00-18:30,0.0,,,,,,,2,0,,,,,,,113.4943557614,23.048121869002,0
9393bb82ff7afcbeaeb22ae4,华智租车,汽车服务,汽车租赁,广东省,东莞市,,东莞市中心大道东莞恒生商务酒店南侧约40米,9393bb82ff7afcbeaeb22ae4,1,0,113.585155,23.042592,(0769)33327000,life,http://api.map.baidu.com/place/detail?uid=9393bb82ff7afcbeaeb22ae4&output=html&source=placeapi_v2,,00:00-24:00,0,,,,,,,7,1,,,,,,,113.58513883691,23.042463533966,0
8782509983ac34aa8505bf5b,安通汽车租赁服务,汽车服务,汽车租赁,广东省,东莞市,,东莞市古梅路麻四村文化广场西北侧约130米,,1,0,113.579755,23.050429,"13809621901,18929413278",life,http://api.map.baidu.com/place/detail?uid=8782509983ac34aa8505bf5b&output=html&source=placeapi_v2,,,,,,,,,,9,,,,,,,,113.57964346912,23.050439430494,0
52b9fe9d28329b30aecb662b,东莞市悦豪商旅汽车租赁有限公司,汽车服务,汽车租赁,广东省,东莞市,,东莞市创兴二路乐怡幼儿园西侧约110米,,1,0,113.591755,23.051629,13686083520,life,http://api.map.baidu.com/place/detail?uid=52b9fe9d28329b30aecb662b&output=html&source=placeapi_v2,,,,,,,,,,4,,,,,,,,113.59161366672,23.05150707387,0
31386f02a81ad873b817e747,冀粤吊车租赁有限公司,汽车服务,汽车租赁,广东省,东莞市,,东莞市麻涌镇麻二村,31386f02a81ad873b817e747,1,0,113.577437,23.058405,15081741441,life,http://api.map.baidu.com/place/detail?uid=31386f02a81ad873b817e747&output=html&source=placeapi_v2,,,,,,,,,,,,,,,,,,,,0
b2f91e2e5bc2b0fde4e96591,东莞佰达租赁,汽车服务,汽车租赁,广东省,东莞市,,广东省东莞市镇中路71号富盈四季华庭2栋116室,b2f91e2e5bc2b0fde4e96591,1,0,113.657802,23.053234,,life,http://api.map.baidu.com/place/detail?uid=b2f91e2e5bc2b0fde4e96591&output=html&source=placeapi_v2,,,,,,,,,,6,,,,,,,,,,0
77a9eaf4a50b979a7ab55c55,东莞市创胜汽车租赁有限公司,汽车服务,汽车租赁,广东省,东莞市,,东莞市万道路龙苑酒店(万江路店)北侧约60米,77a9eaf4a50b979a7ab55c55,1,0,113.715691,23.037624,,life,http://api.map.baidu.com/place/detail?uid=77a9eaf4a50b979a7ab55c55&output=html&source=placeapi_v2,,,,,,,,,,2,,,,,,,,,,0
b4444775dd66f532fda778cc,便民汽车信息服务部,汽车服务,汽车租赁,广东省,东莞市,,东莞市汾溪路万江第一小学北侧约30米,b4444775dd66f532fda778cc,1,0,113.688679,23.050933,13380196890,life,http://api.map.baidu.com/place/detail?uid=b4444775dd66f532fda778cc&output=html&source=placeapi_v2,,,,,,,,,,4,,,,,,,,113.6887446181,23.050856539533,0
d24209651bac56b1223bf239,裕安租车,汽车服务,汽车租赁,广东省,东莞市,,广东省东莞市万江街道金曲路25号118室,d24209651bac56b1223bf239,1,0,113.737484,23.039925,13794892922,life,http://api.map.baidu.com/place/detail?uid=d24209651bac56b1223bf239&output=html&source=placeapi_v2,,,,,,,,,,6,,,,,,,,113.7375669683,23.039862115281,0
658df08689004fa7fc0eb097,瑞卡便利租车(东莞万江店),汽车服务,汽车租赁,广东省,东莞市,,东莞市万道路盛世华南,,1,0,113.731748,23.043299,,life,http://api.map.baidu.com/place/detail?uid=658df08689004fa7fc0eb097&output=html&source=placeapi_v2,,09:00-22:00,,,,,,,,4,,,,,,,,,,0
ce0f3ba1f8716eb9018972d4,东莞市新莞汽车租赁服务有限公司,汽车服务,汽车租赁,广东省,东莞市,,广东省东莞市坝翔小区商铺14号,ce0f3ba1f8716eb9018972d4,1,0,113.735936,23.032562,15820862872,life,http://api.map.baidu.com/place/detail?uid=ce0f3ba1f8716eb9018972d4&output=html&source=placeapi_v2,,,,,,,,,,7,,,,,,,,113.73586621367,23.032578117266,0
3dcbc12c1df6772d21f0170b,一吨半货车出租,汽车服务,汽车租赁,广东省,东莞市,,东莞市豪岗村大围一巷南城蚝岗综合市场北侧约40米,,1,0,113.75012,23.033845,"13106890108,13268722103",life,http://api.map.baidu.com/place/detail?uid=3dcbc12c1df6772d21f0170b&output=html&source=placeapi_v2,,,,,,,,,,5,,,,,,,,113.7498867608,23.034016407393,0
05cd428287c0eea4babd6388,百顺公寓租赁中心,汽车服务,汽车租赁,广东省,东莞市,,广东省东莞市曲海大道81号,05cd428287c0eea4babd6388,1,0,113.729337,23.037358,18680064255,life,http://api.map.baidu.com/place/detail?uid=05cd428287c0eea4babd6388&output=html&source=placeapi_v2,,,,,,,,,,3,,,,,,,,,,0
634809f9296a420b102935a1,华宇通租车,汽车服务,汽车租赁,广东省,东莞市,,东莞市莞太路宏远时代广场(莞太路),634809f9296a420b102935a1,1,0,113.752349,23.034904,"(0769)22210812,13510801205",life,http://api.map.baidu.com/place/detail?uid=634809f9296a420b102935a1&output=html&source=placeapi_v2,,,,,,,,,,7,,,,,,,,113.75242116585,23.034878011517,0
298f034dd67e5e1c8a36ee76,东营汽车租赁服务公司,汽车服务,汽车租赁,广东省,东莞市,,广东省东莞市南城区建设路1楼,298f034dd67e5e1c8a36ee76,1,0,113.748011,23.031067,,life,http://api.map.baidu.com/place/detail?uid=298f034dd67e5e1c8a36ee76&output=html&source=placeapi_v2,,,,,,,,,,4,,,,,,,,113.74800113624,23.030994619545,0
5d0d6b4867e95cd60a69d9e3,明安出行,汽车服务,汽车租赁,广东省,东莞市,,东莞市金鳌路桃园又一居北侧约150米,5d0d6b4867e95cd60a69d9e3,1,0,113.728543,23.050329,,life,http://api.map.baidu.com/place/detail?uid=5d0d6b4867e95cd60a69d9e3&output=html&source=placeapi_v2,,,,,,,,,,4,,,,,,,,113.7285944656,23.050321208477,0
f11bc7e3644e33bea11de97b,好运租赁,汽车服务,汽车租赁,广东省,东莞市,,东莞市厚德路东莞市汽车客运总站东南侧约100米,f11bc7e3644e33bea11de97b,1,0,113.726832,23.035675,,life,http://api.map.baidu.com/place/detail?uid=f11bc7e3644e33bea11de97b&output=html&source=placeapi_v2,,,,,,,,,,1,,,,,,,,,,0
1b6d119926a37df15b10939a,一嗨租车(天宝地铁站店),汽车服务,汽车租赁,广东省,东莞市,,广东省东莞市东城中路422号格兰名筑9幢5号,1b6d119926a37df15b10939a,1,0,113.785725,23.050406,(0769)22294432,life,http://api.map.baidu.com/place/detail?uid=1b6d119926a37df15b10939a&output=html&source=placeapi_v2,,10:00-22:00,,,,,,,,15,,,,,,,,113.78565068219,23.050410054364,0
da8c5e2141027c8bb35c6ae5,泰丰租赁(东莞分公司),汽车服务,汽车租赁,广东省,东莞市,,广东省东莞市东宝路157号b栋2楼,da8c5e2141027c8bb35c6ae5,1,0,113.792512,23.046027,,life,http://api.map.baidu.com/place/detail?uid=da8c5e2141027c8bb35c6ae5&output=html&source=placeapi_v2,,,,,,,,,,1,,,,,,,,,,0
55e5441f481c8ae0ab175a11,顺路汽车租赁服务有限公司,汽车服务,汽车租赁,广东省,东莞市,,广东省东莞市平岗环街1室号118号,55e5441f481c8ae0ab175a11,1,0,113.799965,23.043745,,life,http://api.map.baidu.com/place/detail?uid=55e5441f481c8ae0ab175a11&output=html&source=placeapi_v2,,,,,,,,,,4,,,,,,,,113.79994118326,23.043635483583,0
7fe0ce5412e7c3be4afd3f7f,银城客运出租有限公司,汽车服务,汽车租赁,广东省,东莞市,,广东东莞市莞城区金牛路65号3楼,7fe0ce5412e7c3be4afd3f7f,1,0,113.763838,23.040677,,life,http://api.map.baidu.com/place/detail?uid=7fe0ce5412e7c3be4afd3f7f&output=html&source=placeapi_v2,,,,,,,,,,,,,,,,,,,,0
597d529a66dcff3843ab9a0c,皇家租车(嘉强工商业大厦A栋北),汽车服务,汽车租赁,广东省,东莞市,,东莞市环城东路新世纪星城-海涛居东北侧约80米,597d529a66dcff3843ab9a0c,1,0,113.813536,23.047411,13549379798,life,http://api.map.baidu.com/place/detail?uid=597d529a66dcff3843ab9a0c&output=html&source=placeapi_v2,,,,,,,,,,7,,,,,,,,113.81361977738,23.047430562787,0
c5b866dc71d10eeaca09f0fc,东莞市厚佳设备租赁有限公司(寮步分公司),汽车服务,汽车租赁,广东省,东莞市,,广东省东莞市横中二路2号翠湖花园8号铺,c5b866dc71d10eeaca09f0fc,1,0,113.820108,23.032656,(0769)82850500,life,http://api.map.baidu.com/place/detail?uid=c5b866dc71d10eeaca09f0fc&output=html&source=placeapi_v2,,,,,,,,,,4,,,,,,,,113.82036191147,23.032697183174,0
912525ec1b96b77249fd3f3d,雄英汇汽车租赁(东莞东城店),汽车服务,汽车租赁,广东省,东莞市,,广东省东莞市寮步镇横坑横中二路2号136室,,1,0,113.819637,23.03073,13826958282,life,http://api.map.baidu.com/place/detail?uid=912525ec1b96b77249fd3f3d&output=html&source=placeapi_v2,,08:00-22:00,,,,,,,,9,1,,,,,,,113.81963641029,23.030534987085,0
1cea15a9dd9a06c507fef51a,新里程汽车租赁有限公司,汽车服务,汽车租赁,广东省,东莞市,,东莞市寮城中路怡丰・翠云轩东北侧约110米,1cea15a9dd9a06c507fef51a,1,0,113.817014,23.029764,(0769)83223333,life,http://api.map.baidu.com/place/detail?uid=1cea15a9dd9a06c507fef51a&output=html&source=placeapi_v2,,,3,,,,,,,13,2,,,,,,,113.81686602891,23.0299985976,0
b79f5a98ba40ac3ef32d8350,东莞市常林汽车租赁有限公司,汽车服务,汽车租赁,广东省,东莞市,,广东省东莞市银贵路1号联纵大厦1楼,b79f5a98ba40ac3ef32d8350,1,0,113.816967,23.058337,(0769)23060056,life,http://api.map.baidu.com/place/detail?uid=b79f5a98ba40ac3ef32d8350&output=html&source=placeapi_v2,,09:00-18:00,5,,,,,,,6,2,,,,,,,113.8171828415,23.058131425707,0
d545bcc08ad7868f4251c044,国信租车,汽车服务,汽车租赁,广东省,东莞市,,广东省东莞市环城路鼎好广场b区6栋2楼B5-B7号室,d545bcc08ad7868f4251c044,1,0,113.812374,23.056626,13723590990,life,http://api.map.baidu.com/place/detail?uid=d545bcc08ad7868f4251c044&output=html&source=placeapi_v2,,10:00-22:00,5.0,,,,,,,3,1,,,,,,,113.8124118583,23.05648575588,0
7b3535dcd0ba04aef4e73bb9,东莞市汽车租赁有限公司,汽车服务,汽车租赁,广东省,东莞市,,广东省东莞市平岗抠街118号,,1,0,113.807532,23.032881,,life,http://api.map.baidu.com/place/detail?uid=7b3535dcd0ba04aef4e73bb9&output=html&source=placeapi_v2,,,,,,,,,,3,,,,,,,,,,0
7f8830de9055eb4972210ba6,安安网约车运营,汽车服务,汽车租赁,广东省,东莞市,,寮步镇莞樟路横坑段万丰大厦,7f8830de9055eb4972210ba6,1,0,113.810377,23.033623,(0769)23225582,life,http://api.map.baidu.com/place/detail?uid=7f8830de9055eb4972210ba6&output=html&source=placeapi_v2,,00:00-24:00,,,,,,,,4,,,,,,,,113.81037890849,23.033437318997,0
fbc7ffcf1ccd460d15a19080,广州中车铁路机车车辆销售租赁有限公司,汽车服务,汽车租赁,广东省,广州市,海珠区,广东广州市海珠区南边路38号,fbc7ffcf1ccd460d15a19080,1,0,113.269429,23.084449,,life,http://api.map.baidu.com/place/detail?uid=fbc7ffcf1ccd460d15a19080&output=html&source=placeapi_v2,,,,,,,,,,6,,,,,,,,113.26953918877,23.084512847771,0
6411dacf0c771b3cf8221337,一嗨租车(沙园地铁站店),汽车服务,汽车租赁,广东省,广州市,海珠区,广东省广州市海珠区工业大道北118-6号,6411dacf0c771b3cf8221337,1,0,113.268725,23.092,4008886608,life,http://api.map.baidu.com/place/detail?uid=6411dacf0c771b3cf8221337&output=html&source=placeapi_v2,,08:00-21:00,1.4,,,,,,,7,7,,,,,,,113.26874422702,23.092015819874,0
ae2e373281aad626223bf28d,一嗨租车(东晓南尚领雅筑店),汽车服务,汽车租赁,广东省,广州市,海珠区,广东广州市海珠区东晓南路尚领二街15号,,1,0,113.294317,23.078425,4008886608,life,http://api.map.baidu.com/place/detail?uid=ae2e373281aad626223bf28d&output=html&source=placeapi_v2,,08:00-21:00,,,,,,,,4,1,,,,,,,,,0
b0cb0ccf28466f9330169bd8,广州市柏祥汽车出租有限公司,汽车服务,汽车租赁,广东省,广州市,海珠区,广东省广州市海珠区广州大道南1542号广龙汽修厂二楼,b0cb0ccf28466f9330169bd8,1,0,113.317597,23.076154,(020)84226258,life,http://api.map.baidu.com/place/detail?uid=b0cb0ccf28466f9330169bd8&output=html&source=placeapi_v2,,08:30-17:00,,,,,,,,1,,,,,,,,113.31758946335,23.076591975014,0
f405a224722e400e8605bfb1,广州市白云出租汽车集团有限公司(泰沙路),汽车服务,汽车租赁,广东省,广州市,海珠区,广东省广州市海珠区泰沙路129-137号2楼,f405a224722e400e8605bfb1,1,0,113.292214,23.089983,(020)84086722,life,http://api.map.baidu.com/place/detail?uid=f405a224722e400e8605bfb1&output=html&source=placeapi_v2,,,5,,,,,,,7,1,,,,,,,113.29207252851,23.089981253878,0
63623c55e52e59abc056ac83,广州市宝捷行汽车租赁有限公司,汽车服务,汽车租赁,广东省,广州市,海珠区,广东省广州市海珠区九亩田二街1号4楼401室,,1,0,113.374756,23.085627,(020)84411255,life,http://api.map.baidu.com/place/detail?uid=63623c55e52e59abc056ac83&output=html&source=placeapi_v2,,09:30-18:30,,,,,,,,,,,,,,,,,,0
006a6bd2428a4a5eda2f280c,广州市白云出租汽车集团有限公司(出租汽车第五分公司),汽车服务,汽车租赁,广东省,广州市,海珠区,广东省广州市海珠区仑头路九亩田二街3号,006a6bd2428a4a5eda2f280c,1,0,113.374618,23.085761,(020)84082075,life,http://api.map.baidu.com/place/detail?uid=006a6bd2428a4a5eda2f280c&output=html&source=placeapi_v2,,08:30-17:00,,,,,,,,1,,,,,,,,,,0
1bb5a26b6e6484325e0d02a7,广州广来汽车租赁有限公司,汽车服务,汽车租赁,广东省,广州市,黄埔区,广州市黄埔区东晖路西四栋,,1,0,113.529615,23.075531,13602428689,life,http://api.map.baidu.com/place/detail?uid=1bb5a26b6e6484325e0d02a7&output=html&source=placeapi_v2,,,,,,,,,,5,,,,,,,,113.52972471091,23.075516530593,0
8871af6c17726fbd1ce9998a,广发叉车出租,汽车服务,汽车租赁,广东省,广州市,黄埔区,广州市黄埔区鹿步大路南屏苑社区东侧约70米,,1,0,113.540507,23.09507,13660547308,life,http://api.map.baidu.com/place/detail?uid=8871af6c17726fbd1ce9998a&output=html&source=placeapi_v2,,,,,,,,,,30,16,,,,,,,,,0
687103f8c1a949c716c905c7,红大地盘扣租赁东莞基地,汽车服务,汽车租赁,广东省,东莞市,,东莞市长丰东路华阳湖1号北侧约130米,,1,0,113.572739,23.08379,,life,http://api.map.baidu.com/place/detail?uid=687103f8c1a949c716c905c7&output=html&source=placeapi_v2,,,,,,,,,,1,,,,,,,,,,0
fb02d0fd03009d19a5da39c8,闽商盘扣东莞租赁基地,汽车服务,汽车租赁,广东省,东莞市,,东莞市长丰东路华阳湖1号北侧约170米,,1,0,113.572957,23.084119,,life,http://api.map.baidu.com/place/detail?uid=fb02d0fd03009d19a5da39c8&output=html&source=placeapi_v2,,,,,,,,,,2,,,,,,,,,,0
f766188d3071063114b54b59,合顺旅游汽车租赁有限公司,汽车服务,汽车租赁,广东省,东莞市,,广东省东莞市万江企石东路1号,f766188d3071063114b54b59,1,0,113.711788,23.067051,"(0769)23293808,(0769)23296833",life,http://api.map.baidu.com/place/detail?uid=f766188d3071063114b54b59&output=html&source=placeapi_v2,,,0.0,,,,,,,22,1,,,,,,,113.71167333624,23.067111151184,0
29808f997c913ae896f08c69,东莞市豪程旅游汽车租赁有限公司,汽车服务,汽车租赁,广东省,东莞市,,东莞市汾溪路94号,29808f997c913ae896f08c69,1,0,113.713087,23.064954,(0769)23292333,life,http://api.map.baidu.com/place/detail?uid=29808f997c913ae896f08c69&output=html&source=placeapi_v2,,10:00-22:00,0.0,,,,,,,18,,,,,,,,113.71300034278,23.064730486816,0
ff7ad5745551580fadcb667f,东莞市豪程旅游汽车租赁有限公司-南门,汽车服务,汽车租赁,广东省,东莞市,,东莞市振兴南路东莞市豪程旅游汽车租赁有限公司,ff7ad5745551580fadcb667f,1,0,113.713078,23.06474,,life,http://api.map.baidu.com/place/detail?uid=ff7ad5745551580fadcb667f&output=html&source=placeapi_v2,,,,,,,,,,,,,,,,,,113.71301045051,23.064712170879,0
015d83af7c46f0e8c4f02571,东莞宏运汽车租赁有限公司,汽车服务,汽车租赁,广东省,东莞市,,东莞市沿江南路与莞潢南路交叉路口往西约80米,015d83af7c46f0e8c4f02571,1,0,113.754903,23.074774,"(0769)87605888,13925715888",life,http://api.map.baidu.com/place/detail?uid=015d83af7c46f0e8c4f02571&output=html&source=placeapi_v2,,,,,,,,,,,,,,,,,,,,0
e85a9d4d735256f25cbe86a1,仁致租赁,汽车服务,汽车租赁,广东省,东莞市,,东莞市创兴路廉商智造产业园东侧约90米,e85a9d4d735256f25cbe86a1,1,0,113.746678,23.092264,,life,http://api.map.baidu.com/place/detail?uid=e85a9d4d735256f25cbe86a1&output=html&source=placeapi_v2,,,,,,,,,,2,,,,,,,,,,0
53773ff1ab0d5f3c2802e17c,东莞市鑫华汽车租赁(富丽华公寓东北),汽车服务,汽车租赁,广东省,东莞市,,东莞市龙福路石美公寓东侧约190米,53773ff1ab0d5f3c2802e17c,1,0,113.73726,23.06136,13556628318,life,http://api.map.baidu.com/place/detail?uid=53773ff1ab0d5f3c2802e17c&output=html&source=placeapi_v2,,10:00-22:00,,,,,,,,9,,,,,,,,113.73740784965,23.061347886374,0
7a07b127ef64f671b5f42f36,奇源汽车租赁公司,汽车服务,汽车租赁,广东省,东莞市,,广东省东莞市育才路9号,7a07b127ef64f671b5f42f36,1,0,113.727121,23.088871,"(0769)88708658,13712712268",life,http://api.map.baidu.com/place/detail?uid=7a07b127ef64f671b5f42f36&output=html&source=placeapi_v2,,10:00-22:00,0.0,,,,,,,12,,,,,,,,113.72704839917,23.089087958262,0
9286cc6cdf96059203ff2d5d,鸿鑫汽车租赁服务有限公司,汽车服务,汽车租赁,广东省,东莞市,,广东省东莞市科技中路414号,9286cc6cdf96059203ff2d5d,1,0,113.776021,23.090661,"(0769)89783798,13728292339",life,http://api.map.baidu.com/place/detail?uid=9286cc6cdf96059203ff2d5d&output=html&source=placeapi_v2,,08:00-22:00,1,,,,,,,17,3,,,,,,,,,0
ad10489067576ec3a7c75678,翔顺汽车租赁服务,汽车服务,汽车租赁,广东省,东莞市,,广东省东莞市王新路29号,ad10489067576ec3a7c75678,1,0,113.826744,23.072457,13827220306,life,http://api.map.baidu.com/place/detail?uid=ad10489067576ec3a7c75678&output=html&source=placeapi_v2,,,,,,,,,,6,,,,,,,,,,0
2d59a7bd5dae51a8df1e521e,莞源汽车信息服务部,汽车服务,汽车租赁,广东省,东莞市,,东莞市裕高道东莞东城美尔敦塑胶电子厂-生活区南侧约80米,2d59a7bd5dae51a8df1e521e,1,0,113.816895,23.065329,,life,http://api.map.baidu.com/place/detail?uid=2d59a7bd5dae51a8df1e521e&output=html&source=placeapi_v2,,,,,,,,,,3,,,,,,,,113.81714474706,23.065398655875,0
793620da3600eb8b82a12e5c,海运汽车出租公司,汽车服务,汽车租赁,广东省,广州市,海珠区,广东省广州市海珠区洪德路2~6号904房,793620da3600eb8b82a12e5c,1,0,113.25791,23.110834,,life,http://api.map.baidu.com/place/detail?uid=793620da3600eb8b82a12e5c&output=html&source=placeapi_v2,,,,,,,,,,,,,,,,,,113.25829172916,23.1106940712,0
644cd4369ade71174e776e6d,广州蓝海豚出租汽车有限公司,汽车服务,汽车租赁,广东省,广州市,海珠区,广州市海珠区洲咀大街洲咀大街2号大院(2号之一至十一),644cd4369ade71174e776e6d,1,0,113.254906,23.108303,(020)84499741,life,http://api.map.baidu.com/place/detail?uid=644cd4369ade71174e776e6d&output=html&source=placeapi_v2,,,,,,,,,,1,,,,,,,,,,0
ea72311b222b997e9868b4d3,广州希致汽车租赁有限公司,汽车服务,汽车租赁,广东省,广州市,海珠区,广东省广州市海珠区宝岗龙骧大街润田雅苑旁(南北广场南),ea72311b222b997e9868b4d3,1,0,113.268055,23.106,,life,http://api.map.baidu.com/place/detail?uid=ea72311b222b997e9868b4d3&output=html&source=placeapi_v2,,,,,,,,,,7,,,,,,,,113.26815216643,23.10598640905,0
f0b5856756f767c0a8f729a6,一嗨租车(西城都荟送车点),汽车服务,汽车租赁,广东省,广州市,荔湾区,广东省广州市荔湾区芳村大道西623号,f0b5856756f767c0a8f729a6,1,0,113.247265,23.115345,(020)87308057,life,http://api.map.baidu.com/place/detail?uid=f0b5856756f767c0a8f729a6&output=html&source=placeapi_v2,,00:00-24:00,,,,,,,,,,,,,,,,,,0
a84751a8837f3ebfabf7297c,中远海运(广州)有限公司房地产租赁分公司,汽车服务,汽车租赁,广东省,广州市,海珠区,广东省广州市海珠区滨江中路308号,a84751a8837f3ebfabf7297c,1,0,113.27634,23.118534,,life,http://api.map.baidu.com/place/detail?uid=a84751a8837f3ebfabf7297c&output=html&source=placeapi_v2,,09:00-18:30,,,,,,,,13,,,,,,,,113.27629817058,23.118655217782,0
744488a61e5b8e73fbf0cbe1,广州市一汽巴士有限公司-包租车服务部,汽车服务,汽车租赁,广东省,广州市,越秀区,广东省广州市越秀区东湖路25号,744488a61e5b8e73fbf0cbe1,1,0,113.297429,23.126677,(020)87787767,life,http://api.map.baidu.com/place/detail?uid=744488a61e5b8e73fbf0cbe1&output=html&source=placeapi_v2,,08:30-17:30,0,,,,,,,16,1,,,,,,,113.29731557126,23.126740283846,0
7439c76aa3e4aff4adcb6665,广州广汽租赁有限公司,汽车服务,汽车租赁,广东省,广州市,海珠区,广东省广州市海珠区阅江西路370号广报中心南塔16楼,,1,0,113.343504,23.112325,(020)83261012,life,http://api.map.baidu.com/place/detail?uid=7439c76aa3e4aff4adcb6665&output=html&source=placeapi_v2,,08:00-20:00,5.0,,,,,,,2,1,,,,,,,,,0
8cb30c3d5273eddf31870a1a,一嗨租车(磨碟沙地铁站便捷点),汽车服务,汽车租赁,广东省,广州市,海珠区,广东省广州市海珠区新港东路255号,8cb30c3d5273eddf31870a1a,1,0,113.35199,23.104742,18826440521,life,http://api.map.baidu.com/place/detail?uid=8cb30c3d5273eddf31870a1a&output=html&source=placeapi_v2,,08:00-20:00,0,,,,,,,1,1,,,,,,,113.35210789369,23.104707512055,0
aa27469fdc5c2202b45f1ec1,瑞卡租车(客村店),汽车服务,汽车租赁,广东省,广州市,海珠区,广东广州市海珠区新港中路381号港艺商务大厦1楼,aa27469fdc5c2202b45f1ec1,1,0,113.329495,23.102771,,life,http://api.map.baidu.com/place/detail?uid=aa27469fdc5c2202b45f1ec1&output=html&source=placeapi_v2,,09:00-21:00,0,,,,,,,1,0,,,,,,,113.32971732434,23.102612377913,0
2bf001d92157ba6b1329355f,保利威座北塔租赁中心,汽车服务,汽车租赁,广东省,广州市,天河区,广东省广州市天河区冼村路11号10楼之2号,2bf001d92157ba6b1329355f,1,0,113.333434,23.127273,(020)29000623,life,http://api.map.baidu.com/place/detail?uid=2bf001d92157ba6b1329355f&output=html&source=placeapi_v2,,,4.0,,,,,,,2,2,,,,,,,113.33308869905,23.127875466985,0
6492a860b33437e28e772743,战友租车,汽车服务,汽车租赁,广东省,广州市,天河区,广东省广州市天河区蒲林街46~48号,6492a860b33437e28e772743,1,0,113.380495,23.120603,(020)85530109,life,http://api.map.baidu.com/place/detail?uid=6492a860b33437e28e772743&output=html&source=placeapi_v2,,,,,,,,,,15,,,,,,,,113.3805851036,23.120595586902,0
d807a8ecdf9bf773eaf85343,保士骑租赁,汽车服务,汽车租赁,广东省,广州市,天河区,广州市天河区员村二横路天河区志才小学北侧,d807a8ecdf9bf773eaf85343,1,0,113.368462,23.117252,,life,http://api.map.baidu.com/place/detail?uid=d807a8ecdf9bf773eaf85343&output=html&source=placeapi_v2,,,,,,,,,,3,,,,,,,,113.36845886405,23.117308777128,0
0f8c6cbeeb310298f8dc8523,探途租车,汽车服务,汽车租赁,广东省,广州市,海珠区,广东省广州市海珠区新港东路70号万胜汇3号楼,,1,0,113.390885,23.102284,"(020)37346016,13926171035",life,http://api.map.baidu.com/place/detail?uid=0f8c6cbeeb310298f8dc8523&output=html&source=placeapi_v2,,09:30-21:00,,,,,,,,,,,,,,,,,,0
3a4eb8913e70a829ad04578f,广州快租贸易有限公司,汽车服务,汽车租赁,广东省,广州市,海珠区,广东省广州市海珠区新港东路杨青外街二巷8号,3a4eb8913e70a829ad04578f,1,0,113.397349,23.10207,(020)36719200,life,http://api.map.baidu.com/place/detail?uid=3a4eb8913e70a829ad04578f&output=html&source=placeapi_v2,,09:00-18:00,,,,,,,,14,2,,,,,,,113.39741245795,23.102233708084,0
67d4058884f31b870f0a702d,广州大强汽车租赁服务有限公司,汽车服务,汽车租赁,广东省,广州市,天河区,广东省广州市天河区黄埔大道东631号东盛大厦a栋4楼403室,,1,0,113.414931,23.113671,18816899853,life,http://api.map.baidu.com/place/detail?uid=67d4058884f31b870f0a702d&output=html&source=placeapi_v2,,00:00-24:00,,,,,,,,,,,,,,,,,,0
2ee7097895e27d15d5851f71,广州粤好汽车租赁有限公司,汽车服务,汽车租赁,广东省,广州市,天河区,广东省广州市天河区黄埔大道东路631号东盛商务大厦2房,,1,0,113.414818,23.11364,13724844665,life,http://api.map.baidu.com/place/detail?uid=2ee7097895e27d15d5851f71&output=html&source=placeapi_v2,,10:00-22:00,,,,,,,,,,,,,,,,113.41502420728,23.113560553203,0
75deab5f44d3a2400d3dda67,广州龙悦汽车租赁有限公司,汽车服务,汽车租赁,广东省,广州市,天河区,广州市天河区黄埔大道东631号东盛商业大厦204室,,1,0,113.414792,23.113617,,life,http://api.map.baidu.com/place/detail?uid=75deab5f44d3a2400d3dda67&output=html&source=placeapi_v2,,08:00-20:00,,,,,,,,,,,,,,,,,,0
fec94e2bd62957b1ac080fe4,广州友合汽车租赁有限公司,汽车服务,汽车租赁,广东省,广州市,天河区,广州市天河区黄埔大道东631号207室,,1,0,113.41479,23.113683,,life,http://api.map.baidu.com/place/detail?uid=fec94e2bd62957b1ac080fe4&output=html&source=placeapi_v2,,,,,,,,,,,,,,,,,,113.41509964069,23.113841164028,0
00ce278775d058ef9d9d68f2,广州荣升汽车租赁有限公司,汽车服务,汽车租赁,广东省,广州市,天河区,广东省广州市天河区黄埔大道东631号东盛商业大厦a座4楼,00ce278775d058ef9d9d68f2,1,0,113.414778,23.113674,(020)28216616,life,http://api.map.baidu.com/place/detail?uid=00ce278775d058ef9d9d68f2&output=html&source=placeapi_v2,,08:00-22:00,0.0,,,,,,,1,1,,,,,,,,,0
2474aeafb5df2aa02afc480d,广州同发汽车租赁有限公司,汽车服务,汽车租赁,广东省,广州市,天河区,桃园西路自编83号附近,,1,0,113.413694,23.115945,13316179616,life,http://api.map.baidu.com/place/detail?uid=2474aeafb5df2aa02afc480d&output=html&source=placeapi_v2,,,,,,,,,,1,,,,,,,,,,0
372f9beb49b425e1db1318d8,广州市龙的出租汽车股份有限公司,汽车服务,汽车租赁,广东省,广州市,黄埔区,广东省广州市黄埔区中山大道东238号,372f9beb49b425e1db1318d8,1,0,113.435964,23.112943,(020)82388222,life,http://api.map.baidu.com/place/detail?uid=372f9beb49b425e1db1318d8&output=html&source=placeapi_v2,,08:30-16:00,,,,,,,,3,0,,,,,,,113.43592195008,23.112968724634,0
bc696165f4c6631025e0a05c,广州佰通驰汽车租赁有限公司,汽车服务,汽车租赁,广东省,广州市,天河区,广东省广州市天河区东圃二马路67号创境汇盈科智谷15栋106室,,1,0,113.40779,23.118437,17502056060,life,http://api.map.baidu.com/place/detail?uid=bc696165f4c6631025e0a05c&output=html&source=placeapi_v2,,,,,,,,,,,,,,,,,,113.4074201796,23.11840938681,0
d7b8e23de272c0ffb7265536,广州新晓汽车租赁有限公司,汽车服务,汽车租赁,广东省,广州市,天河区,广东省广州市天河区东环路99-2号东环商务中心4楼b301,d7b8e23de272c0ffb7265536,1,0,113.431211,23.125283,18520654301,life,http://api.map.baidu.com/place/detail?uid=d7b8e23de272c0ffb7265536&output=html&source=placeapi_v2,,09:30-18:30,,,,,,,,,,,,,,,,113.43137819146,23.125265494155,0
89c3f8086867dc4b601c674a,广州翰轩汽车租赁服务有限公司,汽车服务,汽车租赁,广东省,广州市,天河区,广东省广州市天河区黄村东路29号启星商务中心d区A618,89c3f8086867dc4b601c674a,1,0,113.421964,23.128338,13527620363,life,http://api.map.baidu.com/place/detail?uid=89c3f8086867dc4b601c674a&output=html&source=placeapi_v2,,,,,,,,,,,,,,,,,,,,0
e2b39db4fa6d9ca528b97cfb,广州信合汽车租赁有限公司,汽车服务,汽车租赁,广东省,广州市,天河区,广东省广州市天河区中山大道中1007号启星商务中心e区5楼511室,e2b39db4fa6d9ca528b97cfb,1,0,113.422023,23.125779,(020)82529563,life,http://api.map.baidu.com/place/detail?uid=e2b39db4fa6d9ca528b97cfb&output=html&source=placeapi_v2,,08:00-00:00,0.0,,,,,,,1,1,,,,,,,113.42195120726,23.125794744248,0
231cf424f883e2ac5d17c38b,广州豫马汽车租赁有限公司,汽车服务,汽车租赁,广东省,广州市,黄埔区,广东省广州市黄埔区护林路6号,231cf424f883e2ac5d17c38b,1,0,113.435377,23.122952,13925118868,life,http://api.map.baidu.com/place/detail?uid=231cf424f883e2ac5d17c38b&output=html&source=placeapi_v2,,00:00-23:45,,,,,,,,8,2,,,,,,,,,0
bbafcb8c41790ae9882fb5cf,一嗨租车(珠村乐购便捷点),汽车服务,汽车租赁,广东省,广州市,天河区,广州市天河区珠村乐购乐都汇负二层停车场,bbafcb8c41790ae9882fb5cf,1,0,113.426586,23.122412,(020)82324582,life,http://api.map.baidu.com/place/detail?uid=bbafcb8c41790ae9882fb5cf&output=html&source=placeapi_v2,,00:00-24:00,,,,,,,,,,,,,,,,,,0
9600ea612d8e510708ccddb1,一嗨租车(东圃店),汽车服务,汽车租赁,广东省,广州市,天河区,广东省广州市天河区中山大道中989号,9600ea612d8e510708ccddb1,1,0,113.41275,23.127962,(020)82324582,life,http://api.map.baidu.com/place/detail?uid=9600ea612d8e510708ccddb1&output=html&source=placeapi_v2,,08:00-21:00,0,,,,,,,2,1,,,,,,,113.41265655064,23.127968611839,0
8e4f86f9e0d491c2ae080fc5,公寓租赁怡和大厦店,汽车服务,汽车租赁,广东省,广州市,天河区,广东省广州市天河区东圃大马路216号06铺,8e4f86f9e0d491c2ae080fc5,1,0,113.406401,23.11837,,life,http://api.map.baidu.com/place/detail?uid=8e4f86f9e0d491c2ae080fc5&output=html&source=placeapi_v2,,,,,,,,,,,,,,,,,,,,0
4abbeda8720247c49ee32125,一嗨租车(大沙东地铁站便捷点),汽车服务,汽车租赁,广东省,广州市,黄埔区,广东省广州市黄埔区三多路229-331号,4abbeda8720247c49ee32125,1,0,113.465664,23.113274,(020)87607146,life,http://api.map.baidu.com/place/detail?uid=4abbeda8720247c49ee32125&output=html&source=placeapi_v2,,00:00-24:00,5,,,,,,,1,1,,,,,,,113.46567293834,23.11338028445,0
8409e858483ea8ddf4231029,出租车,汽车服务,汽车租赁,广东省,广州市,黄埔区,茅岗新村,,1,0,113.450581,23.118731,18639108456,life,http://api.map.baidu.com/place/detail?uid=8409e858483ea8ddf4231029&output=html&source=placeapi_v2,,,,,,,,,,1,,,,,,,,,,0
419d23a0f5f4ee4122026290,广州分享租赁有限公司,汽车服务,汽车租赁,广东省,广州市,黄埔区,广州市黄埔区企岭街东明楼东北侧约70米,419d23a0f5f4ee4122026290,1,0,113.45056,23.118714,"(020)82377791,19928343411",life,http://api.map.baidu.com/place/detail?uid=419d23a0f5f4ee4122026290&output=html&source=placeapi_v2,,09:00-21:00,,,,,,,,5,,,,,,,,,,0
a691bdbe808f864d0f0a7006,富泽汽车维修中心,汽车服务,汽车租赁,广东省,广州市,黄埔区,广东省广州市黄埔区镇东路154号,,1,0,113.466639,23.124825,"13066360294,13512701546",life,http://api.map.baidu.com/place/detail?uid=a691bdbe808f864d0f0a7006&output=html&source=placeapi_v2,,,,,,,,,,9,,,,,,,,113.4664432973,23.124739905012,0
f9489628f970432ca3acc497,广州市誉航汽车租赁有限责任公司,汽车服务,汽车租赁,广东省,广州市,黄埔区,广东广州市黄埔区荔香路41号80号,f9489628f970432ca3acc497,1,0,113.450211,23.102653,13902297748,life,http://api.map.baidu.com/place/detail?uid=f9489628f970432ca3acc497&output=html&source=placeapi_v2,,,,,,,,,,5,,,,,,,,,,0
756360db8d0c392ab020a82c,豫马汽车租赁,汽车服务,汽车租赁,广东省,广州市,黄埔区,广州市黄埔区茅岗路289号102房,756360db8d0c392ab020a82c,1,0,113.444397,23.114543,"18688867288,4009909181",life,http://api.map.baidu.com/place/detail?uid=756360db8d0c392ab020a82c&output=html&source=placeapi_v2,,10:00-22:00,0,,,,,,,22,2,,,,,,,113.444337913,23.11463450658,0
12ef5ab708a57624dc1e521e,小桔租车,汽车服务,汽车租赁,广东省,广州市,黄埔区,广东省广州市黄埔区万腾街万科黄埔仓t4栋t4202号,,1,0,113.476098,23.101491,15914500567,life,http://api.map.baidu.com/place/detail?uid=12ef5ab708a57624dc1e521e&output=html&source=placeapi_v2,,08:00-17:30,,,,,,,,7,,,,,,,,113.47634471887,23.101460145448,0
f330e2adc4822a0dc0364416,广州斗源汽车租赁有限公司(斗源汽车产业链商务中心),汽车服务,汽车租赁,广东省,广州市,黄埔区,广东省广州市黄埔区宏明路78号东区3楼,f330e2adc4822a0dc0364416,1,0,113.54535,23.1181,"(020)82181769,13760806111",life,http://api.map.baidu.com/place/detail?uid=f330e2adc4822a0dc0364416&output=html&source=placeapi_v2,,08:30-17:30,,,,,,,,12,,,,,,,,113.54535956658,23.118077321981,0
f2e966dfecfdb25300ff2dbd,叉车出租,汽车服务,汽车租赁,广东省,广州市,黄埔区,广东省广州市黄埔区宏明路38号,f2e966dfecfdb25300ff2dbd,1,0,113.546139,23.118447,"13660655557,13822243725",life,http://api.map.baidu.com/place/detail?uid=f2e966dfecfdb25300ff2dbd&output=html&source=placeapi_v2,,00:00-24:00,,,,,,,,7,,,,,,,,113.54610945495,23.118334425053,0
e74461ecf355ab2beaf8530f,叉车吊车出租,汽车服务,汽车租赁,广东省,广州市,黄埔区,广东省广州市黄埔区东逸六街8号,,1,0,113.54884,23.118048,13682212266,life,http://api.map.baidu.com/place/detail?uid=e74461ecf355ab2beaf8530f&output=html&source=placeapi_v2,,00:00-23:55,,,,,,,,7,6,,,,,,,113.54880712928,23.118128551986,0
b26a7088c2a8b2f600ff2de3,广州顺优汽车租赁有限公司,汽车服务,汽车租赁,广东省,广州市,黄埔区,广东省广州市黄埔区东鹏大道33号,b26a7088c2a8b2f600ff2de3,1,0,113.535027,23.118669,13527790287,life,http://api.map.baidu.com/place/detail?uid=b26a7088c2a8b2f600ff2de3&output=html&source=placeapi_v2,,,0,,,,,,,7,1,,,,,,,113.53501040799,23.118817633382,0
c6fba817abcb39afcae33c1f,跑山奔新能源,汽车服务,汽车租赁,广东省,广州市,黄埔区,广州市黄埔区集成正街96号二楼,c6fba817abcb39afcae33c1f,1,0,113.552142,23.10623,13724132412,life,http://api.map.baidu.com/place/detail?uid=c6fba817abcb39afcae33c1f&output=html&source=placeapi_v2,,09:30-18:00,,,,,,,,4,,,,,,,,,,0
a35435bf74dbe692cae33c3f,叉车出租,汽车服务,汽车租赁,广东省,广州市,黄埔区,兆昌路178号,a35435bf74dbe692cae33c3f,1,0,113.557866,23.11074,13826416662,life,http://api.map.baidu.com/place/detail?uid=a35435bf74dbe692cae33c3f&output=html&source=placeapi_v2,,,,,,,,,,4,3,,,,,,,,,0
e694e4ecf0298662b6147f7e,一嗨租车(生活区南岗店),汽车服务,汽车租赁,广东省,广州市,黄埔区,广东省广州市黄埔区黄埔东路3529号鸿森商务中心1楼,,1,0,113.542522,23.097542,,life,http://api.map.baidu.com/place/detail?uid=e694e4ecf0298662b6147f7e&output=html&source=placeapi_v2,,08:00-21:00,,,,,,,,1,,,,,,,,,,0
8871af6c17726fbd1ce9998a,广发叉车出租,汽车服务,汽车租赁,广东省,广州市,黄埔区,广州市黄埔区鹿步大路南屏苑社区东侧约70米,,1,0,113.540507,23.09507,13660547308,life,http://api.map.baidu.com/place/detail?uid=8871af6c17726fbd1ce9998a&output=html&source=placeapi_v2,,,,,,,,,,30,16,,,,,,,,,0
d07d7e055706c5d604fef554,广州宇航新能源汽车租赁有限公司,汽车服务,汽车租赁,广东省,广州市,增城区,广东省广州市增城区汇太东路99号c座5楼,d07d7e055706c5d604fef554,1,0,113.586213,23.126609,13924137386,life,http://api.map.baidu.com/place/detail?uid=d07d7e055706c5d604fef554&output=html&source=placeapi_v2,,00:00-24:00,,,,,,,,,,,,,,,,113.58620047951,23.126837578066,0
cca136c5adc9f3fb3a04b1d7,优速汽车咨询服务部,汽车服务,汽车租赁,广东省,东莞市,,东莞市南潢路七色彩虹幼儿园西北侧约30米,,1,0,113.708557,23.109573,"(0769)88898088,13925588915",life,http://api.map.baidu.com/place/detail?uid=cca136c5adc9f3fb3a04b1d7&output=html&source=placeapi_v2,,,,,,,,,,4,,,,,,,,113.70859308437,23.109480496893,0
ab75ed6dcbc21180c4f02535,桂丰吊车出租,汽车服务,汽车租赁,广东省,东莞市,,东莞市北王路金源钢材市场,,1,0,113.696444,23.119621,13922512132,life,http://api.map.baidu.com/place/detail?uid=ab75ed6dcbc21180c4f02535&output=html&source=placeapi_v2,,,,,,,,,,,,,,,,,,,,0
ad5f8625aea8aa23fa42b264,东莞安捷汽车租赁有限公司,汽车服务,汽车租赁,广东省,东莞市,,广东省东莞市后面西五巷409号,ad5f8625aea8aa23fa42b264,1,0,113.730919,23.098464,15017105873,life,http://api.map.baidu.com/place/detail?uid=ad5f8625aea8aa23fa42b264&output=html&source=placeapi_v2,,,,,,,,,,7,,,,,,,,,,0
2eb2ef7de55eff780482c2b5,腾通租车,汽车服务,汽车租赁,广东省,广州市,荔湾区,广州市荔湾区流花新街茂华酒店(火车站店)西南侧,,1,0,113.257765,23.148523,13570922270,life,http://api.map.baidu.com/place/detail?uid=2eb2ef7de55eff780482c2b5&output=html&source=placeapi_v2,,00:00-24:00,,,,,,,,5,,,,,,,,113.25784085974,23.148572762401,0
d614f6f30036a79646e274a2,一嗨租车(广州火车总站店),汽车服务,汽车租赁,广东省,广州市,越秀区,广东省广州市越秀区环市西路202号美博运动城负1楼f09g,d614f6f30036a79646e274a2,1,0,113.266547,23.152013,(020)83701965,life,http://api.map.baidu.com/place/detail?uid=d614f6f30036a79646e274a2&output=html&source=placeapi_v2,,08:00-23:00,,,,,,,,0,,,,,,,,113.26657413201,23.152143272265,0
01dd5a2128c528ce90114c8d,一嗨租车(公园前地铁站便捷点),汽车服务,汽车租赁,广东省,广州市,越秀区,广东省广州市越秀区中山五路219号中旅商业城负3楼,01dd5a2128c528ce90114c8d,1,0,113.269363,23.131192,(020)83840558,life,http://api.map.baidu.com/place/detail?uid=01dd5a2128c528ce90114c8d&output=html&source=placeapi_v2,,00:00-24:00,0.0,,,,,,,4,1,,,,,,,113.26934517454,23.131513886835,0
7cf9cea2b71aed8e00ec0197,一嗨租车(淘金地铁站便捷点),汽车服务,汽车租赁,广东省,广州市,越秀区,广东省广州市越秀区淘金路139号,7cf9cea2b71aed8e00ec0197,1,0,113.294218,23.147079,,life,http://api.map.baidu.com/place/detail?uid=7cf9cea2b71aed8e00ec0197&output=html&source=placeapi_v2,,,,,,,,,,1,,,,,,,,,,0
ccd394a040432f520869d982,广州市利复司机之家汽车服务有限公司,汽车服务,汽车租赁,广东省,广州市,越秀区,广东省广州市越秀区广东省电力调度大厦西北,ccd394a040432f520869d982,1,0,113.314834,23.139447,18818891088,life,http://api.map.baidu.com/place/detail?uid=ccd394a040432f520869d982&output=html&source=placeapi_v2,,10:00-20:00,,,,,,,,7,,,,,,,,113.31482933882,23.139347613502,0
da56185df182c24b734b871f,神州租车(嘉诚点),汽车服务,汽车租赁,广东省,广州市,越秀区,广东省广州市越秀区广州大道中85号信诚楼102商铺(嘉诚国际公寓后侧华沁食府旁),da56185df182c24b734b871f,1,0,113.318391,23.143886,4006166666,life,http://api.map.baidu.com/place/detail?uid=da56185df182c24b734b871f&output=html&source=placeapi_v2,,08:00-21:00,,,,,,,,,,,,,,,,,,0
ddd512c785cfa35be5e96531,广州市合力汽车租赁服务有限公司,汽车服务,汽车租赁,广东省,广州市,越秀区,广东省广州市越秀区建设大马路11号,ddd512c785cfa35be5e96531,1,0,113.28647,23.140301,(020)83836339,life,http://api.map.baidu.com/place/detail?uid=ddd512c785cfa35be5e96531&output=html&source=placeapi_v2,,08:30-20:00,0.0,,,,,,,2,,,,,,,,113.2863565854,23.14027525897,0
b8428d8f3f92337f7c29bd65,神州租车(华师地铁站自助点),汽车服务,汽车租赁,广东省,广州市,天河区,广东省广州市天河区五山路141号尚德大厦负2号,b8428d8f3f92337f7c29bd65,1,0,113.350478,23.145191,18922358012,life,http://api.map.baidu.com/place/detail?uid=b8428d8f3f92337f7c29bd65&output=html&source=placeapi_v2,,08:00-21:00,,,,,,,,,,,,,,,,113.3503966181,23.145090354824,0
a4aeb4bca793ba3db426552a,租租车,汽车服务,汽车租赁,广东省,广州市,天河区,广东广州市天河区林和东路285号15楼,a4aeb4bca793ba3db426552a,1,0,113.333004,23.153007,,life,http://api.map.baidu.com/place/detail?uid=a4aeb4bca793ba3db426552a&output=html&source=placeapi_v2,,,0,,,,,,,3,0,,,,,,,113.33293298498,23.152972424588,0
44dbf0851ff1fe0e38221c28,广州市广同汽车租赁服务有限公司,汽车服务,汽车租赁,广东省,广州市,天河区,广东广州市天河区天河北路163号,44dbf0851ff1fe0e38221c28,1,0,113.32636,23.147449,,life,http://api.map.baidu.com/place/detail?uid=44dbf0851ff1fe0e38221c28&output=html&source=placeapi_v2,,,,,,,,,,,,,,,,,,,,0
a45ce5a3257b21d971455b23,科讯租赁,汽车服务,汽车租赁,广东省,广州市,天河区,黄埔大道西321号103室,a45ce5a3257b21d971455b23,1,0,113.342319,23.132717,13697401340,life,http://api.map.baidu.com/place/detail?uid=a45ce5a3257b21d971455b23&output=html&source=placeapi_v2,,09:00-17:30,,,,,,,,,,,,,,,,,,0
fef5ff01f05379a7f60e770c,一嗨租车(维多利广场便捷点),汽车服务,汽车租赁,广东省,广州市,天河区,广东省广州市天河区天河路101号负4楼,fef5ff01f05379a7f60e770c,1,0,113.326834,23.141043,(020)37814806,life,http://api.map.baidu.com/place/detail?uid=fef5ff01f05379a7f60e770c&output=html&source=placeapi_v2,,00:00-24:00,0,,,,,,,2,1,,,,,,,113.32684622045,23.141160767908,0
86d7868de543b2dab020a875,广州安路达汽车租赁有限公司,汽车服务,汽车租赁,广东省,广州市,天河区,广东省广州市天河区科韵北路3号顺盈商业大厦b801室,86d7868de543b2dab020a875,1,0,113.383137,23.148632,,life,http://api.map.baidu.com/place/detail?uid=86d7868de543b2dab020a875&output=html&source=placeapi_v2,,09:00-21:00,0.0,,,,,,,1,,,,,,,,,,0
e0c286c9818fa669276e9800,广州瑞帆汽车租赁有限公司,汽车服务,汽车租赁,广东省,广州市,天河区,广东省广州市天河区棠东古隆街19号181房,,1,0,113.386474,23.150197,13668973399,life,http://api.map.baidu.com/place/detail?uid=e0c286c9818fa669276e9800&output=html&source=placeapi_v2,,00:00-24:00,,,,,,,,,,,,,,,,113.3864714409,23.149934618017,0
64b0fce5c7a10e122afc48a7,广州锦顺汽车租赁有限公司,汽车服务,汽车租赁,广东省,广州市,天河区,天河区棠东古隆街19号181B房,64b0fce5c7a10e122afc48a7,1,0,113.386479,23.15024,15815883499,life,http://api.map.baidu.com/place/detail?uid=64b0fce5c7a10e122afc48a7&output=html&source=placeapi_v2,,,,,,,,,,1,,,,,,,,,,0
29e884e2d50118bbd8eced1a,广州市五羊汽车租赁有限公司,汽车服务,汽车租赁,广东省,广州市,天河区,广州市天河区科韵北白艾草岗路1号,,1,0,113.386355,23.151897,18680231324,life,http://api.map.baidu.com/place/detail?uid=29e884e2d50118bbd8eced1a&output=html&source=placeapi_v2,,08:00-20:00,,,,,,,,1,1,,,,,,,113.38620904945,23.151924916548,0
355946378ba5a3fca2a93426,广州尊驰汽车租赁服务有限公司,汽车服务,汽车租赁,广东省,广州市,天河区,广东省广州市天河区棠东白艾草岗路与科韵路交叉口东北约220米,,1,0,113.386262,23.154402,(020)87553338,life,http://api.map.baidu.com/place/detail?uid=355946378ba5a3fca2a93426&output=html&source=placeapi_v2,,00:00-24:00,,,,,,,,17,3,,,,,,,113.38614490684,23.154301514021,0
dbca93fb8e02acdcb817e772,广州市恒晟汽车租赁有限公司,汽车服务,汽车租赁,广东省,广州市,天河区,广东省广州市天河区车陂西路212号前进商务中心8408房,dbca93fb8e02acdcb817e772,1,0,113.391241,23.143353,13632352899,life,http://api.map.baidu.com/place/detail?uid=dbca93fb8e02acdcb817e772&output=html&source=placeapi_v2,,00:00-24:00,5.0,,,,,,,,1,,,,,,,,,0
e5fa29f77e46d501882fb506,广州舒鑫汽车租赁有限公司,汽车服务,汽车租赁,广东省,广州市,天河区,天河区棠下大片路53号裕辉商务中心506室,e5fa29f77e46d501882fb506,1,0,113.383979,23.136624,,life,http://api.map.baidu.com/place/detail?uid=e5fa29f77e46d501882fb506&output=html&source=placeapi_v2,,10:00-22:00,,,,,,,,4,,,,,,,,,,0
3f0b7319b9cba9b303ff2d4e,广州畅途汽车租赁有限公司,汽车服务,汽车租赁,广东省,广州市,天河区,棠德南路28号之一盈信商业大厦528房,,1,0,113.387939,23.13792,(020)28968633,life,http://api.map.baidu.com/place/detail?uid=3f0b7319b9cba9b303ff2d4e&output=html&source=placeapi_v2,,07:00-23:00,5.0,,,,,,,2,1,,,,,,,,,0
3380228e151e0c354afd3f8a,广州悦达汽车租赁服务有限公司,汽车服务,汽车租赁,广东省,广州市,天河区,广东广州市天河区棠德南路28号之1623室,,1,0,113.388014,23.137802,15915923657,life,http://api.map.baidu.com/place/detail?uid=3380228e151e0c354afd3f8a&output=html&source=placeapi_v2,,,5.0,,,,,,,1,2,,,,,,,,,0
3bfdd3d5fef83fdc4d2fdfa1,广州隆途汽车租赁有限公司,汽车服务,汽车租赁,广东省,广州市,天河区,广东省广州市天河区棠德南路64号3-8楼809房,3bfdd3d5fef83fdc4d2fdfa1,1,0,113.389207,23.137793,15813316508,life,http://api.map.baidu.com/place/detail?uid=3bfdd3d5fef83fdc4d2fdfa1&output=html&source=placeapi_v2,,07:00-22:00,5,,,,,,,2,2,,,,,,,113.38935521358,23.137765663505,0
37fac89eafa0bbe53062128c,广州华驰汽车租赁有限公司,汽车服务,汽车租赁,广东省,广州市,天河区,广东省广州市天河区棠安路146号金豪商务大厦7楼7014室,37fac89eafa0bbe53062128c,1,0,113.383385,23.135403,"(020)38880776,13380003331",life,http://api.map.baidu.com/place/detail?uid=37fac89eafa0bbe53062128c&output=html&source=placeapi_v2,,08:00-23:00,5.0,,,,,,,1,2,,,,,,,113.38362758262,23.13545984155,0
04df16e16c42f183a1d23097,广州豪情汽车租赁有限公司,汽车服务,汽车租赁,广东省,广州市,天河区,广东省广州市天河区科韵路146号金豪商务大厦厚和4021室,04df16e16c42f183a1d23097,1,0,113.383259,23.135383,"(020)23377758,15800000255",life,http://api.map.baidu.com/place/detail?uid=04df16e16c42f183a1d23097&output=html&source=placeapi_v2,,09:00-21:00,5.0,,,,,,,,1,,,,,,,113.38305491555,23.1355191966,0
91ac6f0063915c0b07026f69,广州市邦首汽车租赁有限公司,汽车服务,汽车租赁,广东省,广州市,天河区,广东省广州市天河区棠基街棠东商业大厦1楼1a12室,,1,0,113.389314,23.132686,13822208261,life,http://api.map.baidu.com/place/detail?uid=91ac6f0063915c0b07026f69&output=html&source=placeapi_v2,,00:00-24:00,5.0,,,,,,,2,2,,,,,,,113.38929253072,23.132451140386,0
b8aa156b28d509d014764380,广州市良运汽车租赁有限公司,汽车服务,汽车租赁,广东省,广州市,天河区,广东省广州市天河区棠德南路28号之1盈信商业大厦213房,b8aa156b28d509d014764380,1,0,113.387958,23.137865,(020)29045166,life,http://api.map.baidu.com/place/detail?uid=b8aa156b28d509d014764380&output=html&source=placeapi_v2,,08:00-20:00,0.0,,,,,,,2,1,,,,,,,,,0
f4a1f27f0cca883db5f42fd5,龙凤租车(天河总店),汽车服务,汽车租赁,广东省,广州市,天河区,广东省广州市天河区棠安路148号,f4a1f27f0cca883db5f42fd5,1,0,113.383017,23.136691,"(020)85663655,(020)85668338",life,http://api.map.baidu.com/place/detail?uid=f4a1f27f0cca883db5f42fd5&output=html&source=placeapi_v2,,10:00-22:00,0,,,,,,,9,1,,,,,,,113.38301651928,23.136690708418,0
ff8b390a2835b4a522f017f7,广州顺赢汽车租赁服务有限公司(安达店),汽车服务,汽车租赁,广东省,广州市,天河区,棠德南路26号,ff8b390a2835b4a522f017f7,1,0,113.388128,23.138435,"(020)85559878,13622223659",life,http://api.map.baidu.com/place/detail?uid=ff8b390a2835b4a522f017f7&output=html&source=placeapi_v2,,09:00-20:00,,,,,,,,23,,,,,,,,,,0
dc322ab1c73da98670210bcb,广州祈恩汽车租赁有限公司,汽车服务,汽车租赁,广东省,广州市,天河区,广东省广州市天河区官育路2号泓亿商务中心A512室,c68e252daff571bb9a00501c,1,0,113.391541,23.132428,(020)37346366,life,http://api.map.baidu.com/place/detail?uid=dc322ab1c73da98670210bcb&output=html&source=placeapi_v2,,08:00-22:00,5,,,,,,,8,3,,,,,,,113.39127181486,23.132603917128,0
3548d587218c7c5dfe0eb0da,广州奔宇租车公司,汽车服务,汽车租赁,广东省,广州市,天河区,广东省广州市天河区棠德西路39号,3548d587218c7c5dfe0eb0da,1,0,113.38533,23.142722,18666271117,life,http://api.map.baidu.com/place/detail?uid=3548d587218c7c5dfe0eb0da&output=html&source=placeapi_v2,,,,,,,,,,1,,,,,,,,113.38534899648,23.142787075522,0
717a74f6a1f70d54d8d891e3,广州越诚汽车服务有限公司,汽车服务,汽车租赁,广东省,广州市,天河区,广东省广州市天河区棠德南路64号123大厦816房,,1,0,113.389215,23.137771,13711105887,life,http://api.map.baidu.com/place/detail?uid=717a74f6a1f70d54d8d891e3&output=html&source=placeapi_v2,,09:00-21:00,5,,,,,,,16,4,,,,,,,,,0
5411024aa26fbae63a04b1ec,广州恒恩汽车租赁有限公司,汽车服务,汽车租赁,广东省,广州市,天河区,广州市天河区棠东官育路2号A508号,,1,0,113.391443,23.132387,"18902259200,18929503598",life,http://api.map.baidu.com/place/detail?uid=5411024aa26fbae63a04b1ec&output=html&source=placeapi_v2,,00:00-23:00,5.0,,,,,,,3,1,,,,,,,,,0
145996a8b4b71a24bea240c4,广州赛途汽车租赁有限公司,汽车服务,汽车租赁,广东省,广州市,天河区,广东省广州市天河区棠安路金豪商务大厦4018室,145996a8b4b71a24bea240c4,1,0,113.383308,23.135403,"(020)85603166,13760826075",life,http://api.map.baidu.com/place/detail?uid=145996a8b4b71a24bea240c4&output=html&source=placeapi_v2,,08:00-24:00,,,,,,,,3,1,,,,,,,,,0
58a8d618d22da7f2eb1e97b9,广州神马商务汽车租赁有限公司,汽车服务,汽车租赁,广东省,广州市,天河区,广东省广州市天河区棠基街3号175室,,1,0,113.389024,23.132715,18819208886,life,http://api.map.baidu.com/place/detail?uid=58a8d618d22da7f2eb1e97b9&output=html&source=placeapi_v2,,00:00-24:00,,,,,,,,2,2,,,,,,,113.38900134696,23.132473909691,0
038d6385e6325f6587154104,广州豫龙汽车租赁有限公司(中山大道店),汽车服务,汽车租赁,广东省,广州市,天河区,广东省广州市天河区中山大道西783号裕丰商业中心二楼220房,038d6385e6325f6587154104,1,0,113.391002,23.131866,18127877572,life,http://api.map.baidu.com/place/detail?uid=038d6385e6325f6587154104&output=html&source=placeapi_v2,,08:00-23:00,,,,,,,,5,3,,,,,,,113.39067687072,23.131725929016,0
d3a1fb509d71eec4c91b950b,广州杰豪汽车租赁有限公司,汽车服务,汽车租赁,广东省,广州市,天河区,棠东村官育路泓亿商务中心A601房,,1,0,113.391439,23.132542,18620572626,life,http://api.map.baidu.com/place/detail?uid=d3a1fb509d71eec4c91b950b&output=html&source=placeapi_v2,,,,,,,,,,2,,,,,,,,,,0
0ff0b2d191d385c25c0d0243,广州一豪汽车租赁有限公司,汽车服务,汽车租赁,广东省,广州市,天河区,广东省广州市天河区官育路2号泓亿商务中心a座A315室,,1,0,113.391452,23.132545,"(020)37345628,13202506520",life,http://api.map.baidu.com/place/detail?uid=0ff0b2d191d385c25c0d0243&output=html&source=placeapi_v2,,10:00-22:00,,,,,,,,,,,,,,,,,,0
06dae2c43ac156f08d7727fe,广州同心汽车租赁有限公司,汽车服务,汽车租赁,广东省,广州市,天河区,广东省广州市天河区中山大道西783号裕丰商业中心二楼212房,06dae2c43ac156f08d7727fe,1,0,113.390788,23.132003,(020)38079277,life,http://api.map.baidu.com/place/detail?uid=06dae2c43ac156f08d7727fe&output=html&source=placeapi_v2,,08:00-20:00,,,,,,,,,,,,,,,,,,0
7cacdaa5d4dc770fc056ac94,广州蓝图租车(天河区汽车租赁部),汽车服务,汽车租赁,广东省,广州市,天河区,广东省广州市天河区棠东官育路12号科悦商务中心B栋3楼303房,7cacdaa5d4dc770fc056ac94,1,0,113.392003,23.132468,15915781289,life,http://api.map.baidu.com/place/detail?uid=7cacdaa5d4dc770fc056ac94&output=html&source=placeapi_v2,,,,,,,,,,,,,,,,,,,,0
9edc155e10876e8d33169b09,广州超强达汽车租赁有限公司,汽车服务,汽车租赁,广东省,广州市,天河区,广州市天河区中山大道西783号裕丰商业中心2楼215号,9edc155e10876e8d33169b09,1,0,113.390781,23.131881,13316053682,life,http://api.map.baidu.com/place/detail?uid=9edc155e10876e8d33169b09&output=html&source=placeapi_v2,,00:00-24:00,,,,,,,,3,,,,,,,,,,0
c6de88daee0539b86b49f3da,广成汽车服务(广州)有限公司,汽车服务,汽车租赁,广东省,广州市,天河区,广东省广州市天河区棠德南路盈信大厦五楼532房,,1,0,113.387879,23.13777,18126763858,life,http://api.map.baidu.com/place/detail?uid=c6de88daee0539b86b49f3da&output=html&source=placeapi_v2,,00:00-24:00,,,,,,,,2,,,,,,,,,,0
0913d2d8bb1f8c0c5cbe8697,广州路阳汽车服务有限公司,汽车服务,汽车租赁,广东省,广州市,天河区,广东省广州市天河区棠德南路28号432室,0913d2d8bb1f8c0c5cbe8697,1,0,113.388027,23.138028,(020)87588819,life,http://api.map.baidu.com/place/detail?uid=0913d2d8bb1f8c0c5cbe8697&output=html&source=placeapi_v2,,09:00-19:00,,,,,,,,,,,,,,,,,,0
bd85e6f0ff3cba4b09a8d40e,广州粤工高空车租赁有限公司,汽车服务,汽车租赁,广东省,广州市,天河区,广东省广州市天河区车陂西路10号,bd85e6f0ff3cba4b09a8d40e,1,0,113.398557,23.141351,"(020)87542692,13533216630",life,http://api.map.baidu.com/place/detail?uid=bd85e6f0ff3cba4b09a8d40e&output=html&source=placeapi_v2,,,,,,,,,,,,,,,,,,113.39856926075,23.141275292608,0
f9082aff25fc1d819ff779ce,广州市领意汽车租赁有限公司,汽车服务,汽车租赁,广东省,广州市,天河区,广东省广州市天河区奥体南路1号,f9082aff25fc1d819ff779ce,1,0,113.42579,23.13921,,life,http://api.map.baidu.com/place/detail?uid=f9082aff25fc1d819ff779ce&output=html&source=placeapi_v2,,07:00-19:00,,,,,,,,12,,,,,,,,113.42578140678,23.138892119734,0
5a1df3ab7c521df5167643f4,佳众高空车吊车升降平台设备租赁,汽车服务,汽车租赁,广东省,广州市,天河区,广州市天河区广州环城高速与黄村加油站交叉路口往西南约250米,5a1df3ab7c521df5167643f4,1,0,113.408746,23.148362,13729852985,life,http://api.map.baidu.com/place/detail?uid=5a1df3ab7c521df5167643f4&output=html&source=placeapi_v2,,,,,,,,,,7,1,,,,,,,113.40884273531,23.148364498551,0
8d8ccfa165518542626858af,广州市金骏马汽车租赁有限公司,汽车服务,汽车租赁,广东省,广州市,天河区,广东省广州市天河区新塘大街28号,8d8ccfa165518542626858af,1,0,113.414709,23.159997,13500021060,life,http://api.map.baidu.com/place/detail?uid=8d8ccfa165518542626858af&output=html&source=placeapi_v2,,10:00-22:00,,,,,,,,1,,,,,,,,,,0
b04572a89aa314988505bfe2,广州平运汽车租赁有限公司,汽车服务,汽车租赁,广东省,广州市,天河区,广东省广州市天河区新塘大街28号,b04572a89aa314988505bfe2,1,0,113.41376,23.159682,(020)29018959,life,http://api.map.baidu.com/place/detail?uid=b04572a89aa314988505bfe2&output=html&source=placeapi_v2,,00:00-24:00,5.0,,,,,,,15,5,,,,,,,,,0
adab6065233fbe5149fd3f48,广州穗峰汽车租赁有限公司,汽车服务,汽车租赁,广东省,广州市,天河区,广东省广州市天河区合景路10号和安堡商务中心1栋1402室,,1,0,113.417332,23.162834,13533004318,life,http://api.map.baidu.com/place/detail?uid=adab6065233fbe5149fd3f48&output=html&source=placeapi_v2,,00:00-24:00,,,,,,,,,,,,,,,,,,0
f2af3d53b3ab94de16a1905c,广东昊阳汽车租赁有限公司,汽车服务,汽车租赁,广东省,广州市,天河区,广州市天河区灵山东路2号202室,f2af3d53b3ab94de16a1905c,1,0,113.430213,23.132877,13725233479,life,http://api.map.baidu.com/place/detail?uid=f2af3d53b3ab94de16a1905c&output=html&source=placeapi_v2,,00:00-24:00,,,,,,,,,,,,,,,,,,0
3e9a0f67cdbe555633169b5c,欧记叉车出租,汽车服务,汽车租赁,广东省,广州市,天河区,广东省广州市天河区珠吉路69号3楼,,1,0,113.433773,23.138158,13929537053,life,http://api.map.baidu.com/place/detail?uid=3e9a0f67cdbe555633169b5c&output=html&source=placeapi_v2,,,,,,,,,,9,,,,,,,,113.433881141,23.138154044253,0
3f413759b034a5652bd7ab0a,广州瑞特租赁服务有限公司,汽车服务,汽车租赁,广东省,广州市,黄埔区,广东省广州市黄埔区光谱西路3号,,1,0,113.424278,23.164862,,life,http://api.map.baidu.com/place/detail?uid=3f413759b034a5652bd7ab0a&output=html&source=placeapi_v2,,,,,,,,,,,,,,,,,,,,0
583cf3a0f6504579f82d6169,广州市周伟吊车租赁服务有限公司,汽车服务,汽车租赁,广东省,广州市,天河区,广东省广州市天河区大灵山路600号,,1,0,113.43493,23.156047,15655219783,life,http://api.map.baidu.com/place/detail?uid=583cf3a0f6504579f82d6169&output=html&source=placeapi_v2,,,,,,,,,,,,,,,,,,,,0
1af2800334ff1ef300ec01b8,长福租车,汽车服务,汽车租赁,广东省,广州市,天河区,广东省广州市天河区大灵山路19号,,1,0,113.42787,23.135022,15112087540,life,http://api.map.baidu.com/place/detail?uid=1af2800334ff1ef300ec01b8&output=html&source=placeapi_v2,,,,,,,,,,6,,,,,,,,113.4280023378,23.135069683002,0
543ef38de5613934b35c6aa9,易行网约车,汽车服务,汽车租赁,广东省,广州市,黄埔区,广东省广州市黄埔区丰乐北路1736号大院2号,543ef38de5613934b35c6aa9,1,0,113.463057,23.140547,13435609428,life,http://api.map.baidu.com/place/detail?uid=543ef38de5613934b35c6aa9&output=html&source=placeapi_v2,,09:30-18:00,,,,,,,,8,,,,,,,,113.4630275832,23.140540233807,0
cfca359562fd2aea32f71d93,广州穗企租车,汽车服务,汽车租赁,广东省,广州市,黄埔区,广东省广州市黄埔区南翔二路68号金发科技宿舍d栋31号,cfca359562fd2aea32f71d93,1,0,113.45853,23.159592,(020)85697091,life,http://api.map.baidu.com/place/detail?uid=cfca359562fd2aea32f71d93&output=html&source=placeapi_v2,,,5,,,,,,,16,2,,,,,,,113.45856454085,23.159792535948,0
12af625a1f9498fb4251c008,瞬捷通网约车租赁,汽车服务,汽车租赁,广东省,广州市,黄埔区,广东省广州市黄埔区岭竹路24号e座E15号,12af625a1f9498fb4251c008,1,0,113.512457,23.153039,13802849420,life,http://api.map.baidu.com/place/detail?uid=12af625a1f9498fb4251c008&output=html&source=placeapi_v2,,"07:00-12:00,13:00-19:00",,,,,,,,11,,,,,,,,113.51253725382,23.15303595111,0
1412969741bccd10badf8f8c,响响租车,汽车服务,汽车租赁,广东省,广州市,黄埔区,广东省广州市黄埔区瑞和路39号d座,1412969741bccd10badf8f8c,1,0,113.512973,23.157525,,life,http://api.map.baidu.com/place/detail?uid=1412969741bccd10badf8f8c&output=html&source=placeapi_v2,,,,,,,,,,,1,,,,,,,113.51313135445,23.157701998571,0
f40f8419561f84154054d766,广州市都城汽车租赁有限公司,汽车服务,汽车租赁,广东省,广州市,增城区,广东省广州市增城区荔新十二路99号2栋05铺,,1,0,113.629679,23.15161,13543455639,life,http://api.map.baidu.com/place/detail?uid=f40f8419561f84154054d766&output=html&source=placeapi_v2,,09:00-18:00,,,,,,,,5,,,,,,,,,,0
bc1fff66a2d9be5ee5073855,广州运霸汽车租赁有限公司,汽车服务,汽车租赁,广东省,广州市,增城区,广东省广州市增城区新塘镇2路25号西联新村首层,bc1fff66a2d9be5ee5073855,1,0,113.631174,23.140637,(020)82792060,life,http://api.map.baidu.com/place/detail?uid=bc1fff66a2d9be5ee5073855&output=html&source=placeapi_v2,,,5,,,,,,,7,2,,,,,,,113.63115791966,23.140699957084,0
b0c0d7cdc62e7ee931870a72,广州永利吊车出租有限公司,汽车服务,汽车租赁,广东省,广州市,增城区,广东省广州市增城区新福路9号,,1,0,113.622221,23.160819,18977569828,life,http://api.map.baidu.com/place/detail?uid=b0c0d7cdc62e7ee931870a72&output=html&source=placeapi_v2,,,,,,,,,,,,,,,,,,113.62225357948,23.160716575235,0
ac173bf68a1d0eca6b49f3c0,叉车租赁,汽车服务,汽车租赁,广东省,广州市,增城区,广东省广州市增城区新新公路高屋北路39号,ac173bf68a1d0eca6b49f3c0,1,0,113.608477,23.156251,13610261559,life,http://api.map.baidu.com/place/detail?uid=ac173bf68a1d0eca6b49f3c0&output=html&source=placeapi_v2,,,,,,,,,,8,,,,,,,,113.60828912659,23.156194062981,0
409781a9bfa20745c72ba11d,豪车汇(拓展路店),汽车服务,汽车租赁,广东省,广州市,增城区,广州市增城区拓展路中森茗苑西北侧约50米,409781a9bfa20745c72ba11d,1,0,113.631158,23.134469,13751235536,life,http://api.map.baidu.com/place/detail?uid=409781a9bfa20745c72ba11d&output=html&source=placeapi_v2,,,,,,,,,,5,,,,,,,,113.63132090013,23.134386129963,0
db25983bb554f2de250bd01e,迅捷机动车信息服务部(乌石大道店),汽车服务,汽车租赁,广东省,广州市,增城区,广州市增城区乌石村大道步登高百货旁,db25983bb554f2de250bd01e,1,0,113.662861,23.147845,13676271342,life,http://api.map.baidu.com/place/detail?uid=db25983bb554f2de250bd01e&output=html&source=placeapi_v2,,,5.0,,,,,,,3,2,,,,,,,,,0
b13b02815bee27d82afc4848,E租赁,汽车服务,汽车租赁,广东省,东莞市,,东莞市北王路中堂国际纸业城西南侧约120米,,1,0,113.734319,23.134863,,life,http://api.map.baidu.com/place/detail?uid=b13b02815bee27d82afc4848&output=html&source=placeapi_v2,,,,,,,,,,3,,,,,,,,,,0
5d9f8089abadae8db23c8194,广州市世盛仓储服务有限公司仓储租赁服务部-地上停车场,汽车服务,汽车租赁,广东省,广州市,白云区,广州市白云区岗贝路148号世盛仓储服务有限公司仓储租赁服务部,5d9f8089abadae8db23c8194,1,0,113.262171,23.184534,,life,http://api.map.baidu.com/place/detail?uid=5d9f8089abadae8db23c8194&output=html&source=placeapi_v2,,00:00-24:00,0,,,,,,,,0,,,,,,,113.26217549284,23.184605809433,0
82d4313bff6d90b541d63e07,广州鸿通汽车租赁有限公司,汽车服务,汽车租赁,广东省,广州市,白云区,广东省广州市白云区远景路14号时代商务中心C栋,82d4313bff6d90b541d63e07,1,0,113.260735,23.177105,13711463933,life,http://api.map.baidu.com/place/detail?uid=82d4313bff6d90b541d63e07&output=html&source=placeapi_v2,,,,,,,,,,5,,,,,,,,113.26064976585,23.177086002819,0
e4c783a99f9e94bc7bdbd289,瑞卡租车(飞翔公园地铁站店),汽车服务,汽车租赁,广东省,广州市,白云区,广东省广州市白云区云城西路飞翔公园地铁站C出口停车场内,e4c783a99f9e94bc7bdbd289,1,0,113.269552,23.174728,,life,http://api.map.baidu.com/place/detail?uid=e4c783a99f9e94bc7bdbd289&output=html&source=placeapi_v2,,09:00-20:00,4.0,,,,,,,,,,,,,,,,,0
3a3b302140ccc8a38a36eef3,一嗨租车(三元里店),汽车服务,汽车租赁,广东省,广州市,白云区,广东省广州市白云区云城东路501号万达广场d区负2层,,1,0,113.272712,23.178075,(020)36683196,life,http://api.map.baidu.com/place/detail?uid=3a3b302140ccc8a38a36eef3&output=html&source=placeapi_v2,,08:00-21:00,5.0,,,,,,,,1,,,,,,,,,0
f236fabe88e3964b76e5b6c4,弘鑫车服,汽车服务,汽车租赁,广东省,广州市,白云区,广东省广州市白云区棠安路109号12号,,1,0,113.264425,23.193351,17512806810,life,http://api.map.baidu.com/place/detail?uid=f236fabe88e3964b76e5b6c4&output=html&source=placeapi_v2,,00:00-24:00,,,,,,,,2,,,,,,,,113.26422132615,23.193328665996,0
7b1719ababb0497a16764381,广州良伦汽车租赁服务有限公司,汽车服务,汽车租赁,广东省,广州市,白云区,棠安路棠新街398号,7b1719ababb0497a16764381,1,0,113.263623,23.194337,,life,http://api.map.baidu.com/place/detail?uid=7b1719ababb0497a16764381&output=html&source=placeapi_v2,,09:00-18:30,,,,,,,,5,,,,,,,,113.26364507914,23.194493276344,0
55e849ad5043f48ceddfcaf5,广州市鼎隆汽车租赁有限公司,汽车服务,汽车租赁,广东省,广州市,越秀区,广州市越秀区沙涌南村前大街北趣园湘菜北侧,55e849ad5043f48ceddfcaf5,1,0,113.255649,23.170881,15889970695,life,http://api.map.baidu.com/place/detail?uid=55e849ad5043f48ceddfcaf5&output=html&source=placeapi_v2,,,,,,,,,,4,,,,,,,,113.25557838389,23.170913628137,0
25df00575c763a596f3e1b2c,广州宜豪汽车租赁有限公司,汽车服务,汽车租赁,广东省,广州市,越秀区,广东省广州市越秀区三元里大道447号226房,25df00575c763a596f3e1b2c,1,0,113.261049,23.167864,15811883357,life,http://api.map.baidu.com/place/detail?uid=25df00575c763a596f3e1b2c&output=html&source=placeapi_v2,,00:00-24:00,,,,,,,,31,5,,,,,,,113.26125634305,23.167966925539,0
14069c0100f81429cae33cb4,广东永丰汽车租赁有限公司,汽车服务,汽车租赁,广东省,广州市,白云区,广东省广州市白云区金钟横路108号2层201室,14069c0100f81429cae33cb4,1,0,113.277033,23.176724,17302069789,life,http://api.map.baidu.com/place/detail?uid=14069c0100f81429cae33cb4&output=html&source=placeapi_v2,,,,,,,,,,1,,,,,,,,,,0
52a10a2d006ea3a60289722f,至尊用车(金钟路店),汽车服务,汽车租赁,广东省,广州市,白云区,广州市白云区金钟横路108号,,1,0,113.277466,23.177178,13631374775,life,http://api.map.baidu.com/place/detail?uid=52a10a2d006ea3a60289722f&output=html&source=placeapi_v2,,,,,,,,,,,,,,,,,,113.27735768779,23.177182902015,0
f32e3ca53e077ffbbadf8f5d,广州恒励汽车租赁有限公司,汽车服务,汽车租赁,广东省,广州市,白云区,广东省广州市白云区麒麟中街24号日顺大夏416室,,1,0,113.342914,23.190764,(020)86215382,life,http://api.map.baidu.com/place/detail?uid=f32e3ca53e077ffbbadf8f5d&output=html&source=placeapi_v2,,,,,,,,,,,,,,,,,,,,0
e81b86b988ef0d5a0b69d9be,丽影豪车汇(丽影总部),汽车服务,汽车租赁,广东省,广州市,天河区,广东省广州市天河区中成路300号酷车城a1~5号,e81b86b988ef0d5a0b69d9be,1,0,113.349373,23.191798,,life,http://api.map.baidu.com/place/detail?uid=e81b86b988ef0d5a0b69d9be&output=html&source=placeapi_v2,,09:00-18:30,0.0,,,,,,,8,,,,,,,,113.34952505964,23.191751074194,0
f50c1ce145b8a97c715e80fe,广州驭顺汽车租赁有限公司,汽车服务,汽车租赁,广东省,广州市,天河区,广东省广州市天河区沙太路银利街10号银利茶叶博览中心b栋5015室,f50c1ce145b8a97c715e80fe,1,0,113.329369,23.172139,(020)38987158,life,http://api.map.baidu.com/place/detail?uid=f50c1ce145b8a97c715e80fe&output=html&source=placeapi_v2,,09:00-18:00,5,,,,,,,12,3,,,,,,,113.32946341739,23.172147335729,0
51da89542ebb8d5dd13ce3cc,滴滴网约车租赁(天河司机招募点),汽车服务,汽车租赁,广东省,广州市,天河区,广东省广州市天河区科韵路岑村圣堂大街93号之一铺,51da89542ebb8d5dd13ce3cc,1,0,113.388658,23.173853,13288489879,life,http://api.map.baidu.com/place/detail?uid=51da89542ebb8d5dd13ce3cc&output=html&source=placeapi_v2,,10:00-22:00,,,,,,,,7,,,,,,,,,,0
7ae0dd3bcb78ccfa9fec2ba2,喜途充电租车,汽车服务,汽车租赁,广东省,广州市,天河区,广东省广州市天河区广汕一路332号,7ae0dd3bcb78ccfa9fec2ba2,1,0,113.379804,23.196162,(020)87031316,life,http://api.map.baidu.com/place/detail?uid=7ae0dd3bcb78ccfa9fec2ba2&output=html&source=placeapi_v2,,09:00-19:00,,,,,,,,,,,,,,,,113.38000801957,23.196025552332,0
aec0c6bc88eaf9898e55eced,平价自驾租车(天河店),汽车服务,汽车租赁,广东省,广州市,天河区,广东广州市天河区广讪一路288号,aec0c6bc88eaf9898e55eced,1,0,113.380896,23.196286,13169855230,life,http://api.map.baidu.com/place/detail?uid=aec0c6bc88eaf9898e55eced&output=html&source=placeapi_v2,,09:00-20:00,,,,,,,,,,,,,,,,,,0
1838bc35d552503710293561,广东富利全汽车租赁有限公司(天河店),汽车服务,汽车租赁,广东省,广州市,天河区,广州市天河区广汕一路广东生态工程职业学院西南侧约80米,1838bc35d552503710293561,1,0,113.381685,23.196984,(020)87049821,life,http://api.map.baidu.com/place/detail?uid=1838bc35d552503710293561&output=html&source=placeapi_v2,,09:00-18:00,0.0,,,,,,,,1,,,,,,,,,0
6bf348c3d47cf036a2d23074,小马出行汽车租赁,汽车服务,汽车租赁,广东省,广州市,天河区,广东省广州市天河区长兴路338-4号2楼,6bf348c3d47cf036a2d23074,1,0,113.369426,23.172953,13726763233,life,http://api.map.baidu.com/place/detail?uid=6bf348c3d47cf036a2d23074&output=html&source=placeapi_v2,,,3.7,,,,,,,7,3,,,,,,,113.36942291385,23.173014679452,0
ba7c0f05a1b74d504151c082,神州租车(植物园地铁站自助点),汽车服务,汽车租赁,广东省,广州市,天河区,广东省广州市天河区天源路1201号,ba7c0f05a1b74d504151c082,1,0,113.370875,23.196109,18676832761,life,http://api.map.baidu.com/place/detail?uid=ba7c0f05a1b74d504151c082&output=html&source=placeapi_v2,,08:00-21:00,,,,,,,,,,,,,,,,,,0
f75e4bcb9769741b4151c087,广州振中活通汽车出租有限公司,汽车服务,汽车租赁,广东省,广州市,天河区,广东省广州市天河区长兴路472-1号,f75e4bcb9769741b4151c087,1,0,113.365778,23.173015,(020)85522238,life,http://api.map.baidu.com/place/detail?uid=f75e4bcb9769741b4151c087&output=html&source=placeapi_v2,,,4.0,,,,,,,,1,,,,,,,113.36575273038,23.173202533417,0
bdb647562764a47c21026299,飞翔网约车,汽车服务,汽车租赁,广东省,广州市,天河区,广东省广州市天河区华观路天虹科技园A栋002房,bdb647562764a47c21026299,1,0,113.419316,23.173468,"17620128368,18928701489",life,http://api.map.baidu.com/place/detail?uid=bdb647562764a47c21026299&output=html&source=placeapi_v2,,00:00-24:00,,,,,,,,,,,,,,,,113.41928212599,23.173230464364,0
ce37f16f63638c75ede4a5a0,广州盛航汽车租赁有限公司,汽车服务,汽车租赁,广东省,广州市,黄埔区,广东省广州市黄埔区科学大道48号e栋2008房,ce37f16f63638c75ede4a5a0,1,0,113.435661,23.170559,(020)87280275,life,http://api.map.baidu.com/place/detail?uid=ce37f16f63638c75ede4a5a0&output=html&source=placeapi_v2,,,,,,,,,,,,,,,,,,113.43562627193,23.170396506389,0
3f413759b034a5652bd7ab0a,广州瑞特租赁服务有限公司,汽车服务,汽车租赁,广东省,广州市,黄埔区,广东省广州市黄埔区光谱西路3号,,1,0,113.424278,23.164862,,life,http://api.map.baidu.com/place/detail?uid=3f413759b034a5652bd7ab0a&output=html&source=placeapi_v2,,,,,,,,,,,,,,,,,,,,0
87ec0dcaab3d07966168580b,神州租车(萝岗万达广场服务点),汽车服务,汽车租赁,广东省,广州市,黄埔区,广东省广州市黄埔区开创大道2838号,,1,0,113.472658,23.177095,18620450805,life,http://api.map.baidu.com/place/detail?uid=87ec0dcaab3d07966168580b&output=html&source=placeapi_v2,,08:00-21:00,,,,,,,,1,,,,,,,,113.4726646217,23.17704630113,0
0065ce7773dd914579dbd235,汇通租车(万达广场广州萝岗店),汽车服务,汽车租赁,广东省,广州市,黄埔区,广州市黄埔区联和街道暹岗社区科丰路89号万达广场F1,0065ce7773dd914579dbd235,1,0,113.472497,23.170767,18933940911,life,http://api.map.baidu.com/place/detail?uid=0065ce7773dd914579dbd235&output=html&source=placeapi_v2,,00:00-24:00,,,,,,,,7,1,,,,,,,,,0
0dfc88a3feada503354aae6b,神州租车(萝岗黄陂服务点),汽车服务,汽车租赁,广东省,广州市,黄埔区,广东省广州市黄埔区开创大道3331号,0dfc88a3feada503354aae6b,1,0,113.451436,23.192813,18922700864,life,http://api.map.baidu.com/place/detail?uid=0dfc88a3feada503354aae6b&output=html&source=placeapi_v2,,08:00-21:00,,,,,,,,2,,,,,,,,113.45157864347,23.193053165914,0
d1b907a1630ee8af8f55ec18,龙俊汽车租赁有限公司(万达广场广州萝岗店),汽车服务,汽车租赁,广东省,广州市,黄埔区,广州市黄埔区科丰路万达广场(广州萝岗店)南门西南侧约90米,d1b907a1630ee8af8f55ec18,1,0,113.472473,23.170489,15322224008,life,http://api.map.baidu.com/place/detail?uid=d1b907a1630ee8af8f55ec18&output=html&source=placeapi_v2,,,,,,,,,,4,,,,,,,,,,0
09b4e73bd4a0401c26d2bb29,广州萝岗货车出租公司,汽车服务,汽车租赁,广东省,广州市,黄埔区,广州市黄埔区香雪三路3号,09b4e73bd4a0401c26d2bb29,1,0,113.48872,23.185041,,life,http://api.map.baidu.com/place/detail?uid=09b4e73bd4a0401c26d2bb29&output=html&source=placeapi_v2,,,,,,,,,,1,,,,,,,,,,0
392e06eb23767e033fe2319c,广州宏旅汽车服务有限公司,汽车服务,汽车租赁,广东省,广州市,黄埔区,广东省广州市黄埔区新内街14号,392e06eb23767e033fe2319c,1,0,113.576928,23.193267,"(020)32985982,13725339208",life,http://api.map.baidu.com/place/detail?uid=392e06eb23767e033fe2319c&output=html&source=placeapi_v2,,,,,,,,,,20,,,,,,,,,,0
76e3faf1d6e3c37528d7ab43,汇通汽车租凭有限公司,汽车服务,汽车租赁,广东省,广州市,增城区,广东省广州市增城区荔新公路农贸综合市场a区12号,,1,0,113.665081,23.176353,"13416356662,13922375588",life,http://api.map.baidu.com/place/detail?uid=76e3faf1d6e3c37528d7ab43&output=html&source=placeapi_v2,,00:00-24:00,,,,,,,,3,,,,,,,,,,0
ac80f531cb4e922e08ccdde9,通达网约车服务中心,汽车服务,汽车租赁,广东省,广州市,增城区,广东省广州市增城区荔新大道荔富广场35铺35店铺,,1,0,113.661441,23.174307,13318724971,life,http://api.map.baidu.com/place/detail?uid=ac80f531cb4e922e08ccdde9&output=html&source=placeapi_v2,,09:00-18:00,,,,,,,,4,,,,,,,,,,0
e6a18c66e7fd75d872210b6f,叉车出租服务部,汽车服务,汽车租赁,广东省,广州市,增城区,广州市增城区新塘镇白水村上坊街1号,,1,0,113.645559,23.173223,13556021798,life,http://api.map.baidu.com/place/detail?uid=e6a18c66e7fd75d872210b6f&output=html&source=placeapi_v2,,00:00-24:00,,,,,,,,12,11,,,,,,,,,0
48df2b7b220b05cd88b988cb,珠江租赁,汽车服务,汽车租赁,广东省,广州市,白云区,广州市白云区悦馨东路南悦花苑,48df2b7b220b05cd88b988cb,1,0,113.266619,23.218228,,life,http://api.map.baidu.com/place/detail?uid=48df2b7b220b05cd88b988cb&output=html&source=placeapi_v2,,,,,,,,,,2,,,,,,,,,,0
977e7b45f3c912312102621b,广交出租四分公司,汽车服务,汽车租赁,广东省,广州市,白云区,广东省广州市白云区鹤南中路82号,977e7b45f3c912312102621b,1,0,113.270474,23.224366,,life,http://api.map.baidu.com/place/detail?uid=977e7b45f3c912312102621b&output=html&source=placeapi_v2,,,,,,,,,,5,,,,,,,,113.27033489448,23.224338628742,0
2006ba4ddd3646926fa3ccf0,达天下(广州)运营中心,汽车服务,汽车租赁,广东省,广州市,白云区,广东省广州市白云区鹤龙路海峡两岸汇龙信息产业科技园D座3028室,2006ba4ddd3646926fa3ccf0,1,0,113.273758,23.21849,,life,http://api.map.baidu.com/place/detail?uid=2006ba4ddd3646926fa3ccf0&output=html&source=placeapi_v2,,,,,,,,,,,,,,,,,,,,0
fab74e901a169feea21de905,瑞卡租车(石井店),汽车服务,汽车租赁,广东省,广州市,白云区,广东广州市白云区石槎路3号石井城市广场c区c栋,fab74e901a169feea21de905,1,0,113.249635,23.211912,,life,http://api.map.baidu.com/place/detail?uid=fab74e901a169feea21de905&output=html&source=placeapi_v2,,09:00-21:00,0,,,,,,,11,0,,,,,,,,,0
bba1446a73296c0ca7c756d4,蓝鹰公寓租赁处,汽车服务,汽车租赁,广东省,广州市,白云区,广州市白云区大冈中街大冈小学西北侧,bba1446a73296c0ca7c756d4,1,0,113.248207,23.217809,,life,http://api.map.baidu.com/place/detail?uid=bba1446a73296c0ca7c756d4&output=html&source=placeapi_v2,,,,,,,,,,1,,,,,,,,,,0
951606714abc822e86420e62,优适联汽车租赁,汽车服务,汽车租赁,广东省,广州市,白云区,广东省广州市白云区机场路1630号117房,951606714abc822e86420e62,1,0,113.271142,23.206386,15918532362,life,http://api.map.baidu.com/place/detail?uid=951606714abc822e86420e62&output=html&source=placeapi_v2,,09:00-18:00,5,,,,,,,3,2,,,,,,,,,0
e4b6c457bf1c31cb82a12e6c,广州留香之家汽车租赁有限责任公司,汽车服务,汽车租赁,广东省,广州市,白云区,广州市白云区白云湖街夏茅南约商业街2号,e4b6c457bf1c31cb82a12e6c,1,0,113.268024,23.229286,4009963099,life,http://api.map.baidu.com/place/detail?uid=e4b6c457bf1c31cb82a12e6c&output=html&source=placeapi_v2,,08:30-18:00,,,,,,,,,,,,,,,,,,0
54060ffa78a83fc4a8f7293f,广州南油汽车出租公司,汽车服务,汽车租赁,广东省,广州市,白云区,广东省广州市白云区黄石东路173号新苑大厦4梯,54060ffa78a83fc4a8f7293f,1,0,113.275278,23.21001,,life,http://api.map.baidu.com/place/detail?uid=54060ffa78a83fc4a8f7293f&output=html&source=placeapi_v2,,,0.0,,,,,,,,1,,,,,,,113.27538170133,23.209645989045,0
c714b900dfaf14fbd23ce309,庆星的士出租公司,汽车服务,汽车租赁,广东省,广州市,白云区,广东广州市白云区鹤泰路雅迪科技园4号楼2楼,c714b900dfaf14fbd23ce309,1,0,113.27874,23.221027,,life,http://api.map.baidu.com/place/detail?uid=c714b900dfaf14fbd23ce309&output=html&source=placeapi_v2,,09:00-18:30,,,,,,,,,,,,,,,,113.27874218229,23.221182934909,0
717dc641f6fdad10d518b703,广州三群汽车租赁有限公司,汽车服务,汽车租赁,广东省,广州市,白云区,广东省广州市白云区广花一路南港广场127号,,1,0,113.267329,23.233945,17727651106,life,http://api.map.baidu.com/place/detail?uid=717dc641f6fdad10d518b703&output=html&source=placeapi_v2,,,,,,,,,,3,,,,,,,,,,0
5415e036bf5cf42de60738cb,广州市白云出租汽车集团有限公司(出租汽车第三分公司),汽车服务,汽车租赁,广东省,广州市,白云区,广东省广州市白云区商业街2号,5415e036bf5cf42de60738cb,1,0,113.268107,23.229294,(020)86552110,life,http://api.map.baidu.com/place/detail?uid=5415e036bf5cf42de60738cb&output=html&source=placeapi_v2,,00:00-23:55,,,,,,,,8,1,,,,,,,113.26817515677,23.229257717221,0
42a7a252c2edb4132fe67b62,广州六六六商务服务有限公司,汽车服务,汽车租赁,广东省,广州市,白云区,广东省广州市白云区丛云路816号柏丰商务大厦首层A119室,42a7a252c2edb4132fe67b62,1,0,113.305126,23.220285,"13538794768,4001088601",life,http://api.map.baidu.com/place/detail?uid=42a7a252c2edb4132fe67b62&output=html&source=placeapi_v2,,08:00-18:00,0.0,,,,,,,25,4,,,,,,,,,0
444285005a2883293717dcdf,广州盈泰汽车租赁有限公司,汽车服务,汽车租赁,广东省,广州市,白云区,广东省广州市白云区黄边北路569号,444285005a2883293717dcdf,1,0,113.299668,23.226952,13802780158,life,http://api.map.baidu.com/place/detail?uid=444285005a2883293717dcdf&output=html&source=placeapi_v2,,,,,,,,,,3,,,,,,,,113.29961547501,23.22702207462,0
f92ab4c8b74996f0f72310ba,新利出租车之家,汽车服务,汽车租赁,广东省,广州市,白云区,广东省广州市白云区东一街3号102铺,f92ab4c8b74996f0f72310ba,1,0,113.285845,23.211589,"13826191681,18148600373",life,http://api.map.baidu.com/place/detail?uid=f92ab4c8b74996f0f72310ba&output=html&source=placeapi_v2,,00:00-24:00,,,,,,,,6,,,,,,,,113.28589698446,23.211576095744,0
3d73cc772557e5521c38945f,广州市路缘汽车租赁服务有限公司,汽车服务,汽车租赁,广东省,广州市,白云区,广州市白云区颐和山庄颐和南街1号商铺8号,,1,0,113.319263,23.223199,,life,http://api.map.baidu.com/place/detail?uid=3d73cc772557e5521c38945f&output=html&source=placeapi_v2,,09:30-18:00,0.0,,,,,,,1,1,,,,,,,,,0
6c9b3fc83f210f2ea9175a33,一嗨租车(江夏地铁站店),汽车服务,汽车租赁,广东省,广州市,白云区,广东省广州市白云区江夏北二路一巷5号,6c9b3fc83f210f2ea9175a33,1,0,113.289747,23.218879,(020)36713370,life,http://api.map.baidu.com/place/detail?uid=6c9b3fc83f210f2ea9175a33&output=html&source=placeapi_v2,,08:00-21:00,0,,,,,,,3,1,,,,,,,113.2897796567,23.218965311783,0
276c0b6d98dba2f7260bd078,弘鑫名车,汽车服务,汽车租赁,广东省,广州市,白云区,广东省广州市白云区同和路402号,276c0b6d98dba2f7260bd078,1,0,113.336037,23.216848,13128277800,life,http://api.map.baidu.com/place/detail?uid=276c0b6d98dba2f7260bd078&output=html&source=placeapi_v2,,,,,,,,,,9,,,,,,,,113.33592278466,23.216849850732,0
7fd5a34083b84520c1f1cfac,广州粤安汽车租赁服务有限公司,汽车服务,汽车租赁,广东省,广州市,白云区,广东省广州市白云区大陂南路7-1号负1楼,7fd5a34083b84520c1f1cfac,1,0,113.332726,23.215004,,life,http://api.map.baidu.com/place/detail?uid=7fd5a34083b84520c1f1cfac&output=html&source=placeapi_v2,,,0.0,,,,,,,1,1,,,,,,,,,0
793bc3664ade80bceddfcaf9,广州裔隆校车租赁服务有限公司,汽车服务,汽车租赁,广东省,广州市,白云区,广东省广州市白云区同和路983号,,1,0,113.341052,23.227786,(020)36544428,life,http://api.map.baidu.com/place/detail?uid=793bc3664ade80bceddfcaf9&output=html&source=placeapi_v2,,,0.0,,,,,,,2,1,,,,,,,,,0
efb761583f671e7c79b55c2e,广州京旺汽车租赁有限公司,汽车服务,汽车租赁,广东省,广州市,白云区,广东省广州市白云区同泰路101号,,1,0,113.324235,23.219767,,life,http://api.map.baidu.com/place/detail?uid=efb761583f671e7c79b55c2e&output=html&source=placeapi_v2,,,,,,,,,,1,,,,,,,,113.32419534155,23.2195590233,0
3481b17f67ec17be80a00c92,赢时通租赁有限公司,汽车服务,汽车租赁,广东省,广州市,天河区,瑜翠园停车场内,3481b17f67ec17be80a00c92,1,0,113.372261,23.21523,,life,http://api.map.baidu.com/place/detail?uid=3481b17f67ec17be80a00c92&output=html&source=placeapi_v2,,,,,,,,,,1,,,,,,,,,,0
31e7145045cd20bbd8eced24,广州滴壹汽车租赁有限公司,汽车服务,汽车租赁,广东省,广州市,天河区,广东省广州市天河区迎龙路223-107号,,1,0,113.370629,23.213422,13580531117,life,http://api.map.baidu.com/place/detail?uid=31e7145045cd20bbd8eced24&output=html&source=placeapi_v2,,09:00-20:00,,,,,,,,10,2,,,,,,,,,0
