uid,name,cat_L1,cat_L2,province,city,area,address,street_id,detail,child_num,loc_lng,loc_lat,telephone,type,detail_url,price,shop_hours,overall_rating,taste_rating,service_rating,environment_rating,facility_rating,hygiene_rating,technology_rating,image_num,comment_num,groupon_num,discount_num,favorite_num,checkin_num,brand,content_tag,naviloc_lng,naviloc_lat,child_num
005a3f9a50a95c790782c268,东莞市厚街溪头市场办公室,政府机构,行政单位,广东省,东莞市,,东莞市长塘南路溪头综合市场(溪头西路)东北侧约30米,005a3f9a50a95c790782c268,1,0,113.666215,22.89806,,life,http://api.map.baidu.com/place/detail?uid=005a3f9a50a95c790782c268&output=html&source=placeapi_v2,,,,,,,,,,,,,,,,,,113.66628144321,22.897895590943,0
819cad04c7202efcd23ce307,东莞市公安局交通警察车辆管理所华沣机动车临时号牌服务点,政府机构,行政单位,广东省,东莞市,,东莞市莞太路与东溪西路交叉路口往南180米(鑫浩源科技园西北侧约100米),819cad04c7202efcd23ce307,1,0,113.667255,22.900312,(0769)12123,life,http://api.map.baidu.com/place/detail?uid=819cad04c7202efcd23ce307&output=html&source=placeapi_v2,,,,,,,,,,2,,,,,,,,113.66693108158,22.900344675145,0
23d1431dcd9b07e4f6e73b47,厚街镇溪头村坏境卫生管理办公室,政府机构,行政单位,广东省,东莞市,,东莞市长塘南路溪头综合市场(溪头西路)东北侧约30米,23d1431dcd9b07e4f6e73b47,1,0,113.666258,22.897991,,life,http://api.map.baidu.com/place/detail?uid=23d1431dcd9b07e4f6e73b47&output=html&source=placeapi_v2,,,,,,,,,,,,,,,,,,113.66629424675,22.89790000199,0
2ef7df400a402c786849f338,溪头社区兼职消防队交通安全劝导站,政府机构,行政单位,广东省,东莞市,,东莞市东溪西路恒锋家具博览中心西侧约50米,2ef7df400a402c786849f338,1,0,113.664689,22.902569,,life,http://api.map.baidu.com/place/detail?uid=2ef7df400a402c786849f338&output=html&source=placeapi_v2,,,5.0,,,,,,,2,1,,,,,,,113.66460161639,22.90259132882,0
63453d870cf46952ab175ac3,联防执勤点,政府机构,行政单位,广东省,东莞市,,广东省东莞市厚街镇南五村东溪东路88号A栋附近,63453d870cf46952ab175ac3,1,0,113.663285,22.895586,,life,http://api.map.baidu.com/place/detail?uid=63453d870cf46952ab175ac3&output=html&source=placeapi_v2,,,,,,,,,,,,,,,,,,,,0
9ffbaf04c35b6f9536b06cf3,厚街镇溪头社区应急庇护站,政府机构,行政单位,广东省,东莞市,,东莞市巷头八巷厚街镇溪头小学东侧约70米,,1,0,113.665815,22.896341,,life,http://api.map.baidu.com/place/detail?uid=9ffbaf04c35b6f9536b06cf3&output=html&source=placeapi_v2,,,,,,,,,,1,,,,,,,,,,0
55752c7658445a6f46e2742a,东莞市厚街镇宝塘宝隆商业步行街办公室,政府机构,行政单位,广东省,东莞市,,广东省东莞市宝塘村宝溪路1号,55752c7658445a6f46e2742a,1,0,113.670778,22.889927,,life,http://api.map.baidu.com/place/detail?uid=55752c7658445a6f46e2742a&output=html&source=placeapi_v2,,,,,,,,,,2,,,,,,,,113.67089740044,22.890024203971,0
6004fc4fb351a363a80dd80a,商业街办公室,政府机构,行政单位,广东省,东莞市,,东莞市莞太路鑫浩源工业园北侧约30米,6004fc4fb351a363a80dd80a,1,0,113.668696,22.899385,,life,http://api.map.baidu.com/place/detail?uid=6004fc4fb351a363a80dd80a&output=html&source=placeapi_v2,,,,,,,,,,3,,,,,,,,,,0
eedbae3fdedcc7ce316212a6,厚街镇溪头社区避灾场所,政府机构,行政单位,广东省,东莞市,,东莞市莞太路丰泽楼西南侧约40米,eedbae3fdedcc7ce316212a6,1,0,113.66752,22.895812,,life,http://api.map.baidu.com/place/detail?uid=eedbae3fdedcc7ce316212a6&output=html&source=placeapi_v2,,,,,,,,,,2,,,,,,,,113.66739748809,22.895801669822,0
3ec8ca254c933e5e203bf27a,管理中心,政府机构,行政单位,广东省,东莞市,,东莞市水锻范巷坤利花园西侧约200米,3ec8ca254c933e5e203bf27a,1,0,113.657017,22.898273,,life,http://api.map.baidu.com/place/detail?uid=3ec8ca254c933e5e203bf27a&output=html&source=placeapi_v2,,,,,,,,,,7,,,,,,,,,,0
302e4815a96825328bdb73ef,厚街镇沙塘村综治工作站,政府机构,行政单位,广东省,东莞市,,东莞市沙塘新一村北四巷与沙新路交叉路口往南约190米,302e4815a96825328bdb73ef,1,0,113.662973,22.890877,,life,http://api.map.baidu.com/place/detail?uid=302e4815a96825328bdb73ef&output=html&source=placeapi_v2,,,,,,,,,,,,,,,,,,113.66301972458,22.890933212187,0
a6e26d3efb61dd1fa6da39c2,东莞厚街溪头励泰皮具制造厂劳动争议调解委员会,政府机构,行政单位,广东省,东莞市,,广东省东莞市厚街镇溪头工业区溪头东路与二环路交叉路口往东约150米(金旺鞋业有限公司东北侧约50米),a6e26d3efb61dd1fa6da39c2,1,0,113.673915,22.896249,,life,http://api.map.baidu.com/place/detail?uid=a6e26d3efb61dd1fa6da39c2&output=html&source=placeapi_v2,,,,,,,,,,0,,,,,,,,113.67417335085,22.896143257596,0
751b828b995e9d6d7369d374,东莞市水务投资集团有限公司第四工程管理处,政府机构,行政单位,广东省,东莞市,,广东省东莞市,751b828b995e9d6d7369d374,1,0,113.650801,22.890159,,life,http://api.map.baidu.com/place/detail?uid=751b828b995e9d6d7369d374&output=html&source=placeapi_v2,,,0.0,,,,,,,0,1,,,,,,,113.65071324549,22.889871586179,0
0d8dcd61ebf4376588db7308,中@・方园创意工场管理处,政府机构,行政单位,广东省,东莞市,,东莞市坤利花园西北侧约210米,,1,0,113.657046,22.900018,,life,http://api.map.baidu.com/place/detail?uid=0d8dcd61ebf4376588db7308&output=html&source=placeapi_v2,,,,,,,,,,1,,,,,,,,,,0
d8a549e62f4c70c1157643ba,招商办公室,政府机构,行政单位,广东省,东莞市,,东莞市康乐南路3-4号附近,d8a549e62f4c70c1157643ba,1,0,113.656669,22.899319,,life,http://api.map.baidu.com/place/detail?uid=d8a549e62f4c70c1157643ba&output=html&source=placeapi_v2,,,,,,,,,,1,,,,,,,,,,0
374cea184534021b43ab9a8a,合益管理处,政府机构,行政单位,广东省,东莞市,,沙新路200-002号附近,374cea184534021b43ab9a8a,1,0,113.669478,22.897127,,life,http://api.map.baidu.com/place/detail?uid=374cea184534021b43ab9a8a&output=html&source=placeapi_v2,,,,,,,,,,4,,,,,,,,,,0
c6f00c3d7888f0390d3ddaec,联防执勤点,政府机构,行政单位,广东省,东莞市,,东莞市水锻范巷胜仙小苑西南侧约240米,c6f00c3d7888f0390d3ddaec,1,0,113.657006,22.895725,,life,http://api.map.baidu.com/place/detail?uid=c6f00c3d7888f0390d3ddaec&output=html&source=placeapi_v2,,,,,,,,,,,,,,,,,,,,0
4bb049d91b7c9e479900505c,下汴敬老中心,政府机构,行政单位,广东省,东莞市,,东莞市汴康路汴庆楼东南侧约70米,4bb049d91b7c9e479900505c,1,0,113.671018,22.884756,,life,http://api.map.baidu.com/place/detail?uid=4bb049d91b7c9e479900505c&output=html&source=placeapi_v2,,,,,,,,,,5,,,,,,,,,,0
969a4207861298a3c6effb34,微型消防站,政府机构,行政单位,广东省,东莞市,,东莞市会展南路广东现代国际展览中心西南门东侧约50米,969a4207861298a3c6effb34,1,0,113.660603,22.905095,,life,http://api.map.baidu.com/place/detail?uid=969a4207861298a3c6effb34&output=html&source=placeapi_v2,,,,,,,,,,1,,,,,,,,,,0
a7692c96a53429db55bfff5a,贵州省扶投劳动就业,政府机构,行政单位,广东省,东莞市,,广东省东莞市厚街镇东莞菲太电子有限公司溪头一横路3号101,a7692c96a53429db55bfff5a,1,0,113.669983,22.900719,,life,http://api.map.baidu.com/place/detail?uid=a7692c96a53429db55bfff5a&output=html&source=placeapi_v2,,,,,,,,,,2,,,,,,,,,,0
002d2d4dd099b68dc51e5162,莞亿智谷招商中心,政府机构,行政单位,广东省,东莞市,,广东省东莞市厚街镇溪头东溪东路7号,002d2d4dd099b68dc51e5162,1,0,113.669993,22.901314,,life,http://api.map.baidu.com/place/detail?uid=002d2d4dd099b68dc51e5162&output=html&source=placeapi_v2,,,,,,,,,,1,,,,,,,,113.67009768216,22.901388690378,0
a2daf401b5b13faff4eafc3b,中@物流园招商处,政府机构,行政单位,广东省,东莞市,,东莞市莞太路德朗物流园,a2daf401b5b13faff4eafc3b,1,0,113.667582,22.893618,,life,http://api.map.baidu.com/place/detail?uid=a2daf401b5b13faff4eafc3b&output=html&source=placeapi_v2,,,,,,,,,,8,,,,,,,,,,0
01bf7726b74a51d458bbbc54,厚街镇沙塘社区人力资源服务站,政府机构,行政单位,广东省,东莞市,,东莞市厚街镇沙隆路3号,01bf7726b74a51d458bbbc54,1,0,113.662935,22.8909,,life,http://api.map.baidu.com/place/detail?uid=01bf7726b74a51d458bbbc54&output=html&source=placeapi_v2,,"08:30-12:00,14:00-17:30",,,,,,,,,,,,,,,,113.66295232478,22.890831953478,0
b7577e43f458e9558605bf8d,中@物流园管理处,政府机构,行政单位,广东省,东莞市,,东莞市莞太路德朗物流园,b7577e43f458e9558605bf8d,1,0,113.667013,22.892637,,life,http://api.map.baidu.com/place/detail?uid=b7577e43f458e9558605bf8d&output=html&source=placeapi_v2,,,,,,,,,,7,,,,,,,,113.6669620866,22.892632152843,0
3c5ef17a0dd593c15e0d02af,沙塘社区综治信访维稳工作站,政府机构,行政单位,广东省,东莞市,,东莞市沙隆路厚街镇沙塘村综治工作站,3c5ef17a0dd593c15e0d02af,1,0,113.662945,22.890872,,life,http://api.map.baidu.com/place/detail?uid=3c5ef17a0dd593c15e0d02af&output=html&source=placeapi_v2,,,,,,,,,,,,,,,,,,,,0
3ec9284ea63b15a9d0ff2346,行政中心,政府机构,行政单位,广东省,东莞市,,东莞市东溪西路东莞仁康医院(东溪西路),3ec9284ea63b15a9d0ff2346,1,0,113.657527,22.904377,,life,http://api.map.baidu.com/place/detail?uid=3ec9284ea63b15a9d0ff2346&output=html&source=placeapi_v2,,,,,,,,,,,,,,,,,,113.65748702837,22.904225081005,0
a40ea981d8711c8b841541e5,警察执法,政府机构,行政单位,广东省,东莞市,,东莞市家具大道广东现代国际展览中心,,1,0,113.665878,22.908058,,life,http://api.map.baidu.com/place/detail?uid=a40ea981d8711c8b841541e5&output=html&source=placeapi_v2,,,,,,,,,,,,,,,,,,,,0
a2659f5858a23d90a80dd85c,沙塘社区全民创安一呼百应应急分队,政府机构,行政单位,广东省,东莞市,,东莞市沙隆路厚街镇沙塘村综治工作站,a2659f5858a23d90a80dd85c,1,0,113.662921,22.890893,,life,http://api.map.baidu.com/place/detail?uid=a2659f5858a23d90a80dd85c&output=html&source=placeapi_v2,,,,,,,,,,1,,,,,,,,113.66293802825,22.890828341669,0
a726f8bb2b2cda8a441a32e3,宝塘村劳动服务站,政府机构,行政单位,广东省,东莞市,,东莞市宝塔路宝塘文化广场东南侧约260米,a726f8bb2b2cda8a441a32e3,1,0,113.669658,22.888725,(0769)81713322,life,http://api.map.baidu.com/place/detail?uid=a726f8bb2b2cda8a441a32e3&output=html&source=placeapi_v2,,,0,,,,,,,4,0,,,,,,,113.66961379194,22.888820769804,0
eafd2707da9a58ebad080f3d,东莞厚街镇南五雀岭村民小组,政府机构,行政单位,广东省,东莞市,,东莞市雀岭街南五文化公园西北侧约120米,eafd2707da9a58ebad080f3d,1,0,113.670762,22.912381,,life,http://api.map.baidu.com/place/detail?uid=eafd2707da9a58ebad080f3d&output=html&source=placeapi_v2,,,,,,,,,,,,,,,,,,113.67099529957,22.912272857207,0
4091646a61dd4ddb72210b2c,组委会办公室,政府机构,行政单位,广东省,东莞市,,东莞市家具大道广东现代国际展览中心,4091646a61dd4ddb72210b2c,1,0,113.664599,22.907831,,life,http://api.map.baidu.com/place/detail?uid=4091646a61dd4ddb72210b2c&output=html&source=placeapi_v2,,,,,,,,,,,,,,,,,,113.66426057291,22.907977411299,0
ab2153ea7db21fcaf7eafc34,东莞市公安局交警支队沙溪交通警务区,政府机构,行政单位,广东省,东莞市,,东莞市宝塔路宝塘文化广场东南侧约250米,ab2153ea7db21fcaf7eafc34,1,0,113.669677,22.888979,,life,http://api.map.baidu.com/place/detail?uid=ab2153ea7db21fcaf7eafc34&output=html&source=placeapi_v2,,,,,,,,,,,,,,,,,,113.66972335107,22.888925081288,0
3e27205933e6dec67f29bdf0,厚街镇下汴社区人力资源服务站,政府机构,行政单位,广东省,东莞市,,东莞市一环路汴庆楼东南侧约30米,3e27205933e6dec67f29bdf0,1,0,113.670537,22.88474,,life,http://api.map.baidu.com/place/detail?uid=3e27205933e6dec67f29bdf0&output=html&source=placeapi_v2,,"08:30-12:00,14:30-17:30",,,,,,,,3,,,,,,,,113.67063832823,22.884753898074,0
469a543c5631454af90cad05,濠丰办公室,政府机构,行政单位,广东省,东莞市,,广东省东莞市莞太路濠丰百货广场(源丰店),469a543c5631454af90cad05,1,0,113.665877,22.889928,,life,http://api.map.baidu.com/place/detail?uid=469a543c5631454af90cad05&output=html&source=placeapi_v2,,,,,,,,,,4,,,,,,,,113.66584648009,22.889861251336,0
55b7918a68ad4775704b875e,德朗管理处,政府机构,行政单位,广东省,东莞市,,东莞市天源家具西北侧约190米,55b7918a68ad4775704b875e,1,0,113.655291,22.892289,,life,http://api.map.baidu.com/place/detail?uid=55b7918a68ad4775704b875e&output=html&source=placeapi_v2,,,,,,,,,,,,,,,,,,,,0
6718a50fb2da38b315764366,厚街镇南五社区安全生产委员会,政府机构,行政单位,广东省,东莞市,,广东省东莞市南五大街北23号,6718a50fb2da38b315764366,1,0,113.671927,22.911494,,life,http://api.map.baidu.com/place/detail?uid=6718a50fb2da38b315764366&output=html&source=placeapi_v2,,,,,,,,,,,,,,,,,,,,0
af16843006aa1c76f5c59ce6,宝塘社区调解室,政府机构,行政单位,广东省,东莞市,,东莞市宝塘村宝塔路16号,af16843006aa1c76f5c59ce6,1,0,113.669742,22.888679,,life,http://api.map.baidu.com/place/detail?uid=af16843006aa1c76f5c59ce6&output=html&source=placeapi_v2,,,,,,,,,,,,,,,,,,113.66961797085,22.888823844211,0
399ae15920b5538a33169bf7,新明楼办公室,政府机构,行政单位,广东省,东莞市,,东莞市宝塘培贤路明远农批市场西侧,399ae15920b5538a33169bf7,1,0,113.665404,22.888675,,life,http://api.map.baidu.com/place/detail?uid=399ae15920b5538a33169bf7&output=html&source=placeapi_v2,,,,,,,,,,4,,,,,,,,,,0
da3766d93bf8b3d842d63e3b,幸福楼住房,政府机构,行政单位,广东省,东莞市,,东莞市东新街汇展中央东南侧约160米,da3766d93bf8b3d842d63e3b,1,0,113.671341,22.906681,,life,http://api.map.baidu.com/place/detail?uid=da3766d93bf8b3d842d63e3b&output=html&source=placeapi_v2,,,,,,,,,,0,,,,,,,,113.67117905874,22.906725970878,0
9d170a7b637675e72b201a33,工商注册记账报税,政府机构,行政单位,广东省,东莞市,,东莞市莞太路凭良技校北侧约210米,9d170a7b637675e72b201a33,1,0,113.667747,22.886526,"13670066560,18825896560",life,http://api.map.baidu.com/place/detail?uid=9d170a7b637675e72b201a33&output=html&source=placeapi_v2,,08:00-18:00,,,,,,,,6,,,,,,,,113.66764572044,22.886513306972,0
0e24637800745547bd48423d,下汴村委会人民调解委员会,政府机构,行政单位,广东省,东莞市,,东莞市汴康路文化广场东南侧约40米,0e24637800745547bd48423d,1,0,113.670321,22.884288,,life,http://api.map.baidu.com/place/detail?uid=0e24637800745547bd48423d&output=html&source=placeapi_v2,,,,,,,,,,,,,,,,,,113.6702842189,22.884464064815,0
0ffc7964469ca07688b988f4,宝塘外来人口出租屋管理办公室,政府机构,行政单位,广东省,东莞市,,东莞市宝塔路华南好景电线电缆城(博览大道店)西南侧约150米,0ffc7964469ca07688b988f4,1,0,113.673783,22.890805,,life,http://api.map.baidu.com/place/detail?uid=0ffc7964469ca07688b988f4&output=html&source=placeapi_v2,,,,,,,,,,1,,,,,,,,113.67378016074,22.8908519861,0
26910cb2cf6e9e1c84420e99,厚街镇沙溪消防站,政府机构,行政单位,广东省,东莞市,,广东省东莞市厚街镇宝塘村宝石路1号,,1,0,113.67378,22.89122,(0769)85030259,life,http://api.map.baidu.com/place/detail?uid=26910cb2cf6e9e1c84420e99&output=html&source=placeapi_v2,,,,,,,,,,1,,,,,,,,,,0
da4ca63226562d25102935c2,南五村劳动服务站,政府机构,行政单位,广东省,东莞市,,东莞市南五大街南五文化公园东北侧约40米,da4ca63226562d25102935c2,1,0,113.672392,22.911591,,life,http://api.map.baidu.com/place/detail?uid=da4ca63226562d25102935c2&output=html&source=placeapi_v2,,,,,,,,,,,,,,,,,,,,0
2f7ff4a07b4222c55abbbcf3,下汴商业步行街办公室,政府机构,行政单位,广东省,东莞市,,东莞市一环路文化广场东南侧约90米,2f7ff4a07b4222c55abbbcf3,1,0,113.670245,22.883799,,life,http://api.map.baidu.com/place/detail?uid=2f7ff4a07b4222c55abbbcf3&output=html&source=placeapi_v2,,,,,,,,,,2,,,,,,,,113.67035521378,22.883301872984,0
ef8d737a8d39e269d42ce2b5,交通安全劝导站,政府机构,行政单位,广东省,东莞市,,东莞市宝塔路宝塘文化广场东南侧约230米,ef8d737a8d39e269d42ce2b5,1,0,113.669259,22.888696,,life,http://api.map.baidu.com/place/detail?uid=ef8d737a8d39e269d42ce2b5&output=html&source=placeapi_v2,,,,,,,,,,,,,,,,,,,,0
17a34e78ef0761b76140a930,厚街镇宝塘社区居务监督委员会,政府机构,行政单位,广东省,东莞市,,东莞市宝塔路明远农批市场东侧约200米,17a34e78ef0761b76140a930,1,0,113.668744,22.888575,,life,http://api.map.baidu.com/place/detail?uid=17a34e78ef0761b76140a930&output=html&source=placeapi_v2,,,,,,,,,,1,,,,,,,,113.66867497375,22.888531565939,0
c972b83c7a2e689d1894c6d6,下汴外来人口出租屋管理办公室,政府机构,行政单位,广东省,东莞市,,东莞市汴康路文化广场东南侧约50米,c972b83c7a2e689d1894c6d6,1,0,113.670322,22.884112,,life,http://api.map.baidu.com/place/detail?uid=c972b83c7a2e689d1894c6d6&output=html&source=placeapi_v2,,,,,,,,,,,,,,,,,,113.67024923798,22.88445778345,0
56916c0091de364cadb22a70,厚街镇宝塘村交通安全劝导站,政府机构,行政单位,广东省,东莞市,,东莞市宝塔路宝塘文化广场东南侧约260米,56916c0091de364cadb22a70,1,0,113.669675,22.888726,,life,http://api.map.baidu.com/place/detail?uid=56916c0091de364cadb22a70&output=html&source=placeapi_v2,,,,,,,,,,5,,,,,,,,113.66960099018,22.888811350644,0
90bceeefa1a0924d0bf5eb7a,宝塘社区环卫管理办公室,政府机构,行政单位,广东省,东莞市,,东莞市宝塔路宝塘文化广场东南侧约260米,90bceeefa1a0924d0bf5eb7a,1,0,113.669732,22.888792,,life,http://api.map.baidu.com/place/detail?uid=90bceeefa1a0924d0bf5eb7a&output=html&source=placeapi_v2,,,,,,,,,,7,,,,,,,,113.66967080379,22.888862715282,0
2bd85712db2f7cf531870a9b,厚街镇宝塘社区社会治理运营中心,政府机构,行政单位,广东省,东莞市,,东莞市宝塔路宝塘文化广场东南侧约230米,2bd85712db2f7cf531870a9b,1,0,113.669218,22.888686,,life,http://api.map.baidu.com/place/detail?uid=2bd85712db2f7cf531870a9b&output=html&source=placeapi_v2,,,,,,,,,,4,,,,,,,,,,0
e2c2cff3181450c92bb97c0e,南五村雀岭村民小组综治信访维稳工作室,政府机构,行政单位,广东省,东莞市,,东莞市雀岭街南五文化公园西北侧约110米,e2c2cff3181450c92bb97c0e,1,0,113.670781,22.912313,,life,http://api.map.baidu.com/place/detail?uid=e2c2cff3181450c92bb97c0e&output=html&source=placeapi_v2,,,,,,,,,,,,,,,,,,,,0
ca37d4b5bbae2cd0b05c6a5f,厚街镇南五社区出租屋安全消防综合管理办公室,政府机构,行政单位,广东省,东莞市,,东莞市南五大街南五文化公园,ca37d4b5bbae2cd0b05c6a5f,1,0,113.672014,22.911629,,life,http://api.map.baidu.com/place/detail?uid=ca37d4b5bbae2cd0b05c6a5f&output=html&source=placeapi_v2,,,,,,,,,,1,,,,,,,,113.67209567531,22.911634884153,0
55365e5eff3d993bfb22131c,富森发办事处,政府机构,行政单位,广东省,东莞市,,东莞市厚街镇宝塘康乐路10号,55365e5eff3d993bfb22131c,1,0,113.661112,22.884549,,life,http://api.map.baidu.com/place/detail?uid=55365e5eff3d993bfb22131c&output=html&source=placeapi_v2,,,,,,,,,,,,,,,,,,113.66097765614,22.884515245994,0
742ba01bff89f4b5e956fae3,大厦管理处,政府机构,行政单位,广东省,东莞市,,东莞市村北路厚街新塘市场东南侧约110米,,1,0,113.662217,22.914278,,life,http://api.map.baidu.com/place/detail?uid=742ba01bff89f4b5e956fae3&output=html&source=placeapi_v2,,,,,,,,,,1,,,,,,,,,,0
ca4e35cfe37113e07ab55c1f,交通安全劝导站,政府机构,行政单位,广东省,东莞市,,东莞市汴康路文化广场东侧,ca4e35cfe37113e07ab55c1f,1,0,113.670153,22.884565,,life,http://api.map.baidu.com/place/detail?uid=ca4e35cfe37113e07ab55c1f&output=html&source=placeapi_v2,,,,,,,,,,1,,,,,,,,113.67017337608,22.884446298663,0
4d539b3ff7d1153a17a19079,联防执勤点,政府机构,行政单位,广东省,东莞市,,东莞市塘新街天茂丽悦酒店东侧约140米,4d539b3ff7d1153a17a19079,1,0,113.678016,22.907016,,life,http://api.map.baidu.com/place/detail?uid=4d539b3ff7d1153a17a19079&output=html&source=placeapi_v2,,,,,,,,,,,,,,,,,,113.67776697354,22.907083265543,0
ef775b95e02101607369d30c,厚街镇南五村人民调解委员会,政府机构,行政单位,广东省,东莞市,,东莞市南五大街南五文化公园东北侧约40米,ef775b95e02101607369d30c,1,0,113.672392,22.911591,,life,http://api.map.baidu.com/place/detail?uid=ef775b95e02101607369d30c&output=html&source=placeapi_v2,,,,,,,,,,,,,,,,,,113.67230757121,22.911478032484,0
c1d3beb756226ddbdc1e520d,新塘社区新地综合管理工作站,政府机构,行政单位,广东省,东莞市,,东莞市新塘一路中国石化(起发加油站)西南侧约300米,,1,0,113.665818,22.91469,,life,http://api.map.baidu.com/place/detail?uid=c1d3beb756226ddbdc1e520d&output=html&source=placeapi_v2,,,,,,,,,,4,,,,,,,,,,0
b8bf7879bdca97e3ca29153b,下汴村新莞人服务管理站,政府机构,行政单位,广东省,东莞市,,东莞市汴康路文化广场东南侧约30米,b8bf7879bdca97e3ca29153b,1,0,113.670276,22.884288,,life,http://api.map.baidu.com/place/detail?uid=b8bf7879bdca97e3ca29153b&output=html&source=placeapi_v2,,,,,,,,,,,,,,,,,,,,0
9b279f0a62a3bf8328b97c04,联防执勤点,政府机构,行政单位,广东省,东莞市,,东莞市南五大街汇展豪门幼儿园东侧约160米,9b279f0a62a3bf8328b97c04,1,0,113.675037,22.911196,,life,http://api.map.baidu.com/place/detail?uid=9b279f0a62a3bf8328b97c04&output=html&source=placeapi_v2,,,,,,,,,,,,,,,,,,,,0
5fd37e41bbe3e20bd2f49ef3,联防执勤点,政府机构,行政单位,广东省,东莞市,,东莞市丽新路丽新楼东南侧约70米,5fd37e41bbe3e20bd2f49ef3,1,0,113.662585,22.915928,,life,http://api.map.baidu.com/place/detail?uid=5fd37e41bbe3e20bd2f49ef3&output=html&source=placeapi_v2,,,,,,,,,,1,,,,,,,,113.66278896703,22.916031549286,0
de76b83f161f3426ae04571c,新塘村劳动服务站,政府机构,行政单位,广东省,东莞市,,东莞市丽新路46号,de76b83f161f3426ae04571c,1,0,113.662308,22.91593,,life,http://api.map.baidu.com/place/detail?uid=de76b83f161f3426ae04571c&output=html&source=placeapi_v2,,,0.0,,,,,,,,0,,,,,,,,,0
90dbb27eb718e10fb8bd63e6,下汴村委会财务会计办公室,政府机构,行政单位,广东省,东莞市,,东莞市一环路文化广场东南侧约70米,90dbb27eb718e10fb8bd63e6,1,0,113.670591,22.884145,,life,http://api.map.baidu.com/place/detail?uid=90dbb27eb718e10fb8bd63e6&output=html&source=placeapi_v2,,,,,,,,,,,,,,,,,,,,0
45bfd2d3dc371d75583ac854,新塘社区出租屋安全消防综合管理办公室,政府机构,行政单位,广东省,东莞市,,东莞市丽新路丽新楼东南侧约40米,45bfd2d3dc371d75583ac854,1,0,113.662328,22.916051,,life,http://api.map.baidu.com/place/detail?uid=45bfd2d3dc371d75583ac854&output=html&source=placeapi_v2,,,,,,,,,,,,,,,,,,,,0
ab9896581c275aaafea77877,厚街镇新塘社区社会治理运营中心,政府机构,行政单位,广东省,东莞市,,东莞市丽新路丽新楼东南侧约40米,ab9896581c275aaafea77877,1,0,113.662246,22.916009,,life,http://api.map.baidu.com/place/detail?uid=ab9896581c275aaafea77877&output=html&source=placeapi_v2,,,,,,,,,,2,,,,,,,,,,0
8a674442729ada5126d2bb69,警民联防点,政府机构,行政单位,广东省,东莞市,,东莞市坭头路华林凯迪家具有限公司,8a674442729ada5126d2bb69,1,0,113.649775,22.886381,,life,http://api.map.baidu.com/place/detail?uid=8a674442729ada5126d2bb69&output=html&source=placeapi_v2,,,,,,,,,,,,,,,,,,,,0
e990bb032170f0e2d32dd698,汽车代办年检,政府机构,行政单位,广东省,东莞市,,东莞市南五大街汇明天文艺酒店东侧约110米,,1,0,113.670263,22.912198,,life,http://api.map.baidu.com/place/detail?uid=e990bb032170f0e2d32dd698&output=html&source=placeapi_v2,,,,,,,,,,1,,,,,,,,,,0
ec5afa26242f00982fe67bbc,厚街镇新塘村治保会,政府机构,行政单位,广东省,东莞市,,丽新路3附近,ec5afa26242f00982fe67bbc,1,0,113.662623,22.91596,,life,http://api.map.baidu.com/place/detail?uid=ec5afa26242f00982fe67bbc&output=html&source=placeapi_v2,,,,,,,,,,,,,,,,,,113.6625880062,22.91618779212,0
ddf5396ea3eb4cf4c71e51c2,东莞市厚街镇公园管理办公室,政府机构,行政单位,广东省,东莞市,,东莞市东业路神仙水公园,,1,0,113.702841,22.914017,,life,http://api.map.baidu.com/place/detail?uid=ddf5396ea3eb4cf4c71e51c2&output=html&source=placeapi_v2,,,,,,,,,,,,,,,,,,,,0
48812f7f864cf6db80a00c8e,中交二航局,政府机构,行政单位,广东省,东莞市,,厚街镇白濠深溪大道168号沙溪水库旁边,48812f7f864cf6db80a00c8e,1,0,113.698717,22.88812,,life,http://api.map.baidu.com/place/detail?uid=48812f7f864cf6db80a00c8e&output=html&source=placeapi_v2,,,5,,,,,,,0,2,,,,,,,,,0
b1e31719df1fba631f58008e,厚街镇新围社区居民委员会市政宣传办公室,政府机构,行政单位,广东省,东莞市,,东莞市厚新路新围综合市场东侧约70米,,1,0,113.747998,22.900605,,life,http://api.map.baidu.com/place/detail?uid=b1e31719df1fba631f58008e&output=html&source=placeapi_v2,,,,,,,,,,,,,,,,,,113.74776782114,22.900531361971,0
15850aaaf0d1a9254557260f,物业管理处,政府机构,行政单位,广东省,东莞市,,东莞市广龙高速日东工业区,,1,0,113.746073,22.894789,,life,http://api.map.baidu.com/place/detail?uid=15850aaaf0d1a9254557260f&output=html&source=placeapi_v2,,,,,,,,,,,,,,,,,,,,0
5d76e149624e1aa5364aaeaf,新围村新围仔村民小组综治信访维稳工作室,政府机构,行政单位,广东省,东莞市,,东莞市新围新围仔村八巷厚街文博幼儿园南侧约80米,,1,0,113.745327,22.904288,,life,http://api.map.baidu.com/place/detail?uid=5d76e149624e1aa5364aaeaf&output=html&source=placeapi_v2,,,,,,,,,,2,,,,,,,,,,0
a353544515c0a08484330496,东莞公安铁骑厚街大队,政府机构,行政单位,广东省,东莞市,,广东省东莞市厚街镇新围村新溪路170号,,1,0,113.759809,22.902307,,life,http://api.map.baidu.com/place/detail?uid=a353544515c0a08484330496&output=html&source=placeapi_v2,,,,,,,,,,,,,,,,,,113.75982827919,22.902288604642,0
345ab5de693b984a15a190ea,商铺招租办公室,政府机构,行政单位,广东省,东莞市,,东莞市湖景大道厚街大迳综合市场东北侧约80米,345ab5de693b984a15a190ea,1,0,113.750819,22.913438,,life,http://api.map.baidu.com/place/detail?uid=345ab5de693b984a15a190ea&output=html&source=placeapi_v2,,,,,,,,,,3,,,,,,,,113.75070980582,22.913486917172,0
6398b1f1c5b26f99bb17e7a8,东莞市大岭山森林公园管理处厚街管理所,政府机构,行政单位,广东省,东莞市,,东莞市怀林路尽头往西直走500米大岭山森林公园内,6398b1f1c5b26f99bb17e7a8,1,0,113.761347,22.900954,,life,http://api.map.baidu.com/place/detail?uid=6398b1f1c5b26f99bb17e7a8&output=html&source=placeapi_v2,,,,,,,,,,,,,,,,,,,,0
9ceb40a6cfacb0791c3894ee,物业管理处,政府机构,行政单位,广东省,东莞市,,东莞市厚虎路厚街段与环湖路交叉路口往东南约240米,9ceb40a6cfacb0791c3894ee,1,0,113.741397,22.905839,,life,http://api.map.baidu.com/place/detail?uid=9ceb40a6cfacb0791c3894ee&output=html&source=placeapi_v2,,,,,,,,,,1,,,,,,,,113.74146963054,22.905930388785,0
a298a7eac5d90a60157643a8,东莞市灯芯塘自然保护区管理所,政府机构,行政单位,广东省,东莞市,,东莞市新溪路(大岭山森林公园)厚街景区,,1,0,113.761252,22.900828,,life,http://api.map.baidu.com/place/detail?uid=a298a7eac5d90a60157643a8&output=html&source=placeapi_v2,,,,,,,,,,,,,,,,,,113.76140919877,22.901125557254,0
ccbe6124a97d9f6752e5c557,利民交通,政府机构,行政单位,广东省,东莞市,,东莞市厚大路大迳文化广场北侧约50米,ccbe6124a97d9f6752e5c557,1,0,113.752332,22.912777,13342660256,life,http://api.map.baidu.com/place/detail?uid=ccbe6124a97d9f6752e5c557&output=html&source=placeapi_v2,,,,,,,,,,12,,,,,,,,113.75224864089,22.912905822806,0
d4034eb3174888f5c0364466,金鸡咀水库管理所,政府机构,行政单位,广东省,东莞市,,东莞市怀林路尽头往西直走500米大岭山森林公园金鸡咀水库内,,1,0,113.803214,22.895169,,life,http://api.map.baidu.com/place/detail?uid=d4034eb3174888f5c0364466&output=html&source=placeapi_v2,,,,,,,,,,,,,,,,,,,,0
669775d05a293625fc0eb0a8,东莞市大岭山房地产管理所,政府机构,行政单位,广东省,东莞市,,东莞市教育路3号,669775d05a293625fc0eb0a8,1,0,113.845565,22.90699,(0769)83352831,life,http://api.map.baidu.com/place/detail?uid=669775d05a293625fc0eb0a8&output=html&source=placeapi_v2,,"08:30-12:00,14:00-17:30",,,,,,,,5,,,,,,,,113.84565023204,22.90691644512,0
74367b9df2b58d34fb2d61f1,大岭山社保局分局,政府机构,行政单位,广东省,东莞市,,东莞市大岭山大道368号,74367b9df2b58d34fb2d61f1,1,0,113.833404,22.91465,,life,http://api.map.baidu.com/place/detail?uid=74367b9df2b58d34fb2d61f1&output=html&source=placeapi_v2,,"08:30-12:00,14:00-17:30",4,,,,,,,0,3,,,,,,,113.8339517521,22.914446642235,0
6d78f585ebcb0e522b11d1a8,大岭山交警大队交通违法处理中心,政府机构,行政单位,广东省,东莞市,,东莞市大岭山镇莞长路向东段48号,6d78f585ebcb0e522b11d1a8,1,0,113.848931,22.889647,,life,http://api.map.baidu.com/place/detail?uid=6d78f585ebcb0e522b11d1a8&output=html&source=placeapi_v2,,00:00-24:00,,,,,,,,,,,,,,,,113.84872108224,22.889616366255,0
b82b89d47a3afc54e6e96594,东莞市人力资源局大岭山分局,政府机构,行政单位,广东省,东莞市,,东莞市莞长路116号,b82b89d47a3afc54e6e96594,1,0,113.845417,22.904227,(0769)83351319,life,http://api.map.baidu.com/place/detail?uid=b82b89d47a3afc54e6e96594&output=html&source=placeapi_v2,,"08:30-12:00,14:00-17:30",,,,,,,,1,,,,,,,,113.84556152078,22.904153059977,0
366e03dcc5b2d1d3f6b916aa,大岭山镇矮岭葜峭工程指挥调度工作站,政府机构,行政单位,广东省,东莞市,,东莞市向东路矮岭荽逦幕广场北侧约30米,366e03dcc5b2d1d3f6b916aa,1,0,113.83856,22.902759,,life,http://api.map.baidu.com/place/detail?uid=366e03dcc5b2d1d3f6b916aa&output=html&source=placeapi_v2,,,,,,,,,,7,,,,,,,,,,0
81a7fad5431e95cd48fc8d5d,综治信访维稳工作站受理台,政府机构,行政单位,广东省,东莞市,,东莞市向东路矮岭荽逦幕广场北侧约30米,81a7fad5431e95cd48fc8d5d,1,0,113.83854,22.902741,,life,http://api.map.baidu.com/place/detail?uid=81a7fad5431e95cd48fc8d5d&output=html&source=placeapi_v2,,,,,,,,,,2,,,,,,,,,,0
ba7aa2badf0bc5569ee321eb,大岭山镇矮岭荽逑防微体验点,政府机构,行政单位,广东省,东莞市,,东莞市田坑仔路佳佳幼儿园(向东路)北侧约110米,,1,0,113.838617,22.903514,,life,http://api.map.baidu.com/place/detail?uid=ba7aa2badf0bc5569ee321eb&output=html&source=placeapi_v2,,,,,,,,,,2,,,,,,,,113.83850656168,22.903545505424,0
002816f2ce4e08ded1f49e39,东莞大岭山叶庆波卫生所,政府机构,行政单位,广东省,东莞市,,东莞市大窝南路大岭山镇矮岭葑酆鲜谐《南侧约30米,002816f2ce4e08ded1f49e39,1,0,113.841514,22.900434,,life,http://api.map.baidu.com/place/detail?uid=002816f2ce4e08ded1f49e39&output=html&source=placeapi_v2,,,,,,,,,,12,,,,,,,,113.84151874264,22.900316841311,0
fb76792c94df96aab6f42feb,大岭山镇政务服务中心,政府机构,行政单位,广东省,东莞市,,广东省东莞市大岭山镇大岭山大道173号,fb76792c94df96aab6f42feb,1,0,113.83321,22.914733,(0769)81662226,life,http://api.map.baidu.com/place/detail?uid=fb76792c94df96aab6f42feb&output=html&source=placeapi_v2,,"08:30-12:00,14:00-17:30",5,,,,,,,0,1,,,,,,,113.83313335535,22.914602428041,0
6549ab4e01a6c26a1c3894fb,东莞市司法局大岭山分局,政府机构,行政单位,广东省,东莞市,,东莞市莞长路116号,6549ab4e01a6c26a1c3894fb,1,0,113.84544,22.904198,(0769)83352337,life,http://api.map.baidu.com/place/detail?uid=6549ab4e01a6c26a1c3894fb&output=html&source=placeapi_v2,,"08:30-12:00,14:00-17:30",,,,,,,,6,,,,,,,,113.84552919974,22.904221179396,0
5b25f446ac0092ea11293588,东莞市交通运输局大岭山分局,政府机构,行政单位,广东省,东莞市,,广东省东莞市莞长路155号,5b25f446ac0092ea11293588,1,0,113.84734,22.899749,(0769)83351088,life,http://api.map.baidu.com/place/detail?uid=5b25f446ac0092ea11293588&output=html&source=placeapi_v2,,"08:30-12:00,14:00-17:30",,,,,,,,6,,,,,,,,113.84692483503,22.899644785286,0
aa10a91c9e1ab6e18b2fb501,东莞市生态环境局大岭山分局,政府机构,行政单位,广东省,东莞市,,东莞市维稳中心5层,aa10a91c9e1ab6e18b2fb501,1,0,113.845431,22.904254,(0769)85632369,life,http://api.map.baidu.com/place/detail?uid=aa10a91c9e1ab6e18b2fb501&output=html&source=placeapi_v2,,,,,,,,,,7,,,,,,,,113.84550974245,22.904299292697,0
2772b7a6eb24a20243e1923c,向东管理区,政府机构,行政单位,广东省,东莞市,,东莞市沿河东街大岭山镇矮岭葑酆鲜谐《北侧约80米,2772b7a6eb24a20243e1923c,1,0,113.842087,22.902794,,life,http://api.map.baidu.com/place/detail?uid=2772b7a6eb24a20243e1923c&output=html&source=placeapi_v2,,,,,,,,,,,,,,,,,,,,0
e593ca3974eb315dc6effb26,矮岭荽寮苹生育办公室,政府机构,行政单位,广东省,东莞市,,东莞市小学西街向东小学西北侧约30米,e593ca3974eb315dc6effb26,1,0,113.840464,22.905055,,life,http://api.map.baidu.com/place/detail?uid=e593ca3974eb315dc6effb26&output=html&source=placeapi_v2,,,,,,,,,,6,,,,,,,,113.84058261128,22.905057077321,0
e275857e9687559ca8f72932,矮岭山村综治中心,政府机构,行政单位,广东省,东莞市,,东莞市向东路佳佳幼儿园(向东路)西北侧约40米,,1,0,113.838567,22.902793,,life,http://api.map.baidu.com/place/detail?uid=e275857e9687559ca8f72932&output=html&source=placeapi_v2,,,,,,,,,,8,,,,,,,,,,0
4156c518d9fa921ec3364442,大岭山镇矮岭荽宄鞘凶酆瞎芾戆旃室,政府机构,行政单位,广东省,东莞市,,东莞市田坑仔路佳佳幼儿园(向东路)北侧约70米,,1,0,113.838475,22.903151,,life,http://api.map.baidu.com/place/detail?uid=4156c518d9fa921ec3364442&output=html&source=placeapi_v2,,,,,,,,,,4,,,,,,,,113.83838540542,22.903163582321,0
b5bce2847fc0764388f15d29,党代表工作室,政府机构,行政单位,广东省,东莞市,,东莞市田坑仔路佳佳幼儿园(向东路)北侧约80米,b5bce2847fc0764388f15d29,1,0,113.838467,22.903226,,life,http://api.map.baidu.com/place/detail?uid=b5bce2847fc0764388f15d29&output=html&source=placeapi_v2,,,,,,,,,,,,,,,,,,,,0
18830591ce55d56b03ec0128,食品安全检测室,政府机构,行政单位,广东省,东莞市,,东莞市沿河西街大岭山镇矮岭葑酆鲜谐,,1,0,113.841188,22.901639,,life,http://api.map.baidu.com/place/detail?uid=18830591ce55d56b03ec0128&output=html&source=placeapi_v2,,,,,,,,,,3,,,,,,,,113.84120804212,22.901460305372,0
3afb6d80a04493d93c9a5ef2,东莞市大岭山镇人民政府住房规划建设局,政府机构,行政单位,广东省,东莞市,,东莞市教育路东南海酒店东北侧,3afb6d80a04493d93c9a5ef2,1,0,113.845516,22.907002,,life,http://api.map.baidu.com/place/detail?uid=3afb6d80a04493d93c9a5ef2&output=html&source=placeapi_v2,,,,,,,,,,1,,,,,,,,113.84562869427,22.906894327119,0
7c5e480bbcc89bb4acb22a88,东莞市大岭山镇规划管理所,政府机构,行政单位,广东省,东莞市,,东莞市教育路3号,7c5e480bbcc89bb4acb22a88,1,0,113.845506,22.906993,(0769)83351126,life,http://api.map.baidu.com/place/detail?uid=7c5e480bbcc89bb4acb22a88&output=html&source=placeapi_v2,,,,,,,,,,2,,,,,,,,113.84557414826,22.906836341856,0
a90249baab7ca4233010af87,东莞市市场监督管理局大岭山分局,政府机构,行政单位,广东省,东莞市,,东莞市上场南街32号,a90249baab7ca4233010af87,1,0,113.853567,22.902063,(0769)83355187,life,http://api.map.baidu.com/place/detail?uid=a90249baab7ca4233010af87&output=html&source=placeapi_v2,,"08:30-12:00,14:00-17:30",,,,,,,,5,,,,,,,,113.85367857972,22.902093944406,0
fd007c5ed113ea6ca9f72988,东莞市自然资源和规划局大岭山分局,政府机构,行政单位,广东省,东莞市,,东莞市教育路东南海酒店,fd007c5ed113ea6ca9f72988,1,0,113.845252,22.906887,(0769)83352410,life,http://api.map.baidu.com/place/detail?uid=fd007c5ed113ea6ca9f72988&output=html&source=placeapi_v2,,"08:30-12:00,14:00-17:30",,,,,,,,3,,,,,,,,113.84537549787,22.90695752839,0
b2b04cca59826a1e78b55ca1,大岭山镇居委会治安联防队龙江村分队,政府机构,行政单位,广东省,东莞市,,东莞市龙江街吉龙木材市场西南侧约100米,b2b04cca59826a1e78b55ca1,1,0,113.828368,22.912317,,life,http://api.map.baidu.com/place/detail?uid=b2b04cca59826a1e78b55ca1&output=html&source=placeapi_v2,,,,,,,,,,1,,,,,,,,113.82842107282,22.91256628229,0
c6e079fa571236ee354aaed2,大岭山镇凯东新城商业联防指挥中心,政府机构,行政单位,广东省,东莞市,,东莞市向东路向东小学东南侧约100米,c6e079fa571236ee354aaed2,1,0,113.842365,22.902893,,life,http://api.map.baidu.com/place/detail?uid=c6e079fa571236ee354aaed2&output=html&source=placeapi_v2,,,,,,,,,,,,,,,,,,113.84234395034,22.903046758791,0
868a06993fa8eb2a03ec01dc,东莞市大岭山镇公用事业服务中心,政府机构,行政单位,广东省,东莞市,,东莞市莞长路大岭山镇综合办公楼,868a06993fa8eb2a03ec01dc,1,0,113.84532,22.904407,(0769)85603633,life,http://api.map.baidu.com/place/detail?uid=868a06993fa8eb2a03ec01dc&output=html&source=placeapi_v2,,,0.0,,,,,,,1,0,,,,,,,,,0
127abfe2c823460c40024594,劳动服务站,政府机构,行政单位,广东省,东莞市,,大沙村委会党群服务中心即是劳动服务站,,1,0,113.842051,22.902877,,life,http://api.map.baidu.com/place/detail?uid=127abfe2c823460c40024594&output=html&source=placeapi_v2,,,,,,,,,,,,,,,,,,113.84191628325,22.902870350965,0
dc829ed4183cf4ac6d20b915,东莞市大岭山镇综治中心,政府机构,行政单位,广东省,东莞市,,东莞市大岭山镇教育路3号,dc829ed4183cf4ac6d20b915,1,0,113.845444,22.904204,(0769)83352337,life,http://api.map.baidu.com/place/detail?uid=dc829ed4183cf4ac6d20b915&output=html&source=placeapi_v2,,09:00-18:30,,,,,,,,13,,,,,,,,113.84553822592,22.904207976591,0
bf68730588d1b0f32ce67bc3,大岭山交警大队事故快处快赔点,政府机构,行政单位,广东省,东莞市,,东莞市莞长路东莞清湾商务酒店东侧约70米,bf68730588d1b0f32ce67bc3,1,0,113.848957,22.889693,,life,http://api.map.baidu.com/place/detail?uid=bf68730588d1b0f32ce67bc3&output=html&source=placeapi_v2,,,,,,,,,,5,,,,,,,,113.84871414283,22.889656828976,0
969b05d1e17edf6bb320a8fe,东莞市大岭山镇“扫黄”“打非”工作领导小组办公室,政府机构,行政单位,广东省,东莞市,,东莞市莞长路矮岭荻116号,969b05d1e17edf6bb320a8fe,1,0,113.845372,22.904267,,life,http://api.map.baidu.com/place/detail?uid=969b05d1e17edf6bb320a8fe&output=html&source=placeapi_v2,,,,,,,,,,1,,,,,,,,,,0
54419bdc0d29aa3d6c4760dd,大岭山镇大岭'智网工程'指挥调度工作站,政府机构,行政单位,广东省,东莞市,,东莞市纵队路大岭山春雨幼儿园西北侧约90米,,1,0,113.830011,22.893524,,life,http://api.map.baidu.com/place/detail?uid=54419bdc0d29aa3d6c4760dd&output=html&source=placeapi_v2,,,,,,,,,,6,,,,,,,,113.82987859507,22.89336359607,0
dcb3e9e4dc5093e01b11d532,东莞市法律援助处大岭山办事处,政府机构,行政单位,广东省,东莞市,,广东省东莞市莞长路大岭山段471,dcb3e9e4dc5093e01b11d532,1,0,113.845437,22.904283,,life,http://api.map.baidu.com/place/detail?uid=dcb3e9e4dc5093e01b11d532&output=html&source=placeapi_v2,,,,,,,,,,2,,,,,,,,,,0
12191af5a943014221f01785,大岭山镇文化市场管理工作领导小组办公室,政府机构,行政单位,广东省,东莞市,,东莞市莞长路矮岭荻116号,12191af5a943014221f01785,1,0,113.845372,22.904267,,life,http://api.map.baidu.com/place/detail?uid=12191af5a943014221f01785&output=html&source=placeapi_v2,,,,,,,,,,2,,,,,,,,,,0
24d05508c655afaf13882488,东莞市大岭山不动产交易所,政府机构,行政单位,广东省,东莞市,,广东省东莞市教育路3号,24d05508c655afaf13882488,1,0,113.845543,22.906966,(0769)83351126,life,http://api.map.baidu.com/place/detail?uid=24d05508c655afaf13882488&output=html&source=placeapi_v2,,,,,,,,,,2,,,,,,,,113.84557419676,22.906836392456,0
f7a741e473d5703d0f0a7037,东莞市大岭山镇人民政府信访办公室,政府机构,行政单位,广东省,东莞市,,东莞市莞长路矮岭荻116号,f7a741e473d5703d0f0a7037,1,0,113.845432,22.904264,,life,http://api.map.baidu.com/place/detail?uid=f7a741e473d5703d0f0a7037&output=html&source=placeapi_v2,,,,,,,,,,6,,,,,,,,113.84551055002,22.904284206069,0
a75ec9789bd00192130daae2,永盛楼管理处,政府机构,行政单位,广东省,东莞市,,东莞市大岭山镇永义四街2号,a75ec9789bd00192130daae2,1,0,113.848776,22.901765,,life,http://api.map.baidu.com/place/detail?uid=a75ec9789bd00192130daae2&output=html&source=placeapi_v2,,,,,,,,,,,,,,,,,,113.84868596029,22.901729721275,0
b5379bc6606508d300ec01d1,东莞市动物卫生监督所大岭山分所,政府机构,行政单位,广东省,东莞市,,东莞市新兴路10号,b5379bc6606508d300ec01d1,1,0,113.846013,22.910806,(0769)81662871,life,http://api.map.baidu.com/place/detail?uid=b5379bc6606508d300ec01d1&output=html&source=placeapi_v2,,09:00-21:00,,,,,,,,3,,,,,,,,113.84601877265,22.910897428076,0
97b5b34f62ec2764a21de971,东莞市大岭山镇人民政府规划建设办,政府机构,行政单位,广东省,东莞市,,教育路3号,97b5b34f62ec2764a21de971,1,0,113.845574,22.907042,(0769)83352827,life,http://api.map.baidu.com/place/detail?uid=97b5b34f62ec2764a21de971&output=html&source=placeapi_v2,,,,,,,,,,0,,,,,,,,113.84568391041,22.906951902392,0
28b62ea3384b78570ab93a3b,东莞市大岭山镇测绘队,政府机构,行政单位,广东省,东莞市,,广东省东莞市东莞市市辖区教育路大岭山商务广场5楼,28b62ea3384b78570ab93a3b,1,0,113.8455,22.906888,(0769)83352410,life,http://api.map.baidu.com/place/detail?uid=28b62ea3384b78570ab93a3b&output=html&source=placeapi_v2,,,0.0,,,,,,,1,,,,,,,,113.84546820749,22.90685810666,0
d350b12f8e1d813d38221c34,大岭山镇流动党员管理服务中心,政府机构,行政单位,广东省,东莞市,,广东省东莞市大岭山镇综合办公楼(大岭山广场西南),d350b12f8e1d813d38221c34,1,0,113.845392,22.904213,,life,http://api.map.baidu.com/place/detail?uid=d350b12f8e1d813d38221c34&output=html&source=placeapi_v2,,,,,,,,,,,,,,,,,,113.84553659998,22.904245588897,0
96bebfdfe0b64598bca82260,东莞市大岭山第三工业区城市更新项目部,政府机构,行政单位,广东省,东莞市,,东莞市茶园路东莞大岭山南区工业村,,1,0,113.851923,22.898023,,life,http://api.map.baidu.com/place/detail?uid=96bebfdfe0b64598bca82260&output=html&source=placeapi_v2,,,,,,,,,,4,,,,,,,,113.85200926488,22.897984593965,0
1cbac4187557a9fb0ab93a61,24小时交管服务厅,政府机构,行政单位,广东省,东莞市,,东莞市莞长路东莞清湾商务酒店东侧约70米,1cbac4187557a9fb0ab93a61,1,0,113.848957,22.889604,,life,http://api.map.baidu.com/place/detail?uid=1cbac4187557a9fb0ab93a61&output=html&source=placeapi_v2,,00:00-24:00,,,,,,,,2,,,,,,,,113.84872900439,22.889570165093,0
1a4312041ec72d78f02d835e,东莞市大岭山镇新莞人服务管理中心,政府机构,行政单位,广东省,东莞市,,东莞市莞长路116号,1a4312041ec72d78f02d835e,1,0,113.84533,22.904088,(0769)83352337,life,http://api.map.baidu.com/place/detail?uid=1a4312041ec72d78f02d835e&output=html&source=placeapi_v2,,,,,,,,,,1,,,,,,,,113.84555666633,22.904142997636,0
52ddf20f750c758042d63eab,大岭山镇大塘村消防微体验点,政府机构,行政单位,广东省,东莞市,,东莞市莲峰新路智仁幼儿园北侧约210米,,1,0,113.840132,22.884207,,life,http://api.map.baidu.com/place/detail?uid=52ddf20f750c758042d63eab&output=html&source=placeapi_v2,,,,,,,,,,8,,,,,,,,113.84003331094,22.884262491158,0
ef3917df127d1be2b04c490b,中共大岭山镇委政法办公室,政府机构,行政单位,广东省,东莞市,,东莞市莞长路矮岭荻116号,ef3917df127d1be2b04c490b,1,0,113.845454,22.904138,,life,http://api.map.baidu.com/place/detail?uid=ef3917df127d1be2b04c490b&output=html&source=placeapi_v2,,,,,,,,,,2,,,,,,,,,,0
8146d4edf35100eff82d6169,大岭山镇综合行政执法委员会,政府机构,行政单位,广东省,东莞市,,东莞市莞长路大岭山镇综合办公楼,8146d4edf35100eff82d6169,1,0,113.845419,22.904275,,life,http://api.map.baidu.com/place/detail?uid=8146d4edf35100eff82d6169&output=html&source=placeapi_v2,,,,,,,,,,4,,,,,,,,113.84552246515,22.904298633044,0
0046a4daa9775b87f503b854,大岭山镇人民来访接待室,政府机构,行政单位,广东省,东莞市,,东莞市莞长路大岭山镇综合办公楼,0046a4daa9775b87f503b854,1,0,113.845449,22.904179,,life,http://api.map.baidu.com/place/detail?uid=0046a4daa9775b87f503b854&output=html&source=placeapi_v2,,,,,,,,,,4,,,,,,,,,,0
e553d548f511ff320d3dda04,东金招商办公室,政府机构,行政单位,广东省,东莞市,,东莞市大岭村纵队路166号,e553d548f511ff320d3dda04,1,0,113.827557,22.891662,,life,http://api.map.baidu.com/place/detail?uid=e553d548f511ff320d3dda04&output=html&source=placeapi_v2,,,,,,,,,,,,,,,,,,,,0
8a6e22a163df418c4f3a5941,东莞市大岭山镇数字政府建设管理办公室,政府机构,行政单位,广东省,东莞市,,广东省东莞市大岭山镇莞长路116号,8a6e22a163df418c4f3a5941,1,0,113.845295,22.904411,,life,http://api.map.baidu.com/place/detail?uid=8a6e22a163df418c4f3a5941&output=html&source=placeapi_v2,,,,,,,,,,,,,,,,,,113.84550180053,22.904376179612,0
55cb2faa563188ab4154d713,东莞市大岭山镇环境卫生管理所,政府机构,行政单位,广东省,东莞市,,东莞市莞长路大岭山镇综合办公楼,55cb2faa563188ab4154d713,1,0,113.845321,22.904405,,life,http://api.map.baidu.com/place/detail?uid=55cb2faa563188ab4154d713&output=html&source=placeapi_v2,,,,,,,,,,,,,,,,,,,,0
e0dc6cb2eb374302d1f49e98,东莞市司法局大岭山分局社区矫正中心,政府机构,行政单位,广东省,东莞市,,东莞市莞长路大岭山镇综合办公楼,e0dc6cb2eb374302d1f49e98,1,0,113.845437,22.904175,,life,http://api.map.baidu.com/place/detail?uid=e0dc6cb2eb374302d1f49e98&output=html&source=placeapi_v2,,,,,,,,,,1,,,,,,,,,,0
c21db9e54da05c8301ff2d88,东莞市大岭山镇财政局,政府机构,行政单位,广东省,东莞市,,广东省东莞市德政街大岭山镇政府,c21db9e54da05c8301ff2d88,1,0,113.84869,22.9059,(0769)85618913,life,http://api.map.baidu.com/place/detail?uid=c21db9e54da05c8301ff2d88&output=html&source=placeapi_v2,,"08:30-12:00,14:00-17:30",,,,,,,,0,,,,,,,,113.84855559909,22.905838830854,0
34a14cd5cdec1fded5b74eb1,大岭山镇小南区工业园综治信访维稳工作室,政府机构,行政单位,广东省,东莞市,,东莞市石大公路大岭山第三工业区,34a14cd5cdec1fded5b74eb1,1,0,113.854834,22.897509,,life,http://api.map.baidu.com/place/detail?uid=34a14cd5cdec1fded5b74eb1&output=html&source=placeapi_v2,,,,,,,,,,2,,,,,,,,113.85495671036,22.897449476054,0
913511366e8f15131894c669,庆达楼管理处,政府机构,行政单位,广东省,东莞市,,东莞市大岭山镇纵队路185号家家乐购物广场旁边,913511366e8f15131894c669,1,0,113.826943,22.890896,,life,http://api.map.baidu.com/place/detail?uid=913511366e8f15131894c669&output=html&source=placeapi_v2,,,,,,,,,,1,,,,,,,,113.8272340097,22.890608312565,0
0f24936f2c4630ae343a7176,东莞兴昂鞋业有限公司劳动争议调解委员会,政府机构,行政单位,广东省,东莞市,,东莞市瓮窑新路兴昂工业园,,1,0,113.824874,22.896092,,life,http://api.map.baidu.com/place/detail?uid=0f24936f2c4630ae343a7176&output=html&source=placeapi_v2,,,,,,,,,,2,,,,,,,,113.82493657958,22.896009913577,0
8afb1d74845a30e2da2f287a,中建二局,政府机构,行政单位,广东省,东莞市,,东莞市兴塘大街百盛工业园东北侧约250米,,1,0,113.834532,22.886097,,life,http://api.map.baidu.com/place/detail?uid=8afb1d74845a30e2da2f287a&output=html&source=placeapi_v2,,,,,,,,,,,,,,,,,,,,0
c0614120224506817369d3ad,大岭山镇林业站护林队办公室,政府机构,行政单位,广东省,东莞市,,东莞市新兴路大岭山公园北侧,c0614120224506817369d3ad,1,0,113.846237,22.910614,,life,http://api.map.baidu.com/place/detail?uid=c0614120224506817369d3ad&output=html&source=placeapi_v2,,,,,,,,,,1,,,,,,,,113.84624014747,22.910676164422,0
18e58a08f265fe0dc9c3dbaf,大塘村整治环境卫生办公室,政府机构,行政单位,广东省,东莞市,,东莞市大岭山镇大塘路90号大塘村,18e58a08f265fe0dc9c3dbaf,1,0,113.844868,22.885349,,life,http://api.map.baidu.com/place/detail?uid=18e58a08f265fe0dc9c3dbaf&output=html&source=placeapi_v2,,,,,,,,,,,,,,,,,,,,0
795be03ce8f3e8595bf6beba,东莞市大岭山镇果蔬检测站,政府机构,行政单位,广东省,东莞市,,东莞市新兴路10号,795be03ce8f3e8595bf6beba,1,0,113.84617,22.910794,,life,http://api.map.baidu.com/place/detail?uid=795be03ce8f3e8595bf6beba&output=html&source=placeapi_v2,,,,,,,,,,1,,,,,,,,,,0
e8f84f2b1546650e29fc487c,大岭山公园-管理处,政府机构,行政单位,广东省,东莞市,,东莞市大岭山镇教育路41号大岭山公园,,1,0,113.845281,22.910069,,life,http://api.map.baidu.com/place/detail?uid=e8f84f2b1546650e29fc487c&output=html&source=placeapi_v2,,,,,,,,,,,,,,,,,,113.84552755045,22.9102573967,0
2107e45aa379a4a13913fd38,事故处理厅,政府机构,行政单位,广东省,东莞市,,东莞市石大公路东莞清湾商务酒店东侧约160米,,1,0,113.849887,22.889477,,life,http://api.map.baidu.com/place/detail?uid=2107e45aa379a4a13913fd38&output=html&source=placeapi_v2,,,,,,,,,,,,,,,,,,,,0
a22ccfcca21a8325a90dd874,东莞市德高鸿安施工服务商,政府机构,行政单位,广东省,东莞市,,东莞市横镇西路新世纪领居-b区东南侧约110米,a22ccfcca21a8325a90dd874,1,0,113.84237,22.912899,15916897916,life,http://api.map.baidu.com/place/detail?uid=a22ccfcca21a8325a90dd874&output=html&source=placeapi_v2,,07:30-19:00,,,,,,,,10,,,,,,,,113.84230438268,22.912923996799,0
f8eafd10702c63db31f71d2c,东莞市大岭山镇关心下一代工作委员会,政府机构,行政单位,广东省,东莞市,,东莞市新兴路大岭山公园北侧,f8eafd10702c63db31f71d2c,1,0,113.84576,22.910586,,life,http://api.map.baidu.com/place/detail?uid=f8eafd10702c63db31f71d2c&output=html&source=placeapi_v2,,,,,,,,,,1,,,,,,,,113.84539670597,22.910437539076,0
67ff269fec173774f8f0cbca,东莞市尚志社会工作服务中心,政府机构,行政单位,广东省,东莞市,,东莞市新兴路大岭山公园北侧,67ff269fec173774f8f0cbca,1,0,113.845825,22.910596,,life,http://api.map.baidu.com/place/detail?uid=67ff269fec173774f8f0cbca&output=html&source=placeapi_v2,,,,,,,,,,1,,,,,,,,113.84582260968,22.910847414504,0
9cddfe0500d5e3af8bfc066e,康乐住房,政府机构,行政单位,广东省,东莞市,,东莞市大塘路,9cddfe0500d5e3af8bfc066e,1,0,113.844503,22.88514,,life,http://api.map.baidu.com/place/detail?uid=9cddfe0500d5e3af8bfc066e&output=html&source=placeapi_v2,,,,,,,,,,4,,,,,,,,,,0
42ed58ccf8bfd9e9018972d3,车驾管业务违法处理厅,政府机构,行政单位,广东省,东莞市,,东莞市石大公路东莞清湾商务酒店东侧约150米,42ed58ccf8bfd9e9018972d3,1,0,113.849771,22.889452,,life,http://api.map.baidu.com/place/detail?uid=42ed58ccf8bfd9e9018972d3&output=html&source=placeapi_v2,,,,,,,,,,1,,,,,,,,113.84978173581,22.889329410887,0
3109e35d2e0b8ca3364aaef9,车易通汽车咨询服务部,政府机构,行政单位,广东省,东莞市,,东莞市西正路33号,3109e35d2e0b8ca3364aaef9,1,0,113.844229,22.912008,,life,http://api.map.baidu.com/place/detail?uid=3109e35d2e0b8ca3364aaef9&output=html&source=placeapi_v2,,,,,,,,,,14,,,,,,,,,,0
cc078148984796ef9222e0cd,深圳市魏源文化发展促进会东莞服务中心,政府机构,行政单位,广东省,东莞市,,东莞市上场南街正椿ㄔ拔鞑嘣30米,cc078148984796ef9222e0cd,1,0,113.853591,22.900999,,life,http://api.map.baidu.com/place/detail?uid=cc078148984796ef9222e0cd&output=html&source=placeapi_v2,,,,,,,,,,1,,,,,,,,113.85361885857,22.901055552503,0
41add76b18729a90bfa8225b,大岭村综治中心,政府机构,行政单位,广东省,东莞市,,东莞市纵队路伊乐幼儿园西南侧约210米,41add76b18729a90bfa8225b,1,0,113.82419,22.888095,,life,http://api.map.baidu.com/place/detail?uid=41add76b18729a90bfa8225b&output=html&source=placeapi_v2,,,,,,,,,,9,,,,,,,,113.82428092286,22.888005391294,0
b8a18e83cb2786dc95ca079d,消防监控中心,政府机构,行政单位,广东省,东莞市,,东莞市上场路正椿ㄔ,b8a18e83cb2786dc95ca079d,1,0,113.855146,22.901665,,life,http://api.map.baidu.com/place/detail?uid=b8a18e83cb2786dc95ca079d&output=html&source=placeapi_v2,,,,,,,,,,,,,,,,,,,,0
fb99302a8637d684f02d8311,松湖春天管理处,政府机构,行政单位,广东省,东莞市,,东莞市大岭山镇西正路68号,,1,0,113.845806,22.911987,,life,http://api.map.baidu.com/place/detail?uid=fb99302a8637d684f02d8311&output=html&source=placeapi_v2,,,,,,,,,,,,,,,,,,,,0
bf132fcfe3128080adcb662d,航税务,政府机构,行政单位,广东省,东莞市,,东莞市振华路爱华星幼儿园东南侧约130米,bf132fcfe3128080adcb662d,1,0,113.852676,22.904028,,life,http://api.map.baidu.com/place/detail?uid=bf132fcfe3128080adcb662d&output=html&source=placeapi_v2,,,,,,,,,,,,,,,,,,113.85258886776,22.904049689977,0
7c4e50e8be56ef9a2efaa71b,大岭山公安分局涉案车辆保管中心,政府机构,行政单位,广东省,东莞市,,广东省东莞市上场路2号,7c4e50e8be56ef9a2efaa71b,1,0,113.855823,22.900805,,life,http://api.map.baidu.com/place/detail?uid=7c4e50e8be56ef9a2efaa71b&output=html&source=placeapi_v2,,,,,,,,,,1,,,,,,,,,,0
aabd23ae55b6f2dd1b11d5f1,龙江村停车场管理办公室,政府机构,行政单位,广东省,东莞市,,广东省东莞市大岭山镇龙江村兴龙街9号,aabd23ae55b6f2dd1b11d5f1,1,0,113.828243,22.911979,13790213171,life,http://api.map.baidu.com/place/detail?uid=aabd23ae55b6f2dd1b11d5f1&output=html&source=placeapi_v2,,,,,,,,,,,,,,,,,,113.82843741479,22.911899241447,0
e6adf98cdac9dd98b6f42f05,东莞市大岭山第三工业区人民调解委员会,政府机构,行政单位,广东省,东莞市,,东莞市石大公路大岭山第三工业区,e6adf98cdac9dd98b6f42f05,1,0,113.854842,22.897523,,life,http://api.map.baidu.com/place/detail?uid=e6adf98cdac9dd98b6f42f05&output=html&source=placeapi_v2,,,,,,,,,,1,,,,,,,,113.85496477804,22.897464096028,0
862b8361a27089fa626858bb,东莞市大岭山实业发展总公司治安联防队,政府机构,行政单位,广东省,东莞市,,东莞市石大公路大岭山第三工业区,,1,0,113.854851,22.89754,,life,http://api.map.baidu.com/place/detail?uid=862b8361a27089fa626858bb&output=html&source=placeapi_v2,,09:00-18:00,,,,,,,,2,,,,,,,,,,0
060405c48bf8c7aeebe58221,广东省居住证受理点,政府机构,行政单位,广东省,东莞市,,东莞市石大公路大岭山第三工业区,060405c48bf8c7aeebe58221,1,0,113.854851,22.89755,,life,http://api.map.baidu.com/place/detail?uid=060405c48bf8c7aeebe58221&output=html&source=placeapi_v2,,,,,,,,,,3,,,,,,,,,,0
6c44dd5b3b086eb59c09f75f,天亨达管理处,政府机构,行政单位,广东省,东莞市,,东莞市莞长路大岭山华侨工业区,6c44dd5b3b086eb59c09f75f,1,0,113.849975,22.886498,13925566107,life,http://api.map.baidu.com/place/detail?uid=6c44dd5b3b086eb59c09f75f&output=html&source=placeapi_v2,,,,,,,,,,4,,,,,,,,113.84980528789,22.886533901667,0
ca7361af884898e4ae31e5f2,第三工业区管理中心,政府机构,行政单位,广东省,东莞市,,东莞市石大路,ca7361af884898e4ae31e5f2,1,0,113.854814,22.897543,,life,http://api.map.baidu.com/place/detail?uid=ca7361af884898e4ae31e5f2&output=html&source=placeapi_v2,,,,,,,,,,0,,,,,,,,,,0
455762da5bb313742bfc4877,航点企业代办营业执照纳税申报,政府机构,行政单位,广东省,东莞市,,东莞市振华路方点圆幼儿园西侧约160米,455762da5bb313742bfc4877,1,0,113.851103,22.910033,18002888357,life,http://api.map.baidu.com/place/detail?uid=455762da5bb313742bfc4877&output=html&source=placeapi_v2,,,,,,,,,,6,,,,,,,,,,0
3c18d04689f1e13c3c9a5e85,大岭山镇综合服务中心,政府机构,行政单位,广东省,东莞市,,东莞市大岭山镇大岭山大道368号,3c18d04689f1e13c3c9a5e85,1,0,113.833245,22.914822,,life,http://api.map.baidu.com/place/detail?uid=3c18d04689f1e13c3c9a5e85&output=html&source=placeapi_v2,,,,,,,,,,,,,,,,,,,,0
f49b4a512e4e6886ae045705,大片美市场招商办公室,政府机构,行政单位,广东省,东莞市,,东莞市大片美路乡村公寓东北侧约80米,,1,0,113.819623,22.906936,,life,http://api.map.baidu.com/place/detail?uid=f49b4a512e4e6886ae045705&output=html&source=placeapi_v2,,,,,,,,,,1,,,,,,,,113.81971057799,22.906855103574,0
a2c3fecf8f7761be4107c17f,诚达会计税务所,政府机构,行政单位,广东省,东莞市,,广东省东莞市镇西路19号,a2c3fecf8f7761be4107c17f,1,0,113.844832,22.914041,(0769)12366,life,http://api.map.baidu.com/place/detail?uid=a2c3fecf8f7761be4107c17f&output=html&source=placeapi_v2,,00:00-24:00,0,,,,,,,10,1,,,,,,,,,0
460568e285a9a16ad6b74e29,国家发改委现代服务业产业集聚区,政府机构,行政单位,广东省,东莞市,,东莞市博恒二路与博恒三路交叉路口往西约160米,460568e285a9a16ad6b74e29,1,0,113.872647,22.905715,,life,http://api.map.baidu.com/place/detail?uid=460568e285a9a16ad6b74e29&output=html&source=placeapi_v2,,,,,,,,,,3,,,,,,,,113.87292272263,22.905638161106,0
fa223aa358b0b3e333169b2a,松山湖违章扣车场,政府机构,行政单位,广东省,东莞市,,东莞市学府路与玉兰路交叉路口往北约200米,fa223aa358b0b3e333169b2a,1,0,113.874567,22.913193,,life,http://api.map.baidu.com/place/detail?uid=fa223aa358b0b3e333169b2a&output=html&source=placeapi_v2,,,,,,,,,,,,,,,,,,113.87367098867,22.914028819612,0
1c9ebdb4be0ee00694ca07aa,松山湖知识产权综合服务中心,政府机构,行政单位,广东省,东莞市,,广东省东莞市松山湖玉兰路大学创新城A3栋,1c9ebdb4be0ee00694ca07aa,1,0,113.87481,22.910306,,life,http://api.map.baidu.com/place/detail?uid=1c9ebdb4be0ee00694ca07aa&output=html&source=placeapi_v2,,,,,,,,,,5,,,,,,,,,,0
dbf635cf5dc0a66489fc06a3,东莞职业技术学院团委秘书处,政府机构,行政单位,广东省,东莞市,,广东省东莞市香园街东莞职业技术学院,,1,0,113.865163,22.903962,,life,http://api.map.baidu.com/place/detail?uid=dbf635cf5dc0a66489fc06a3&output=html&source=placeapi_v2,,,,,,,,,,,,,,,,,,,,0
2fb8e62183a53a6e4207c1ae,元岭社区综合服务中心,政府机构,行政单位,广东省,东莞市,,东莞市香园街十三巷11号,2fb8e62183a53a6e4207c1ae,1,0,113.863071,22.908005,,life,http://api.map.baidu.com/place/detail?uid=2fb8e62183a53a6e4207c1ae&output=html&source=placeapi_v2,,09:00-18:30,,,,,,,,4,,,,,,,,113.86286315079,22.908006632637,0
794a862d46b1a262f02d8328,大岭山镇元岭村综治中心,政府机构,行政单位,广东省,东莞市,,东莞市香园街九巷元岭凯艺幼儿园东北侧,794a862d46b1a262f02d8328,1,0,113.863696,22.908802,,life,http://api.map.baidu.com/place/detail?uid=794a862d46b1a262f02d8328&output=html&source=placeapi_v2,,,,,,,,,,2,,,,,,,,113.86368957632,22.908709024783,0
1cfb379881f073e50b69d9af,大岭山镇元岭村安全生产委员会,政府机构,行政单位,广东省,东莞市,,东莞市香园街九巷元岭凯艺幼儿园东北侧约40米,,1,0,113.863916,22.908802,,life,http://api.map.baidu.com/place/detail?uid=1cfb379881f073e50b69d9af&output=html&source=placeapi_v2,,,,,,,,,,1,,,,,,,,113.86390913773,22.908696690818,0
30898e9d92b1505120f0178b,智利经济文化促进中心,政府机构,行政单位,广东省,东莞市,,东莞市大陂河北路祠边小区,30898e9d92b1505120f0178b,1,0,113.663561,22.929334,,life,http://api.map.baidu.com/place/detail?uid=30898e9d92b1505120f0178b&output=html&source=placeapi_v2,,,,,,,,,,,,,,,,,,113.66359191921,22.929191481118,0
744e6a1f7055f70e2ad7ab15,厚街镇珊美村旧庄村民小组,政府机构,行政单位,广东省,东莞市,,广东省东莞市三庄路旧庄文化活动中心,744e6a1f7055f70e2ad7ab15,1,0,113.665164,22.935297,,life,http://api.map.baidu.com/place/detail?uid=744e6a1f7055f70e2ad7ab15&output=html&source=placeapi_v2,,,,,,,,,,,,,,,,,,113.66515570022,22.935202460829,0
3191790b87a3625a96ca0758,嘉丰实业有限公司招商办公室,政府机构,行政单位,广东省,东莞市,,东莞市康乐南路东逸翠苑・翠廷,3191790b87a3625a96ca0758,1,0,113.663985,22.927573,,life,http://api.map.baidu.com/place/detail?uid=3191790b87a3625a96ca0758&output=html&source=placeapi_v2,,,,,,,,,,10,,,,,,,,113.66405776876,22.927531258967,0
88815273a9854ae2d3ff23ba,东莞市厚街房地产管理所,政府机构,行政单位,广东省,东莞市,,东莞市厚街镇康乐南路厚街商贸中心7层,88815273a9854ae2d3ff23ba,1,0,113.674255,22.939983,(0769)85583469,life,http://api.map.baidu.com/place/detail?uid=88815273a9854ae2d3ff23ba&output=html&source=placeapi_v2,,"08:30-12:00,14:00-17:30",,,,,,,,,,,,,,,,113.67437174432,22.939942791899,0
27c05d9413e437eadf1e52d3,东莞市厚街镇住房规划建设局,政府机构,行政单位,广东省,东莞市,,厚街镇珊美社区康乐北路文化广电中心大楼5楼,27c05d9413e437eadf1e52d3,1,0,113.674255,22.939983,,life,http://api.map.baidu.com/place/detail?uid=27c05d9413e437eadf1e52d3&output=html&source=placeapi_v2,,08:30-17:30,5.0,,,,,,,0,1,,,,,,,113.67437165629,22.939942572655,0
00b5af98e6e5c5703517dce5,恒美汽车贴膜(厚街店),政府机构,行政单位,广东省,东莞市,,广东省东莞市湖光路7号,00b5af98e6e5c5703517dce5,1,0,113.66216,22.938087,,life,http://api.map.baidu.com/place/detail?uid=00b5af98e6e5c5703517dce5&output=html&source=placeapi_v2,,09:00-18:30,0,,,,,,,7,1,,,,,,,113.6623644521,22.938122526682,0
19cb39df8e2a5c37abf7290b,东莞市厚街镇农业技术服务中心,政府机构,行政单位,广东省,东莞市,,广东省东莞市珊瑚76号、78号,19cb39df8e2a5c37abf7290b,1,0,113.666039,22.939917,(0769)81691318,life,http://api.map.baidu.com/place/detail?uid=19cb39df8e2a5c37abf7290b&output=html&source=placeapi_v2,,,,,,,,,,3,,,,,,,,113.66616734583,22.939997941042,0
606289fd18b93c4da304648a,东莞市自然资源和规划局(厚街分局),政府机构,行政单位,广东省,东莞市,,东莞市厚街镇珊美岳范山公园一环路二巷1号,606289fd18b93c4da304648a,1,0,113.674255,22.939983,(0769)85581430,life,http://api.map.baidu.com/place/detail?uid=606289fd18b93c4da304648a&output=html&source=placeapi_v2,,"08:30-12:00,14:00-17:30",,,,,,,,1,,,,,,,,113.67437635982,22.939903567712,0
449ba202a6f97c10471a321c,珊美村旧庄小组外来人口管理申报点,政府机构,行政单位,广东省,东莞市,,东莞市三庄路旧庄文化活动中心,449ba202a6f97c10471a321c,1,0,113.665164,22.935297,,life,http://api.map.baidu.com/place/detail?uid=449ba202a6f97c10471a321c&output=html&source=placeapi_v2,,,,,,,,,,,,,,,,,,113.665163502,22.935193243877,0
d4550bb4b9248f5e6c3e1bbf,首信海鲜市场物业(招商)办公室,政府机构,行政单位,广东省,东莞市,,东莞市大新路盛和广场北侧约130米,d4550bb4b9248f5e6c3e1bbf,1,0,113.662066,22.935071,,life,http://api.map.baidu.com/place/detail?uid=d4550bb4b9248f5e6c3e1bbf&output=html&source=placeapi_v2,,,,,,,,,,,,,,,,,,,,0
bbc75e16db84c7596b49f3be,广东建筑消防设施检测中心东莞办事处,政府机构,行政单位,广东省,东莞市,,东莞市大新路叠翠庭东南侧约130米,bbc75e16db84c7596b49f3be,1,0,113.66209,22.935206,"(0769)85585789,13922502085",life,http://api.map.baidu.com/place/detail?uid=bbc75e16db84c7596b49f3be&output=html&source=placeapi_v2,,,,,,,,,,5,,,,,,,,113.66192364011,22.935231097606,0
f233ef9a836cf87d2ce67b30,景曜办公室,政府机构,行政单位,广东省,东莞市,,东莞市濂泉路和兴家居装饰材料城东南侧约90米,f233ef9a836cf87d2ce67b30,1,0,113.658006,22.927893,,life,http://api.map.baidu.com/place/detail?uid=f233ef9a836cf87d2ce67b30&output=html&source=placeapi_v2,,,,,,,,,,,,,,,,,,,,0
0a960b20689af988c1f1cfde,住房,政府机构,行政单位,广东省,东莞市,,东莞市莞太路中油BP(东莞丰兴加油站)南侧,,1,0,113.668255,22.926835,,life,http://api.map.baidu.com/place/detail?uid=0a960b20689af988c1f1cfde&output=html&source=placeapi_v2,,,,,,,,,,,,,,,,,,,,0
698fcf995f462e54c51e513d,东莞市厚街镇蔬菜农药残毒检测所,政府机构,行政单位,广东省,东莞市,,东莞市珊瑚路78号,698fcf995f462e54c51e513d,1,0,113.665927,22.939941,,life,http://api.map.baidu.com/place/detail?uid=698fcf995f462e54c51e513d&output=html&source=placeapi_v2,,,,,,,,,,,,,,,,,,113.66586111258,22.939900418761,0
8c3c86d1fdae0438a8175a38,涌口村劳动服务站,政府机构,行政单位,广东省,东莞市,,广东省东莞市涌口濂泉路3号,8c3c86d1fdae0438a8175a38,1,0,113.650794,22.928226,,life,http://api.map.baidu.com/place/detail?uid=8c3c86d1fdae0438a8175a38&output=html&source=placeapi_v2,,,0.0,,,,,,,,0,,,,,,,113.65081463004,22.928459337542,0
aef2dde702a33b618733040d,厚街社区综合服务管理中心,政府机构,行政单位,广东省,东莞市,,东莞市菊塘路4号,aef2dde702a33b618733040d,1,0,113.662432,22.944606,,life,http://api.map.baidu.com/place/detail?uid=aef2dde702a33b618733040d&output=html&source=placeapi_v2,,,,,,,,,,2,,,,,,,,,,0
f12c5f16d27f900a4c3a59f3,上海利敦广东办事处,政府机构,行政单位,广东省,东莞市,,东莞市厚街镇康乐南路明丰广场B座11楼C单元,f12c5f16d27f900a4c3a59f3,1,0,113.6691,22.933925,,life,http://api.map.baidu.com/place/detail?uid=f12c5f16d27f900a4c3a59f3&output=html&source=placeapi_v2,,,,,,,,,,,,,,,,,,,,0
56907ac1349e5c11cae33c0b,厚街镇珊美社区出租屋安全消防综合管理办公室,政府机构,行政单位,广东省,东莞市,,厚街镇珊美大道北47号,56907ac1349e5c11cae33c0b,1,0,113.667635,22.936664,,life,http://api.map.baidu.com/place/detail?uid=56907ac1349e5c11cae33c0b&output=html&source=placeapi_v2,,,,,,,,,,1,,,,,,,,113.6677996927,22.936787164132,0
db183fb9f0875112c7f50d9a,厚街菊二股份经济合作社,政府机构,行政单位,广东省,东莞市,,东莞市菊塘路10号,db183fb9f0875112c7f50d9a,1,0,113.661476,22.944303,,life,http://api.map.baidu.com/place/detail?uid=db183fb9f0875112c7f50d9a&output=html&source=placeapi_v2,,,,,,,,,,3,,,,,,,,113.66156931608,22.944361362581,0
4ea3f2f10be1d6aaafcb668a,东莞市生态环境局厚街分局,政府机构,行政单位,广东省,东莞市,,东莞市厚街镇厚街商贸中心大楼六楼,4ea3f2f10be1d6aaafcb668a,1,0,113.674255,22.939983,(0769)85822161,life,http://api.map.baidu.com/place/detail?uid=4ea3f2f10be1d6aaafcb668a&output=html&source=placeapi_v2,,"08:30-12:00,14:00-17:30",,,,,,,,2,,,,,,,,113.67420069617,22.939858663735,0
8de6b92d7222392f30169bd2,东莞市厚街镇林业工作站,政府机构,行政单位,广东省,东莞市,,广东省东莞市珊瑚76号、78号,8de6b92d7222392f30169bd2,1,0,113.665919,22.939931,(0769)85813573,life,http://api.map.baidu.com/place/detail?uid=8de6b92d7222392f30169bd2&output=html&source=placeapi_v2,,,,,,,,,,,,,,,,,,113.66586360089,22.939896926342,0
f197bd214f82725d5e17c3c3,新后街治安值班室,政府机构,行政单位,广东省,东莞市,,东莞市南环路新后街产业创新园,f197bd214f82725d5e17c3c3,1,0,113.658724,22.93646,,life,http://api.map.baidu.com/place/detail?uid=f197bd214f82725d5e17c3c3&output=html&source=placeapi_v2,,,,,,,,,,5,,,,,,,,,,0
e15ab4ee57e79b726cc02c65,广东省公安厅重点保卫单位,政府机构,行政单位,广东省,东莞市,,东莞市珊瑚路康华城东侧约90米,e15ab4ee57e79b726cc02c65,1,0,113.670898,22.935859,,life,http://api.map.baidu.com/place/detail?uid=e15ab4ee57e79b726cc02c65&output=html&source=placeapi_v2,,,,,,,,,,,,,,,,,,113.67066170753,22.936028012411,0
6fdf6e487249ad59250bd0e1,东莞市动物卫生监督所厚街分所,政府机构,行政单位,广东省,东莞市,,广东省东莞市珊瑚76号、78号,6fdf6e487249ad59250bd0e1,1,0,113.666061,22.940012,,life,http://api.map.baidu.com/place/detail?uid=6fdf6e487249ad59250bd0e1&output=html&source=placeapi_v2,,,,,,,,,,3,,,,,,,,113.6661044878,22.940083863751,0
50ac0ffa64824f209a68b499,新后街园区招商中心,政府机构,行政单位,广东省,东莞市,,东莞市南环路新后街产业创新园,50ac0ffa64824f209a68b499,1,0,113.658931,22.936488,,life,http://api.map.baidu.com/place/detail?uid=50ac0ffa64824f209a68b499&output=html&source=placeapi_v2,,,,,,,,,,11,,,,,,,,113.65894699034,22.936528919533,0
f178114f8b9c0082932ca34b,东莞市厚街镇第二专职消防队,政府机构,行政单位,广东省,东莞市,,广东省东莞市永泰路120号,f178114f8b9c0082932ca34b,1,0,113.65301,22.942104,,life,http://api.map.baidu.com/place/detail?uid=f178114f8b9c0082932ca34b&output=html&source=placeapi_v2,,,,,,,,,,1,,,,,,,,113.65319960692,22.942318464324,0
229fcdf2f315a96ae6073809,厚街镇涌口村委会城市综合管理办公室,政府机构,行政单位,广东省,东莞市,,东莞市濂泉路涌口幼儿园(濂泉路)西侧约100米,,1,0,113.651349,22.928234,,life,http://api.map.baidu.com/place/detail?uid=229fcdf2f315a96ae6073809&output=html&source=placeapi_v2,,"08:30-11:00,14:00-17:30",,,,,,,,3,,,,,,,,113.65136497871,22.92841831412,0
2214fa37c84f0f9d92114c56,桥头村村委会人民调解委员会,政府机构,行政单位,广东省,东莞市,,东莞市莲涌路建业楼东南侧约90米,2214fa37c84f0f9d92114c56,1,0,113.670744,22.923357,,life,http://api.map.baidu.com/place/detail?uid=2214fa37c84f0f9d92114c56&output=html&source=placeapi_v2,,"08:30-11:00,14:00-17:30",,,,,,,,,,,,,,,,,,0
d5c00628af655f91c356ac4d,东莞市厚街镇三防指挥所,政府机构,行政单位,广东省,东莞市,,东莞市珊瑚路厚德华庭东南侧约40米,d5c00628af655f91c356ac4d,1,0,113.665912,22.940075,,life,http://api.map.baidu.com/place/detail?uid=d5c00628af655f91c356ac4d&output=html&source=placeapi_v2,,,,,,,,,,1,,,,,,,,,,0
bd9f2a5186d74e736140a968,东莞市厚街测绘队,政府机构,行政单位,广东省,东莞市,,东莞市市场南路嘉利达大厦东北侧约30米,bd9f2a5186d74e736140a968,1,0,113.674064,22.939834,,life,http://api.map.baidu.com/place/detail?uid=bd9f2a5186d74e736140a968&output=html&source=placeapi_v2,,,,,,,,,,5,,,,,,,,,,0
a3136a9e586e8d443617dc2a,东莞市安全生产监督管理局厚街分局,政府机构,行政单位,广东省,东莞市,,广东省东莞市厚街镇厚街商贸中心华润8楼,a3136a9e586e8d443617dc2a,1,0,113.674258,22.939934,,life,http://api.map.baidu.com/place/detail?uid=a3136a9e586e8d443617dc2a&output=html&source=placeapi_v2,,,,,,,,,,2,,,,,,,,113.67371111518,22.940077331553,0
acbfef4635f4764aa80dd858,厚街镇厚街社区人力资源服务站,政府机构,行政单位,广东省,东莞市,,东莞市厚街村菊塘路书院新村36号,acbfef4635f4764aa80dd858,1,0,113.662415,22.944612,,life,http://api.map.baidu.com/place/detail?uid=acbfef4635f4764aa80dd858&output=html&source=placeapi_v2,,,,,,,,,,1,,,,,,,,113.6622278378,22.94460883345,0
f7306076fba7d61776e5b61a,涌口政务中心,政府机构,行政单位,广东省,东莞市,,东莞市厚街镇涌口村濂泉路5号,f7306076fba7d61776e5b61a,1,0,113.650887,22.928358,,life,http://api.map.baidu.com/place/detail?uid=f7306076fba7d61776e5b61a&output=html&source=placeapi_v2,,09:00-18:30,,,,,,,,4,,,,,,,,113.65089509217,22.928453202111,0
42ef5bfaabff011151e5c541,南元治安队,政府机构,行政单位,广东省,东莞市,,厚街镇元心新村6号,,1,0,113.667639,22.944736,,life,http://api.map.baidu.com/place/detail?uid=42ef5bfaabff011151e5c541&output=html&source=placeapi_v2,,,,,,,,,,,,,,,,,,,,0
25105d4e43cbeed6b7265509,桥头村劳动服务站,政府机构,行政单位,广东省,东莞市,,东莞市莲涌路建业楼东南侧约100米,25105d4e43cbeed6b7265509,1,0,113.670861,22.92326,,life,http://api.map.baidu.com/place/detail?uid=25105d4e43cbeed6b7265509&output=html&source=placeapi_v2,,,0.0,,,,,,,,0,,,,,,,,,0
730fa487738e1e924f6d469c,东莞市厚街粮所,政府机构,行政单位,广东省,东莞市,,广东省东莞市厚街镇惠民路11号厚街,730fa487738e1e924f6d469c,1,0,113.661181,22.947791,,life,http://api.map.baidu.com/place/detail?uid=730fa487738e1e924f6d469c&output=html&source=placeapi_v2,,,,,,,,,,9,,,,,,,,,,0
3cf951e2319f0799fea77843,办理东莞各镇区特种行业许可证,政府机构,行政单位,广东省,东莞市,,东莞市珊瑚路怡华楼公寓东南侧约50米,3cf951e2319f0799fea77843,1,0,113.668229,22.938427,,life,http://api.map.baidu.com/place/detail?uid=3cf951e2319f0799fea77843&output=html&source=placeapi_v2,,,,,,,,,,0,,,,,,,,113.66820066215,22.938475891115,0
959a9d3677eef747b5f42f6e,厚街镇后街村国土办公室,政府机构,行政单位,广东省,东莞市,,东莞市厚街镇菊塘路3号,959a9d3677eef747b5f42f6e,1,0,113.661268,22.944726,,life,http://api.map.baidu.com/place/detail?uid=959a9d3677eef747b5f42f6e&output=html&source=placeapi_v2,,,,,,,,,,,,,,,,,,113.66134769153,22.944741443383,0
40c34c036306b3160d3ddaac,宣传教育文体局,政府机构,行政单位,广东省,东莞市,,东莞市厚街大道东1号厚街镇人民政府2楼,40c34c036306b3160d3ddaac,1,0,113.677659,22.942568,,life,http://api.map.baidu.com/place/detail?uid=40c34c036306b3160d3ddaac&output=html&source=placeapi_v2,,,,,,,,,,,,,,,,,,,,0
00d866df909a7cd14354d7b9,厚街镇人民政府市政管理办公室(新兴路),政府机构,行政单位,广东省,东莞市,,东莞市新兴路厚街商业广场(东莞)东北侧约30米,00d866df909a7cd14354d7b9,1,0,113.663503,22.948053,,life,http://api.map.baidu.com/place/detail?uid=00d866df909a7cd14354d7b9&output=html&source=placeapi_v2,,,,,,,,,,,,,,,,,,,,0
66bea04ad99502f84bcc4a29,质量-安全监督管理所,政府机构,行政单位,广东省,东莞市,,东莞市厚街商贸中心7层,66bea04ad99502f84bcc4a29,1,0,113.674012,22.940401,,life,http://api.map.baidu.com/place/detail?uid=66bea04ad99502f84bcc4a29&output=html&source=placeapi_v2,,,,,,,,,,,,,,,,,,113.67374125962,22.940126809275,0
2aaea54fcf8eae7fad0457e9,桥头税务协管站,政府机构,行政单位,广东省,东莞市,,广东省东莞市厚街镇桥头莲涌东路南丰苑东,2aaea54fcf8eae7fad0457e9,1,0,113.67027,22.921761,,life,http://api.map.baidu.com/place/detail?uid=2aaea54fcf8eae7fad0457e9&output=html&source=placeapi_v2,,,,,,,,,,0,,,,,,,,113.67037358592,22.921755998103,0
6ede3f3cf7cbc9756849f343,桥头消防站,政府机构,行政单位,广东省,东莞市,,东莞市坑美十七巷厚街公安分局仙桥派出所北侧约250米,6ede3f3cf7cbc9756849f343,1,0,113.666155,22.920831,,life,http://api.map.baidu.com/place/detail?uid=6ede3f3cf7cbc9756849f343&output=html&source=placeapi_v2,,,,,,,,,,3,,,,,,,,,,0
005e29e15df34f7857bfffae,厚街镇涌口社区综治中心,政府机构,行政单位,广东省,东莞市,,东莞市濂泉路涌口幼儿园(濂泉路)西侧约140米,005e29e15df34f7857bfffae,1,0,113.650896,22.928357,,life,http://api.map.baidu.com/place/detail?uid=005e29e15df34f7857bfffae&output=html&source=placeapi_v2,,,,,,,,,,5,,,,,,,,113.65097318366,22.928447247499,0
0757fa109036b96626e0a017,厚街镇涵口村环境卫生管理办公室,政府机构,行政单位,广东省,东莞市,,东莞市东园街海月风帆公园北侧,0757fa109036b96626e0a017,1,0,113.651015,22.924706,,life,http://api.map.baidu.com/place/detail?uid=0757fa109036b96626e0a017&output=html&source=placeapi_v2,,,,,,,,,,1,,,,,,,,,,0
f384959658d8636d1d580041,东莞市公路管理局规费征稽所厚街分所,政府机构,行政单位,广东省,东莞市,,东莞市金豪路水北公园东侧,f384959658d8636d1d580041,1,0,113.652499,22.930955,,life,http://api.map.baidu.com/place/detail?uid=f384959658d8636d1d580041&output=html&source=placeapi_v2,,,,,,,,,,,,,,,,,,113.6526457324,22.930992514987,0
2d359b964ddb082be60738d3,涌口社区综合服务管理中心,政府机构,行政单位,广东省,东莞市,,东莞市濂泉路涌口幼儿园(濂泉路)西侧约90米,2d359b964ddb082be60738d3,1,0,113.651357,22.928312,,life,http://api.map.baidu.com/place/detail?uid=2d359b964ddb082be60738d3&output=html&source=placeapi_v2,,,,,,,,,,6,,,,,,,,113.65136574676,22.928418258286,0
4ce0092ce76b9c068bb98818,厚街镇桥头社区居务监督委员会,政府机构,行政单位,广东省,东莞市,,东莞市新兴路建业楼东南侧约40米,4ce0092ce76b9c068bb98818,1,0,113.670374,22.923019,,life,http://api.map.baidu.com/place/detail?uid=4ce0092ce76b9c068bb98818&output=html&source=placeapi_v2,,,,,,,,,,,,,,,,,,113.67052673174,22.923000098249,0
c01fe17ac20da04d03294fe5,网约车对公平台,政府机构,行政单位,广东省,东莞市,,东莞市东环路与厚沙东路交叉路口往西约260米,c01fe17ac20da04d03294fe5,1,0,113.673953,22.929602,,life,http://api.map.baidu.com/place/detail?uid=c01fe17ac20da04d03294fe5&output=html&source=placeapi_v2,,,,,,,,,,,,,,,,,,,,0
e26427a79d92b5cf4e776ea1,厚街镇水生态治理工作领导小组办公室,政府机构,行政单位,广东省,东莞市,,东莞市珊瑚路厚德华庭东南侧约40米,e26427a79d92b5cf4e776ea1,1,0,113.665912,22.940075,,life,http://api.map.baidu.com/place/detail?uid=e26427a79d92b5cf4e776ea1&output=html&source=placeapi_v2,,,,,,,,,,1,,,,,,,,,,0
4181a2d60e152e36a1a934b2,深圳市倍测CE认证检测中心(东莞办事处),政府机构,行政单位,广东省,东莞市,,东莞市厚街镇科技园汀科路2栋,4181a2d60e152e36a1a934b2,1,0,113.65249,22.932111,,life,http://api.map.baidu.com/place/detail?uid=4181a2d60e152e36a1a934b2&output=html&source=placeapi_v2,,,,,,,,,,,,,,,,,,113.65262739529,22.93215237677,0
77e34e72e201912b047ce81e,新塘村坑美村民小组综治信访维稳工作室,政府机构,行政单位,广东省,东莞市,,东莞市坑美十七巷厚街公安分局仙桥派出所北侧约140米,,1,0,113.665639,22.919857,,life,http://api.map.baidu.com/place/detail?uid=77e34e72e201912b047ce81e&output=html&source=placeapi_v2,,,,,,,,,,2,,,,,,,,,,0
846a73b8f3f7531ff942b2e7,综合减灾避护中心,政府机构,行政单位,广东省,东莞市,,东莞市新兴路康乐天幼儿园西侧约140米,846a73b8f3f7531ff942b2e7,1,0,113.672969,22.923483,,life,http://api.map.baidu.com/place/detail?uid=846a73b8f3f7531ff942b2e7&output=html&source=placeapi_v2,,,,,,,,,,1,,,,,,,,,,0
3ace34dbacefd0b4260bd071,标准透明有保障,政府机构,行政单位,广东省,东莞市,,东莞市教育路厚街中学,3ace34dbacefd0b4260bd071,1,0,113.667821,22.941114,,life,http://api.map.baidu.com/place/detail?uid=3ace34dbacefd0b4260bd071&output=html&source=placeapi_v2,,,,,,,,,,,,,,,,,,,,0
d8900e2d3d38d9af250bd024,招商管理处,政府机构,行政单位,广东省,东莞市,,东莞市鸿昌路百汇电脑数码城,d8900e2d3d38d9af250bd024,1,0,113.668697,22.940849,,life,http://api.map.baidu.com/place/detail?uid=d8900e2d3d38d9af250bd024&output=html&source=placeapi_v2,,,,,,,,,,3,,,,,,,,113.66868704967,22.940916621369,0
4d4c8575c92d9661a2046488,东莞计量局电子称重公证站,政府机构,行政单位,广东省,东莞市,,东莞市园新二路新塘小学北侧约30米,4d4c8575c92d9661a2046488,1,0,113.659712,22.91941,,life,http://api.map.baidu.com/place/detail?uid=4d4c8575c92d9661a2046488&output=html&source=placeapi_v2,,,,,,,,,,13,,,,,,,,,,0
74ed6cf21381ffac21f0178d,新塘社区坑美综合管理工作站,政府机构,行政单位,广东省,东莞市,,东莞市坑美仙桥派出所路厚街公安分局仙桥派出所西北侧约30米,,1,0,113.664964,22.918904,,life,http://api.map.baidu.com/place/detail?uid=74ed6cf21381ffac21f0178d&output=html&source=placeapi_v2,,,,,,,,,,3,,,,,,,,113.66493900183,22.919198943421,0
6c5929585c9c5754b11e36f1,厚街镇社会工作服务站,政府机构,行政单位,广东省,东莞市,,广东省东莞市新兴路101号,6c5929585c9c5754b11e36f1,1,0,113.673322,22.923399,(0769)81288330,life,http://api.map.baidu.com/place/detail?uid=6c5929585c9c5754b11e36f1&output=html&source=placeapi_v2,,,0.0,,,,,,,0,1,,,,,,,,,0
acf187dcf5fe0b862dfaa7df,租房管理处,政府机构,行政单位,广东省,东莞市,,东莞市坑美仙桥派出所路厚街公安分局仙桥派出所北侧,acf187dcf5fe0b862dfaa7df,1,0,113.665198,22.918819,,life,http://api.map.baidu.com/place/detail?uid=acf187dcf5fe0b862dfaa7df&output=html&source=placeapi_v2,,,,,,,,,,,,,,,,,,,,0
24e89672e925662c2811d153,河田社区综合服务管理中心,政府机构,行政单位,广东省,东莞市,,东莞市河田郡马路河田农贸市场东侧约50米,24e89672e925662c2811d153,1,0,113.682037,22.934418,,life,http://api.map.baidu.com/place/detail?uid=24e89672e925662c2811d153&output=html&source=placeapi_v2,,,,,,,,,,1,,,,,,,,113.68195999327,22.934258829519,0
87a593908d0ae988130daac1,涌口村环保管理所,政府机构,行政单位,广东省,东莞市,,东莞市东园街海月风帆公园北侧,87a593908d0ae988130daac1,1,0,113.651155,22.924885,,life,http://api.map.baidu.com/place/detail?uid=87a593908d0ae988130daac1&output=html&source=placeapi_v2,,,,,,,,,,1,,,,,,,,,,0
c70cf07c16b46cdc1d5800f6,东莞市江西上饶商会沿海片区联络处,政府机构,行政单位,广东省,东莞市,,东莞市莞太路南峰・商业广场北侧约50米,c70cf07c16b46cdc1d5800f6,1,0,113.674248,22.938078,,life,http://api.map.baidu.com/place/detail?uid=c70cf07c16b46cdc1d5800f6&output=html&source=placeapi_v2,,,,,,,,,,1,,,,,,,,113.67409084149,22.938166944241,0
aa8c373f352283131894c60a,涌口村出租屋及租住人员管理服务站(濂泉路),政府机构,行政单位,广东省,东莞市,,东莞市濂泉路涌口幼儿园(濂泉路)西侧约110米,aa8c373f352283131894c60a,1,0,113.651187,22.928205,,life,http://api.map.baidu.com/place/detail?uid=aa8c373f352283131894c60a&output=html&source=placeapi_v2,,,,,,,,,,,,,,,,,,,,0
ebb078e4209610cfc336446b,珊美村榄树厦小组办公室,政府机构,行政单位,广东省,东莞市,,东莞市厚街镇兴隆路25号,ebb078e4209610cfc336446b,1,0,113.670135,22.940147,,life,http://api.map.baidu.com/place/detail?uid=ebb078e4209610cfc336446b&output=html&source=placeapi_v2,,,,,,,,,,3,,,,,,,,,,0
19cb4b79cd0ff01bc42ba11d,涌口村综治信访维稳工作站,政府机构,行政单位,广东省,东莞市,,东莞市濂泉路涌口幼儿园(濂泉路)西侧约130米,19cb4b79cd0ff01bc42ba11d,1,0,113.650895,22.928232,,life,http://api.map.baidu.com/place/detail?uid=19cb4b79cd0ff01bc42ba11d&output=html&source=placeapi_v2,,,,,,,,,,,,,,,,,,113.65093842463,22.928449897867,0
72ba76ac7d12ab7ac1f1cfe3,国福财税服务,政府机构,行政单位,广东省,东莞市,,东莞市河田大道南峰・商业广场,72ba76ac7d12ab7ac1f1cfe3,1,0,113.674779,22.936914,,life,http://api.map.baidu.com/place/detail?uid=72ba76ac7d12ab7ac1f1cfe3&output=html&source=placeapi_v2,,,,,,,,,,1,,,,,,,,,,0
69f75526a4519434c9c3dbe4,南峰二期办公室,政府机构,行政单位,广东省,东莞市,,东莞市河田大道南峰・商业广场,69f75526a4519434c9c3dbe4,1,0,113.674752,22.936903,,life,http://api.map.baidu.com/place/detail?uid=69f75526a4519434c9c3dbe4&output=html&source=placeapi_v2,,,,,,,,,,,,,,,,,,,,0
b9eca2551e3d88425d17c352,联防执勤点,政府机构,行政单位,广东省,东莞市,,东莞市南湖路海月幼儿园西南侧约130米,b9eca2551e3d88425d17c352,1,0,113.652969,22.920524,,life,http://api.map.baidu.com/place/detail?uid=b9eca2551e3d88425d17c352&output=html&source=placeapi_v2,,,,,,,,,,,,,,,,,,,,0
5d1c42912c35abc32cb17e43,人口计生卫生局,政府机构,行政单位,广东省,东莞市,,东莞市厚街镇人民政府一楼,5d1c42912c35abc32cb17e43,1,0,113.677659,22.942568,,life,http://api.map.baidu.com/place/detail?uid=5d1c42912c35abc32cb17e43&output=html&source=placeapi_v2,,,5.0,,,,,,,,1,,,,,,,113.67756212215,22.942679551196,0
1b4218bce49d015dd2f49e23,厚街村关心下一代工作小组,政府机构,行政单位,广东省,东莞市,,东莞市菊塘路厚街大明塘市场西侧,,1,0,113.66177,22.943494,,life,http://api.map.baidu.com/place/detail?uid=1b4218bce49d015dd2f49e23&output=html&source=placeapi_v2,,,,,,,,,,3,,,,,,,,113.66191785772,22.943505276146,0
fc21750eff8f1d510482c25f,招商管理处,政府机构,行政单位,广东省,东莞市,,广东省东莞市河阳路厚街医院南侧约230米,fc21750eff8f1d510482c25f,1,0,113.676665,22.935281,,life,http://api.map.baidu.com/place/detail?uid=fc21750eff8f1d510482c25f&output=html&source=placeapi_v2,,,,,,,,,,2,,,,,,,,,,0
5b761a2161f9f44303ec014e,厚街村安全生产办公室,政府机构,行政单位,广东省,东莞市,,东莞市元心路厚街大明塘市场,5b761a2161f9f44303ec014e,1,0,113.662194,22.944017,,life,http://api.map.baidu.com/place/detail?uid=5b761a2161f9f44303ec014e&output=html&source=placeapi_v2,,09:30-22:00,0.0,,,,,,,2,1,,,,,,,113.66225362276,22.944035210854,0
39377a7b76d8fb5cb5147f14,公园管理处,政府机构,行政单位,广东省,东莞市,,东莞市湖滨街海月风帆公园西侧约30米,,1,0,113.649768,22.924362,,life,http://api.map.baidu.com/place/detail?uid=39377a7b76d8fb5cb5147f14&output=html&source=placeapi_v2,,,,,,,,,,3,,,,,,,,113.64996594873,22.924382699512,0
f1e07df1081348821b11d5f3,厚街社区上凤林办公室,政府机构,行政单位,广东省,东莞市,,东莞市下栅新村南路厚街幼儿园,f1e07df1081348821b11d5f3,1,0,113.6668,22.947953,,life,http://api.map.baidu.com/place/detail?uid=f1e07df1081348821b11d5f3&output=html&source=placeapi_v2,,,,,,,,,,2,,,,,,,,113.66670717444,22.947840422318,0
de76b83f161f3426ae04571c,新塘村劳动服务站,政府机构,行政单位,广东省,东莞市,,东莞市丽新路46号,de76b83f161f3426ae04571c,1,0,113.662308,22.91593,,life,http://api.map.baidu.com/place/detail?uid=de76b83f161f3426ae04571c&output=html&source=placeapi_v2,,,0.0,,,,,,,,0,,,,,,,,,0
2eb4dec7a6c87210c2f1cf32,厚街村综治信访维稳工作站,政府机构,行政单位,广东省,东莞市,,东莞市西元路厚街大明塘市场北侧约60米,2eb4dec7a6c87210c2f1cf32,1,0,113.662354,22.944624,,life,http://api.map.baidu.com/place/detail?uid=2eb4dec7a6c87210c2f1cf32&output=html&source=placeapi_v2,,,,,,,,,,1,,,,,,,,113.66231766835,22.944600513308,0
8845a35861f7e65df50e7742,厚街镇重点项目管理协调办公室,政府机构,行政单位,广东省,东莞市,,东莞市岳范山村,8845a35861f7e65df50e7742,1,0,113.674227,22.940015,(0769)81695566,life,http://api.map.baidu.com/place/detail?uid=8845a35861f7e65df50e7742&output=html&source=placeapi_v2,,,,,,,,,,,,,,,,,,113.67438061958,22.939964900117,0
5fd37e41bbe3e20bd2f49ef3,联防执勤点,政府机构,行政单位,广东省,东莞市,,东莞市丽新路丽新楼东南侧约70米,5fd37e41bbe3e20bd2f49ef3,1,0,113.662585,22.915928,,life,http://api.map.baidu.com/place/detail?uid=5fd37e41bbe3e20bd2f49ef3&output=html&source=placeapi_v2,,,,,,,,,,1,,,,,,,,113.66278896703,22.916031549286,0
3353cefcc536f9f50b69d9b8,顾人顾己请使用安全套,政府机构,行政单位,广东省,东莞市,,东莞市涌口北秀街红花林公园北侧约150米,3353cefcc536f9f50b69d9b8,1,0,113.647517,22.932954,13546985902,life,http://api.map.baidu.com/place/detail?uid=3353cefcc536f9f50b69d9b8&output=html&source=placeapi_v2,,,,,,,,,,13,,,,,,,,113.64747631028,22.93306123841,0
ec5afa26242f00982fe67bbc,厚街镇新塘村治保会,政府机构,行政单位,广东省,东莞市,,丽新路3附近,ec5afa26242f00982fe67bbc,1,0,113.662623,22.91596,,life,http://api.map.baidu.com/place/detail?uid=ec5afa26242f00982fe67bbc&output=html&source=placeapi_v2,,,,,,,,,,,,,,,,,,113.6625880062,22.91618779212,0
0bd715fec21684498505bf44,桥头村环境卫生管理办公室,政府机构,行政单位,广东省,东莞市,,广东省东莞市厚街镇桥头塘元路26号,0bd715fec21684498505bf44,1,0,113.675484,22.920825,,life,http://api.map.baidu.com/place/detail?uid=0bd715fec21684498505bf44&output=html&source=placeapi_v2,,,0.0,,,,,,,3,1,,,,,,,113.67550011935,22.920662380005,0
87e69cfbcbd243b529fc48a6,综合执勤岗亭,政府机构,行政单位,广东省,东莞市,,广东省东莞市康乐南路8附近,87e69cfbcbd243b529fc48a6,1,0,113.673789,22.941026,,life,http://api.map.baidu.com/place/detail?uid=87e69cfbcbd243b529fc48a6&output=html&source=placeapi_v2,,,,,,,,,,,,,,,,,,,,0
b4574041ccbe3d0b9022e046,东莞市厚街镇建设工程招投标中心,政府机构,行政单位,广东省,东莞市,,东莞市厚街镇商贸中心九楼,b4574041ccbe3d0b9022e046,1,0,113.674227,22.940015,,life,http://api.map.baidu.com/place/detail?uid=b4574041ccbe3d0b9022e046&output=html&source=placeapi_v2,,,,,,,,,,,,,,,,,,,,0
81da820d77944b2732870aab,厚街镇厚街村人民调解委员会,政府机构,行政单位,广东省,东莞市,,东莞市西元路厚街大明塘市场北侧约60米,81da820d77944b2732870aab,1,0,113.662366,22.94465,,life,http://api.map.baidu.com/place/detail?uid=81da820d77944b2732870aab&output=html&source=placeapi_v2,,,,,,,,,,2,,,,,,,,,,0
d9eba715eee5bebfc4f025a6,党代表工作室,政府机构,行政单位,广东省,东莞市,,东莞市向群路厚街大明塘市场西北侧约100米,d9eba715eee5bebfc4f025a6,1,0,113.661633,22.94487,,life,http://api.map.baidu.com/place/detail?uid=d9eba715eee5bebfc4f025a6&output=html&source=placeapi_v2,,,,,,,,,,,,,,,,,,113.66147655346,22.944803260548,0
45bfd2d3dc371d75583ac854,新塘社区出租屋安全消防综合管理办公室,政府机构,行政单位,广东省,东莞市,,东莞市丽新路丽新楼东南侧约40米,45bfd2d3dc371d75583ac854,1,0,113.662328,22.916051,,life,http://api.map.baidu.com/place/detail?uid=45bfd2d3dc371d75583ac854&output=html&source=placeapi_v2,,,,,,,,,,,,,,,,,,,,0
74dfc73d08e264f758f6beb9,东莞市厚街镇厚街南元股份经济合作社,政府机构,行政单位,广东省,东莞市,,东莞市厚街镇元心村3号,,1,0,113.667679,22.944527,,life,http://api.map.baidu.com/place/detail?uid=74dfc73d08e264f758f6beb9&output=html&source=placeapi_v2,,,,,,,,,,1,,,,,,,,113.66786883887,22.944517504968,0
ab9896581c275aaafea77877,厚街镇新塘社区社会治理运营中心,政府机构,行政单位,广东省,东莞市,,东莞市丽新路丽新楼东南侧约40米,ab9896581c275aaafea77877,1,0,113.662246,22.916009,,life,http://api.map.baidu.com/place/detail?uid=ab9896581c275aaafea77877&output=html&source=placeapi_v2,,,,,,,,,,2,,,,,,,,,,0
d1b4b16e121794ec15a19077,公安交通劝导站,政府机构,行政单位,广东省,东莞市,,东莞市向群路厚街大明塘市场西北侧约80米,d1b4b16e121794ec15a19077,1,0,113.661584,22.944624,,life,http://api.map.baidu.com/place/detail?uid=d1b4b16e121794ec15a19077&output=html&source=placeapi_v2,,,,,,,,,,,,,,,,,,113.66154160785,22.944604356797,0
f01b910b7834dfef8adb7329,永兴住房,政府机构,行政单位,广东省,东莞市,,广东省东莞市厚街镇富民路逢缘阁商务公寓(碧桂苑北50米),f01b910b7834dfef8adb7329,1,0,113.646436,22.933127,,life,http://api.map.baidu.com/place/detail?uid=f01b910b7834dfef8adb7329&output=html&source=placeapi_v2,,,,,,,,,,7,,,,,,,,113.64664188866,22.933201352878,0
b18b2b43655398c258109385,厚街村委会-对外加工装配办公室,政府机构,行政单位,广东省,东莞市,,东莞市厚街镇厚街村菊塘路4号,b18b2b43655398c258109385,1,0,113.661511,22.944848,,life,http://api.map.baidu.com/place/detail?uid=b18b2b43655398c258109385&output=html&source=placeapi_v2,,,,,,,,,,,,,,,,,,113.66147655346,22.944803260548,0
5cc46f322139910d28201a2e,涌口商贸中心蔬菜检测室,政府机构,行政单位,广东省,东莞市,,东莞市富民路厚街涌口商贸市场,5cc46f322139910d28201a2e,1,0,113.647451,22.930247,,life,http://api.map.baidu.com/place/detail?uid=5cc46f322139910d28201a2e&output=html&source=placeapi_v2,,,,,,,,,,2,,,,,,,,113.64734771335,22.930230013559,0
24d4b1faae47bc49c8213de5,厚街村出租屋及租住人员管理服务站,政府机构,行政单位,广东省,东莞市,,东莞市向群路厚街大明塘市场西北侧约130米,24d4b1faae47bc49c8213de5,1,0,113.661141,22.944923,,life,http://api.map.baidu.com/place/detail?uid=24d4b1faae47bc49c8213de5&output=html&source=placeapi_v2,,,,,,,,,,,,,,,,,,113.66135435516,22.944999818811,0
0b240628b0ffc0081c3894dd,厚街镇厚街社区社会治理运营中心,政府机构,行政单位,广东省,东莞市,,东莞市向群路厚街大明塘市场西北侧约100米,0b240628b0ffc0081c3894dd,1,0,113.661633,22.944879,,life,http://api.map.baidu.com/place/detail?uid=0b240628b0ffc0081c3894dd&output=html&source=placeapi_v2,,,,,,,,,,4,,,,,,,,113.66161543367,22.944799526723,0
742ba01bff89f4b5e956fae3,大厦管理处,政府机构,行政单位,广东省,东莞市,,东莞市村北路厚街新塘市场东南侧约110米,,1,0,113.662217,22.914278,,life,http://api.map.baidu.com/place/detail?uid=742ba01bff89f4b5e956fae3&output=html&source=placeapi_v2,,,,,,,,,,1,,,,,,,,,,0
26249a1ee401ae18873304c6,江西长盈皮革东莞办事处,政府机构,行政单位,广东省,东莞市,,东莞市河田翠园北路东莞市厚街医院东侧,26249a1ee401ae18873304c6,1,0,113.67839,22.938206,,life,http://api.map.baidu.com/place/detail?uid=26249a1ee401ae18873304c6&output=html&source=placeapi_v2,,,,,,,,,,6,,,,,,,,113.67836585226,22.938154987205,0
c1d3beb756226ddbdc1e520d,新塘社区新地综合管理工作站,政府机构,行政单位,广东省,东莞市,,东莞市新塘一路中国石化(起发加油站)西南侧约300米,,1,0,113.665818,22.91469,,life,http://api.map.baidu.com/place/detail?uid=c1d3beb756226ddbdc1e520d&output=html&source=placeapi_v2,,,,,,,,,,4,,,,,,,,,,0
21e37df473c79234621c67a9,联防执勤点,政府机构,行政单位,广东省,东莞市,,东莞市涌口教兴街欣丰科技园东南侧约270米,21e37df473c79234621c67a9,1,0,113.64599,22.926124,,life,http://api.map.baidu.com/place/detail?uid=21e37df473c79234621c67a9&output=html&source=placeapi_v2,,,,,,,,,,,,,,,,,,113.64635688597,22.925956347128,0
65be1df0eed3473ef6c59c59,厚街镇扫黄打非工作领导小组办公室,政府机构,行政单位,广东省,东莞市,,东莞市广场南路东港城西南侧,65be1df0eed3473ef6c59c59,1,0,113.675217,22.942966,,life,http://api.map.baidu.com/place/detail?uid=65be1df0eed3473ef6c59c59&output=html&source=placeapi_v2,,,,,,,,,,1,,,,,,,,,,0
0bd05537b7919fa69eec2b15,东莞市厚街镇经济联合总社,政府机构,行政单位,广东省,东莞市,,广东省东莞市莞太路厚街段279,0bd05537b7919fa69eec2b15,1,0,113.676599,22.941334,,life,http://api.map.baidu.com/place/detail?uid=0bd05537b7919fa69eec2b15&output=html&source=placeapi_v2,,,,,,,,,,,,,,,,,,113.67655202791,22.941248396685,0
b0ed343942758e526018095f,厚街房地产公司商业广场管理处,政府机构,行政单位,广东省,东莞市,,东莞市新兴路与石角路交叉口东100米商业广场,b0ed343942758e526018095f,1,0,113.663549,22.948046,,life,http://api.map.baidu.com/place/detail?uid=b0ed343942758e526018095f&output=html&source=placeapi_v2,,,,,,,,,,,,,,,,,,,,0
4b251f8392146f2c0869d9ff,厚街村军铺村民小组综治信访维稳工作室,政府机构,行政单位,广东省,东莞市,,东莞市厚涌路顺昌楼(厚涌路)西侧约100米,4b251f8392146f2c0869d9ff,1,0,113.648482,22.940174,,life,http://api.map.baidu.com/place/detail?uid=4b251f8392146f2c0869d9ff&output=html&source=placeapi_v2,,,,,,,,,,2,,,,,,,,,,0
ca32bf718ae7af01badf8ff7,厚街镇文化市场管理工作领导小组办公室,政府机构,行政单位,广东省,东莞市,,东莞市广场南路东港城西南侧,ca32bf718ae7af01badf8ff7,1,0,113.675231,22.943027,,life,http://api.map.baidu.com/place/detail?uid=ca32bf718ae7af01badf8ff7&output=html&source=placeapi_v2,,,,,,,,,,1,,,,,,,,,,0
9d1a34325e6806f8932ca3de,厚街消费扶贫馆,政府机构,行政单位,广东省,东莞市,,东莞市新兴路万丰商业大厦,,1,0,113.66343,22.948223,,life,http://api.map.baidu.com/place/detail?uid=9d1a34325e6806f8932ca3de&output=html&source=placeapi_v2,,,,,,,,,,1,,,,,,,,,,0
99f072c0fed439f621f0176a,岳范山小组外来人口管理申报点,政府机构,行政单位,广东省,东莞市,,厚街镇珊美村,99f072c0fed439f621f0176a,1,0,113.678711,22.941298,,life,http://api.map.baidu.com/place/detail?uid=99f072c0fed439f621f0176a&output=html&source=placeapi_v2,,,,,,,,,,,,,,,,,,,,0
d4df8b00e6d4caacc61b7535,河田市场办公室,政府机构,行政单位,广东省,东莞市,,东莞市沿河路河田农贸市场,d4df8b00e6d4caacc61b7535,1,0,113.680724,22.9341,,life,http://api.map.baidu.com/place/detail?uid=d4df8b00e6d4caacc61b7535&output=html&source=placeapi_v2,,,,,,,,,,8,,,,,,,,,,0
5e3189c73063c4f8c03644f7,大塘办公室,政府机构,行政单位,广东省,东莞市,,东莞市大塘路大塘小公园,,1,0,113.65724,22.946205,,life,http://api.map.baidu.com/place/detail?uid=5e3189c73063c4f8c03644f7&output=html&source=placeapi_v2,,,,,,,,,,2,,,,,,,,113.65731781936,22.94630349834,0
c7d091ff5c2a44ac3fe2312f,珊美村岳范山村民小组综治信访维稳工作室,政府机构,行政单位,广东省,东莞市,,东莞市岳范山大道东莞市厚街镇人民政府东南侧约100米,c7d091ff5c2a44ac3fe2312f,1,0,113.678646,22.941254,,life,http://api.map.baidu.com/place/detail?uid=c7d091ff5c2a44ac3fe2312f&output=html&source=placeapi_v2,,,,,,,,,,1,,,,,,,,,,0
192692f5f37ebe278433042f,河田村出租屋及租住人员管理服务站,政府机构,行政单位,广东省,东莞市,,东莞市河田大道河田农贸市场东北侧约30米,192692f5f37ebe278433042f,1,0,113.68124,22.934777,,life,http://api.map.baidu.com/place/detail?uid=192692f5f37ebe278433042f&output=html&source=placeapi_v2,,,,,,,,,,,,,,,,,,,,0
b8b272ca7a41d1801f389423,厚街镇湖景社区社会治理运营中心,政府机构,行政单位,广东省,东莞市,,广东省东莞市福东路12号2号楼湖景广场B栋126室,b8b272ca7a41d1801f389423,1,0,113.707804,22.930668,(0769)85899389,life,http://api.map.baidu.com/place/detail?uid=b8b272ca7a41d1801f389423&output=html&source=placeapi_v2,,,0,,,,,,,8,1,,,,,,,,,0
874ec5a93cd73d3e5e0d02d4,交通安全劝导站,政府机构,行政单位,广东省,东莞市,,东莞市福东路与华瑞路交叉路口西侧,874ec5a93cd73d3e5e0d02d4,1,0,113.70865,22.930839,,life,http://api.map.baidu.com/place/detail?uid=874ec5a93cd73d3e5e0d02d4&output=html&source=placeapi_v2,,,,,,,,,,1,,,,,,,,113.70870361278,22.930841709054,0
3983db9c9f915fdb38e4a613,太平高速公路大队(环莞快速路),政府机构,行政单位,广东省,东莞市,,广东省东莞市博民路20号,3983db9c9f915fdb38e4a613,1,0,113.695341,22.94167,(0769)85553336,life,http://api.map.baidu.com/place/detail?uid=3983db9c9f915fdb38e4a613&output=html&source=placeapi_v2,,,,,,,,,,2,,,,,,,,113.69580655614,22.941789014882,0
a4ba1173645e91673617dc75,联防执勤点,政府机构,行政单位,广东省,东莞市,,东莞市泰科路湖景大道高科技工业园北侧约200米,a4ba1173645e91673617dc75,1,0,113.704523,22.933426,,life,http://api.map.baidu.com/place/detail?uid=a4ba1173645e91673617dc75&output=html&source=placeapi_v2,,,,,,,,,,,,,,,,,,113.70450068744,22.933336086693,0
58639f88d980259190114ca3,联防执勤点,政府机构,行政单位,广东省,东莞市,,东莞市泰科路雅冠电子,58639f88d980259190114ca3,1,0,113.710861,22.932312,,life,http://api.map.baidu.com/place/detail?uid=58639f88d980259190114ca3&output=html&source=placeapi_v2,,,,,,,,,,,,,,,,,,113.71069404759,22.932304668672,0
1c8298fd342ce80df603b853,消防,政府机构,行政单位,广东省,东莞市,,东莞市东业路河田派出所东侧,,1,0,113.700316,22.925461,,life,http://api.map.baidu.com/place/detail?uid=1c8298fd342ce80df603b853&output=html&source=placeapi_v2,,,,,,,,,,1,,,,,,,,,,0
11fa49d7a9186abaca1b9582,七姐妹管理处,政府机构,行政单位,广东省,东莞市,,广东省东莞市厚街镇河田村七姐妹管理处,,1,0,113.71391,22.922767,15919828330,life,http://api.map.baidu.com/place/detail?uid=11fa49d7a9186abaca1b9582&output=html&source=placeapi_v2,,,5,,,,,,,0,1,,,,,,,113.71353006546,22.922716749973,0
79a2d44f49dc87af6240a9b2,东莞市横岗水库管理处,政府机构,行政单位,广东省,东莞市,,广东省东莞市X235(湖景大道),79a2d44f49dc87af6240a9b2,1,0,113.717409,22.92694,,life,http://api.map.baidu.com/place/detail?uid=79a2d44f49dc87af6240a9b2&output=html&source=placeapi_v2,,,,,,,,,,,,,,,,,,,,0
9219da5dd1d08e1a2806cef7,力邦检测,政府机构,行政单位,广东省,东莞市,,广东省东莞市科技大道7-11-102号黄金小镇11栋,9219da5dd1d08e1a2806cef7,1,0,113.697267,22.922425,(0769)83086888,life,http://api.map.baidu.com/place/detail?uid=9219da5dd1d08e1a2806cef7&output=html&source=placeapi_v2,,,,,,,,,,,,,,,,,,113.6969370332,22.92259065585,0
f76b0124f6e58ad1f5231030,庄园管理处,政府机构,行政单位,广东省,东莞市,,广东省东莞市厚街镇环冈村湖景大道1号,,1,0,113.698207,22.930482,,life,http://api.map.baidu.com/place/detail?uid=f76b0124f6e58ad1f5231030&output=html&source=placeapi_v2,,,0.0,,,,,,,,,,,,,,,,,0
6a3fe02d606a67bf0f0e6b9b,万士人才管理服务中心,政府机构,行政单位,广东省,东莞市,,广东省东莞市厚街镇汀山村汀山广场南三路11号富丽华公寓旁,6a3fe02d606a67bf0f0e6b9b,1,0,113.713241,22.935831,,life,http://api.map.baidu.com/place/detail?uid=6a3fe02d606a67bf0f0e6b9b&output=html&source=placeapi_v2,,,,,,,,,,5,,,,,,,,113.71334642576,22.935831895862,0
95b70a69d87f6ad6704b8748,一带物流园综合办公室,政府机构,行政单位,广东省,东莞市,,东莞市湖景大道鸿兴产业园西侧约80米,,1,0,113.697319,22.929957,,life,http://api.map.baidu.com/place/detail?uid=95b70a69d87f6ad6704b8748&output=html&source=placeapi_v2,,,,,,,,,,2,,,,,,,,113.69727057673,22.929885479633,0
48685f14878d24435cbe869e,管理处,政府机构,行政单位,广东省,东莞市,,广东省东莞市科技大道东方兴业城工业西路店,48685f14878d24435cbe869e,1,0,113.693601,22.922506,,life,http://api.map.baidu.com/place/detail?uid=48685f14878d24435cbe869e&output=html&source=placeapi_v2,,,,,,,,,,2,,,,,,,,113.69368639793,22.922465758325,0
54a0e1d66322068c4c6d46d0,中龙办公室,政府机构,行政单位,广东省,东莞市,,东莞市东业路东方兴业城E区,54a0e1d66322068c4c6d46d0,1,0,113.697713,22.926038,,life,http://api.map.baidu.com/place/detail?uid=54a0e1d66322068c4c6d46d0&output=html&source=placeapi_v2,,,,,,,,,,2,,,,,,,,,,0
3b2bdfd716018b64dbd89195,保利亚创汀山社区城市更新项目部,政府机构,行政单位,广东省,东莞市,,东莞市东晖街坑口综合商业城东侧约270米,,1,0,113.719577,22.939327,,life,http://api.map.baidu.com/place/detail?uid=3b2bdfd716018b64dbd89195&output=html&source=placeapi_v2,,,,,,,,,,6,,,,,,,,113.71969680971,22.939276167294,0
7c4c42fb18df149604fef5ea,汀山交通局,政府机构,行政单位,广东省,东莞市,,广东省东莞市厚街镇汀山管理区汀山村汀山路48号,7c4c42fb18df149604fef5ea,1,0,113.695659,22.941784,(0769)85553339,life,http://api.map.baidu.com/place/detail?uid=7c4c42fb18df149604fef5ea&output=html&source=placeapi_v2,,"08:30-11:00,14:00-17:30",,,,,,,,,,,,,,,,,,0
7efbe7445531911f2bb97c34,联防执勤点,政府机构,行政单位,广东省,东莞市,,东莞市汀环路汀山广场东北侧约160米,7efbe7445531911f2bb97c34,1,0,113.712533,22.938952,,life,http://api.map.baidu.com/place/detail?uid=7efbe7445531911f2bb97c34&output=html&source=placeapi_v2,,,,,,,,,,,,,,,,,,,,0
1278229ad396ea345bf6beca,招商处,政府机构,行政单位,广东省,东莞市,,东莞市北横二路永乐楼东北侧约110米,,1,0,113.704223,22.939749,,life,http://api.map.baidu.com/place/detail?uid=1278229ad396ea345bf6beca&output=html&source=placeapi_v2,,,,,,,,,,3,,,,,,,,,,0
b0af70e334227c589e9d688b,云南省红河自治州农民工东莞就业办事处,政府机构,行政单位,广东省,东莞市,,东莞市汀山广场路汀山广场东北侧约140米,,1,0,113.712828,22.938572,,life,http://api.map.baidu.com/place/detail?uid=b0af70e334227c589e9d688b&output=html&source=placeapi_v2,,,,,,,,,,1,,,,,,,,113.71270543357,22.938630402227,0
d7f60ea7b1be51a3631c67fe,汀山社区税务协管联合站,政府机构,行政单位,广东省,东莞市,,东莞市汀环路坑口综合商业城东南侧约90米,d7f60ea7b1be51a3631c67fe,1,0,113.717307,22.93849,,life,http://api.map.baidu.com/place/detail?uid=d7f60ea7b1be51a3631c67fe&output=html&source=placeapi_v2,,,,,,,,,,,,,,,,,,,,0
67a4b988f9ab5ea22b06ce1e,汀山社区兼职消防队,政府机构,行政单位,广东省,东莞市,,东莞市汀坑路汀山文化广场南侧约120米,,1,0,113.699392,22.939581,,life,http://api.map.baidu.com/place/detail?uid=67a4b988f9ab5ea22b06ce1e&output=html&source=placeapi_v2,,,,,,,,,,1,,,,,,,,113.6993746355,22.939533614477,0
61dbb30a16aca0aa3c9a5ea6,环冈社区兼职消防队,政府机构,行政单位,广东省,东莞市,,东莞市环冈振兴街环冈幼儿园西侧约130米,61dbb30a16aca0aa3c9a5ea6,1,0,113.722129,22.931611,,life,http://api.map.baidu.com/place/detail?uid=61dbb30a16aca0aa3c9a5ea6&output=html&source=placeapi_v2,,,,,,,,,,3,,,,,,,,,,0
54e1a0518c08e525ab059d59,联防执勤点,政府机构,行政单位,广东省,东莞市,,东莞市汀山路行乐楼,54e1a0518c08e525ab059d59,1,0,113.698986,22.940515,,life,http://api.map.baidu.com/place/detail?uid=54e1a0518c08e525ab059d59&output=html&source=placeapi_v2,,,,,,,,,,,,,,,,,,113.69892437065,22.940445534504,0
cb223025965506211994c632,厚街镇环岗社区人力资源服务站,政府机构,行政单位,广东省,东莞市,,广东省东莞市厚街镇金泽路南天驾校环冈分点(环冈幼儿园西),cb223025965506211994c632,1,0,113.72246,22.931335,,life,http://api.map.baidu.com/place/detail?uid=cb223025965506211994c632&output=html&source=placeapi_v2,,"08:30-12:00,14:00-17:30",,,,,,,,2,,,,,,,,113.7222596906,22.931375801212,0
5abda28422dc981815764385,汀山社区综合服务管理中心,政府机构,行政单位,广东省,东莞市,,东莞市汀坑路汀山社区居委会,5abda28422dc981815764385,1,0,113.698726,22.939676,,life,http://api.map.baidu.com/place/detail?uid=5abda28422dc981815764385&output=html&source=placeapi_v2,,,,,,,,,,1,,,,,,,,113.69875078119,22.939734261408,0
6968990f265c16d6100daaf7,汀山村民小组护村队,政府机构,行政单位,广东省,东莞市,,村前街10-12号附近,6968990f265c16d6100daaf7,1,0,113.697715,22.940457,,life,http://api.map.baidu.com/place/detail?uid=6968990f265c16d6100daaf7&output=html&source=placeapi_v2,,,,,,,,,,,,,,,,,,113.69778315794,22.940642196683,0
fbe2e8a6cf88a5ca22026238,联防执勤点,政府机构,行政单位,广东省,东莞市,,东莞市东埔路荣进楼北侧约180米,fbe2e8a6cf88a5ca22026238,1,0,113.711469,22.943952,,life,http://api.map.baidu.com/place/detail?uid=fbe2e8a6cf88a5ca22026238&output=html&source=placeapi_v2,,,,,,,,,,,,,,,,,,,,0
fd8a706ace4dc80884420eb9,东莞市牵晴社会工作服务中心,政府机构,行政单位,广东省,东莞市,,东莞市汀环路高培大楼西北侧约30米,fd8a706ace4dc80884420eb9,1,0,113.72085,22.936265,,life,http://api.map.baidu.com/place/detail?uid=fd8a706ace4dc80884420eb9&output=html&source=placeapi_v2,,,,,,,,,,3,,,,,,,,113.72094230761,22.936205251498,0
49ccad91ba3c5f59f6c59c3c,厚街镇环冈社区综治中心,政府机构,行政单位,广东省,东莞市,,东莞市环冈振兴街环冈幼儿园西侧约100米,49ccad91ba3c5f59f6c59c3c,1,0,113.722415,22.931438,,life,http://api.map.baidu.com/place/detail?uid=49ccad91ba3c5f59f6c59c3c&output=html&source=placeapi_v2,,,,,,,,,,6,,,,,,,,113.72233319175,22.931328508918,0
6ddb1b2db70fe8af4302456e,汀山村东埔村民小组综治信访维稳工作室,政府机构,行政单位,广东省,东莞市,,东莞市福东路芒果酒店公寓东北侧约160米,,1,0,113.71163,22.945581,,life,http://api.map.baidu.com/place/detail?uid=6ddb1b2db70fe8af4302456e&output=html&source=placeapi_v2,,,,,,,,,,1,,,,,,,,113.7114821373,22.945602001441,0
58110b221a8368e42bd7ab13,东莞铁通厚街综合维护工作站,政府机构,行政单位,广东省,东莞市,,东莞市厚街大道河田第二工业区西南侧约100米,58110b221a8368e42bd7ab13,1,0,113.689746,22.936015,,life,http://api.map.baidu.com/place/detail?uid=58110b221a8368e42bd7ab13&output=html&source=placeapi_v2,,,,,,,,,,2,,,,,,,,113.6898191442,22.93608740879,0
6d4e03756514bfda2d473314,广东省制鞋标准化技术委员会,政府机构,行政单位,广东省,东莞市,,广东省东莞市厚街大道东90号创新大厦6楼,6d4e03756514bfda2d473314,1,0,113.690187,22.936119,(0769)85589218,life,http://api.map.baidu.com/place/detail?uid=6d4e03756514bfda2d473314&output=html&source=placeapi_v2,,,0.0,,,,,,,0,1,,,,,,,,,0
c0b837cc2902b66deedfca05,招商处,政府机构,行政单位,广东省,东莞市,,东莞市博览大道东莞艾科体育用品有限公司,c0b837cc2902b66deedfca05,1,0,113.69194,22.939393,,life,http://api.map.baidu.com/place/detail?uid=c0b837cc2902b66deedfca05&output=html&source=placeapi_v2,,,,,,,,,,,,,,,,,,,,0
11be7faa341cb286ca2915f6,中国东莞(家具)知识产权快速维权援助中心,政府机构,行政单位,广东省,东莞市,,东莞市厚街大道河田第二工业区西南侧约80米,,1,0,113.690057,22.936114,,life,http://api.map.baidu.com/place/detail?uid=11be7faa341cb286ca2915f6&output=html&source=placeapi_v2,,,,,,,,,,6,,,,,,,,113.69015678131,22.93620285548,0
ddf5396ea3eb4cf4c71e51c2,东莞市厚街镇公园管理办公室,政府机构,行政单位,广东省,东莞市,,东莞市东业路神仙水公园,,1,0,113.702841,22.914017,,life,http://api.map.baidu.com/place/detail?uid=ddf5396ea3eb4cf4c71e51c2&output=html&source=placeapi_v2,,,,,,,,,,,,,,,,,,,,0
11ae0d88741394b542d63ef2,莞联支付服务中心,政府机构,行政单位,广东省,东莞市,,东莞市角元大路朋远大厦,,1,0,113.688059,22.934396,,life,http://api.map.baidu.com/place/detail?uid=11ae0d88741394b542d63ef2&output=html&source=placeapi_v2,,,,,,,,,,4,,,,,,,,113.68814633316,22.9343033438,0
d902562eb29fae9d940319b2,厚街港澳乡亲之家,政府机构,行政单位,广东省,东莞市,,东莞市东业路神仙水公园,,1,0,113.701959,22.918176,,life,http://api.map.baidu.com/place/detail?uid=d902562eb29fae9d940319b2&output=html&source=placeapi_v2,,,,,,,,,,1,,,,,,,,,,0
714d07f70c074af109a8d4e9,厚街镇大迳管理区,政府机构,行政单位,广东省,东莞市,,广东省东莞市厚街镇大迳管理区,,1,0,113.754718,22.921518,,life,http://api.map.baidu.com/place/detail?uid=714d07f70c074af109a8d4e9&output=html&source=placeapi_v2,,,,,,,,,,,,,,,,,,113.75366312442,22.921391682692,0
345ab5de693b984a15a190ea,商铺招租办公室,政府机构,行政单位,广东省,东莞市,,东莞市湖景大道厚街大迳综合市场东北侧约80米,345ab5de693b984a15a190ea,1,0,113.750819,22.913438,,life,http://api.map.baidu.com/place/detail?uid=345ab5de693b984a15a190ea&output=html&source=placeapi_v2,,,,,,,,,,3,,,,,,,,113.75070980582,22.913486917172,0
4c4152b1dd169af531870af9,联防执勤点,政府机构,行政单位,广东省,东莞市,,东莞市湖景大道中信.富春山居东北侧约150米,4c4152b1dd169af531870af9,1,0,113.752393,22.918816,,life,http://api.map.baidu.com/place/detail?uid=4c4152b1dd169af531870af9&output=html&source=placeapi_v2,,,,,,,,,,,,,,,,,,113.75221617433,22.918817277234,0
30151c572b559287774ff1d7,警民联防点,政府机构,行政单位,广东省,东莞市,,东莞市水濂景观路,30151c572b559287774ff1d7,1,0,113.751624,22.942735,,life,http://api.map.baidu.com/place/detail?uid=30151c572b559287774ff1d7&output=html&source=placeapi_v2,,,,,,,,,,2,,,,,,,,113.75157002677,22.942710353218,0
aadb77f5bd965dc399005022,大雁塘监控室,政府机构,行政单位,广东省,东莞市,,东莞市红棉路与彭洞路交叉路口往东南约290米,aadb77f5bd965dc399005022,1,0,113.765584,22.939576,,life,http://api.map.baidu.com/place/detail?uid=aadb77f5bd965dc399005022&output=html&source=placeapi_v2,,,,,,,,,,7,,,,,,,,113.7655746959,22.939697170773,0
4a486344fc17b7394107c150,水濂社区党群服务中心办事大厅,政府机构,行政单位,广东省,东莞市,,东莞市水濂景观路东莞农村商业银行(水濂分理处)北侧约180米,,1,0,113.759676,22.943232,,life,http://api.map.baidu.com/place/detail?uid=4a486344fc17b7394107c150&output=html&source=placeapi_v2,,,,,,,,,,2,,,,,,,,,,0
cb75106c6db38ced6168583c,东莞市水濂山森林公园管理处,政府机构,行政单位,广东省,东莞市,,东莞市南城街道水濂社区水濂公园路18号水濂山森林公园内,cb75106c6db38ced6168583c,1,0,113.768721,22.934257,,life,http://api.map.baidu.com/place/detail?uid=cb75106c6db38ced6168583c&output=html&source=placeapi_v2,,,,,,,,,,,,,,,,,,,,0
ccbe6124a97d9f6752e5c557,利民交通,政府机构,行政单位,广东省,东莞市,,东莞市厚大路大迳文化广场北侧约50米,ccbe6124a97d9f6752e5c557,1,0,113.752332,22.912777,13342660256,life,http://api.map.baidu.com/place/detail?uid=ccbe6124a97d9f6752e5c557&output=html&source=placeapi_v2,,,,,,,,,,12,,,,,,,,113.75224864089,22.912905822806,0
19f39637d167aabcbfa8220b,大岭山信立平安市场联防分队,政府机构,行政单位,广东省,东莞市,,广东省东莞市商业A街(信立国际农产品贸易城),19f39637d167aabcbfa8220b,1,0,113.800612,22.942379,,life,http://api.map.baidu.com/place/detail?uid=19f39637d167aabcbfa8220b&output=html&source=placeapi_v2,,,,,,,,,,2,,,,,,,,113.80022916204,22.942441272247,0
a66dc373b841852722f017db,连平村劳动就业服务站,政府机构,行政单位,广东省,东莞市,,东莞市连平村计岭路3号,a66dc373b841852722f017db,1,0,113.811729,22.935873,(0769)83352654,life,http://api.map.baidu.com/place/detail?uid=a66dc373b841852722f017db&output=html&source=placeapi_v2,,09:00-18:30,,,,,,,,6,,,,,,,,,,0
001e39df3e09a1a670210b0d,警民联防执勤室,政府机构,行政单位,广东省,东莞市,,东莞市商业A街信立国际农产品贸易城,001e39df3e09a1a670210b0d,1,0,113.803948,22.940466,,life,http://api.map.baidu.com/place/detail?uid=001e39df3e09a1a670210b0d&output=html&source=placeapi_v2,,,,,,,,,,,,,,,,,,113.80388947762,22.940494719379,0
d3940cef8dbf2fbec72ba1bd,中国动物卫生监督,政府机构,行政单位,广东省,东莞市,,东莞市横四路信立国际农产品贸易城,,1,0,113.800935,22.943669,,life,http://api.map.baidu.com/place/detail?uid=d3940cef8dbf2fbec72ba1bd&output=html&source=placeapi_v2,,,,,,,,,,1,,,,,,,,113.80085621432,22.943500010451,0
94c7a33d1be6fc33b817e774,计岭车辆管理处,政府机构,行政单位,广东省,东莞市,,东莞市连平村新光明幼儿园旁边二楼,94c7a33d1be6fc33b817e774,1,0,113.811368,22.936062,,life,http://api.map.baidu.com/place/detail?uid=94c7a33d1be6fc33b817e774&output=html&source=placeapi_v2,,,,,,,,,,2,,,,,,,,,,0
3ab78193d0d265526e20b98f,原生致供应链管理,政府机构,行政单位,广东省,东莞市,,东莞市三鸟批发市场马路对面三榕冷库办公楼3层,3ab78193d0d265526e20b98f,1,0,113.789953,22.947306,(0769)22085037,life,http://api.map.baidu.com/place/detail?uid=3ab78193d0d265526e20b98f&output=html&source=placeapi_v2,,,,,,,,,,,,,,,,,,,,0
101a03cb5337842d3804b115,中国动物卫生监督,政府机构,行政单位,广东省,东莞市,,东莞市富华路东东莞市三鸟批发市场,101a03cb5337842d3804b115,1,0,113.78831,22.947131,,life,http://api.map.baidu.com/place/detail?uid=101a03cb5337842d3804b115&output=html&source=placeapi_v2,,,,,,,,,,,,,,,,,,,,0
29f54a116d330de49703195d,连平村综治中心,政府机构,行政单位,广东省,东莞市,,东莞市计岭路连平文化广场东北侧,29f54a116d330de49703195d,1,0,113.811895,22.935883,,life,http://api.map.baidu.com/place/detail?uid=29f54a116d330de49703195d&output=html&source=placeapi_v2,,,,,,,,,,6,,,,,,,,113.81187208359,22.935717469552,0
22d18d5d76ec073a364aae25,大岭山镇连平村城市综合管理办公室,政府机构,行政单位,广东省,东莞市,,东莞市计岭路连平文化广场,,1,0,113.811656,22.935656,,life,http://api.map.baidu.com/place/detail?uid=22d18d5d76ec073a364aae25&output=html&source=placeapi_v2,,,,,,,,,,5,,,,,,,,113.81169267131,22.935753372097,0
74367b9df2b58d34fb2d61f1,大岭山社保局分局,政府机构,行政单位,广东省,东莞市,,东莞市大岭山大道368号,74367b9df2b58d34fb2d61f1,1,0,113.833404,22.91465,,life,http://api.map.baidu.com/place/detail?uid=74367b9df2b58d34fb2d61f1&output=html&source=placeapi_v2,,"08:30-12:00,14:00-17:30",4,,,,,,,0,3,,,,,,,113.8339517521,22.914446642235,0
fb76792c94df96aab6f42feb,大岭山镇政务服务中心,政府机构,行政单位,广东省,东莞市,,广东省东莞市大岭山镇大岭山大道173号,fb76792c94df96aab6f42feb,1,0,113.83321,22.914733,(0769)81662226,life,http://api.map.baidu.com/place/detail?uid=fb76792c94df96aab6f42feb&output=html&source=placeapi_v2,,"08:30-12:00,14:00-17:30",5,,,,,,,0,1,,,,,,,113.83313335535,22.914602428041,0
025d4b1e4d93af634afc8d39,大岭山镇金桔社区综治工作站,政府机构,行政单位,广东省,东莞市,,广东省东莞市中兴路221号,025d4b1e4d93af634afc8d39,1,0,113.847156,22.924281,,life,http://api.map.baidu.com/place/detail?uid=025d4b1e4d93af634afc8d39&output=html&source=placeapi_v2,,,,,,,,,,,,,,,,,,113.84733283551,22.924429282529,0
5898d74f68b73d414f6d46b1,大岭山镇环卫所,政府机构,行政单位,广东省,东莞市,,东莞市大岭山镇建卫路42号,5898d74f68b73d414f6d46b1,1,0,113.846482,22.916585,,life,http://api.map.baidu.com/place/detail?uid=5898d74f68b73d414f6d46b1&output=html&source=placeapi_v2,,,,,,,,,,7,,,,,,,,113.84625915756,22.916674310685,0
43bb38994ac66727354aaed9,大岭山镇大沙'智网工程'指挥调度工作站,政府机构,行政单位,广东省,东莞市,,东莞市大沙路大沙村文化广场西北侧约60米,,1,0,113.844432,22.934511,,life,http://api.map.baidu.com/place/detail?uid=43bb38994ac66727354aaed9&output=html&source=placeapi_v2,,,,,,,,,,6,,,,,,,,113.84478375978,22.934279789659,0
ca837938a587626259bbbc91,东莞市大岭山镇连平大石板股份经济合作社,政府机构,行政单位,广东省,东莞市,,东莞市连平大石板四巷梅林乐诺实验幼儿园东北侧约250米,,1,0,113.822149,22.930795,,life,http://api.map.baidu.com/place/detail?uid=ca837938a587626259bbbc91&output=html&source=placeapi_v2,,,,,,,,,,2,,,,,,,,113.82204704187,22.930699732372,0
42889919b931168e3a04b1ed,综治信访维稳工作站受理台,政府机构,行政单位,广东省,东莞市,,东莞市大沙路大沙村文化广场东南侧约40米,,1,0,113.845965,22.933332,,life,http://api.map.baidu.com/place/detail?uid=42889919b931168e3a04b1ed&output=html&source=placeapi_v2,,,,,,,,,,,,,,,,,,,,0
fa9cff332c51c74c81a12ee2,交通安全劝导站,政府机构,行政单位,广东省,东莞市,,东莞市大沙路大沙村文化广场东南侧约40米,fa9cff332c51c74c81a12ee2,1,0,113.846016,22.933298,,life,http://api.map.baidu.com/place/detail?uid=fa9cff332c51c74c81a12ee2&output=html&source=placeapi_v2,,,,,,,,,,1,,,,,,,,,,0
db7414e8e385686fd8ecedb4,东莞市大岭山粮所,政府机构,行政单位,广东省,东莞市,,东莞市市场西路28号,db7414e8e385686fd8ecedb4,1,0,113.845365,22.915269,,life,http://api.map.baidu.com/place/detail?uid=db7414e8e385686fd8ecedb4&output=html&source=placeapi_v2,,,,,,,,,,3,,,,,,,,113.84537159743,22.915241596899,0
f6cfea9e2d5c9e777069d389,大沙村综治中心,政府机构,行政单位,广东省,东莞市,,东莞市大沙路大沙村文化广场东南侧约40米,f6cfea9e2d5c9e777069d389,1,0,113.846008,22.933417,,life,http://api.map.baidu.com/place/detail?uid=f6cfea9e2d5c9e777069d389&output=html&source=placeapi_v2,,,,,,,,,,10,,,,,,,,113.84617853359,22.933330914956,0
f980d78fb1a31b910bccdde9,大沙村综治信访维稳工作站,政府机构,行政单位,广东省,东莞市,,东莞市大沙路大沙村文化广场东南侧约40米,f980d78fb1a31b910bccdde9,1,0,113.846028,22.933413,,life,http://api.map.baidu.com/place/detail?uid=f980d78fb1a31b910bccdde9&output=html&source=placeapi_v2,,09:00-18:30,,,,,,,,,,,,,,,,,,0
f3acdfe5e9fd85b83fe2316d,大岭山镇梅林村新莞人服务管理站,政府机构,行政单位,广东省,东莞市,,东莞市邝屋路梅林综合市场东侧约190米,f3acdfe5e9fd85b83fe2316d,1,0,113.818799,22.928632,,life,http://api.map.baidu.com/place/detail?uid=f3acdfe5e9fd85b83fe2316d&output=html&source=placeapi_v2,,,,,,,,,,1,,,,,,,,113.81868588179,22.928507804213,0
1934f93ac1158b29128824f7,大岭山镇金桔村新莞人服务管理站,政府机构,行政单位,广东省,东莞市,,广东省东莞市中兴路221号,1934f93ac1158b29128824f7,1,0,113.847073,22.924432,,life,http://api.map.baidu.com/place/detail?uid=1934f93ac1158b29128824f7&output=html&source=placeapi_v2,,09:00-18:30,0.0,,,,,,,1,,,,,,,,113.84721455383,22.924550424527,0
25ad712234c49522d92f2824,金桔村综治中心,政府机构,行政单位,广东省,东莞市,,东莞市中兴路新风中学北侧约170米,25ad712234c49522d92f2824,1,0,113.847099,22.924498,,life,http://api.map.baidu.com/place/detail?uid=25ad712234c49522d92f2824&output=html&source=placeapi_v2,,,,,,,,,,9,,,,,,,,113.84720589506,22.924559319925,0
187cd3ac940309b2f7eafc9b,金桔村扫黑除恶专项斗争领导小组办公室,政府机构,行政单位,广东省,东莞市,,东莞市中兴路新风中学北侧约160米,187cd3ac940309b2f7eafc9b,1,0,113.846934,22.924345,,life,http://api.map.baidu.com/place/detail?uid=187cd3ac940309b2f7eafc9b&output=html&source=placeapi_v2,,,,,,,,,,1,,,,,,,,,,0
14aace30cf2178c1d3ff239e,大岭山镇金桔村综治信访维稳工作站,政府机构,行政单位,广东省,东莞市,,东莞市中兴路新风中学北侧约180米,14aace30cf2178c1d3ff239e,1,0,113.847122,22.924522,,life,http://api.map.baidu.com/place/detail?uid=14aace30cf2178c1d3ff239e&output=html&source=placeapi_v2,,,,,,,,,,2,,,,,,,,113.84719202433,22.924578027736,0
7307d273a865f49d43e192c5,大岭山社区综治中心,政府机构,行政单位,广东省,东莞市,,东莞市建卫路富华楼北侧,7307d273a865f49d43e192c5,1,0,113.846086,22.915127,(0769)83352658,life,http://api.map.baidu.com/place/detail?uid=7307d273a865f49d43e192c5&output=html&source=placeapi_v2,,,,,,,,,,5,,,,,,,,113.84612363725,22.915169089496,0
3a536f328836d60c9c82ea5a,党代表工作室,政府机构,行政单位,广东省,东莞市,,东莞市横镇东路金桔佳佳幼儿园,3a536f328836d60c9c82ea5a,1,0,113.849988,22.927053,,life,http://api.map.baidu.com/place/detail?uid=3a536f328836d60c9c82ea5a&output=html&source=placeapi_v2,,,,,,,,,,8,,,,,,,,113.85000024143,22.927016471638,0
bc66936af4dbc3bcfb2d6151,金桔村委会水管站,政府机构,行政单位,广东省,东莞市,,东莞市金桔市场路金桔文化广场北侧约90米,bc66936af4dbc3bcfb2d6151,1,0,113.851666,22.929806,,life,http://api.map.baidu.com/place/detail?uid=bc66936af4dbc3bcfb2d6151&output=html&source=placeapi_v2,,,,,,,,,,2,,,,,,,,,,0
6a4c6d200e0f63449de32150,大岭山镇太公岭村消防微体验点,政府机构,行政单位,广东省,东莞市,,东莞市渭溪路福林工业园,6a4c6d200e0f63449de32150,1,0,113.825408,22.918631,,life,http://api.map.baidu.com/place/detail?uid=6a4c6d200e0f63449de32150&output=html&source=placeapi_v2,,,,,,,,,,3,,,,,,,,113.82527874715,22.918519282545,0
99b3072b4258e974f90cadea,大岭山镇太公岭村智网工程指挥调度工作站,政府机构,行政单位,广东省,东莞市,,东莞市大岭山镇太公岭路40号,99b3072b4258e974f90cadea,1,0,113.822073,22.923261,(0769)85633221,life,http://api.map.baidu.com/place/detail?uid=99b3072b4258e974f90cadea&output=html&source=placeapi_v2,,,,,,,,,,3,,,,,,,,113.82199247341,22.923438108463,0
761e6393c6866e52d02dd644,福林工业园管理处,政府机构,行政单位,广东省,东莞市,,东莞市渭溪路福林工业园,761e6393c6866e52d02dd644,1,0,113.825969,22.919348,,life,http://api.map.baidu.com/place/detail?uid=761e6393c6866e52d02dd644&output=html&source=placeapi_v2,,,,,,,,,,1,,,,,,,,,,0
49ca16bc4f7a112db020a819,东莞粮食和物资储备局大岭山分局,政府机构,行政单位,广东省,东莞市,,东莞市建卫南街东莞市中西医结合医院(建卫院区),49ca16bc4f7a112db020a819,1,0,113.845173,22.916082,,life,http://api.map.baidu.com/place/detail?uid=49ca16bc4f7a112db020a819&output=html&source=placeapi_v2,,"08:30-12:00,14:00-17:30",,,,,,,,,,,,,,,,,,0
847c476fbd45ef226ca3cc42,大岭山镇大岭山社区安全生产委员会,政府机构,行政单位,广东省,东莞市,,镇西路2附近,847c476fbd45ef226ca3cc42,1,0,113.84603,22.915136,,life,http://api.map.baidu.com/place/detail?uid=847c476fbd45ef226ca3cc42&output=html&source=placeapi_v2,,,,,,,,,,2,,,,,,,,113.84608459689,22.915198626832,0
4ad9e0805e4bff1731169b93,东莞市大岭山镇应急庇护中心,政府机构,行政单位,广东省,东莞市,,东莞市建卫南街8号,4ad9e0805e4bff1731169b93,1,0,113.844699,22.916199,,life,http://api.map.baidu.com/place/detail?uid=4ad9e0805e4bff1731169b93&output=html&source=placeapi_v2,,,,,,,,,,2,,,,,,,,113.84458799835,22.915957668694,0
0f697f5aa26359f9d7851fe8,大公岭城市更新指挥部,政府机构,行政单位,广东省,东莞市,,东莞市太公岭路盛基小学西侧约170米,,1,0,113.820879,22.92298,,life,http://api.map.baidu.com/place/detail?uid=0f697f5aa26359f9d7851fe8&output=html&source=placeapi_v2,,,,,,,,,,,,,,,,,,113.82096657348,22.923003167962,0
e362a8084c75a4f07269d368,星河控股集团(太公岭城市更新指挥部),政府机构,行政单位,广东省,东莞市,,广东省东莞市太公岭路32号101号,,1,0,113.820837,22.923041,,life,http://api.map.baidu.com/place/detail?uid=e362a8084c75a4f07269d368&output=html&source=placeapi_v2,,,,,,,,,,4,,,,,,,,,,0
3c18d04689f1e13c3c9a5e85,大岭山镇综合服务中心,政府机构,行政单位,广东省,东莞市,,东莞市大岭山镇大岭山大道368号,3c18d04689f1e13c3c9a5e85,1,0,113.833245,22.914822,,life,http://api.map.baidu.com/place/detail?uid=3c18d04689f1e13c3c9a5e85&output=html&source=placeapi_v2,,,,,,,,,,,,,,,,,,,,0
588ad365eb378d874d2fdf95,广东省居住证受理点,政府机构,行政单位,广东省,东莞市,,东莞市邝屋路梅林综合市场东侧约180米,588ad365eb378d874d2fdf95,1,0,113.818731,22.928703,,life,http://api.map.baidu.com/place/detail?uid=588ad365eb378d874d2fdf95&output=html&source=placeapi_v2,,,,,,,,,,1,,,,,,,,,,0
a8b8cb661d294056ae04576a,大岭山镇'智网工程'指挥调度工作站,政府机构,行政单位,广东省,东莞市,,东莞市邝屋路梅林综合市场东侧约190米,,1,0,113.818806,22.928568,,life,http://api.map.baidu.com/place/detail?uid=a8b8cb661d294056ae04576a&output=html&source=placeapi_v2,,,,,,,,,,2,,,,,,,,,,0
d19e809c13677fd7d7851f9a,梅林村综治中心,政府机构,行政单位,广东省,东莞市,,东莞市邝屋路梅林综合市场东侧约180米,d19e809c13677fd7d7851f9a,1,0,113.818748,22.928535,,life,http://api.map.baidu.com/place/detail?uid=d19e809c13677fd7d7851f9a&output=html&source=placeapi_v2,,,,,,,,,,,,,,,,,,,,0
6e891283b5b977258bf15d1b,大岭山镇梅林村智网工程指挥调度工作站,政府机构,行政单位,广东省,东莞市,,东莞市邝屋路梅林综合市场东侧约180米,6e891283b5b977258bf15d1b,1,0,113.818682,22.928704,,life,http://api.map.baidu.com/place/detail?uid=6e891283b5b977258bf15d1b&output=html&source=placeapi_v2,,,,,,,,,,1,,,,,,,,,,0
a22ccfcca21a8325a90dd874,东莞市德高鸿安施工服务商,政府机构,行政单位,广东省,东莞市,,东莞市横镇西路新世纪领居-b区东南侧约110米,a22ccfcca21a8325a90dd874,1,0,113.84237,22.912899,15916897916,life,http://api.map.baidu.com/place/detail?uid=a22ccfcca21a8325a90dd874&output=html&source=placeapi_v2,,07:30-19:00,,,,,,,,10,,,,,,,,113.84230438268,22.912923996799,0
9c539af8fe6761afa3acc4ca,大岭山社区居务监督委员会,政府机构,行政单位,广东省,东莞市,,东莞市建卫南街富华楼西北侧约40米,9c539af8fe6761afa3acc4ca,1,0,113.845875,22.915128,,life,http://api.map.baidu.com/place/detail?uid=9c539af8fe6761afa3acc4ca&output=html&source=placeapi_v2,,,,,,,,,,,,,,,,,,113.84599924619,22.915277936843,0
18b6a1476b70f1bb29fc4810,交通安全劝导站,政府机构,行政单位,广东省,东莞市,,东莞市建卫南街富华楼北侧约30米,18b6a1476b70f1bb29fc4810,1,0,113.84601,22.915156,,life,http://api.map.baidu.com/place/detail?uid=18b6a1476b70f1bb29fc4810&output=html&source=placeapi_v2,,,,,,,,,,2,,,,,,,,113.84606922059,22.91522811681,0
9e373b2a24c3e506fb2d6142,大岭山社区综治信访维稳工作站,政府机构,行政单位,广东省,东莞市,,东莞市建卫路富华楼北侧,9e373b2a24c3e506fb2d6142,1,0,113.846142,22.915078,,life,http://api.map.baidu.com/place/detail?uid=9e373b2a24c3e506fb2d6142&output=html&source=placeapi_v2,,,,,,,,,,1,,,,,,,,113.84615496565,22.915090820251,0
a2c3fecf8f7761be4107c17f,诚达会计税务所,政府机构,行政单位,广东省,东莞市,,广东省东莞市镇西路19号,a2c3fecf8f7761be4107c17f,1,0,113.844832,22.914041,(0769)12366,life,http://api.map.baidu.com/place/detail?uid=a2c3fecf8f7761be4107c17f&output=html&source=placeapi_v2,,00:00-24:00,0,,,,,,,10,1,,,,,,,,,0
cde69b8acbc2e6b438221ca1,松山湖市民中心,政府机构,行政单位,广东省,东莞市,,东莞市松山湖礼宾路1号,cde69b8acbc2e6b438221ca1,1,0,113.891165,22.930538,(0769)22822222,life,http://api.map.baidu.com/place/detail?uid=cde69b8acbc2e6b438221ca1&output=html&source=placeapi_v2,,00:00-23:55,5,,,,,,,2,1,,,,,,,113.89028109142,22.930134639811,0
a33d2cd158a81be3130daac7,东莞市社会保障局松山湖分局,政府机构,行政单位,广东省,东莞市,,东莞市松山湖科技产业园区松山湖管委会办公小区B2栋1楼,a33d2cd158a81be3130daac7,1,0,113.890812,22.930359,(0769)22890128,life,http://api.map.baidu.com/place/detail?uid=a33d2cd158a81be3130daac7&output=html&source=placeapi_v2,,"08:30-12:00,14:00-17:30",4.3,,,,,,,,3,,,,,,,113.89106329364,22.93031450483,0
