uid,name,cat_L1,cat_L2,province,city,area,address,street_id,detail,child_num,loc_lng,loc_lat,telephone,type,detail_url,price,shop_hours,overall_rating,taste_rating,service_rating,environment_rating,facility_rating,hygiene_rating,technology_rating,image_num,comment_num,groupon_num,discount_num,favorite_num,checkin_num,brand,content_tag,naviloc_lng,naviloc_lat,child_num
ac0dc9efa66f14ce882fb5c7,亮眼科技视光矫正中心,医疗,疗养院,广东省,东莞市,,东莞市康乐南路东逸翠苑・翠廷,,1,0,113.664172,22.92795,,hospital,http://api.map.baidu.com/place/detail?uid=ac0dc9efa66f14ce882fb5c7&output=html&source=placeapi_v2,,,,,,,,,,2,,,,,,,,113.66429186808,22.927879959291,0
fca2ba4d3724efd46168581d,蓝色星梦儿童潜能开发中心,医疗,疗养院,广东省,东莞市,,广东省东莞市教育路百汇电脑城c座,fca2ba4d3724efd46168581d,1,0,113.668919,22.940859,15920611311,hospital,http://api.map.baidu.com/place/detail?uid=fca2ba4d3724efd46168581d&output=html&source=placeapi_v2,,,,,,,,,,5,,,,,,,,113.66901399963,22.940780007623,0
452aae045461f6581e5800b5,近视弱视复健,医疗,疗养院,广东省,东莞市,,东莞市康乐南路厚街国际大酒店西南侧约100米,,1,0,113.673496,22.940962,,hospital,http://api.map.baidu.com/place/detail?uid=452aae045461f6581e5800b5&output=html&source=placeapi_v2,,,,,,,,,,1,,,,,,,,113.67358053479,22.940911190163,0
ba8b8aa887486a14b7265578,脊椎矫正,医疗,疗养院,广东省,东莞市,,东莞市镇西路富华楼,,1,0,113.846102,22.914655,13713444418,hospital,http://api.map.baidu.com/place/detail?uid=ba8b8aa887486a14b7265578&output=html&source=placeapi_v2,,,,,,,,,,5,,,,,,,,113.84630741798,22.91449412116,0
0698d78ab384841907fef5d7,富勤复康康复中心,医疗,疗养院,广东省,东莞市,,广东省东莞市宏远路14铺,0698d78ab384841907fef5d7,1,0,113.739749,23.017259,(0769)22605713,hospital,http://api.map.baidu.com/place/detail?uid=0698d78ab384841907fef5d7&output=html&source=placeapi_v2,,,,,,,,,,7,,,,,,,,113.73968908391,23.017153172809,0
6ccf9d29562f984be6e96510,梦立方康复(八达横街),医疗,疗养院,广东省,东莞市,,广东省东莞市八达路香港街鹏轩大厦2楼,6ccf9d29562f984be6e96510,1,0,113.761884,23.037858,(0769)22360626,hospital,http://api.map.baidu.com/place/detail?uid=6ccf9d29562f984be6e96510&output=html&source=placeapi_v2,,,0,,,,,,,6,0,,,,,,,113.76196440157,23.038129299379,0
1f827b91a368074d3904b174,东方视界视力养护中心(万江旗舰店),医疗,疗养院,广东省,东莞市,,广东省东莞市万江街道泮溪路1号1146室,,1,0,113.718151,23.06266,,hospital,http://api.map.baidu.com/place/detail?uid=1f827b91a368074d3904b174&output=html&source=placeapi_v2,,09:30-21:30,,,,,,,,1,,,,,,,,113.71821651362,23.062734476445,0
e45f5cfff30df327100daa38,肩腰腿痛,医疗,疗养院,广东省,东莞市,,广东省东莞市六巷11号,e45f5cfff30df327100daa38,1,0,113.869893,23.054774,,hospital,http://api.map.baidu.com/place/detail?uid=e45f5cfff30df327100daa38&output=html&source=placeapi_v2,,,,,,,,,,2,,,,,,,,113.86998776001,23.054787028513,0
