uid,name,cat_L1,cat_L2,province,city,area,address,street_id,detail,child_num,loc_lng,loc_lat,telephone,type,detail_url,price,shop_hours,overall_rating,taste_rating,service_rating,environment_rating,facility_rating,hygiene_rating,technology_rating,image_num,comment_num,groupon_num,discount_num,favorite_num,checkin_num,brand,content_tag,naviloc_lng,naviloc_lat,child_num
a7900ae5d9b317e8e81e9789,万家乐金鹏电器(溪头西路店),购物,家电数码,广东省,东莞市,,广东省东莞市下村四巷10号,a7900ae5d9b317e8e81e9789,1,0,113.662675,22.896923,,shopping,http://api.map.baidu.com/place/detail?uid=a7900ae5d9b317e8e81e9789&output=html&source=placeapi_v2,,,,,,,,,,,,,,,,,,113.66266182626,22.897014351914,0
9ab92d3d08e0562528b97c76,鑫达电器(第十九分店),购物,家电数码,广东省,东莞市,,广东省东莞市厚街镇场b区195档口,9ab92d3d08e0562528b97c76,1,0,113.666303,22.889202,(0769)82767064,shopping,http://api.map.baidu.com/place/detail?uid=9ab92d3d08e0562528b97c76&output=html&source=placeapi_v2,0.0,08:00-22:00,5,,,,,,,,3,,,,,,,113.66632320453,22.889095829936,0
026e3348f945af095e0d02ba,格力(沙隆路店),购物,家电数码,广东省,东莞市,,广东省东莞市沙隆路13号,026e3348f945af095e0d02ba,1,0,113.662083,22.890693,(0769)85915957,shopping,http://api.map.baidu.com/place/detail?uid=026e3348f945af095e0d02ba&output=html&source=placeapi_v2,,,0,,,,,,,,1,,,,,,,113.66210126296,22.890631360489,0
6c9568e47065f49aece4a5af,联发机电五金电器,购物,家电数码,广东省,东莞市,,广东东莞市厚街镇下汴丽湖山庄牌坊旁67号铺位,6c9568e47065f49aece4a5af,1,0,113.668521,22.882305,13751333690,shopping,http://api.map.baidu.com/place/detail?uid=6c9568e47065f49aece4a5af&output=html&source=placeapi_v2,,,0.0,,,,,,,,,,,,,,,113.6682521647,22.882244661513,0
fc3f728c35dc781914c8f6ac,金鹏电器(宝塘村环村路店),购物,家电数码,广东省,东莞市,,广东省东莞市厚街镇环村路28号,fc3f728c35dc781914c8f6ac,1,0,113.669833,22.890044,13798889789,shopping,http://api.map.baidu.com/place/detail?uid=fc3f728c35dc781914c8f6ac&output=html&source=placeapi_v2,,09:00-23:55,0,,,,,,,,1,,,,,,,,,0
2aff1a7157bb5adf22026232,瑞和肥田电器,购物,家电数码,广东省,东莞市,,广东省东莞市沙边路20号,2aff1a7157bb5adf22026232,1,1,113.653971,22.911904,,shopping,http://api.map.baidu.com/place/detail?uid=2aff1a7157bb5adf22026232&output=html&source=placeapi_v2,,09:00-18:30,,,,,,,,,,,,,,,,113.65389011101,22.911997529453,1
d5a7aeece6c81d23631809f8,东莞顺(元厚街美的专卖店),购物,家电数码,广东省,东莞市,,东莞市园新一路厚街公安分局仙桥派出所南侧约250米,d5a7aeece6c81d23631809f8,1,0,113.665065,22.915877,,shopping,http://api.map.baidu.com/place/detail?uid=d5a7aeece6c81d23631809f8&output=html&source=placeapi_v2,,,,,,,,,,,,,,,,,,,,0
0b163f89e0e6cb5145e27452,迳航电脑科技,购物,家电数码,广东省,东莞市,,东莞市厚大路大迳文化广场北侧约100米,0b163f89e0e6cb5145e27452,1,0,113.752424,22.913184,13662980448,life,http://api.map.baidu.com/place/detail?uid=0b163f89e0e6cb5145e27452&output=html&source=placeapi_v2,,,,,,,,,,1,,,,,,,,113.75246222111,22.913123456425,0
9f9e19b0f727aa3b17b54bc4,攀丰五金电器,购物,家电数码,广东省,东莞市,,广东省东莞市中兴路30号,9f9e19b0f727aa3b17b54bc4,1,0,113.845252,22.902892,"(0769)82786289,(0769)85613971",shopping,http://api.map.baidu.com/place/detail?uid=9f9e19b0f727aa3b17b54bc4&output=html&source=placeapi_v2,,,,,,,,,,,,,,,,,,,,0
fd2084effdb1696888fc0638,佳悦电器(纵队路店),购物,家电数码,广东省,东莞市,,广东省东莞市纵队路161号,fd2084effdb1696888fc0638,1,0,113.82905,22.891877,13534230083,shopping,http://api.map.baidu.com/place/detail?uid=fd2084effdb1696888fc0638&output=html&source=placeapi_v2,,00:00-24:00,,,,,,,,,,,,,,,,113.82894392076,22.891988409181,0
44a1064419d72cae40e1923c,格力(教育路店),购物,家电数码,广东省,东莞市,,广东省东莞市金洲区振华路179号,44a1064419d72cae40e1923c,1,0,113.852631,22.90384,(0769)85602203,shopping,http://api.map.baidu.com/place/detail?uid=44a1064419d72cae40e1923c&output=html&source=placeapi_v2,,08:00-22:00,5,,,,,,,,2,,,,,,,113.85253443045,22.903863986546,0
a377441a8b9c2013a80dd8de,志高厨电(大岭山专卖店),购物,家电数码,广东省,东莞市,,横镇西路116号,a377441a8b9c2013a80dd8de,1,0,113.842626,22.914703,13416743611,shopping,http://api.map.baidu.com/place/detail?uid=a377441a8b9c2013a80dd8de&output=html&source=placeapi_v2,0.0,,0,,,,,,,,1,,,,,,,,,0
69fcd6df1489f12fca291558,大地通讯(教育路店),购物,家电数码,广东省,东莞市,,广东省东莞市振华路68号,69fcd6df1489f12fca291558,1,0,113.849626,22.911092,(0769)85650508,shopping,http://api.map.baidu.com/place/detail?uid=69fcd6df1489f12fca291558&output=html&source=placeapi_v2,0.0,09:00-22:00,1.5,,,,,,,,2,,,,,,,113.8497312187,22.911241814852,0
d2f3de1b7f1ecbc341ab9a66,沁园净水设备(大岭山专卖店),购物,家电数码,广东省,东莞市,,广东省东莞市大岭山大道领尚天地1064号,d2f3de1b7f1ecbc341ab9a66,1,0,113.834926,22.9134,(0769)81883300,shopping,http://api.map.baidu.com/place/detail?uid=d2f3de1b7f1ecbc341ab9a66&output=html&source=placeapi_v2,0.0,,,,,,,,,,1,,,,,,,,,0
550fd5f9e0b10c04931fc9dc,百汇电脑数码城(教育路店),购物,家电数码,广东省,东莞市,,广东省东莞市教育路b区b座,550fd5f9e0b10c04931fc9dc,1,6,113.668179,22.940346,(0769)81521188,shopping,http://api.map.baidu.com/place/detail?uid=550fd5f9e0b10c04931fc9dc&output=html&source=placeapi_v2,,09:00-21:00,4,,,,,,,,5,,,,,,,113.66795004389,22.940365493805,6
982717cdf0e2d963eedfca11,米悠数码,购物,家电数码,广东省,东莞市,,深水坑嘉逸楼地铺米,982717cdf0e2d963eedfca11,1,0,113.66769,22.939226,13794825265,shopping,http://api.map.baidu.com/place/detail?uid=982717cdf0e2d963eedfca11&output=html&source=placeapi_v2,,10:00-22:00,4,,,,,,,,1,,,,,,,113.66760671153,22.939179001685,0
38e4803769be3f49373a7151,时尚电器(厚街店),购物,家电数码,广东省,东莞市,,广东省东莞市珊美大道1~3号1楼,38e4803769be3f49373a7151,1,1,113.67105,22.934064,(0769)85890330,shopping,http://api.map.baidu.com/place/detail?uid=38e4803769be3f49373a7151&output=html&source=placeapi_v2,,09:10-20:30,0,,,,,,,,4,,,,,,,113.67125938163,22.934103833834,1
7febcc30436746e24354d7a5,百汇电脑数码城-5号门,购物,家电数码,广东省,东莞市,,东莞市鸿昌路百汇电脑数码城,7febcc30436746e24354d7a5,1,0,113.668714,22.940597,,shopping,http://api.map.baidu.com/place/detail?uid=7febcc30436746e24354d7a5&output=html&source=placeapi_v2,,,,,,,,,,,,,,,,,,,,0
7d06b387e9532c172ad7ab49,胖子数码(南铭购物中心店),购物,家电数码,广东省,东莞市,,广东省东莞市康乐南路3号(老凤祥银楼斜对面胖子数码),7d06b387e9532c172ad7ab49,1,0,113.673832,22.940777,18802606255,shopping,http://api.map.baidu.com/place/detail?uid=7d06b387e9532c172ad7ab49&output=html&source=placeapi_v2,,09:30-23:00,5,,,,,,,,3,,,,,,,113.67358839587,22.940922510362,0
5d153e4e41cb5843a8f72924,厚街创嘉专卖店,购物,家电数码,广东省,东莞市,,东莞市南环路盛和广场西北侧,,1,0,113.660342,22.934326,,shopping,http://api.map.baidu.com/place/detail?uid=5d153e4e41cb5843a8f72924&output=html&source=placeapi_v2,,,,,,,,,,,,,,,,,,113.66015499424,22.934352180294,0
2df8164836e0d6e6a8f0cde9,大地通讯(盛和广场店),购物,家电数码,广东省,东莞市,,东莞市厚街镇南环路南端盛和广场F1,2df8164836e0d6e6a8f0cde9,1,0,113.661371,22.933868,(0769)81220785,shopping,http://api.map.baidu.com/place/detail?uid=2df8164836e0d6e6a8f0cde9&output=html&source=placeapi_v2,,09:00-22:00,5,,,,,,,,4,,,,,,,113.66140947609,22.933956765783,0
4a00c35dd6cb612688db73a5,网创电脑,购物,家电数码,广东省,东莞市,,广东省东莞市珊瑚路15号,4a00c35dd6cb612688db73a5,1,0,113.664525,22.942161,13549414422,shopping,http://api.map.baidu.com/place/detail?uid=4a00c35dd6cb612688db73a5&output=html&source=placeapi_v2,,,0,,,,,,,,1,,,,,,,113.66447649501,22.94204667023,0
b5fd11581f55b7632b3a9ff5,百汇电脑数码城-6号门,购物,家电数码,广东省,东莞市,,广东省东莞市厚街镇教育路百汇商业广场东南(厚街中学东),b5fd11581f55b7632b3a9ff5,1,0,113.669146,22.941205,,shopping,http://api.map.baidu.com/place/detail?uid=b5fd11581f55b7632b3a9ff5&output=html&source=placeapi_v2,,,,,,,,,,,,,,,,,,113.66909195369,22.941235593079,0
1dd54ab521e53f0001294f3e,畅想音响,购物,家电数码,广东省,东莞市,,广东省东莞市珊瑚路128号3楼,1dd54ab521e53f0001294f3e,1,0,113.667382,22.938158,,shopping,http://api.map.baidu.com/place/detail?uid=1dd54ab521e53f0001294f3e&output=html&source=placeapi_v2,,09:00-18:00,,,,,,,,,,,,,,,,113.66746118604,22.93820640291,0
e243db54abbbfb76c7f50da7,国鸿电脑,购物,家电数码,广东省,东莞市,,广东省东莞市三庄路70号,,1,0,113.665983,22.935122,"(0769)85055730,13798915156",shopping,http://api.map.baidu.com/place/detail?uid=e243db54abbbfb76c7f50da7&output=html&source=placeapi_v2,,09:00-22:00,5,,,,,,,,3,,,,,,,113.66601956559,22.935075584498,0
a6bd779d94bf80aba11de932,美的(旗舰店),购物,家电数码,广东省,东莞市,,广东省东莞市宵边区永泰路3号北区,a6bd779d94bf80aba11de932,1,0,113.662051,22.939254,4008899315,shopping,http://api.map.baidu.com/place/detail?uid=a6bd779d94bf80aba11de932&output=html&source=placeapi_v2,,,,,,,,,,,,,,,,,,113.66208054085,22.939371865435,0
05b3478aa5883f8b3517dcd4,翔兴五金电器(南环路店),购物,家电数码,广东省,东莞市,,广东省东莞市吉祥路40号,05b3478aa5883f8b3517dcd4,1,0,113.660208,22.934217,(0769)81695198,shopping,http://api.map.baidu.com/place/detail?uid=05b3478aa5883f8b3517dcd4&output=html&source=placeapi_v2,,,0,,,,,,,,1,,,,,,,113.66013098703,22.93420561326,0
b61e618acc8d0dacb64f5408,鸿技电脑商行,购物,家电数码,广东省,东莞市,,东莞市新兴路建业楼东南侧约30米,b61e618acc8d0dacb64f5408,1,0,113.67028,22.923558,13925589140,shopping,http://api.map.baidu.com/place/detail?uid=b61e618acc8d0dacb64f5408&output=html&source=placeapi_v2,,,0,,,,,,,,1,,,,,,,113.67031953218,22.923671336585,0
606289fd376e5930a20464d2,美的(NO.粤Z1178店),购物,家电数码,广东省,东莞市,,广东省东莞市东风二路29号,606289fd376e5930a20464d2,1,0,113.672736,22.942267,(0769)81691777,shopping,http://api.map.baidu.com/place/detail?uid=606289fd376e5930a20464d2&output=html&source=placeapi_v2,,,0,,,,,,,,1,,,,,,,,,0
e5d728ac2369b915744ff1a9,联盛电器,购物,家电数码,广东省,东莞市,,广东省东莞市东风一路20号,e5d728ac2369b915744ff1a9,1,0,113.668478,22.945764,,shopping,http://api.map.baidu.com/place/detail?uid=e5d728ac2369b915744ff1a9&output=html&source=placeapi_v2,,,0.0,,,,,,,,,,,,,,,113.66855891627,22.945831668819,0
8704ebd03cdbb22ed8ecede7,安利达电器,购物,家电数码,广东省,东莞市,,广东省东莞市连涌西路58号,8704ebd03cdbb22ed8ecede7,1,0,113.670551,22.924023,(0769)85590012,shopping,http://api.map.baidu.com/place/detail?uid=8704ebd03cdbb22ed8ecede7&output=html&source=placeapi_v2,,,0.0,,,,,,,,,,,,,,,113.67056600027,22.92394500727,0
10d907081d7888eeee74f8ef,好丽声音响,购物,家电数码,广东省,东莞市,,广东省东莞市厚街镇百汇电脑城1楼54号,10d907081d7888eeee74f8ef,1,0,113.668429,22.940741,13553823298,shopping,http://api.map.baidu.com/place/detail?uid=10d907081d7888eeee74f8ef&output=html&source=placeapi_v2,,10:00-20:00,5,,,,,,,,2,,,,,,,,,0
f5e3bcae10ae34c15e17c34e,勤卫电器,购物,家电数码,广东省,东莞市,,广东省东莞市永泰路131号,f5e3bcae10ae34c15e17c34e,1,2,113.654602,22.94127,(0769)85810490,shopping,http://api.map.baidu.com/place/detail?uid=f5e3bcae10ae34c15e17c34e&output=html&source=placeapi_v2,,,5,,,,,,,,2,,,,,,,113.65466410541,22.941447142179,2
75af7b4f9c7d77e4a1a934a4,王植林电器,购物,家电数码,广东省,东莞市,,广东省东莞市厚珊瑚路20号,75af7b4f9c7d77e4a1a934a4,1,0,113.664935,22.941485,(0769)85581160,shopping,http://api.map.baidu.com/place/detail?uid=75af7b4f9c7d77e4a1a934a4&output=html&source=placeapi_v2,,,0.0,,,,,,,,,,,,,,,113.66497818876,22.941598949996,0
3be122e12948a3521ef74d51,银湖商场,购物,家电数码,广东省,东莞市,,广东省东莞市新房路83号101铺位,3be122e12948a3521ef74d51,1,1,113.66585,22.946271,(0769)85585113,shopping,http://api.map.baidu.com/place/detail?uid=3be122e12948a3521ef74d51&output=html&source=placeapi_v2,,,0,,,,,,,,1,,,,,,,113.66587153562,22.946483786753,1
d5a7aeece6c81d23631809f8,东莞顺(元厚街美的专卖店),购物,家电数码,广东省,东莞市,,东莞市园新一路厚街公安分局仙桥派出所南侧约250米,d5a7aeece6c81d23631809f8,1,0,113.665065,22.915877,,shopping,http://api.map.baidu.com/place/detail?uid=d5a7aeece6c81d23631809f8&output=html&source=placeapi_v2,,,,,,,,,,,,,,,,,,,,0
4b5afa38e9db4e35e01103c3,格力(桥头新兴路店),购物,家电数码,广东省,东莞市,,广东省东莞市新兴路51号,4b5afa38e9db4e35e01103c3,1,0,113.672111,22.923242,,shopping,http://api.map.baidu.com/place/detail?uid=4b5afa38e9db4e35e01103c3&output=html&source=placeapi_v2,,,,,,,,,,,,,,,,,,113.67211007335,22.923335079872,0
b9750b12ced385e95cd4fea6,金声电器(新房路店),购物,家电数码,广东省,东莞市,,广东省东莞市新房路131号,b9750b12ced385e95cd4fea6,1,0,113.666472,22.946301,,shopping,http://api.map.baidu.com/place/detail?uid=b9750b12ced385e95cd4fea6&output=html&source=placeapi_v2,,,0,,,,,,,,1,,,,,,,113.66648343798,22.946380758093,0
122b425ea5e178c7b726552a,至尚数码,购物,家电数码,广东省,东莞市,,百汇电脑数码城B区1-56号,122b425ea5e178c7b726552a,1,0,113.668854,22.940924,"13711813011,18002609819",shopping,http://api.map.baidu.com/place/detail?uid=122b425ea5e178c7b726552a&output=html&source=placeapi_v2,,,,,,,,,,,,,,,,,,113.66895430095,22.941073674279,0
e381c561ba8ddaa4dc1e5250,深蓝电脑之家,购物,家电数码,广东省,东莞市,,广东省东莞市汀山路31号,e381c561ba8ddaa4dc1e5250,1,0,113.697667,22.938623,13434558829,shopping,http://api.map.baidu.com/place/detail?uid=e381c561ba8ddaa4dc1e5250&output=html&source=placeapi_v2,,,0,,,,,,,,1,,,,,,,113.69778875438,22.938604136526,0
57f65b964aa5f4e8077ce83c,赐锦五金电器,购物,家电数码,广东省,东莞市,,广东省东莞市汀坑路22号,57f65b964aa5f4e8077ce83c,1,0,113.701366,22.939202,(0769)85921891,shopping,http://api.map.baidu.com/place/detail?uid=57f65b964aa5f4e8077ce83c&output=html&source=placeapi_v2,,,0,,,,,,,,1,,,,,,,113.70137539184,22.939045060453,0
8242da28b42f2c6eae045783,华友电脑数码电器直营店,购物,家电数码,广东省,东莞市,,厚街镇汀山村百悦广场8号公寓1号铺面,,1,0,113.711722,22.935443,,shopping,http://api.map.baidu.com/place/detail?uid=8242da28b42f2c6eae045783&output=html&source=placeapi_v2,,08:30-23:30,,,,,,,,,,,,,,,,,,0
0b163f89e0e6cb5145e27452,迳航电脑科技,购物,家电数码,广东省,东莞市,,东莞市厚大路大迳文化广场北侧约100米,0b163f89e0e6cb5145e27452,1,0,113.752424,22.913184,13662980448,life,http://api.map.baidu.com/place/detail?uid=0b163f89e0e6cb5145e27452&output=html&source=placeapi_v2,,,,,,,,,,1,,,,,,,,113.75246222111,22.913123456425,0
e185bbcd77fff241c0364480,坤记家用电器店,购物,家电数码,广东省,东莞市,,广东省东莞市横镇西路342号,e185bbcd77fff241c0364480,1,0,113.847287,22.925077,(0769)83050091,shopping,http://api.map.baidu.com/place/detail?uid=e185bbcd77fff241c0364480&output=html&source=placeapi_v2,,,0,,,,,,,,0,,,,,,,113.84718234149,22.925187945396,0
de2fab77ac22d96722f017b4,创艺五金电器,购物,家电数码,广东省,东莞市,,广东省东莞市大岭山镇横镇西路133号一楼,de2fab77ac22d96722f017b4,1,0,113.842499,22.915743,,shopping,http://api.map.baidu.com/place/detail?uid=de2fab77ac22d96722f017b4&output=html&source=placeapi_v2,,,,,,,,,,,,,,,,,,113.84255714608,22.915735205465,0
0399e5a25814575e2bb97cda,易商通专卖(商城体验店),购物,家电数码,广东省,东莞市,,东莞市建卫路富华楼北侧约30米,0399e5a25814575e2bb97cda,1,0,113.845976,22.915094,13412114009,shopping,http://api.map.baidu.com/place/detail?uid=0399e5a25814575e2bb97cda&output=html&source=placeapi_v2,,09:00-21:00,,,,,,,,,,,,,,,,113.84613120637,22.914956939143,0
a377441a8b9c2013a80dd8de,志高厨电(大岭山专卖店),购物,家电数码,广东省,东莞市,,横镇西路116号,a377441a8b9c2013a80dd8de,1,0,113.842626,22.914703,13416743611,shopping,http://api.map.baidu.com/place/detail?uid=a377441a8b9c2013a80dd8de&output=html&source=placeapi_v2,0.0,,0,,,,,,,,1,,,,,,,,,0
d2f3de1b7f1ecbc341ab9a66,沁园净水设备(大岭山专卖店),购物,家电数码,广东省,东莞市,,广东省东莞市大岭山大道领尚天地1064号,d2f3de1b7f1ecbc341ab9a66,1,0,113.834926,22.9134,(0769)81883300,shopping,http://api.map.baidu.com/place/detail?uid=d2f3de1b7f1ecbc341ab9a66&output=html&source=placeapi_v2,0.0,,,,,,,,,,1,,,,,,,,,0
5b6e7812a5a020459d9d680a,康百电脑,购物,家电数码,广东省,东莞市,,广东省东莞市北环路72号,5b6e7812a5a020459d9d680a,1,0,113.674668,22.95762,13620000853,shopping,http://api.map.baidu.com/place/detail?uid=5b6e7812a5a020459d9d680a&output=html&source=placeapi_v2,,09:00-22:00,5,,,,,,,,3,,,,,,,113.67474695485,22.957756822559,0
863461c173d44439b1077d48,新华五金电器(北环路店),购物,家电数码,广东省,东莞市,,广东省东莞市北环路18号,863461c173d44439b1077d48,1,0,113.672098,22.95895,(0769)85832292,shopping,http://api.map.baidu.com/place/detail?uid=863461c173d44439b1077d48&output=html&source=placeapi_v2,,07:30-22:00,0,,,,,,,,1,,,,,,,113.67216586441,22.959058238797,0
346b3b404c7d4896c4f50d8c,创兴电器批发,购物,家电数码,广东省,东莞市,,广东省东莞市厚街大道西63号,346b3b404c7d4896c4f50d8c,1,0,113.668813,22.953424,(0769)85811658,shopping,http://api.map.baidu.com/place/detail?uid=346b3b404c7d4896c4f50d8c&output=html&source=placeapi_v2,,08:00-20:00,0.0,,,,,,,,,,,,,,,,,0
e5d728ac2369b915744ff1a9,联盛电器,购物,家电数码,广东省,东莞市,,广东省东莞市东风一路20号,e5d728ac2369b915744ff1a9,1,0,113.668478,22.945764,,shopping,http://api.map.baidu.com/place/detail?uid=e5d728ac2369b915744ff1a9&output=html&source=placeapi_v2,,,0.0,,,,,,,,,,,,,,,113.66855891627,22.945831668819,0
3821bdd8ef8d1896260bd017,永通五金店(西环路店),购物,家电数码,广东省,东莞市,,厚街镇三屯村委会三屯中心大道北8号,3821bdd8ef8d1896260bd017,1,0,113.676376,22.966435,15322900583,shopping,http://api.map.baidu.com/place/detail?uid=3821bdd8ef8d1896260bd017&output=html&source=placeapi_v2,,06:30-23:00,0,,,,,,,,2,,,,,,,113.67644122283,22.966500609768,0
3be122e12948a3521ef74d51,银湖商场,购物,家电数码,广东省,东莞市,,广东省东莞市新房路83号101铺位,3be122e12948a3521ef74d51,1,1,113.66585,22.946271,(0769)85585113,shopping,http://api.map.baidu.com/place/detail?uid=3be122e12948a3521ef74d51&output=html&source=placeapi_v2,,,0,,,,,,,,1,,,,,,,113.66587153562,22.946483786753,1
00e7b9761ac1ad72b54f5448,早顺五金电器,购物,家电数码,广东省,东莞市,,广东省东莞市西环路3号,00e7b9761ac1ad72b54f5448,1,0,113.676751,22.96668,"(0769)88036388,13669803458",shopping,http://api.map.baidu.com/place/detail?uid=00e7b9761ac1ad72b54f5448&output=html&source=placeapi_v2,,,0,,,,,,,,1,,,,,,,113.67691905848,22.96670830908,0
8cab67ec08d580d9f11937f7,格力(三屯工业大道店),购物,家电数码,广东省,东莞市,,广东省东莞市厚街镇工业路188号,8cab67ec08d580d9f11937f7,1,0,113.678555,22.963966,,shopping,http://api.map.baidu.com/place/detail?uid=8cab67ec08d580d9f11937f7&output=html&source=placeapi_v2,0.0,08:30-21:00,0,,,,,,,,1,,,,,,,,,0
b7cea273670fe9449e82ea9e,豪杰电脑商行(三屯企山头环村路店),购物,家电数码,广东省,东莞市,,东莞市三屯企山头环村路千千万货东侧约120米,b7cea273670fe9449e82ea9e,1,0,113.680538,22.960122,13416625466,shopping,http://api.map.baidu.com/place/detail?uid=b7cea273670fe9449e82ea9e&output=html&source=placeapi_v2,,,,,,,,,,,,,,,,,,113.68046141846,22.960123894991,0
b9750b12ced385e95cd4fea6,金声电器(新房路店),购物,家电数码,广东省,东莞市,,广东省东莞市新房路131号,b9750b12ced385e95cd4fea6,1,0,113.666472,22.946301,,shopping,http://api.map.baidu.com/place/detail?uid=b9750b12ced385e95cd4fea6&output=html&source=placeapi_v2,,,0,,,,,,,,1,,,,,,,113.66648343798,22.946380758093,0
55e5654b071783484d5547aa,福图UV数码喷印,购物,家电数码,广东省,东莞市,,东莞市大围东福横二街聚福苑小区西南侧约150米,55e5654b071783484d5547aa,1,0,113.693151,22.96705,13509213205,life,http://api.map.baidu.com/place/detail?uid=55e5654b071783484d5547aa&output=html&source=placeapi_v2,,10:00-21:00,,,,,,,,11,,,,,,,,,,0
5d37207c91a8608d00ff2dda,雄兴电器,购物,家电数码,广东省,东莞市,,广东省东莞市陈屋大道七巷1号,5d37207c91a8608d00ff2dda,1,0,113.697687,22.968582,13652683292,shopping,http://api.map.baidu.com/place/detail?uid=5d37207c91a8608d00ff2dda&output=html&source=placeapi_v2,,10:00-22:00,0,,,,,,,,1,,,,,,,113.69776931954,22.968660777343,0
fcce16562c87525d9de3212d,龙翔二手商标机,购物,家电数码,广东省,东莞市,,广东省东莞市元前街78号,fcce16562c87525d9de3212d,1,0,113.705043,22.976262,"13580895305,13580900908",shopping,http://api.map.baidu.com/place/detail?uid=fcce16562c87525d9de3212d&output=html&source=placeapi_v2,,,,,,,,,,,,,,,,,,113.70509561631,22.976377645671,0
9421c25ccc3b5e26cf06a4e4,国美电器(东莞配送中心店),购物,家电数码,广东省,东莞市,,伟兴路与景怡路交叉口北150米,9421c25ccc3b5e26cf06a4e4,1,4,113.763346,22.965357,4008113333,shopping,http://api.map.baidu.com/place/detail?uid=9421c25ccc3b5e26cf06a4e4&output=html&source=placeapi_v2,,08:00-18:00,0,,,,,,,,1,,,,,,,113.76326924153,22.965108092225,4
3c62ff86234a03ac6849f335,腾飞电脑科技(山湖路店),购物,家电数码,广东省,东莞市,,广东省东莞市梁家村一巷2号,3c62ff86234a03ac6849f335,1,0,113.777702,22.96541,(0769)26627595,shopping,http://api.map.baidu.com/place/detail?uid=3c62ff86234a03ac6849f335&output=html&source=placeapi_v2,,08:00-22:30,,,,,,,,,,,,,,,,113.77787966591,22.965415252965,0
f6b8af4cc9bfebeb22026220,百佳电器(锦绣居东南),购物,家电数码,广东省,东莞市,,广东省东莞市振兴路11号,f6b8af4cc9bfebeb22026220,1,0,113.670443,23.009034,,shopping,http://api.map.baidu.com/place/detail?uid=f6b8af4cc9bfebeb22026220&output=html&source=placeapi_v2,,,0.0,,,,,,,,,,,,,,,113.67040343033,23.009108498115,0
b70b9e1bcc42c131b8bd63b5,丽声电器(新兴北路店),购物,家电数码,广东省,东莞市,,广东省东莞市新兴北路84号,b70b9e1bcc42c131b8bd63b5,1,0,113.669982,23.008364,,shopping,http://api.map.baidu.com/place/detail?uid=b70b9e1bcc42c131b8bd63b5&output=html&source=placeapi_v2,,,0,,,,,,,,1,,,,,,,113.66999902217,23.008529501806,0
bc086cb9d8b814a1ca09f04d,东胜电器店,购物,家电数码,广东省,东莞市,,广东省东莞市新兴南路89号,bc086cb9d8b814a1ca09f04d,1,0,113.673678,23.004709,,shopping,http://api.map.baidu.com/place/detail?uid=bc086cb9d8b814a1ca09f04d&output=html&source=placeapi_v2,,,0.0,,,,,,,,,,,,,,,113.67361437486,23.004694713751,0
117215fed63738be6168586b,鸿金丰五金电器,购物,家电数码,广东省,东莞市,,广东省东莞市新华路鸿金丰五金店北区61号,117215fed63738be6168586b,1,0,113.705731,23.004764,(0769)87076389,shopping,http://api.map.baidu.com/place/detail?uid=117215fed63738be6168586b&output=html&source=placeapi_v2,,08:00-20:00,0,,,,,,,,1,,,,,,,113.70578998042,23.004692530779,0
1c6947f29e5c0eaff82213db,宜家百货(南城店),购物,家电数码,广东省,东莞市,,广东省东莞市车站路3号荣鑫综合商城5栋,1c6947f29e5c0eaff82213db,1,0,113.722561,22.990824,,shopping,http://api.map.baidu.com/place/detail?uid=1c6947f29e5c0eaff82213db&output=html&source=placeapi_v2,,,5,,,,,,,,3,,,,,,,113.72277533324,22.990873826548,0
fcce16562c87525d9de3212d,龙翔二手商标机,购物,家电数码,广东省,东莞市,,广东省东莞市元前街78号,fcce16562c87525d9de3212d,1,0,113.705043,22.976262,"13580895305,13580900908",shopping,http://api.map.baidu.com/place/detail?uid=fcce16562c87525d9de3212d&output=html&source=placeapi_v2,,,,,,,,,,,,,,,,,,113.70509561631,22.976377645671,0
6a424fbbee3c38740869d9e8,海逸电脑,购物,家电数码,广东省,东莞市,,广东省东莞市宏图路石竹新花园秀竹苑10号铺,6a424fbbee3c38740869d9e8,1,0,113.747127,23.006247,(0769)23188660,life,http://api.map.baidu.com/place/detail?uid=6a424fbbee3c38740869d9e8&output=html&source=placeapi_v2,,10:00-22:00,1,,,,,,,19,2,,,,,,,113.74684580576,23.006408783286,0
3a26249af19b4dc0fbf0cbbe,小米之家(广东东莞西平时代城广场专卖店),购物,家电数码,广东省,东莞市,,广东省东莞市南城街道西平社区宏伟路1号时代城广场1楼GA042号,3a26249af19b4dc0fbf0cbbe,1,0,113.759915,23.001855,(0769)22000680,shopping,http://api.map.baidu.com/place/detail?uid=3a26249af19b4dc0fbf0cbbe&output=html&source=placeapi_v2,,10:00-22:00,5,,,,,,,,3,,,,,,,113.7600658715,23.001409735617,0
ef24eb27d20d1555a8f0cd2f,兴隆五金电器(立新居委会卫生站北),购物,家电数码,广东省,东莞市,,广东省东莞市立新路97号,ef24eb27d20d1555a8f0cd2f,1,0,113.784915,23.003458,(0769)22290075,shopping,http://api.map.baidu.com/place/detail?uid=ef24eb27d20d1555a8f0cd2f&output=html&source=placeapi_v2,,,0,,,,,,,,1,,,,,,,,,0
53e23cd8b006ab7338e4a634,新科电脑电器(东城同沙店),购物,家电数码,广东省,东莞市,,广东省东莞市商业街108号,53e23cd8b006ab7338e4a634,1,0,113.821829,22.992482,(0769)89975872,shopping,http://api.map.baidu.com/place/detail?uid=53e23cd8b006ab7338e4a634&output=html&source=placeapi_v2,,09:30-22:30,5,,,,,,,,3,,,,,,,113.82181057732,22.99252970038,0
b4a7cbcd954a0676b13c81bb,OPPO(广汇二店),购物,家电数码,广东省,东莞市,,广东省东莞市东城9栋,b4a7cbcd954a0676b13c81bb,1,0,113.834682,22.990488,95018,shopping,http://api.map.baidu.com/place/detail?uid=b4a7cbcd954a0676b13c81bb&output=html&source=placeapi_v2,0.0,09:00-21:00,0,,,,,,,,0,,,,,,,113.83474245229,22.990367701957,0
5e82d9c8f0327754250bd081,宸灏通讯,购物,家电数码,广东省,东莞市,,广东省东莞市建新路63号,5e82d9c8f0327754250bd081,1,0,113.843268,22.990361,,shopping,http://api.map.baidu.com/place/detail?uid=5e82d9c8f0327754250bd081&output=html&source=placeapi_v2,,,0,,,,,,,,0,,,,,,,,,0
3e2585c5605bbe9708f5eb95,国美电器(寮步店),购物,家电数码,广东省,东莞市,,广东省东莞市红荔路10号,3e2585c5605bbe9708f5eb95,1,0,113.888757,22.996007,18694061696,shopping,http://api.map.baidu.com/place/detail?uid=3e2585c5605bbe9708f5eb95&output=html&source=placeapi_v2,,08:30-22:00,5,,,,,,,,5,,,,,,,113.88816500213,22.995323970478,0
41297dbe008f40aa343a7168,华成电脑(寮步分店),购物,家电数码,广东省,东莞市,,广东省东莞市龙泉路188号,41297dbe008f40aa343a7168,1,0,113.887361,22.990503,13712677324,shopping,http://api.map.baidu.com/place/detail?uid=41297dbe008f40aa343a7168&output=html&source=placeapi_v2,,08:30-23:00,5,,,,,,,,2,,,,,,,113.88749346078,22.990330541114,0
c251520a9f368ae9774ff133,智兴五金电器,购物,家电数码,广东省,东莞市,,广东省东莞市泉兴街78号,c251520a9f368ae9774ff133,1,0,113.883986,22.988948,(0769)83215745,shopping,http://api.map.baidu.com/place/detail?uid=c251520a9f368ae9774ff133&output=html&source=placeapi_v2,,08:00-21:00,,,,,,,,,,,,,,,,113.8840249478,22.988884014818,0
fda1cf689b209db617948e76,电器电脑监控,购物,家电数码,广东省,东莞市,,东莞市金龙街寮步石龙坑小学东南侧约60米,fda1cf689b209db617948e76,1,0,113.892553,22.989902,,shopping,http://api.map.baidu.com/place/detail?uid=fda1cf689b209db617948e76&output=html&source=placeapi_v2,,,,,,,,,,,,,,,,,,113.89249230277,22.98991452087,0
070203b79c4bcdbd3686f42b,华硕金牌装机店,购物,家电数码,广东省,东莞市,,仁和街10号,070203b79c4bcdbd3686f42b,1,0,113.876111,22.998172,13414287091,shopping,http://api.map.baidu.com/place/detail?uid=070203b79c4bcdbd3686f42b&output=html&source=placeapi_v2,,,0.0,,,,,,,,1,,,,,,,,,0
ace272194d0f13234bfd3fb6,创维力佳电器(龙泉路店),购物,家电数码,广东省,东莞市,,广东省东莞市龙泉路127号,ace272194d0f13234bfd3fb6,1,0,113.888646,22.990982,,shopping,http://api.map.baidu.com/place/detail?uid=ace272194d0f13234bfd3fb6&output=html&source=placeapi_v2,,09:00-18:00,0,,,,,,,,1,,,,,,,,,0
2e1583afc4903e2fa2a934d8,立信五金电器,购物,家电数码,广东省,东莞市,,广东省东莞市石大路寮步段776号,2e1583afc4903e2fa2a934d8,1,0,113.880048,22.99997,(0769)83327111,shopping,http://api.map.baidu.com/place/detail?uid=2e1583afc4903e2fa2a934d8&output=html&source=placeapi_v2,,08:00-18:00,5,,,,,,,,2,,,,,,,113.87991533304,23.000057238985,0
ef18d4714600ac5c6849f3e2,樱明电脑,购物,家电数码,广东省,东莞市,,寮步镇亭子边兴亭街15号,ef18d4714600ac5c6849f3e2,1,0,113.873559,22.995935,13694959631,shopping,http://api.map.baidu.com/place/detail?uid=ef18d4714600ac5c6849f3e2&output=html&source=placeapi_v2,,08:00-20:00,,,,,,,,,,,,,,,,113.87365541564,22.996027635725,0
10968bc5cbc175ad28b97c22,捷发五金电器(万丰路店),购物,家电数码,广东省,东莞市,,广东省东莞市万丰路5号,10968bc5cbc175ad28b97c22,1,0,113.871276,22.993199,"(0769)83231268,(0769)88901398",shopping,http://api.map.baidu.com/place/detail?uid=10968bc5cbc175ad28b97c22&output=html&source=placeapi_v2,,07:00-22:00,0,,,,,,,,1,,,,,,,113.87135196089,22.993245130603,0
ced18ae149878d5436b06cf6,永盛五金电器,购物,家电数码,广东省,东莞市,,广东省东莞市亭子边小区西北(仁和路),ced18ae149878d5436b06cf6,1,0,113.874359,22.998614,15913843088,shopping,http://api.map.baidu.com/place/detail?uid=ced18ae149878d5436b06cf6&output=html&source=placeapi_v2,,,,,,,,,,,,,,,,,,113.87426059688,22.998679019664,0
d7f7ba95436335eff02d8351,源兴通讯(金龙街店),购物,家电数码,广东省,东莞市,,广东省东莞市金龙街63号,d7f7ba95436335eff02d8351,1,0,113.89228,22.989523,,shopping,http://api.map.baidu.com/place/detail?uid=d7f7ba95436335eff02d8351&output=html&source=placeapi_v2,,,,,,,,,,,,,,,,,,113.89235977846,22.989742563284,0
ec6027769e98c4d15cd4feb4,永利锁业(红荔路),购物,家电数码,广东省,东莞市,,广东省东莞市红荔路62号,ec6027769e98c4d15cd4feb4,1,0,113.886059,22.993799,,shopping,http://api.map.baidu.com/place/detail?uid=ec6027769e98c4d15cd4feb4&output=html&source=placeapi_v2,,,0,,,,,,,,2,,,,,,,,,0
24ba1d16c8c9b8266f3e1bb4,电话超市,购物,家电数码,广东省,东莞市,,东莞市金龙街星睿幼儿园西北侧约130米,,1,0,113.894395,22.992807,,shopping,http://api.map.baidu.com/place/detail?uid=24ba1d16c8c9b8266f3e1bb4&output=html&source=placeapi_v2,,,,,,,,,,,,,,,,,,,,0
f633606ab67ac7330b69d936,崇明机器,购物,家电数码,广东省,东莞市,,广东省东莞市石大路201号,f633606ab67ac7330b69d936,1,0,113.882391,22.981921,(0769)83212366,shopping,http://api.map.baidu.com/place/detail?uid=f633606ab67ac7330b69d936&output=html&source=placeapi_v2,,,,,,,,,,,,,,,,,,113.88224735211,22.981784380658,0
5c7149698456b5052902e1cd,华兴五金电器(城信大厦西北),购物,家电数码,广东省,东莞市,,莞樟路29号,5c7149698456b5052902e1cd,1,0,113.891867,22.997269,(0769)83529425,shopping,http://api.map.baidu.com/place/detail?uid=5c7149698456b5052902e1cd&output=html&source=placeapi_v2,0.0,,0.0,,,,,,,,,,,,,,,113.89181853232,22.997207262798,0
5e07bafe085b2cf0b11e3601,顶辉科技,购物,家电数码,广东省,东莞市,,广东省东莞市寮步镇红荔路8号电子城后门左侧8-114号街铺,5e07bafe085b2cf0b11e3601,1,0,113.889861,22.996197,,shopping,http://api.map.baidu.com/place/detail?uid=5e07bafe085b2cf0b11e3601&output=html&source=placeapi_v2,,09:00-22:00,0.0,,,,,,,,1,,,,,,,113.89006564542,22.996026852851,0
143c69bf6b945747d12dd6b2,兴昌五金水管电器,购物,家电数码,广东省,东莞市,,广东省东莞市翻身街22号,143c69bf6b945747d12dd6b2,1,0,113.897183,23.000571,"(0769)83322113,(0769)83326866",shopping,http://api.map.baidu.com/place/detail?uid=143c69bf6b945747d12dd6b2&output=html&source=placeapi_v2,,,0,,,,,,,,1,,,,,,,113.89716718436,23.00066490763,0
752d3ba2b00149c640afe6b0,格力(寮步镇),购物,家电数码,广东省,东莞市,,东莞市龙泉路10号,752d3ba2b00149c640afe6b0,1,0,113.891906,22.993571,(0769)83227588,shopping,http://api.map.baidu.com/place/detail?uid=752d3ba2b00149c640afe6b0&output=html&source=placeapi_v2,,,0,,,,,,,,1,,,,,,,,,0
7bdc70da9bdd8c6207fef5cf,达兴电器销售,购物,家电数码,广东省,东莞市,,广东省东莞市金龙街97号,7bdc70da9bdd8c6207fef5cf,1,0,113.890462,22.988403,13532969883,shopping,http://api.map.baidu.com/place/detail?uid=7bdc70da9bdd8c6207fef5cf&output=html&source=placeapi_v2,,09:00-22:00,0.0,,,,,,,,1,,,,,,,113.89044471148,22.988453100732,0
90ca8b23fc277d6c8505bf5c,潮宇数码(福运来酒店东),购物,家电数码,广东省,东莞市,,广东省东莞市教育路18号,90ca8b23fc277d6c8505bf5c,1,0,113.886872,23.004935,(0769)82222878,shopping,http://api.map.baidu.com/place/detail?uid=90ca8b23fc277d6c8505bf5c&output=html&source=placeapi_v2,,,0.0,,,,,,,,,,,,,,,113.88703874931,23.005071178236,0
99a8ad1a5b0fb750b11e368d,超凡电器(龙泉路店),购物,家电数码,广东省,东莞市,,广东省东莞市龙泉路81号,99a8ad1a5b0fb750b11e368d,1,0,113.890475,22.992261,,shopping,http://api.map.baidu.com/place/detail?uid=99a8ad1a5b0fb750b11e368d&output=html&source=placeapi_v2,,,0,,,,,,,,1,,,,,,,113.8904130004,22.992297008602,0
1af1d28faedd447687330433,美的慧生活(金兴路店),购物,家电数码,广东省,东莞市,,广东省东莞市金兴路31号,1af1d28faedd447687330433,1,0,113.888329,23.007572,,shopping,http://api.map.baidu.com/place/detail?uid=1af1d28faedd447687330433&output=html&source=placeapi_v2,,08:30-21:00,3,,,,,,,,4,,,,,,,113.88829707501,23.007529449796,0
8944719f213f4ed680a00c99,华硕金牌电脑(数码科技店),购物,家电数码,广东省,东莞市,,广东省东莞市寮步镇金松路101号,8944719f213f4ed680a00c99,1,0,113.872973,22.981377,,shopping,http://api.map.baidu.com/place/detail?uid=8944719f213f4ed680a00c99&output=html&source=placeapi_v2,,08:00-20:00,,,,,,,,,,,,,,,,113.87289813062,22.981481878276,0
84e555a883b9dce4223bf289,vivo购机中心,购物,家电数码,广东省,东莞市,,广东省东莞市西门街59号,84e555a883b9dce4223bf289,1,0,113.891996,22.983616,13686229996,shopping,http://api.map.baidu.com/place/detail?uid=84e555a883b9dce4223bf289&output=html&source=placeapi_v2,,,,,,,,,,,,,,,,,,,,0
db281263f815babbb7265569,小天才(景泰・香都购物城店),购物,家电数码,广东省,东莞市,,东莞市寮步镇红荔路10号景泰・香都购物城F1,db281263f815babbb7265569,1,0,113.888897,22.995647,4006103999,shopping,http://api.map.baidu.com/place/detail?uid=db281263f815babbb7265569&output=html&source=placeapi_v2,,08:00-22:00,,,,,,,,,,,,,,,,,,0
96a8d4fe7d43b6d630870a0b,步步高(景泰・香都购物城店),购物,家电数码,广东省,东莞市,,东莞市寮步镇红荔路10号景泰・香都购物城F2,96a8d4fe7d43b6d630870a0b,1,0,113.888816,22.995711,4001688888,shopping,http://api.map.baidu.com/place/detail?uid=96a8d4fe7d43b6d630870a0b&output=html&source=placeapi_v2,,10:00-22:00,,,,,,,,,,,,,,,,113.88909253172,22.995416512383,0
a133d88fb3a61f863b221c87,金欣通讯,购物,家电数码,广东省,东莞市,,广东省东莞市金松路42号,a133d88fb3a61f863b221c87,1,0,113.876222,22.9836,13713337813,shopping,http://api.map.baidu.com/place/detail?uid=a133d88fb3a61f863b221c87&output=html&source=placeapi_v2,,,,,,,,,,,,,,,,,,,,0
4bb049d93c84fb3a99005023,时尚电器(寮步景泰店)-东门,购物,家电数码,广东省,东莞市,,东莞市香市路景泰・香都购物城,4bb049d93c84fb3a99005023,1,0,113.888691,22.996119,,shopping,http://api.map.baidu.com/place/detail?uid=4bb049d93c84fb3a99005023&output=html&source=placeapi_v2,,,,,,,,,,,,,,,,,,113.88876571021,22.996153840259,0
a1e96347f18287b1b6f42f61,品(景泰・香都购物城店),购物,家电数码,广东省,东莞市,,东莞市寮步镇红荔路10号景泰・香都购物城F2,,1,0,113.888947,22.995583,,shopping,http://api.map.baidu.com/place/detail?uid=a1e96347f18287b1b6f42f61&output=html&source=placeapi_v2,,08:00-22:00,,,,,,,,,,,,,,,,,,0
81d6a5095288c6406e20b973,家华电器(振兴路店),购物,家电数码,广东省,东莞市,,广东省东莞市振兴路91号,81d6a5095288c6406e20b973,1,0,113.674067,23.010054,(0769)88329999,shopping,http://api.map.baidu.com/place/detail?uid=81d6a5095288c6406e20b973&output=html&source=placeapi_v2,,08:00-21:00,4.7,,,,,,,,4,,,,,,,113.67397460256,23.010115990977,0
f6b8af4cc9bfebeb22026220,百佳电器(锦绣居东南),购物,家电数码,广东省,东莞市,,广东省东莞市振兴路11号,f6b8af4cc9bfebeb22026220,1,0,113.670443,23.009034,,shopping,http://api.map.baidu.com/place/detail?uid=f6b8af4cc9bfebeb22026220&output=html&source=placeapi_v2,,,0.0,,,,,,,,,,,,,,,113.67040343033,23.009108498115,0
b70b9e1bcc42c131b8bd63b5,丽声电器(新兴北路店),购物,家电数码,广东省,东莞市,,广东省东莞市新兴北路84号,b70b9e1bcc42c131b8bd63b5,1,0,113.669982,23.008364,,shopping,http://api.map.baidu.com/place/detail?uid=b70b9e1bcc42c131b8bd63b5&output=html&source=placeapi_v2,,,0,,,,,,,,1,,,,,,,113.66999902217,23.008529501806,0
46e86fdd1886e46fd13ce365,绿雅家电,购物,家电数码,广东省,东莞市,,东莞市创业广耀路2号,46e86fdd1886e46fd13ce365,1,1,113.7065,23.012445,(0769)88991088,shopping,http://api.map.baidu.com/place/detail?uid=46e86fdd1886e46fd13ce365&output=html&source=placeapi_v2,,,3,,,,,,,,1,,,,,,,113.7062987061,23.012367531355,1
9de49436ddd9291f40afe681,金华电器,购物,家电数码,广东省,东莞市,,广东省东莞市万道路21号,9de49436ddd9291f40afe681,1,2,113.698703,23.02551,,shopping,http://api.map.baidu.com/place/detail?uid=9de49436ddd9291f40afe681&output=html&source=placeapi_v2,,08:00-21:00,0.0,,,,,,,,1,,,,,,,113.69828118211,23.025954425824,2
25ff25eb55cc5f7c8c77277c,联华电脑(坝新路店),购物,家电数码,广东省,东莞市,,东莞市胜利路1号,25ff25eb55cc5f7c8c77277c,1,0,113.725511,23.023768,18028281331,shopping,http://api.map.baidu.com/place/detail?uid=25ff25eb55cc5f7c8c77277c&output=html&source=placeapi_v2,,08:00-22:00,0,,,,,,,,1,,,,,,,113.72536520821,23.023897268869,0
9a237ace50374d0f246e9809,诚博电脑,购物,家电数码,广东省,东莞市,,广东省东莞市泰新路万丰精品公寓8号铺,9a237ace50374d0f246e9809,1,0,113.702334,23.035766,13537240078,shopping,http://api.map.baidu.com/place/detail?uid=9a237ace50374d0f246e9809&output=html&source=placeapi_v2,,08:30-22:30,0,,,,,,,,1,,,,,,,113.70245400523,23.0357380721,0
d353c9f55184beb3c4f50d02,天诚电脑(共联商业街店),购物,家电数码,广东省,东莞市,,广东省东莞市共联商业街32号,d353c9f55184beb3c4f50d02,1,0,113.712671,23.040378,"13559712811,13925596835",shopping,http://api.map.baidu.com/place/detail?uid=d353c9f55184beb3c4f50d02&output=html&source=placeapi_v2,,,0,,,,,,,,2,,,,,,,,,0
086d845d111ca6bcc9fa5f6f,荣胜电器,购物,家电数码,广东省,东莞市,,广东东莞市万江街道简沙洲九龙正门旁边,086d845d111ca6bcc9fa5f6f,1,0,113.714337,23.01566,,shopping,http://api.map.baidu.com/place/detail?uid=086d845d111ca6bcc9fa5f6f&output=html&source=placeapi_v2,,09:00-18:00,0,,,,,,,,2,,,,,,,113.71437717564,23.015611809375,0
b1362552c68d37b5a11de933,格力电器(胜利路店),购物,家电数码,广东省,东莞市,,广东省东莞市坝新路52号爱迪花园北区14栋1025室,b1362552c68d37b5a11de933,1,0,113.723905,23.022852,(0769)23629100,shopping,http://api.map.baidu.com/place/detail?uid=b1362552c68d37b5a11de933&output=html&source=placeapi_v2,,,0,,,,,,,,2,,,,,,,113.72396224185,23.022792563704,0
91c13f93b45fc4fa21f0171b,电博数码广场(东莞店),购物,家电数码,广东省,东莞市,,东莞市体育路裕兴大厦68号,91c13f93b45fc4fa21f0171b,1,1,113.76731,23.029348,(0769)22310111,shopping,http://api.map.baidu.com/place/detail?uid=91c13f93b45fc4fa21f0171b&output=html&source=placeapi_v2,0.0,09:00-21:00,0,,,,,,,,2,,,,,,,113.76721582821,23.029447923527,1
d6df91c1bb1af96af7b9161b,天源数码港(南城店),购物,家电数码,广东省,东莞市,,广东省东莞市体育路30号,d6df91c1bb1af96af7b9161b,1,3,113.764457,23.027986,13316640256,shopping,http://api.map.baidu.com/place/detail?uid=d6df91c1bb1af96af7b9161b&output=html&source=placeapi_v2,,09:00-18:30,0,,,,,,,,4,,,,,,,113.76456280146,23.027634691486,3
e2a2feee31743a10f90cad60,时尚电器(第一国际店),购物,家电数码,广东省,东莞市,,东莞市东莞大道与鸿福路交汇处第一国际F1,e2a2feee31743a10f90cad60,1,0,113.763197,23.015477,,shopping,http://api.map.baidu.com/place/detail?uid=e2a2feee31743a10f90cad60&output=html&source=placeapi_v2,,10:00-22:00,1,,,,,,,,6,,,,,,,113.76193068996,23.016276329998,0
55fa2c0bfa7f72501ce99926,格力电器(东莞展销中心),购物,家电数码,广东省,东莞市,,广东省东莞市莞太路50号,55fa2c0bfa7f72501ce99926,1,0,113.748957,23.024156,(0769)23096828,shopping,http://api.map.baidu.com/place/detail?uid=55fa2c0bfa7f72501ce99926&output=html&source=placeapi_v2,168.0,,4.5,,,,,,,,7,,,,,,,113.74913840269,23.024119058201,0
8ef99b47f8c395962b3a9f22,小米之家(广东东莞南城财富广场专卖店),购物,家电数码,广东省,东莞市,,广东省东莞市元美路119~120号财富广场1层,,1,0,113.752883,23.020649,(0769)21663950,shopping,http://api.map.baidu.com/place/detail?uid=8ef99b47f8c395962b3a9f22&output=html&source=placeapi_v2,,09:30-18:30,,,,,,,,,,,,,,,,113.75305320463,23.020618044556,0
cdb5a2bc398d5d60b04c492c,华为授权体验店(汇一城购物中心),购物,家电数码,广东省,东莞市,,广东省东莞市鸿福路200号第一国际汇一城一期二楼A2241号铺,cdb5a2bc398d5d60b04c492c,1,0,113.761835,23.014589,(0769)23663696,shopping,http://api.map.baidu.com/place/detail?uid=cdb5a2bc398d5d60b04c492c&output=html&source=placeapi_v2,0.0,10:00-22:00,2,,,,,,,,3,,,,,,,113.76031508032,23.013490090053,0
4125ea9a36fb89da616858de,卓远电脑(元美店),购物,家电数码,广东省,东莞市,,广东省东莞市石竹路绿怡居1b栋10号,4125ea9a36fb89da616858de,1,0,113.757952,23.013115,(0769)22015437,shopping,http://api.map.baidu.com/place/detail?uid=4125ea9a36fb89da616858de&output=html&source=placeapi_v2,,,3,,,,,,,,3,,,,,,,113.75796327876,23.013217876571,0
d977eece14275886a2046418,仁茂通讯,购物,家电数码,广东省,东莞市,,广东省东莞市南村1号,d977eece14275886a2046418,1,0,113.742755,23.019278,,shopping,http://api.map.baidu.com/place/detail?uid=d977eece14275886a2046418&output=html&source=placeapi_v2,,09:00-21:30,0,,,,,,,,1,,,,,,,113.74281310392,23.019206547507,0
69d626a186530d7f130daaa2,东莞市超胜电脑安防经营部(莞城分店),购物,家电数码,广东省,东莞市,,广东省东莞市红山西路40号,69d626a186530d7f130daaa2,1,0,113.755443,23.036035,13826675928,shopping,http://api.map.baidu.com/place/detail?uid=69d626a186530d7f130daaa2&output=html&source=placeapi_v2,,09:00-22:00,0,,,,,,,,2,,,,,,,113.75550709321,23.036042505051,0
317878c50334ef8e95ca071d,惠普(商用体验店),购物,家电数码,广东省,东莞市,,广东省东莞市体育路38号天源数码港南城店1楼1238号,317878c50334ef8e95ca071d,1,0,113.767228,23.029388,(0769)22315555,shopping,http://api.map.baidu.com/place/detail?uid=317878c50334ef8e95ca071d&output=html&source=placeapi_v2,,09:00-18:30,0,,,,,,,,2,,,,,,,113.76719696379,23.029439999634,0
f807e14465f3db732afc48cb,普顺气动电器,购物,家电数码,广东省,东莞市,,广东省东莞市八达路102号华利五金机电市场b区b27号,f807e14465f3db732afc48cb,1,0,113.760313,23.036602,13058546888,shopping,http://api.map.baidu.com/place/detail?uid=f807e14465f3db732afc48cb&output=html&source=placeapi_v2,,,0,,,,,,,,2,,,,,,,113.76045142872,23.036567262536,0
83bd1cffa1bdc75a210220ff,电博数码广场-三联电脑,购物,家电数码,广东省,东莞市,,广东省东莞市体育路68号,83bd1cffa1bdc75a210220ff,1,0,113.767016,23.029113,,shopping,http://api.map.baidu.com/place/detail?uid=83bd1cffa1bdc75a210220ff&output=html&source=placeapi_v2,,,,,,,,,,,,,,,,,,,,0
1c02f9228f5dfa1977026956,捷龙通信设备,购物,家电数码,广东省,东莞市,,广东省东莞市体育横路嘉福楼3号,1c02f9228f5dfa1977026956,1,0,113.761749,23.032461,"(0769)22304073,13377787000",shopping,http://api.map.baidu.com/place/detail?uid=1c02f9228f5dfa1977026956&output=html&source=placeapi_v2,,,4,,,,,,,,3,,,,,,,,,0
3ed79c53d86988dc72210b35,东华整体厨房,购物,家电数码,广东省,东莞市,,东莞市宏远金丰商业街B2座前排14号,3ed79c53d86988dc72210b35,1,0,113.735009,23.015619,13751319820,shopping,http://api.map.baidu.com/place/detail?uid=3ed79c53d86988dc72210b35&output=html&source=placeapi_v2,,,0,,,,,,,,2,,,,,,,113.73497694691,23.01552774731,0
a099469aba8f84ecc9e33ccd,微安数码,购物,家电数码,广东省,东莞市,,广东省东莞市4巷5号,a099469aba8f84ecc9e33ccd,1,0,113.804259,23.028581,13798928655,shopping,http://api.map.baidu.com/place/detail?uid=a099469aba8f84ecc9e33ccd&output=html&source=placeapi_v2,,,0.0,,,,,,,,,,,,,,,113.8042461606,23.028505193052,0
da2e04ac4f6a40544afc8dc0,港通数码(世博广场店),购物,家电数码,广东省,东莞市,,东莞市东城街道岗贝社区东城路283号世博广场F1世博广场B1,da2e04ac4f6a40544afc8dc0,1,0,113.784383,23.03802,,shopping,http://api.map.baidu.com/place/detail?uid=da2e04ac4f6a40544afc8dc0&output=html&source=placeapi_v2,,10:00-22:00,,,,,,,,,,,,,,,,113.78372431734,23.037119142702,0
69ce0f69822ede4a3be4a6fa,莞汇数码(世博广场店),购物,家电数码,广东省,东莞市,,东莞市东城街道岗贝社区东城路283号世博广场F1世博广场B1,69ce0f69822ede4a3be4a6fa,1,0,113.784258,23.038288,13538555229,shopping,http://api.map.baidu.com/place/detail?uid=69ce0f69822ede4a3be4a6fa&output=html&source=placeapi_v2,,10:00-22:00,,,,,,,,,,,,,,,,113.78325647354,23.039141378715,0
35163780e8c9f69d9868b459,友联数码(世博广场店),购物,家电数码,广东省,东莞市,,东莞市东城街道岗贝社区东城路283号世博广场F1世博广场F1,35163780e8c9f69d9868b459,1,0,113.784377,23.038395,"(0769)22033196,13712633337",shopping,http://api.map.baidu.com/place/detail?uid=35163780e8c9f69d9868b459&output=html&source=placeapi_v2,0.0,09:30-19:00,5,,,,,,,,7,,,,,,,113.78372431734,23.037119142702,0
ef9bad2dc65ea5f2a0acc4f5,新机地数码(世博广场店),购物,家电数码,广东省,东莞市,,东莞市东城街道岗贝社区东城路283号世博广场F1世博广场F2,ef9bad2dc65ea5f2a0acc4f5,1,0,113.784554,23.038087,(0769)22118877,shopping,http://api.map.baidu.com/place/detail?uid=ef9bad2dc65ea5f2a0acc4f5&output=html&source=placeapi_v2,,10:00-22:00,0,,,,,,,,0,,,,,,,113.78325647354,23.039141378715,0
52a298f7b4b7009d373a71eb,Dyson(星河城购物中心店),购物,家电数码,广东省,东莞市,,东莞市东城东路228号星河城购物中心F1,52a298f7b4b7009d373a71eb,1,0,113.796119,23.028672,18680408258,shopping,http://api.map.baidu.com/place/detail?uid=52a298f7b4b7009d373a71eb&output=html&source=placeapi_v2,,10:00-22:00,,,,,,,,,,,,,,,,113.79585078236,23.029114748022,0
1d215bb5f36819289c09f7db,慧业电脑(世博广场店),购物,家电数码,广东省,东莞市,,东莞市东城街道岗贝社区东城路283号世博广场F1世博广场F1,1d215bb5f36819289c09f7db,1,0,113.784636,23.038855,13712012608,shopping,http://api.map.baidu.com/place/detail?uid=1d215bb5f36819289c09f7db&output=html&source=placeapi_v2,,10:00-22:00,,,,,,,,,,,,,,,,113.78462150985,23.038911483309,0
f1bc94fc17ced02c901fc93f,苏宁易购手机(东莞东城店),购物,家电数码,广东省,东莞市,,广东省东莞市东城街道东纵路208号万达广场1-4层原万达百货,f1bc94fc17ced02c901fc93f,1,0,113.787128,23.04088,,shopping,http://api.map.baidu.com/place/detail?uid=f1bc94fc17ced02c901fc93f&output=html&source=placeapi_v2,,10:00-22:30,,,,,,,,,,,,,,,,,,0
0030a79fb348379285420efd,文彩电脑(世博广场店),购物,家电数码,广东省,东莞市,,东莞市东城街道岗贝社区东城路283号世博广场F1世博广场F1,0030a79fb348379285420efd,1,0,113.784659,23.039004,,shopping,http://api.map.baidu.com/place/detail?uid=0030a79fb348379285420efd&output=html&source=placeapi_v2,,10:00-22:00,,,,,,,,,,,,,,,,113.78462520113,23.038912363665,0
66986cc29458aad131f71d23,网兴电脑科技公司(世博广场店),购物,家电数码,广东省,东莞市,,东莞市东城街道岗贝社区东城路283号世博广场F1世博广场F2,66986cc29458aad131f71d23,1,0,113.784482,23.03868,,shopping,http://api.map.baidu.com/place/detail?uid=66986cc29458aad131f71d23&output=html&source=placeapi_v2,,10:00-22:00,,,,,,,,,,,,,,,,113.78325647354,23.039141378715,0
0d71899fb187a3aa94ec84e3,时尚电器(东城中路店),购物,家电数码,广东省,东莞市,,广东省东莞市东城中路君豪商业中心一二楼(海雅百货对面),0d71899fb187a3aa94ec84e3,1,0,113.782453,23.039433,,shopping,http://api.map.baidu.com/place/detail?uid=0d71899fb187a3aa94ec84e3&output=html&source=placeapi_v2,,10:00-22:00,0,,,,,,,,4,,,,,,,113.78256748516,23.039238357667,0
4f459ee1c86ccb56c2f1cffe,维络讯信息技术(世博广场店),购物,家电数码,广东省,东莞市,,东莞市东城街道岗贝社区东城路283号世博广场F1世博广场F2,4f459ee1c86ccb56c2f1cffe,1,0,113.784606,23.038361,,shopping,http://api.map.baidu.com/place/detail?uid=4f459ee1c86ccb56c2f1cffe&output=html&source=placeapi_v2,,10:00-22:00,,,,,,,,,,,,,,,,113.78325647354,23.039141378715,0
5e6a4105ff076b18b15c6a7a,华为授权体验店(东城万达),购物,家电数码,广东省,东莞市,,广东省东莞市东城街道主山东纵路208号万达广场室外步行街1F1002a、1F1002b、2F2002a号商铺,5e6a4105ff076b18b15c6a7a,1,0,113.787754,23.04053,(0769)81272666,shopping,http://api.map.baidu.com/place/detail?uid=5e6a4105ff076b18b15c6a7a&output=html&source=placeapi_v2,0.0,10:00-22:00,1,,,,,,,,2,,,,,,,113.78577,23.041458009508,0
4b742367bd51e1b42fb17e29,联想(世博广场店),购物,家电数码,广东省,东莞市,,东莞市东城街道岗贝社区东城路283号世博广场F1世博广场F1,4b742367bd51e1b42fb17e29,1,0,113.785154,23.038434,"(0769)23130885,13480009712",shopping,http://api.map.baidu.com/place/detail?uid=4b742367bd51e1b42fb17e29&output=html&source=placeapi_v2,,09:30-18:30,,,,,,,,,,,,,,,,113.78502481752,23.038449379916,0
351dd8f2b6f9f558471a3276,三星电子服务中心(世博广场C区店),购物,家电数码,广东省,东莞市,,东莞市东城街道岗贝社区东城路283号世博广场F1,351dd8f2b6f9f558471a3276,1,0,113.783546,23.039219,4000118899,life,http://api.map.baidu.com/place/detail?uid=351dd8f2b6f9f558471a3276&output=html&source=placeapi_v2,,10:00-21:00,0,,,,,,,7,1,,,,,,,113.78382065521,23.039747926493,0
8ddcb9811bbf1a90d13ce34a,天诚电脑科技(世博广场店),购物,家电数码,广东省,东莞市,,东莞市东城街道岗贝社区东城路283号世博广场F1世博广场F2,8ddcb9811bbf1a90d13ce34a,1,0,113.784827,23.038329,,shopping,http://api.map.baidu.com/place/detail?uid=8ddcb9811bbf1a90d13ce34a&output=html&source=placeapi_v2,,10:00-22:00,,,,,,,,,,,,,,,,113.78325647354,23.039141378715,0
313df48474a1df54ed74f872,宏迅电脑(世博广场店),购物,家电数码,广东省,东莞市,,东莞市东城街道岗贝社区东城路283号世博广场F1世博广场F2,313df48474a1df54ed74f872,1,0,113.784906,23.038578,,shopping,http://api.map.baidu.com/place/detail?uid=313df48474a1df54ed74f872&output=html&source=placeapi_v2,,10:00-22:00,,,,,,,,,,,,,,,,113.78325647354,23.039141378715,0
3e4601c2a28da023a2046438,海康威视(世博广场店),购物,家电数码,广东省,东莞市,,东莞市东城街道岗贝社区东城路283号世博广场F1世博广场F1,3e4601c2a28da023a2046438,1,0,113.784775,23.03849,,shopping,http://api.map.baidu.com/place/detail?uid=3e4601c2a28da023a2046438&output=html&source=placeapi_v2,,10:00-22:00,,,,,,,,,,,,,,,,113.78325647354,23.039141378715,0
dffd631ccfdee0bc38221c1b,大地通讯(东城数码形象店),购物,家电数码,广东省,东莞市,,东莞市东城街道岗贝社区东城路283号世博广场F1世博广场F1,dffd631ccfdee0bc38221c1b,1,0,113.783577,23.039174,(0769)22763158,shopping,http://api.map.baidu.com/place/detail?uid=dffd631ccfdee0bc38221c1b&output=html&source=placeapi_v2,,09:00-22:00,0,,,,,,,,2,,,,,,,113.78348928747,23.039294623511,0
41d9f726e4d02b0a210262ae,康宝(世博广场店),购物,家电数码,广东省,东莞市,,东莞市东城街道岗贝社区东城路283号世博广场F1世博广场F1,,1,0,113.78439,23.039234,,shopping,http://api.map.baidu.com/place/detail?uid=41d9f726e4d02b0a210262ae&output=html&source=placeapi_v2,,10:00-22:00,,,,,,,,,,,,,,,,,,0
ece270328f66d1577702696d,小天才(星河城购物中心店),购物,家电数码,广东省,东莞市,,东莞市东城东路228号星河城购物中心F3,ece270328f66d1577702696d,1,0,113.795926,23.028734,15113313199,shopping,http://api.map.baidu.com/place/detail?uid=ece270328f66d1577702696d&output=html&source=placeapi_v2,,10:00-22:00,,,,,,,,,,,,,,,,113.79585078236,23.029114748022,0
b2ad4734674743c183a00c62,91科技(世博广场店),购物,家电数码,广东省,东莞市,,东莞市东城街道岗贝社区东城路283号世博广场F1世博广场B1,b2ad4734674743c183a00c62,1,0,113.784281,23.038085,13928205610,shopping,http://api.map.baidu.com/place/detail?uid=b2ad4734674743c183a00c62&output=html&source=placeapi_v2,0.0,10:00-22:00,,,,,,,,,,,,,,,,113.78325704756,23.039161151669,0
a98ed7632617fb23c42ba101,BenQ(世博广场店),购物,家电数码,广东省,东莞市,,东莞市东城街道岗贝社区东城路283号世博广场F1世博广场F1,a98ed7632617fb23c42ba101,1,0,113.78441,23.038713,,shopping,http://api.map.baidu.com/place/detail?uid=a98ed7632617fb23c42ba101&output=html&source=placeapi_v2,0,10:00-21:00,,,,,,,,,,,,,,,,113.78325647354,23.039141378715,0
527064b01a13b39e54bfffa1,卡萨帝(世博广场店),购物,家电数码,广东省,东莞市,,东莞市东城街道岗贝社区东城路283号世博广场F1世博广场F1,527064b01a13b39e54bfffa1,1,0,113.784077,23.038953,4006999999,shopping,http://api.map.baidu.com/place/detail?uid=527064b01a13b39e54bfffa1&output=html&source=placeapi_v2,,10:00-21:00,,,,,,,,,,,,,,,,113.78325647354,23.039141378715,0
78f3665c0bbdd7a4770269cf,华为授权体验店（世博广场）,购物,家电数码,广东省,东莞市,,东莞市东城街道岗贝社区东城路283号世博广场F1世博广场F1,e7455d4c2d0c2c408e1a89fd,1,0,113.783749,23.039573,(0769)22221216,shopping,http://api.map.baidu.com/place/detail?uid=78f3665c0bbdd7a4770269cf&output=html&source=placeapi_v2,0.0,10:00-21:30,5,,,,,,,,7,,,,,,,113.78358784713,23.0396325917,0
ddafc4664fa147d145e27482,伟讯音响监控电子批发,购物,家电数码,广东省,东莞市,,广东省东莞市东城路世博广场f区F1313档,ddafc4664fa147d145e27482,1,0,113.784369,23.037712,15099790095,shopping,http://api.map.baidu.com/place/detail?uid=ddafc4664fa147d145e27482&output=html&source=placeapi_v2,,09:00-21:00,,,,,,,,,,,,,,,,,,0
6deee30875fe541729fc4825,世博广场G区(世博广场店),购物,家电数码,广东省,东莞市,,广东省东莞市世博广场天源数码港南城店北门,6deee30875fe541729fc4825,1,4,113.784647,23.038086,(0769)22032888,shopping,http://api.map.baidu.com/place/detail?uid=6deee30875fe541729fc4825&output=html&source=placeapi_v2,,00:00-24:00,0.0,,,,,,,,4,,,,,,,113.78416632317,23.037921056705,4
e8d7b2c5ff12c977e3110396,风暴数配(世纪广场店),购物,家电数码,广东省,东莞市,,广东省东莞市东城路269号世纪广场B1,,1,0,113.780765,23.038079,,shopping,http://api.map.baidu.com/place/detail?uid=e8d7b2c5ff12c977e3110396&output=html&source=placeapi_v2,,10:00-22:00,,,,,,,,,,,,,,,,113.78149914901,23.038064006876,0
f664f7a111ab61253b221c25,Midea(世博广场店),购物,家电数码,广东省,东莞市,,东莞市东城街道岗贝社区东城路283号世博广场F1世博广场F1,,1,0,113.783885,23.039221,,shopping,http://api.map.baidu.com/place/detail?uid=f664f7a111ab61253b221c25&output=html&source=placeapi_v2,,10:00-22:00,,,,,,,,,,,,,,,,,,0
e7c907a71fe97d91b75f1e49,广蓝笔记本配件维修一站式服务中心(世博广场店),购物,家电数码,广东省,东莞市,,东莞市东城街道岗贝社区东城路283号世博广场F1世博广场F3,e7c907a71fe97d91b75f1e49,1,0,113.785838,23.038217,,shopping,http://api.map.baidu.com/place/detail?uid=e7c907a71fe97d91b75f1e49&output=html&source=placeapi_v2,,10:00-22:00,,,,,,,,,,,,,,,,113.78325647354,23.039141378715,0
ef8f7ee63f3891f1744ff168,立成电脑(世博广场店),购物,家电数码,广东省,东莞市,,东莞市东城街道岗贝社区东城路283号世博广场F1世博广场F2,ef8f7ee63f3891f1744ff168,1,0,113.785458,23.038093,,shopping,http://api.map.baidu.com/place/detail?uid=ef8f7ee63f3891f1744ff168&output=html&source=placeapi_v2,,10:00-22:00,,,,,,,,,,,,,,,,113.78325647354,23.039141378715,0
6baedcab3a18f4dec26c14dc,AI智能(世博广场店),购物,家电数码,广东省,东莞市,,东莞市东城街道岗贝社区东城路283号世博广场F1世博广场F1,6baedcab3a18f4dec26c14dc,1,0,113.783398,23.038378,,shopping,http://api.map.baidu.com/place/detail?uid=6baedcab3a18f4dec26c14dc&output=html&source=placeapi_v2,,10:00-22:00,,,,,,,,,,,,,,,,,,0
1948b30527520a52adcb6690,技嘉金牌主板(世博广场店),购物,家电数码,广东省,东莞市,,东莞市东城街道岗贝社区东城路283号世博广场F1世博广场F2,1948b30527520a52adcb6690,1,0,113.785219,23.03832,,shopping,http://api.map.baidu.com/place/detail?uid=1948b30527520a52adcb6690&output=html&source=placeapi_v2,,10:00-22:00,,,,,,,,,,,,,,,,113.78513186942,23.038221640772,0
fbd5577ff3638b4a0a5cb30d,格力(东N路店),购物,家电数码,广东省,东莞市,,广东省东莞市东N路25号,fbd5577ff3638b4a0a5cb30d,1,0,113.807836,23.026388,,shopping,http://api.map.baidu.com/place/detail?uid=fbd5577ff3638b4a0a5cb30d&output=html&source=placeapi_v2,0.0,08:00-22:00,0,,,,,,,,1,,,,,,,113.80785970501,23.02654368323,0
6644d481aac59b102bb97cf6,精诚电脑(石井中心新村店),购物,家电数码,广东省,东莞市,,广东省东莞市4巷12号,6644d481aac59b102bb97cf6,1,0,113.804509,23.028414,13428565484,shopping,http://api.map.baidu.com/place/detail?uid=6644d481aac59b102bb97cf6&output=html&source=placeapi_v2,,,0.0,,,,,,,,1,,,,,,,,,0
80de19d87ad4be69e91e97b5,三欣电脑(世博广场店),购物,家电数码,广东省,东莞市,,广东省东莞市东城区东城路283号世博广场G区天源数码港二楼G2057号,80de19d87ad4be69e91e97b5,1,0,113.785646,23.038173,,shopping,http://api.map.baidu.com/place/detail?uid=80de19d87ad4be69e91e97b5&output=html&source=placeapi_v2,,10:00-22:00,,,,,,,,,,,,,,,,113.78325647354,23.039141378715,0
c86301bc7ee97530130daab2,大华产品授权体验中心(世博广场店),购物,家电数码,广东省,东莞市,,东莞市东城街道岗贝社区东城路283号世博广场F1世博广场F2,c86301bc7ee97530130daab2,1,0,113.784386,23.038701,,shopping,http://api.map.baidu.com/place/detail?uid=c86301bc7ee97530130daab2&output=html&source=placeapi_v2,,10:00-22:00,,,,,,,,,,,,,,,,113.78325647354,23.039141378715,0
1860037e9b54d9c809f5eb58,诚信五金电器(新安街店),购物,家电数码,广东省,东莞市,,广东省东莞市东宝路34号,1860037e9b54d9c809f5eb58,1,0,113.792295,23.040343,13431365229,shopping,http://api.map.baidu.com/place/detail?uid=1860037e9b54d9c809f5eb58&output=html&source=placeapi_v2,,07:30-22:00,0,,,,,,,,1,,,,,,,113.79219189177,23.040346715363,0
b157463eccc5c3010e3ddaa6,英东液晶批发(世博广场店),购物,家电数码,广东省,东莞市,,东莞市东城街道岗贝社区东城路283号世博广场F1世博广场F2,b157463eccc5c3010e3ddaa6,1,0,113.785257,23.038327,"(0769)22762729,15992728806",shopping,http://api.map.baidu.com/place/detail?uid=b157463eccc5c3010e3ddaa6&output=html&source=placeapi_v2,,10:00-22:00,,,,,,,,,,,,,,,,113.78325647354,23.039141378715,0
214bfa35885a3017940319a8,信明正泰电器,购物,家电数码,广东省,东莞市,,广东省东莞市东纵路东城段17号1栋120室,214bfa35885a3017940319a8,1,0,113.788859,23.041659,"(0769)22682086,13829206916",shopping,http://api.map.baidu.com/place/detail?uid=214bfa35885a3017940319a8&output=html&source=placeapi_v2,,07:30-20:00,0,,,,,,,,3,,,,,,,113.78880063099,23.041570574931,0
8ffa04528e235bf1f503b82a,国本电器电脑城(寮步店),购物,家电数码,广东省,东莞市,,广东省东莞市培正巷57号,8ffa04528e235bf1f503b82a,1,0,113.841843,23.023805,15019998986,shopping,http://api.map.baidu.com/place/detail?uid=8ffa04528e235bf1f503b82a&output=html&source=placeapi_v2,0.0,07:30-22:30,5,,,,,,,,1,,,,,,,113.841800851,23.023824057971,0
b85d28e49b3e5a3d32870a1a,三联信泰专卖店,购物,家电数码,广东省,东莞市,,东莞市商业街百业国际汽配城,,1,0,113.83543,23.022847,,shopping,http://api.map.baidu.com/place/detail?uid=b85d28e49b3e5a3d32870a1a&output=html&source=placeapi_v2,,,,,,,,,,,,,,,,,,113.83544824913,23.022895214125,0
f6ce061b15ea451e96f08cef,东莞市富昌电器有限公司,购物,家电数码,广东省,东莞市,,广东省东莞市十一街23-41号,f6ce061b15ea451e96f08cef,1,0,113.82878,23.020046,(0769)83281335,shopping,http://api.map.baidu.com/place/detail?uid=f6ce061b15ea451e96f08cef&output=html&source=placeapi_v2,,08:00-19:00,,,,,,,,,,,,,,,,113.82875574195,23.020146494175,0
78bfe0c9026732678bb98893,YOOZ柚子电子雾化器体验店(寮步专卖店),购物,家电数码,广东省,东莞市,,广东省东莞市良平路141号108室,,1,0,113.840048,23.013927,,shopping,http://api.map.baidu.com/place/detail?uid=78bfe0c9026732678bb98893&output=html&source=placeapi_v2,,10:00-23:00,,,,,,,,,,,,,,,,113.83996216964,23.013964030949,0
1bf85b2552c2c7a4a1a9341c,荣龙维修家电,购物,家电数码,广东省,东莞市,,广东省东莞市寮步永和一街40号,1bf85b2552c2c7a4a1a9341c,1,0,113.84224,23.025075,"(0769)81112138,13809263275",shopping,http://api.map.baidu.com/place/detail?uid=1bf85b2552c2c7a4a1a9341c&output=html&source=placeapi_v2,,,0,,,,,,,,1,,,,,,,113.84225684435,23.025220953004,0
22e7bb738515af531fe99975,大纵电脑电器科技,购物,家电数码,广东省,东莞市,,广东东莞市润景轩131号,,1,0,113.821565,23.017328,13724455675,shopping,http://api.map.baidu.com/place/detail?uid=22e7bb738515af531fe99975&output=html&source=placeapi_v2,,,,,,,,,,,,,,,,,,113.8215357659,23.017489082198,0
a592a20d935ede069e9d68a7,金达电器,购物,家电数码,广东省,东莞市,,东莞市新兴新街新旧围文化广场东北侧约140米,a592a20d935ede069e9d68a7,1,0,113.848635,23.023451,(0769)83302623,shopping,http://api.map.baidu.com/place/detail?uid=a592a20d935ede069e9d68a7&output=html&source=placeapi_v2,,08:00-22:30,0.0,,,,,,,,,,,,,,,113.8486642204,23.023468665163,0
8ca54bd47a269e2102897232,嘉诚电脑科技,购物,家电数码,广东省,东莞市,,广东省东莞市鱼种塘新村一巷7号,8ca54bd47a269e2102897232,1,0,113.828925,23.034859,13725804288,shopping,http://api.map.baidu.com/place/detail?uid=8ca54bd47a269e2102897232&output=html&source=placeapi_v2,,,,,,,,,,,,,,,,,,113.82894790226,23.034823366661,0
747ea968c4efda604151c0fb,万乐五金电气(百业五金电子城店),购物,家电数码,广东省,东莞市,,广东省东莞市百业五金电子城(市场四街),747ea968c4efda604151c0fb,1,0,113.827384,23.021566,"(0769)82318177,15913776776",shopping,http://api.map.baidu.com/place/detail?uid=747ea968c4efda604151c0fb&output=html&source=placeapi_v2,,08:30-20:00,,,,,,,,,,,,,,,,113.82745792492,23.02168679059,0
119d955b80e1d89acc06a4b6,蓝天电脑(体验店),购物,家电数码,广东省,东莞市,,广东省东莞市致富街76号103,119d955b80e1d89acc06a4b6,1,0,113.848409,23.028325,13549425859,shopping,http://api.map.baidu.com/place/detail?uid=119d955b80e1d89acc06a4b6&output=html&source=placeapi_v2,,09:30-22:30,5,,,,,,,,1,,,,,,,113.84845232899,23.02833454492,0
841b3bdcb1c93443bd484263,恒诚电脑(香园一路店),购物,家电数码,广东省,东莞市,,广东省东莞市香园一路40号,841b3bdcb1c93443bd484263,1,0,113.844074,23.014209,(0769)82227772,shopping,http://api.map.baidu.com/place/detail?uid=841b3bdcb1c93443bd484263&output=html&source=placeapi_v2,,09:00-22:00,,,,,,,,,,,,,,,,113.84408263862,23.014302694499,0
4ea3f2f10b69d6aaaecb6612,能率科技铨讯电子,购物,家电数码,广东省,东莞市,,广东省东莞市寮步镇金富二路305号,4ea3f2f10b69d6aaaecb6612,1,0,113.87676,23.032102,(0769)83527668,shopping,http://api.map.baidu.com/place/detail?uid=4ea3f2f10b69d6aaaecb6612&output=html&source=placeapi_v2,,09:00-18:00,,,,,,,,,,,,,,,,113.87669959335,23.032238442184,0
7b4fe0dfe7af1c3fcc04ef7f,东莞市星之辰办公设备有限公司,购物,家电数码,广东省,东莞市,,广东省东莞市金富路8号d栋,7b4fe0dfe7af1c3fcc04ef7f,1,0,113.874093,23.021448,15999830588,shopping,http://api.map.baidu.com/place/detail?uid=7b4fe0dfe7af1c3fcc04ef7f&output=html&source=placeapi_v2,,,,,,,,,,,,,,,,,,113.87400679233,23.021541830492,0
a32979efab8ba7bac2f1cf66,海涛五金钢材批发,购物,家电数码,广东省,东莞市,,东莞市祥富路富竹山综合市场北侧约30米,a32979efab8ba7bac2f1cf66,1,0,113.876052,23.01549,13711903917,shopping,http://api.map.baidu.com/place/detail?uid=a32979efab8ba7bac2f1cf66&output=html&source=placeapi_v2,,,0,,,,,,,,2,,,,,,,113.8761350829,23.015426096755,0
8bedd4ec71f376e19b68b41c,雄智电脑(民兴路店),购物,家电数码,广东省,东莞市,,广东省东莞市石大路128号,8bedd4ec71f376e19b68b41c,1,0,113.889464,23.02834,15899676262,shopping,http://api.map.baidu.com/place/detail?uid=8bedd4ec71f376e19b68b41c&output=html&source=placeapi_v2,,09:00-22:00,0,,,,,,,,2,,,,,,,,,0
19724c04349cd2dfb7265567,兴业五金电器(翠香路店),购物,家电数码,广东省,东莞市,,广东省东莞市紫荆路6号,19724c04349cd2dfb7265567,1,0,113.887253,23.012466,15362865215,shopping,http://api.map.baidu.com/place/detail?uid=19724c04349cd2dfb7265567&output=html&source=placeapi_v2,,07:00-22:00,5,,,,,,,,6,,,,,,,113.88723686969,23.012683506774,0
e7ff657ddfea4fa4b2077d3e,小米授权体验店(望牛墩嘉荣购物广场授权店),购物,家电数码,广东省,东莞市,,东莞市望牛墩镇镇中路乔兴大厦B栋一楼B105铺位嘉荣广场旁,e7ff657ddfea4fa4b2077d3e,1,0,113.663517,23.056961,,shopping,http://api.map.baidu.com/place/detail?uid=e7ff657ddfea4fa4b2077d3e&output=html&source=placeapi_v2,,,3.7,,,,,,,,4,,,,,,,,,0
96ac6aa6279d4edc8bfc06d4,翔阳电脑监控,购物,家电数码,广东省,东莞市,,广东省东莞市镇中路金牛花园金碧苑3号地铺,96ac6aa6279d4edc8bfc06d4,1,0,113.665323,23.059517,"(0769)88516886,13713188576",shopping,http://api.map.baidu.com/place/detail?uid=96ac6aa6279d4edc8bfc06d4&output=html&source=placeapi_v2,,00:00-24:00,0.0,,,,,,,,,,,,,,,113.66525622509,23.05946451677,0
47137e7e3880d66c7dc876cd,鸿厚电器(同德街店),购物,家电数码,广东省,东莞市,,东莞市兴业街金鸿楼西侧约50米,47137e7e3880d66c7dc876cd,1,0,113.663726,23.059859,,shopping,http://api.map.baidu.com/place/detail?uid=47137e7e3880d66c7dc876cd&output=html&source=placeapi_v2,,09:00-20:00,0.0,,,,,,,,,,,,,,,,,0
d353c9f55184beb3c4f50d02,天诚电脑(共联商业街店),购物,家电数码,广东省,东莞市,,广东省东莞市共联商业街32号,d353c9f55184beb3c4f50d02,1,0,113.712671,23.040378,"13559712811,13925596835",shopping,http://api.map.baidu.com/place/detail?uid=d353c9f55184beb3c4f50d02&output=html&source=placeapi_v2,,,0,,,,,,,,2,,,,,,,,,0
7fbd07e4bb5d1a2ce912e4d1,新世纪电脑(第十九分店),购物,家电数码,广东省,东莞市,,广东省东莞市莫屋大街68号,7fbd07e4bb5d1a2ce912e4d1,1,0,113.721603,23.067392,18024408585,shopping,http://api.map.baidu.com/place/detail?uid=7fbd07e4bb5d1a2ce912e4d1&output=html&source=placeapi_v2,,00:00-24:00,,,,,,,,,,,,,,,,113.721711214,23.067342543871,0
7111a5810f1685c239e4a608,a.o.史密斯(东莞万江东方建材专卖店),购物,家电数码,广东省,东莞市,,东二路东方建材城K座一楼12-13号铺,7111a5810f1685c239e4a608,1,0,113.715626,23.065209,15377728954,shopping,http://api.map.baidu.com/place/detail?uid=7111a5810f1685c239e4a608&output=html&source=placeapi_v2,0.0,09:00-20:00,0.0,,,,,,,,,,,,,,,113.71552845925,23.065249707823,0
954860bdcc8ba89a0b1cc7e5,华顺五金电器(莫屋街店),购物,家电数码,广东省,东莞市,,广东省东莞市莫屋大街109号,954860bdcc8ba89a0b1cc7e5,1,0,113.721288,23.06639,"(0769)88034309,15024188805",shopping,http://api.map.baidu.com/place/detail?uid=954860bdcc8ba89a0b1cc7e5&output=html&source=placeapi_v2,,,0,,,,,,,,1,,,,,,,113.72123599961,23.066366178777,0
0a30c05c5a633615223bf2b0,梦想数码,购物,家电数码,广东省,东莞市,,广东省东莞市西正路64号通讯1楼09铺,0a30c05c5a633615223bf2b0,1,0,113.758742,23.048475,(0769)22245755,shopping,http://api.map.baidu.com/place/detail?uid=0a30c05c5a633615223bf2b0&output=html&source=placeapi_v2,3000.0,10:00-21:30,0,,,,,,,,0,,,,,,,113.75887222919,23.048269242492,0
63c0a0732b1710daddee8b48,东方影音电器商店,购物,家电数码,广东省,东莞市,,广东省东莞市大西路29号,63c0a0732b1710daddee8b48,1,0,113.752982,23.051554,(0769)22215992,shopping,http://api.map.baidu.com/place/detail?uid=63c0a0732b1710daddee8b48&output=html&source=placeapi_v2,,09:00-19:00,0,,,,,,,,2,,,,,,,,,0
ae18cdc006fa3efd8c1a8906,宏发电器营业部,购物,家电数码,广东省,东莞市,,广东省东莞市大西路72号,ae18cdc006fa3efd8c1a8906,1,0,113.752114,23.052132,(0769)22223092,shopping,http://api.map.baidu.com/place/detail?uid=ae18cdc006fa3efd8c1a8906&output=html&source=placeapi_v2,,,0,,,,,,,,1,,,,,,,,,0
3a0a78bdada89be363180958,苏宁易购(都会广场店),购物,家电数码,广东省,东莞市,,广东省东莞市万江区教育路都会广场2区2楼,3a0a78bdada89be363180958,1,0,113.741075,23.054218,"18664166398,18929197206",shopping,http://api.map.baidu.com/place/detail?uid=3a0a78bdada89be363180958&output=html&source=placeapi_v2,30.0,09:30-21:00,5,,,,,,,,19,,,,,,,113.7409635863,23.054000418657,0
ea8c69170d1ca3d4d92f28b0,金华电器行,购物,家电数码,广东省,东莞市,,广东省东莞市振华路31号,ea8c69170d1ca3d4d92f28b0,1,0,113.754787,23.04993,,shopping,http://api.map.baidu.com/place/detail?uid=ea8c69170d1ca3d4d92f28b0&output=html&source=placeapi_v2,,,0,,,,,,,,2,,,,,,,113.75475349574,23.049875507936,0
75ae56627486df611b11d594,ONE2FREE易幻数码(向阳路店),购物,家电数码,广东省,东莞市,,广东省东莞市向阳路轻纺楼3层,75ae56627486df611b11d594,1,0,113.759766,23.045722,,shopping,http://api.map.baidu.com/place/detail?uid=75ae56627486df611b11d594&output=html&source=placeapi_v2,,08:00-22:00,0,,,,,,,,1,,,,,,,113.75986712141,23.045710876811,0
371f6ec770f92432f5c59c2d,铂睿数码,购物,家电数码,广东省,东莞市,,广东省东莞市莞城区向阳路10号怡发商场怡庆楼1号,371f6ec770f92432f5c59c2d,1,0,113.759068,23.046053,(0769)23326305,shopping,http://api.map.baidu.com/place/detail?uid=371f6ec770f92432f5c59c2d&output=html&source=placeapi_v2,,09:00-10:00,0,,,,,,,,1,,,,,,,,,0
1b6f8ddd8a3da21bc7f025ce,无限通讯(向阳路店),购物,家电数码,广东省,东莞市,,广东省东莞市向阳路45号,1b6f8ddd8a3da21bc7f025ce,1,0,113.759578,23.045306,13711868515,shopping,http://api.map.baidu.com/place/detail?uid=1b6f8ddd8a3da21bc7f025ce&output=html&source=placeapi_v2,0.0,,3,,,,,,,,3,,,,,,,113.75960008033,23.045380773215,0
f1d18f0433743f5775e5b6fb,格力(兴隆新村店),购物,家电数码,广东省,东莞市,,广东省东莞市莞城区榕树角大街2座21号,f1d18f0433743f5775e5b6fb,1,0,113.756358,23.056124,(0769)22112552,shopping,http://api.map.baidu.com/place/detail?uid=f1d18f0433743f5775e5b6fb&output=html&source=placeapi_v2,0.0,09:00-18:00,0,,,,,,,,1,,,,,,,113.7563588108,23.056076076027,0
069f1ed7dbafc33db8bd6377,昌盛五金电器(万龙路店),购物,家电数码,广东省,东莞市,,广东省东莞市万龙路102号本栋楼,069f1ed7dbafc33db8bd6377,1,0,113.743013,23.059904,(0769)22282492,shopping,http://api.map.baidu.com/place/detail?uid=069f1ed7dbafc33db8bd6377&output=html&source=placeapi_v2,,,0.0,,,,,,,,,,,,,,,113.74315506906,23.059959050573,0
27c453000af3878800294f33,万众电器电脑(第二分店),购物,家电数码,广东省,东莞市,,东莞市绿化路小摇篮幼儿园(江城东路)东南侧约150米,27c453000af3878800294f33,1,0,113.749694,23.0733,13544617807,shopping,http://api.map.baidu.com/place/detail?uid=27c453000af3878800294f33&output=html&source=placeapi_v2,,,,,,,,,,,,,,,,,,113.74960195259,23.073305288315,0
8c6a8ecc43b159c04f6d46cb,格力(黎屋围路店),购物,家电数码,广东省,东莞市,,广东省东莞市黎屋围大道79号,8c6a8ecc43b159c04f6d46cb,1,0,113.765832,23.062298,(0769)22768751,shopping,http://api.map.baidu.com/place/detail?uid=8c6a8ecc43b159c04f6d46cb&output=html&source=placeapi_v2,0.0,,0,,,,,,,,1,,,,,,,113.76577002435,23.062235004674,0
42db6ce3d3f8107d1ef74d8d,广联电器配件经营部,购物,家电数码,广东省,东莞市,,广东省东莞市南城路38号,42db6ce3d3f8107d1ef74d8d,1,0,113.762929,23.04424,(0769)22243630,shopping,http://api.map.baidu.com/place/detail?uid=42db6ce3d3f8107d1ef74d8d&output=html&source=placeapi_v2,,,0,,,,,,,,1,,,,,,,113.7630075301,23.04422399468,0
27e289a970fcdc5fce04ef83,友谊数码(塘中路店),购物,家电数码,广东省,东莞市,,广东省东莞市n塘中路9号,27e289a970fcdc5fce04ef83,1,0,113.802785,23.057397,13560831382,shopping,http://api.map.baidu.com/place/detail?uid=27e289a970fcdc5fce04ef83&output=html&source=placeapi_v2,,10:00-22:00,5,,,,,,,,5,,,,,,,113.80274796039,23.057356219847,0
9215bc033fc3a2196949f377,电脑性能升级,购物,家电数码,广东省,东莞市,,东莞市芳桂一街芳桂园,9215bc033fc3a2196949f377,1,0,113.787508,23.049056,,shopping,http://api.map.baidu.com/place/detail?uid=9215bc033fc3a2196949f377&output=html&source=placeapi_v2,,,,,,,,,,,,,,,,,,113.78751299093,23.048860911665,0
2c0e838139c0096a1329355a,兴顺五金电器(温南路店),购物,家电数码,广东省,东莞市,,广东省东莞市莞温路52号,2c0e838139c0096a1329355a,1,0,113.787061,23.05353,(0769)22256017,shopping,http://api.map.baidu.com/place/detail?uid=2c0e838139c0096a1329355a&output=html&source=placeapi_v2,,07:00-18:00,0,,,,,,,,1,,,,,,,113.78716900007,23.053564009716,0
f8027abd118298ea0b69d92e,佳宝五金(莞福路),购物,家电数码,广东省,东莞市,,广东省东莞市莞温路460号,f8027abd118298ea0b69d92e,1,0,113.803657,23.04774,,shopping,http://api.map.baidu.com/place/detail?uid=f8027abd118298ea0b69d92e&output=html&source=placeapi_v2,,,1,,,,,,,,2,,,,,,,,,0
e6dc8202ebaaa1b361685874,国美电器(盈锋家居广场店),购物,家电数码,广东省,东莞市,,广东省东莞市东纵路168号盈锋家居广场B1层,e6dc8202ebaaa1b361685874,1,1,113.783607,23.043632,(0769)22867796,shopping,http://api.map.baidu.com/place/detail?uid=e6dc8202ebaaa1b361685874&output=html&source=placeapi_v2,2746.0,09:30-22:00,1,,,,,,,,5,,,,,,,113.78394666502,23.043036257034,1
d613225810e111e10c0a70ec,小米授权体验店(苏宁东纵大道旗舰店),购物,家电数码,广东省,东莞市,,东莞市东城街道东纵路111号愉景东方威尼斯广场写字楼1-2层,d613225810e111e10c0a70ec,1,0,113.782441,23.044609,,shopping,http://api.map.baidu.com/place/detail?uid=d613225810e111e10c0a70ec&output=html&source=placeapi_v2,,,,,,,,,,,,,,,,,,,,0
c1974bde9e29c5d50782c2b3,联兴五金电器(银竹路店),购物,家电数码,广东省,东莞市,,广东省东莞市罗沙路东城段7号,c1974bde9e29c5d50782c2b3,1,0,113.790966,23.071839,,shopping,http://api.map.baidu.com/place/detail?uid=c1974bde9e29c5d50782c2b3&output=html&source=placeapi_v2,,06:30-24:00,0.0,,,,,,,,,,,,,,,,,0
f1bc94fc17ced02c901fc93f,苏宁易购手机(东莞东城店),购物,家电数码,广东省,东莞市,,广东省东莞市东城街道东纵路208号万达广场1-4层原万达百货,f1bc94fc17ced02c901fc93f,1,0,113.787128,23.04088,,shopping,http://api.map.baidu.com/place/detail?uid=f1bc94fc17ced02c901fc93f&output=html&source=placeapi_v2,,10:00-22:30,,,,,,,,,,,,,,,,,,0
5e6a4105ff076b18b15c6a7a,华为授权体验店(东城万达),购物,家电数码,广东省,东莞市,,广东省东莞市东城街道主山东纵路208号万达广场室外步行街1F1002a、1F1002b、2F2002a号商铺,5e6a4105ff076b18b15c6a7a,1,0,113.787754,23.04053,(0769)81272666,shopping,http://api.map.baidu.com/place/detail?uid=5e6a4105ff076b18b15c6a7a&output=html&source=placeapi_v2,0.0,10:00-22:00,1,,,,,,,,2,,,,,,,113.78577,23.041458009508,0
2ab4a4166113b32b4afd3f6b,华升手电永恒百货,购物,家电数码,广东省,东莞市,,广东省东莞市绿化路104号,2ab4a4166113b32b4afd3f6b,1,0,113.79837,23.06686,,shopping,http://api.map.baidu.com/place/detail?uid=2ab4a4166113b32b4afd3f6b&output=html&source=placeapi_v2,,,,,,,,,,,,,,,,,,113.79845035724,23.066972025537,0
709086462b57d527d1f49eaf,顺电(东城万达广场店),购物,家电数码,广东省,东莞市,,广东省东莞市东城街道主山社区东纵路208号万达广场B1,709086462b57d527d1f49eaf,1,0,113.786677,23.041963,(0769)83751060,shopping,http://api.map.baidu.com/place/detail?uid=709086462b57d527d1f49eaf&output=html&source=placeapi_v2,,10:00-22:30,0,,,,,,,,0,,,,,,,113.78577,23.041458009508,0
aa820d3bd9e538579868b459,鑫兴五金电器(No.粤莞0131),购物,家电数码,广东省,东莞市,,广东省东莞市主山高田坊商业街147号,aa820d3bd9e538579868b459,1,0,113.788246,23.049569,,shopping,http://api.map.baidu.com/place/detail?uid=aa820d3bd9e538579868b459&output=html&source=placeapi_v2,,,3,,,,,,,,3,,,,,,,113.78819056657,23.049548785083,0
ea2cbd1068b649c14f6d466b,精益电脑(银珠街店),购物,家电数码,广东省,东莞市,,广东省东莞市银珠街104号,ea2cbd1068b649c14f6d466b,1,0,113.796293,23.066297,,shopping,http://api.map.baidu.com/place/detail?uid=ea2cbd1068b649c14f6d466b&output=html&source=placeapi_v2,,,0,,,,,,,,1,,,,,,,113.79634541633,23.066329741282,0
c075353b795781ed735e80b3,双豪电器,购物,家电数码,广东省,东莞市,,广东省东莞市银丰街29~33号,c075353b795781ed735e80b3,1,0,113.797719,23.066037,"13431218283,13544800971",shopping,http://api.map.baidu.com/place/detail?uid=c075353b795781ed735e80b3&output=html&source=placeapi_v2,,,,,,,,,,,,,,,,,,113.7975990861,23.065953567491,0
3d99457d55bd3ffd25e0a038,苏宁易购(东纵路店),购物,家电数码,广东省,东莞市,,广东省东莞市东纵路111号,3d99457d55bd3ffd25e0a038,1,2,113.782891,23.044475,15818378221,shopping,http://api.map.baidu.com/place/detail?uid=3d99457d55bd3ffd25e0a038&output=html&source=placeapi_v2,3021.5,09:30-22:00,4.7,,,,,,,,50,,,,,,,113.78301560999,23.044500285913,2
c917b87aa6cbb7958a36eeda,美的慧生活(恒泰大厦店),购物,家电数码,广东省,东莞市,,广东省东莞市新兴路221~223号恒泰大厦c区6号,c917b87aa6cbb7958a36eeda,1,0,113.784493,23.050088,,shopping,http://api.map.baidu.com/place/detail?uid=c917b87aa6cbb7958a36eeda&output=html&source=placeapi_v2,,09:00-18:00,,,,,,,,,,,,,,,,113.78471572233,23.050080687736,0
a13ed56850ac62da08ccdd7c,天好电器(银珠街店),购物,家电数码,广东省,东莞市,,广东省东莞市银珠街163号,a13ed56850ac62da08ccdd7c,1,0,113.798201,23.064134,,shopping,http://api.map.baidu.com/place/detail?uid=a13ed56850ac62da08ccdd7c&output=html&source=placeapi_v2,,,0,,,,,,,,2,,,,,,,113.79808499303,23.064066323448,0
9db765191b37fe2d2811d1c7,万和电气(步步高专卖店),购物,家电数码,广东省,东莞市,,广东省东莞市东兴路5号,9db765191b37fe2d2811d1c7,1,0,113.777227,23.051872,13794901818,shopping,http://api.map.baidu.com/place/detail?uid=9db765191b37fe2d2811d1c7&output=html&source=placeapi_v2,,08:00-22:00,5,,,,,,,,3,,,,,,,113.7773729686,23.051797142107,0
3a43a2bd4919c4d6e115f9a0,大荣五金灯饰,购物,家电数码,广东省,东莞市,,广东省东莞市槌子街44号,3a43a2bd4919c4d6e115f9a0,1,0,113.78828,23.045921,13798867868,shopping,http://api.map.baidu.com/place/detail?uid=3a43a2bd4919c4d6e115f9a0&output=html&source=placeapi_v2,,,0,,,,,,,,1,,,,,,,,,0
6b4846c933afbc3979dbd26d,小米授权体验店(东莞大地东城大地大厦旗舰店),购物,家电数码,广东省,东莞市,,东莞市东城街道东城中路大地大厦,6b4846c933afbc3979dbd26d,1,0,113.784065,23.046639,,shopping,http://api.map.baidu.com/place/detail?uid=6b4846c933afbc3979dbd26d&output=html&source=placeapi_v2,,,,,,,,,,,,,,,,,,,,0
1860037e9b54d9c809f5eb58,诚信五金电器(新安街店),购物,家电数码,广东省,东莞市,,广东省东莞市东宝路34号,1860037e9b54d9c809f5eb58,1,0,113.792295,23.040343,13431365229,shopping,http://api.map.baidu.com/place/detail?uid=1860037e9b54d9c809f5eb58&output=html&source=placeapi_v2,,07:30-22:00,0,,,,,,,,1,,,,,,,113.79219189177,23.040346715363,0
4cc2806f0bdea599f60e776b,家佳格力空调专卖店,购物,家电数码,广东省,东莞市,,广东省东莞市银珠街5号113,4cc2806f0bdea599f60e776b,1,0,113.796151,23.068089,13763264488,shopping,http://api.map.baidu.com/place/detail?uid=4cc2806f0bdea599f60e776b&output=html&source=placeapi_v2,,08:00-23:00,5,,,,,,,,6,,,,,,,113.79608240864,23.068164842872,0
214bfa35885a3017940319a8,信明正泰电器,购物,家电数码,广东省,东莞市,,广东省东莞市东纵路东城段17号1栋120室,214bfa35885a3017940319a8,1,0,113.788859,23.041659,"(0769)22682086,13829206916",shopping,http://api.map.baidu.com/place/detail?uid=214bfa35885a3017940319a8&output=html&source=placeapi_v2,,07:30-20:00,0,,,,,,,,3,,,,,,,113.78880063099,23.041570574931,0
2dacc359e916205f53e5c5b1,国鸿音响,购物,家电数码,广东省,东莞市,,广东省东莞市石柱路6号,,1,0,113.775248,23.062751,(0769)27289721,shopping,http://api.map.baidu.com/place/detail?uid=2dacc359e916205f53e5c5b1&output=html&source=placeapi_v2,,,,,,,,,,,,,,,,,,,,0
9f89bd2dcd8aa265eb1e977b,庄顺嘉富五金电器商行,购物,家电数码,广东省,东莞市,,广东省东莞市温周北路116号,9f89bd2dcd8aa265eb1e977b,1,0,113.832975,23.061621,(0769)23229272,shopping,http://api.map.baidu.com/place/detail?uid=9f89bd2dcd8aa265eb1e977b&output=html&source=placeapi_v2,,07:00-22:30,,,,,,,,,,,,,,,,113.83281963922,23.061633120938,0
75bbdfb4cd008149ede4a57e,嘉锋电器,购物,家电数码,广东省,东莞市,,广东省东莞市丁字二路38号,75bbdfb4cd008149ede4a57e,1,0,113.839787,23.055847,,shopping,http://api.map.baidu.com/place/detail?uid=75bbdfb4cd008149ede4a57e&output=html&source=placeapi_v2,,,0.0,,,,,,,,1,,,,,,,113.83981324855,23.055859490935,0
af398b5762d2f90bc42ba107,东莞山美东城美的专卖店(完园购物广场西),购物,家电数码,广东省,东莞市,,广东省东莞市温周路196号,af398b5762d2f90bc42ba107,1,0,113.833028,23.063274,15899612523,shopping,http://api.map.baidu.com/place/detail?uid=af398b5762d2f90bc42ba107&output=html&source=placeapi_v2,0.0,,,,,,,,,,,,,,,,,113.83291346184,23.063277997579,0
df3ad3f810f6a3d4e856fad8,佳诚电脑(砖窑一路店),购物,家电数码,广东省,东莞市,,广东省东莞市砖窑一路43号,df3ad3f810f6a3d4e856fad8,1,0,113.835518,23.062223,15014861186,shopping,http://api.map.baidu.com/place/detail?uid=df3ad3f810f6a3d4e856fad8&output=html&source=placeapi_v2,,,0,,,,,,,,1,,,,,,,113.83562667057,23.06209896056,0
ea0535627b698b2a1fe9998d,万瑞电脑,购物,家电数码,广东省,东莞市,,广东省东莞市温周北路99号,ea0535627b698b2a1fe9998d,1,0,113.832624,23.061728,13662763700,shopping,http://api.map.baidu.com/place/detail?uid=ea0535627b698b2a1fe9998d&output=html&source=placeapi_v2,,08:30-22:30,,,,,,,,,,,,,,,,,,0
6dba766920015c2308f5eb30,广利通讯(温周路店),购物,家电数码,广东省,东莞市,,广东省东莞市温周北路275号,6dba766920015c2308f5eb30,1,0,113.832786,23.065468,13798731866,shopping,http://api.map.baidu.com/place/detail?uid=6dba766920015c2308f5eb30&output=html&source=placeapi_v2,,09:00-22:00,0,,,,,,,,1,,,,,,,113.83292231015,23.065549599201,0
f223b0839c14bd7c725e80b3,恒诚五金电器,购物,家电数码,广东省,东莞市,,广东省东莞市温周北路201号,f223b0839c14bd7c725e80b3,1,0,113.832778,23.064185,"(0769)23287266,13437378983",shopping,http://api.map.baidu.com/place/detail?uid=f223b0839c14bd7c725e80b3&output=html&source=placeapi_v2,,07:30-21:30,0,,,,,,,,1,,,,,,,,,0
79b7b64764ad12e7d22dd6a8,果实电脑,购物,家电数码,广东省,东莞市,,广东省东莞市温塘茶下商业街12号,79b7b64764ad12e7d22dd6a8,1,0,113.842719,23.04433,18925472608,shopping,http://api.map.baidu.com/place/detail?uid=79b7b64764ad12e7d22dd6a8&output=html&source=placeapi_v2,,,,,,,,,,,,,,,,,,113.84282031367,23.044418848069,0
78c6bfd53722e468b13c8184,顺鹏五金电器(温增路店),购物,家电数码,广东省,东莞市,,广东省东莞市温增路140号,78c6bfd53722e468b13c8184,1,0,113.844133,23.044191,15999792686,shopping,http://api.map.baidu.com/place/detail?uid=78c6bfd53722e468b13c8184&output=html&source=placeapi_v2,,07:00-22:30,0,,,,,,,,2,,,,,,,113.84419512264,23.044326010616,0
18d1fe9fff03696697ec8400,春盛五金电器(银贵路店),购物,家电数码,广东省,东莞市,,广东省东莞市温塘东路328号,18d1fe9fff03696697ec8400,1,0,113.83686,23.046355,13412913999,shopping,http://api.map.baidu.com/place/detail?uid=18d1fe9fff03696697ec8400&output=html&source=placeapi_v2,,,0,,,,,,,,1,,,,,,,113.83689193028,23.046473244823,0
5a02f4d38c6b00b2931fc949,荣达五金电器(果园路店),购物,家电数码,广东省,东莞市,,广东省东莞市五巷1号,5a02f4d38c6b00b2931fc949,1,0,113.819006,23.059767,(0769)22650499,shopping,http://api.map.baidu.com/place/detail?uid=5a02f4d38c6b00b2931fc949&output=html&source=placeapi_v2,,,2,,,,,,,,1,,,,,,,113.81897999959,23.059671009869,0
7579091393abf9bef4eafc9a,杰莞勋五金电器,购物,家电数码,广东省,东莞市,,金色家园幼儿园(温竹路北),7579091393abf9bef4eafc9a,1,0,113.836721,23.042476,13711838558,shopping,http://api.map.baidu.com/place/detail?uid=7579091393abf9bef4eafc9a&output=html&source=placeapi_v2,,,0.0,,,,,,,,,,,,,,,,,0
772b3926dd88d7b96c47604a,远鹏五金电器(温周路店),购物,家电数码,广东省,东莞市,,广东省东莞市温周路412号,772b3926dd88d7b96c47604a,1,0,113.832798,23.067521,13790605181,shopping,http://api.map.baidu.com/place/detail?uid=772b3926dd88d7b96c47604a&output=html&source=placeapi_v2,,,,,,,,,,,,,,,,,,113.83271343166,23.067381572757,0
29a5db715f60be7bab059d04,天祥手机数码电器,购物,家电数码,广东省,东莞市,,广东省东莞市怡华南路46号,29a5db715f60be7bab059d04,1,0,113.879007,23.073983,13433668882,shopping,http://api.map.baidu.com/place/detail?uid=29a5db715f60be7bab059d04&output=html&source=placeapi_v2,,09:00-22:00,,,,,,,,,,,,,,,,113.87880073084,23.073937491659,0
1562aff477dcf2f7c61e51e5,欧之意电器电脑,购物,家电数码,广东省,东莞市,,广东省东莞市增卢路116号,,1,0,113.866814,23.056499,18578450401,shopping,http://api.map.baidu.com/place/detail?uid=1562aff477dcf2f7c61e51e5&output=html&source=placeapi_v2,,08:00-23:00,,,,,,,,,,,,,,,,113.86681211079,23.056424234506,0
9bc2084406b9a43bf33cbaef,运河五金电器(简约生活百货店),购物,家电数码,广东省,东莞市,,广东省东莞市茶山镇简约生活百货爱民路西,9bc2084406b9a43bf33cbaef,1,0,113.871905,23.052057,13650343576,shopping,http://api.map.baidu.com/place/detail?uid=9bc2084406b9a43bf33cbaef&output=html&source=placeapi_v2,,,0.0,,,,,,,,,,,,,,,113.87204517068,23.052128940285,0
6ee01020b38690ef52e5c51b,龙波通讯(爱民路店),购物,家电数码,广东省,东莞市,,东莞市爱民路卢边综合市场西侧,6ee01020b38690ef52e5c51b,1,0,113.871103,23.057375,,shopping,http://api.map.baidu.com/place/detail?uid=6ee01020b38690ef52e5c51b&output=html&source=placeapi_v2,,,,,,,,,,,,,,,,,,113.87100449093,23.05736389784,0
816d478bb86ade944107c146,超荣电器(彩虹路店),购物,家电数码,广东省,东莞市,,广东省东莞市茶山镇彩虹路18号,816d478bb86ade944107c146,1,0,113.879175,23.072861,(0769)86416060,shopping,http://api.map.baidu.com/place/detail?uid=816d478bb86ade944107c146&output=html&source=placeapi_v2,,,0.0,,,,,,,,,,,,,,,113.87904636889,23.072760215296,0
850815e1cbf68ee643e19234,神州通讯(卢边综合市场店),购物,家电数码,广东省,东莞市,,东莞市爱民路卢边综合市场,850815e1cbf68ee643e19234,1,0,113.871424,23.057058,13662930933,shopping,http://api.map.baidu.com/place/detail?uid=850815e1cbf68ee643e19234&output=html&source=placeapi_v2,,08:30-23:30,0,,,,,,,,1,,,,,,,113.87104403703,23.057025360534,0
a6849f7b23cb3b3ad92f28a0,茶山手机城,购物,家电数码,广东省,东莞市,,广东省东莞市茶兴中路7号,a6849f7b23cb3b3ad92f28a0,1,0,113.886953,23.072206,,shopping,http://api.map.baidu.com/place/detail?uid=a6849f7b23cb3b3ad92f28a0&output=html&source=placeapi_v2,,,,,,,,,,,,,,,,,,113.88710931211,23.07232538752,0
5c56edd6ee65c25aa1d2301c,金龙家电商场,购物,家电数码,广东省,东莞市,,广东省东莞市爱国路60号,5c56edd6ee65c25aa1d2301c,1,0,113.879048,23.070772,,shopping,http://api.map.baidu.com/place/detail?uid=5c56edd6ee65c25aa1d2301c&output=html&source=placeapi_v2,,08:00-21:00,0,,,,,,,,2,,,,,,,113.87879105968,23.070689287811,0
09185c564e52825df119371c,锦业电器,购物,家电数码,广东省,东莞市,,广东省东莞市彩虹路42号,09185c564e52825df119371c,1,0,113.878467,23.073308,(0769)86407689,shopping,http://api.map.baidu.com/place/detail?uid=09185c564e52825df119371c&output=html&source=placeapi_v2,,08:00-21:00,0,,,,,,,,2,,,,,,,113.87849700027,23.073394010092,0
46a0c4c0feac49f6882fb538,美的中央空调(NO.粤z1135店),购物,家电数码,广东省,东莞市,,广东省东莞市彩虹路27号,46a0c4c0feac49f6882fb538,1,0,113.8786,23.073429,(0769)86407689,shopping,http://api.map.baidu.com/place/detail?uid=46a0c4c0feac49f6882fb538&output=html&source=placeapi_v2,0.0,08:00-20:00,,,,,,,,,,,,,,,,,,0
0a430fc023331900ad31e5d8,和盛五金电器,购物,家电数码,广东省,东莞市,,广东省东莞市东岳路20号,0a430fc023331900ad31e5d8,1,0,113.880235,23.072368,"(0769)89796434,13412147088",shopping,http://api.map.baidu.com/place/detail?uid=0a430fc023331900ad31e5d8&output=html&source=placeapi_v2,,08:00-22:00,0.0,,,,,,,,,,,,,,,,,0
69c7f26b55fa2ad9ca09f078,杰鑫电器,购物,家电数码,广东省,东莞市,,东莞市文化路小英才幼儿园北侧约50米,69c7f26b55fa2ad9ca09f078,1,0,113.8773,23.072644,(0769)86640697,shopping,http://api.map.baidu.com/place/detail?uid=69c7f26b55fa2ad9ca09f078&output=html&source=placeapi_v2,,,,,,,,,,,,,,,,,,113.87727136211,23.072772033763,0
1115a5fc89bd85785a3ac8a5,格力空调(增卢路店),购物,家电数码,广东省,东莞市,,东莞市茶山镇增卢路顺兴电器旁,1115a5fc89bd85785a3ac8a5,1,0,113.867855,23.056627,,shopping,http://api.map.baidu.com/place/detail?uid=1115a5fc89bd85785a3ac8a5&output=html&source=placeapi_v2,,10:00-21:30,5,,,,,,,,1,,,,,,,,,0
676cd64de63ec0d50782c22e,顺发电器商场(茶山店),购物,家电数码,广东省,东莞市,,广东省东莞市茶山镇爱国路53号101号,676cd64de63ec0d50782c22e,1,0,113.878769,23.070306,,shopping,http://api.map.baidu.com/place/detail?uid=676cd64de63ec0d50782c22e&output=html&source=placeapi_v2,,,1,,,,,,,,2,,,,,,,113.87867829359,23.070345816398,0
6e8c54b5718050b4fb0cad9d,华硕电脑(增卢路店),购物,家电数码,广东省,东莞市,,东莞市增卢路东莞市华洋中学东南侧约50米,6e8c54b5718050b4fb0cad9d,1,0,113.864839,23.056788,4000919520,shopping,http://api.map.baidu.com/place/detail?uid=6e8c54b5718050b4fb0cad9d&output=html&source=placeapi_v2,,,,,,,,,,,,,,,,,,113.86478105192,23.056744814021,0
104bc04bcb1350fdf33cba5b,酷炫通讯(万和百货店),购物,家电数码,广东省,东莞市,,东莞市高墩蛑新槁42号万和百货F1,104bc04bcb1350fdf33cba5b,1,0,113.657805,23.097448,,shopping,http://api.map.baidu.com/place/detail?uid=104bc04bcb1350fdf33cba5b&output=html&source=placeapi_v2,,,,,,,,,,,,,,,,,,,,0
8bb267ea4bb47f324c6d4632,大新电脑,购物,家电数码,广东省,东莞市,,广东省东莞市广场路6号,8bb267ea4bb47f324c6d4632,1,0,113.669622,23.096597,13711934268,shopping,http://api.map.baidu.com/place/detail?uid=8bb267ea4bb47f324c6d4632&output=html&source=placeapi_v2,,,0,,,,,,,,2,,,,,,,113.66965251878,23.096605413637,0
2fd2beab385f7d2f7adbd230,中堂电脑城(中新广场店),购物,家电数码,广东省,东莞市,,东莞市中堂镇中新广场首层,2fd2beab385f7d2f7adbd230,1,1,113.657871,23.095966,(0769)88893167,shopping,http://api.map.baidu.com/place/detail?uid=2fd2beab385f7d2f7adbd230&output=html&source=placeapi_v2,,09:00-22:30,5,,,,,,,,2,,,,,,,113.6583457243,23.096060008668,1
0d804c200c78a37ff603b8ef,智尊电脑(中东路店),购物,家电数码,广东省,东莞市,,广东省东莞市中东路53号,0d804c200c78a37ff603b8ef,1,0,113.666945,23.095816,(0769)88114242,shopping,http://api.map.baidu.com/place/detail?uid=0d804c200c78a37ff603b8ef&output=html&source=placeapi_v2,,,0,,,,,,,,1,,,,,,,,,0
dbfdf37bb85c25f96b49f39e,高登电脑,购物,家电数码,广东省,东莞市,,广东省东莞市中兴路61-111号,dbfdf37bb85c25f96b49f39e,1,0,113.661359,23.100681,"(0769)88120987,13713226768",shopping,http://api.map.baidu.com/place/detail?uid=dbfdf37bb85c25f96b49f39e&output=html&source=placeapi_v2,,09:00-19:00,5,,,,,,,,2,,,,,,,113.66125958393,23.100736925478,0
4d70d13714a40688f5231072,明顺电器,购物,家电数码,广东省,东莞市,,广东省东莞市中麻路45-8号,4d70d13714a40688f5231072,1,0,113.656425,23.096487,(0769)88888800,shopping,http://api.map.baidu.com/place/detail?uid=4d70d13714a40688f5231072&output=html&source=placeapi_v2,,08:30-21:00,,,,,,,,,,,,,,,,113.65642352658,23.096596491228,0
b531bda49f9fb514b45f1e37,梦圆电脑电器,购物,家电数码,广东省,东莞市,,广东省东莞市高墩蛘裥硕五横路高墩蛑行男⊙П辈嘣70米,b531bda49f9fb514b45f1e37,1,0,113.733431,23.084121,,shopping,http://api.map.baidu.com/place/detail?uid=b531bda49f9fb514b45f1e37&output=html&source=placeapi_v2,,,,,,,,,,,,,,,,,,,,0
0e42ae774359378a42d63e25,旺晟电脑电器,购物,家电数码,广东省,东莞市,,广东省东莞市振兴东五横路293号,0e42ae774359378a42d63e25,1,0,113.733506,23.085626,13751333071,shopping,http://api.map.baidu.com/place/detail?uid=0e42ae774359378a42d63e25&output=html&source=placeapi_v2,,09:00-23:51,,,,,,,,,,,,,,,,,,0
27c453000af3878800294f33,万众电器电脑(第二分店),购物,家电数码,广东省,东莞市,,东莞市绿化路小摇篮幼儿园(江城东路)东南侧约150米,27c453000af3878800294f33,1,0,113.749694,23.0733,13544617807,shopping,http://api.map.baidu.com/place/detail?uid=27c453000af3878800294f33&output=html&source=placeapi_v2,,,,,,,,,,,,,,,,,,113.74960195259,23.073305288315,0
a7784d175d52e3483904b178,光达空调电器,购物,家电数码,广东省,东莞市,,广东省东莞市高洞蟮滥32-13号,a7784d175d52e3483904b178,1,0,113.736283,23.082279,(0769)88877788,shopping,http://api.map.baidu.com/place/detail?uid=a7784d175d52e3483904b178&output=html&source=placeapi_v2,,08:30-18:00,0,,,,,,,,1,,,,,,,113.73629983741,23.082284918682,0
6da415aa81e2399ddeee8b9f,奔越电脑(江城东路店),购物,家电数码,广东省,东莞市,,广东省东莞市江城东路9号,6da415aa81e2399ddeee8b9f,1,0,113.750741,23.07473,(0769)86276887,shopping,http://api.map.baidu.com/place/detail?uid=6da415aa81e2399ddeee8b9f&output=html&source=placeapi_v2,,,0,,,,,,,,1,,,,,,,113.75063036867,23.074883557391,0
0397cd95fd99ad858d772777,鑫鑫达电器(高墩虻诙分店),购物,家电数码,广东省,东莞市,,东莞市莞潢中路村尾综合市场南侧,0397cd95fd99ad858d772777,1,0,113.750277,23.101042,13424771988,shopping,http://api.map.baidu.com/place/detail?uid=0397cd95fd99ad858d772777&output=html&source=placeapi_v2,0.0,00:00-24:00,5,,,,,,,,3,,,,,,,,,0
f6c2be178f9fc0aac26c149b,手机电脑,购物,家电数码,广东省,东莞市,,广东省东莞市洲头南路12号,f6c2be178f9fc0aac26c149b,1,0,113.787916,23.094504,,shopping,http://api.map.baidu.com/place/detail?uid=f6c2be178f9fc0aac26c149b&output=html&source=placeapi_v2,,,,,,,,,,,,,,,,,,113.78781493832,23.094468889415,0
c1974bde9e29c5d50782c2b3,联兴五金电器(银竹路店),购物,家电数码,广东省,东莞市,,广东省东莞市罗沙路东城段7号,c1974bde9e29c5d50782c2b3,1,0,113.790966,23.071839,,shopping,http://api.map.baidu.com/place/detail?uid=c1974bde9e29c5d50782c2b3&output=html&source=placeapi_v2,,06:30-24:00,0.0,,,,,,,,,,,,,,,,,0
314b434858f5f452dbeced99,吉星通讯(柏洲边路店),购物,家电数码,广东省,东莞市,,广东省东莞市柏洲路9号105,314b434858f5f452dbeced99,1,0,113.811552,23.083184,,shopping,http://api.map.baidu.com/place/detail?uid=314b434858f5f452dbeced99&output=html&source=placeapi_v2,,,0,,,,,,,,1,,,,,,,113.81150677148,23.083176284135,0
e3a7fd13cd43d05228b97c33,源兴电脑科技东莞有限公司,购物,家电数码,广东省,东莞市,,广东省东莞市科技路269号,e3a7fd13cd43d05228b97c33,1,2,113.774973,23.090655,,shopping,http://api.map.baidu.com/place/detail?uid=e3a7fd13cd43d05228b97c33&output=html&source=placeapi_v2,,09:00-18:00,,,,,,,,,1,,,,,,,113.77504858603,23.090481948036,2
d5464cf8b8df8657fda77813,创维电视(中国区域第01119店),购物,家电数码,广东省,东莞市,,广东省东莞市莞龙路柏洲边路段5号,d5464cf8b8df8657fda77813,1,0,113.808661,23.081402,,life,http://api.map.baidu.com/place/detail?uid=d5464cf8b8df8657fda77813&output=html&source=placeapi_v2,,,5,,,,,,,14,2,,,,,,,113.80863626138,23.08137766966,0
23f71e3513410382882fb5fd,成铭包装材料行,购物,家电数码,广东省,东莞市,,广东省东莞市崇焕西路润丰市场c11号,23f71e3513410382882fb5fd,1,0,113.790235,23.103667,"(0769)81362638,13925855829",shopping,http://api.map.baidu.com/place/detail?uid=23f71e3513410382882fb5fd&output=html&source=placeapi_v2,,,,,,,,,,,,,,,,,,,,0
a79c5fe60e405d2ffb22137e,翔达电器,购物,家电数码,广东省,东莞市,,广东省东莞市蛟绰9号,a79c5fe60e405d2ffb22137e,1,0,113.780197,23.090805,13825742671,shopping,http://api.map.baidu.com/place/detail?uid=a79c5fe60e405d2ffb22137e&output=html&source=placeapi_v2,,,0,,,,,,,,1,,,,,,,113.78028996961,23.090839664461,0
f74b87e8d4b401f4a5da3944,顺发五金电器(科技中路),购物,家电数码,广东省,东莞市,,广东省东莞市石碣镇横虼蹇萍贾新170号102室,f74b87e8d4b401f4a5da3944,1,0,113.779872,23.09205,(0769)81803531,shopping,http://api.map.baidu.com/place/detail?uid=f74b87e8d4b401f4a5da3944&output=html&source=placeapi_v2,,07:30-21:00,,,,,,,,,,,,,,,,113.77982120146,23.092157721762,0
5c7d2afefe0143fc04026f9a,金讯源电器,购物,家电数码,广东省,东莞市,,广东省东莞市上桥工业大66号,5c7d2afefe0143fc04026f9a,1,0,113.803317,23.078886,(0769)23326613,shopping,http://api.map.baidu.com/place/detail?uid=5c7d2afefe0143fc04026f9a&output=html&source=placeapi_v2,,,,,,,,,,,1,,,,,,,113.80334265031,23.079102726193,0
e81b5a7b6044e6c900ec01d9,瑞华通讯(余屋商业二街),购物,家电数码,广东省,东莞市,,广东省东莞市松龙街26号,e81b5a7b6044e6c900ec01d9,1,0,113.800822,23.077125,,shopping,http://api.map.baidu.com/place/detail?uid=e81b5a7b6044e6c900ec01d9&output=html&source=placeapi_v2,,,0,,,,,,,,,,,,,,,,,0
d590bd8c3c7b863526e0a0cf,文兴五金电器(蛟绰返),购物,家电数码,广东省,东莞市,,东莞市蛟绰泛蜃酆鲜谐《南侧约60米,d590bd8c3c7b863526e0a0cf,1,0,113.781377,23.087977,(0769)86319979,shopping,http://api.map.baidu.com/place/detail?uid=d590bd8c3c7b863526e0a0cf&output=html&source=placeapi_v2,,,0,,,,,,,,1,,,,,,,113.78150418222,23.087919151962,0
0ee58361dbc352a0a4c75688,三源电器,购物,家电数码,广东省,东莞市,,广东省东莞市余屋商业街108号,0ee58361dbc352a0a4c75688,1,0,113.828906,23.085603,,shopping,http://api.map.baidu.com/place/detail?uid=0ee58361dbc352a0a4c75688&output=html&source=placeapi_v2,,,0,,,,,,,,1,,,,,,,113.82878315731,23.085617721902,0
f1510d455a277af040ab9a25,永隆家电连锁(余屋商业二街店),购物,家电数码,广东省,东莞市,,广东省东莞市勿松六街1号,f1510d455a277af040ab9a25,1,0,113.832078,23.082642,(0769)27232013,shopping,http://api.map.baidu.com/place/detail?uid=f1510d455a277af040ab9a25&output=html&source=placeapi_v2,,,0.0,,,,,,,,,,,,,,,113.83211348755,23.0826684014,0
38b3d67f310e6dd3283a9f2f,硕科,购物,家电数码,广东省,东莞市,,东莞市闻宇路京山肉菜市场西南侧约270米,38b3d67f310e6dd3283a9f2f,1,1,113.844285,23.091404,,shopping,http://api.map.baidu.com/place/detail?uid=38b3d67f310e6dd3283a9f2f&output=html&source=placeapi_v2,,,,,,,,,,,2,,,,,,,113.84438944139,23.091621581474,1
5058a0855d23133f2fe67bb7,VIVO科昕通讯(周屋路店),购物,家电数码,广东省,东莞市,,广东省东莞市周屋路143号,5058a0855d23133f2fe67bb7,1,0,113.824897,23.080459,13580889518,shopping,http://api.map.baidu.com/place/detail?uid=5058a0855d23133f2fe67bb7&output=html&source=placeapi_v2,,09:00-22:00,,,,,,,,,,,,,,,,113.82489659271,23.080458782263,0
3647ae283ecf0e69b9df8fc2,通大电脑,购物,家电数码,广东省,东莞市,,广东省东莞市榴花东街54-56号110-111号,3647ae283ecf0e69b9df8fc2,1,0,113.823333,23.092855,13798865670,shopping,http://api.map.baidu.com/place/detail?uid=3647ae283ecf0e69b9df8fc2&output=html&source=placeapi_v2,,08:30-23:30,,,,,,,,,,,,,,,,113.8233075226,23.092921185327,0
5d8fe12c2ce7cde029b97cd1,源兴五金电器(周屋路店),购物,家电数码,广东省,东莞市,,广东省东莞市周屋大道145号,5d8fe12c2ce7cde029b97cd1,1,0,113.825059,23.080455,"13549222770,13662863083",shopping,http://api.map.baidu.com/place/detail?uid=5d8fe12c2ce7cde029b97cd1&output=html&source=placeapi_v2,,,0,,,,,,,,1,,,,,,,113.82511182761,23.080578565193,0
29a5db715f60be7bab059d04,天祥手机数码电器,购物,家电数码,广东省,东莞市,,广东省东莞市怡华南路46号,29a5db715f60be7bab059d04,1,0,113.879007,23.073983,13433668882,shopping,http://api.map.baidu.com/place/detail?uid=29a5db715f60be7bab059d04&output=html&source=placeapi_v2,,09:00-22:00,,,,,,,,,,,,,,,,113.87880073084,23.073937491659,0
34b5314c39ccd060d8131868,恒特电脑电器,购物,家电数码,广东省,东莞市,,广东省东莞市茶园路13号,34b5314c39ccd060d8131868,1,0,113.881122,23.075165,13929460883,shopping,http://api.map.baidu.com/place/detail?uid=34b5314c39ccd060d8131868&output=html&source=placeapi_v2,,,0.0,,,,,,,,,,,,,,,,,0
96b62c06feb1cec50a5cb356,联兴电脑(茶山店),购物,家电数码,广东省,东莞市,,广东省东莞市茶园路85号,96b62c06feb1cec50a5cb356,1,0,113.878313,23.075994,13377739099,shopping,http://api.map.baidu.com/place/detail?uid=96b62c06feb1cec50a5cb356&output=html&source=placeapi_v2,,09:00-20:00,0,,,,,,,,1,,,,,,,,,0
9fce3cd177b166727adbd224,盈美佳电脑,购物,家电数码,广东省,东莞市,,广东省东莞市茶兴路81号,9fce3cd177b166727adbd224,1,0,113.880312,23.078583,13922942832,shopping,http://api.map.baidu.com/place/detail?uid=9fce3cd177b166727adbd224&output=html&source=placeapi_v2,,09:00-18:00,0,,,,,,,,0,,,,,,,113.88037582511,23.07865748172,0
816d478bb86ade944107c146,超荣电器(彩虹路店),购物,家电数码,广东省,东莞市,,广东省东莞市茶山镇彩虹路18号,816d478bb86ade944107c146,1,0,113.879175,23.072861,(0769)86416060,shopping,http://api.map.baidu.com/place/detail?uid=816d478bb86ade944107c146&output=html&source=placeapi_v2,,,0.0,,,,,,,,,,,,,,,113.87904636889,23.072760215296,0
b76cab7317d71edd316212af,美格五金电器,购物,家电数码,广东省,东莞市,,东莞市茶京路东莞市茶山医院西北侧约280米,b76cab7317d71edd316212af,1,0,113.872622,23.081283,(0769)88651613,shopping,http://api.map.baidu.com/place/detail?uid=b76cab7317d71edd316212af&output=html&source=placeapi_v2,,07:00-22:00,,,,,,,,,,,,,,,,113.87253009486,23.081239984716,0
a6849f7b23cb3b3ad92f28a0,茶山手机城,购物,家电数码,广东省,东莞市,,广东省东莞市茶兴中路7号,a6849f7b23cb3b3ad92f28a0,1,0,113.886953,23.072206,,shopping,http://api.map.baidu.com/place/detail?uid=a6849f7b23cb3b3ad92f28a0&output=html&source=placeapi_v2,,,,,,,,,,,,,,,,,,113.88710931211,23.07232538752,0
09185c564e52825df119371c,锦业电器,购物,家电数码,广东省,东莞市,,广东省东莞市彩虹路42号,09185c564e52825df119371c,1,0,113.878467,23.073308,(0769)86407689,shopping,http://api.map.baidu.com/place/detail?uid=09185c564e52825df119371c&output=html&source=placeapi_v2,,08:00-21:00,0,,,,,,,,2,,,,,,,113.87849700027,23.073394010092,0
46a0c4c0feac49f6882fb538,美的中央空调(NO.粤z1135店),购物,家电数码,广东省,东莞市,,广东省东莞市彩虹路27号,46a0c4c0feac49f6882fb538,1,0,113.8786,23.073429,(0769)86407689,shopping,http://api.map.baidu.com/place/detail?uid=46a0c4c0feac49f6882fb538&output=html&source=placeapi_v2,0.0,08:00-20:00,,,,,,,,,,,,,,,,,,0
0f144117a92cfdcab75f1e53,格力(No.粤S00181店),购物,家电数码,广东省,东莞市,,广东省东莞市横江路8号格至机构办公大楼,0f144117a92cfdcab75f1e53,1,0,113.87202,23.083228,,shopping,http://api.map.baidu.com/place/detail?uid=0f144117a92cfdcab75f1e53&output=html&source=placeapi_v2,0.0,08:00-18:30,0,,,,,,,,1,,,,,,,113.87191009158,23.083197996268,0
8670573580e5936494ec84f2,冠众手机配件批发,购物,家电数码,广东省,东莞市,,广东省东莞市彩虹路51号,8670573580e5936494ec84f2,1,0,113.877928,23.074382,,shopping,http://api.map.baidu.com/place/detail?uid=8670573580e5936494ec84f2&output=html&source=placeapi_v2,,,0.0,,,,,,,,,,,,,,,113.8780587233,23.074401814131,0
5c56edd6ee65c25aa1d2301c,金龙家电商场,购物,家电数码,广东省,东莞市,,广东省东莞市爱国路60号,5c56edd6ee65c25aa1d2301c,1,0,113.879048,23.070772,,shopping,http://api.map.baidu.com/place/detail?uid=5c56edd6ee65c25aa1d2301c&output=html&source=placeapi_v2,,08:00-21:00,0,,,,,,,,2,,,,,,,113.87879105968,23.070689287811,0
0a430fc023331900ad31e5d8,和盛五金电器,购物,家电数码,广东省,东莞市,,广东省东莞市东岳路20号,0a430fc023331900ad31e5d8,1,0,113.880235,23.072368,"(0769)89796434,13412147088",shopping,http://api.map.baidu.com/place/detail?uid=0a430fc023331900ad31e5d8&output=html&source=placeapi_v2,,08:00-22:00,0.0,,,,,,,,,,,,,,,,,0
7a2ef6dae541e413d3ff2332,东顺电器批发,购物,家电数码,广东省,东莞市,,广东省东莞市大贵子西街27号,7a2ef6dae541e413d3ff2332,1,0,113.891902,23.0833,(0769)86115597,shopping,http://api.map.baidu.com/place/detail?uid=7a2ef6dae541e413d3ff2332&output=html&source=placeapi_v2,,08:00-18:00,0,,,,,,,,,,,,,,,113.89205865208,23.083322908162,0
69c7f26b55fa2ad9ca09f078,杰鑫电器,购物,家电数码,广东省,东莞市,,东莞市文化路小英才幼儿园北侧约50米,69c7f26b55fa2ad9ca09f078,1,0,113.8773,23.072644,(0769)86640697,shopping,http://api.map.baidu.com/place/detail?uid=69c7f26b55fa2ad9ca09f078&output=html&source=placeapi_v2,,,,,,,,,,,,,,,,,,113.87727136211,23.072772033763,0
676cd64de63ec0d50782c22e,顺发电器商场(茶山店),购物,家电数码,广东省,东莞市,,广东省东莞市茶山镇爱国路53号101号,676cd64de63ec0d50782c22e,1,0,113.878769,23.070306,,shopping,http://api.map.baidu.com/place/detail?uid=676cd64de63ec0d50782c22e&output=html&source=placeapi_v2,,,1,,,,,,,,2,,,,,,,113.87867829359,23.070345816398,0
