uid,name,cat_L1,cat_L2,province,city,area,address,street_id,detail,child_num,loc_lng,loc_lat,telephone,type,detail_url,price,shop_hours,overall_rating,taste_rating,service_rating,environment_rating,facility_rating,hygiene_rating,technology_rating,image_num,comment_num,groupon_num,discount_num,favorite_num,checkin_num,brand,content_tag,naviloc_lng,naviloc_lat,child_num
dd3f843cd367ff26102935d8,中国邮政集团公司南京市(高淳区分公司),生活服务,物流公司,江苏省,南京市,高淳区,江苏省南京市高淳区淳中路1号,dd3f843cd367ff26102935d8,1,1,118.876242,31.328008,"(025)57321116,(025)68613068",life,http://api.map.baidu.com/place/detail?uid=dd3f843cd367ff26102935d8&output=html&source=placeapi_v2,,09:00-17:00,,,,,,,,7,,,,,,,,118.87642143783,31.328043130656,1
e6a0bb7b9f944a4e2cb17e2d,菜鸟驿站(富馨花园店),生活服务,物流公司,江苏省,南京市,高淳区,江苏省南京市高淳区胥河路98号,,1,0,118.897935,31.343178,,life,http://api.map.baidu.com/place/detail?uid=e6a0bb7b9f944a4e2cb17e2d&output=html&source=placeapi_v2,,08:00-20:00,0,,,,,,,0,1,,,,,,,,,0
b819863017b6453922f01706,天地华宇物流(民茂路店),生活服务,物流公司,安徽省,马鞍山市,博望区,安徽省马鞍山市博望区民茂路52号,b819863017b6453922f01706,1,0,118.833699,31.564429,4008086666,life,http://api.map.baidu.com/place/detail?uid=b819863017b6453922f01706&output=html&source=placeapi_v2,,08:00-18:30,,,,,,,,8,,,,,,,,118.83352208926,31.564412409529,0
ba9540d52159572a5cbe8607,博望汽车站-小件快运,生活服务,物流公司,安徽省,马鞍山市,博望区,安徽省马鞍山市博望区S314(工业中路),ba9540d52159572a5cbe8607,1,0,118.856436,31.569624,,life,http://api.map.baidu.com/place/detail?uid=ba9540d52159572a5cbe8607&output=html&source=placeapi_v2,,,,,,,,,,1,,,,,,,,118.85646805217,31.569452128938,0
64705389acb33687704b870f,德邦物流(溧水明觉分公司),生活服务,物流公司,江苏省,南京市,溧水区,南京市溧水区明觉路明觉中学西北侧约30米,,1,0,118.894428,31.574183,95353,life,http://api.map.baidu.com/place/detail?uid=64705389acb33687704b870f&output=html&source=placeapi_v2,,08:00-20:00,0.0,,,,,,,0,,,,,,,,,,0
379924b036438a5fe81e97bb,凤凰新华溧水公司物流中心,生活服务,物流公司,江苏省,南京市,溧水区,南京市溧水区金牛南路洪蓝中心小学西北侧约50米,,1,0,118.99318,31.611487,,life,http://api.map.baidu.com/place/detail?uid=379924b036438a5fe81e97bb&output=html&source=placeapi_v2,,,,,,,,,,2,,,,,,,,,,0
0eb1df0e5f1be444593ac841,楚丰快运,生活服务,物流公司,江苏省,南京市,溧水区,永阳镇秦淮大道88号,0eb1df0e5f1be444593ac841,1,0,119.050794,31.664433,,life,http://api.map.baidu.com/place/detail?uid=0eb1df0e5f1be444593ac841&output=html&source=placeapi_v2,,08:00-18:00,,,,,,,,10,,,,,,,,119.05109737184,31.66443640933,0
aa3a7a72fb78a2c358f6be87,中富捷物流有限公司(横溪分部),生活服务,物流公司,江苏省,南京市,江宁区,南京市江宁区吴楚东路美的雍翠园东北侧约280米,,1,0,118.790802,31.727278,(025)86161517,life,http://api.map.baidu.com/place/detail?uid=aa3a7a72fb78a2c358f6be87&output=html&source=placeapi_v2,,08:00-18:00,,,,,,,,1,,,,,,,,,,0
671b8126a43d3e9d5cbe86ad,国内行李提取6,生活服务,物流公司,江苏省,南京市,江宁区,南京市江宁区禄口镇空港路南京禄口国际机场F1,,1,0,118.882984,31.735913,,life,http://api.map.baidu.com/place/detail?uid=671b8126a43d3e9d5cbe86ad&output=html&source=placeapi_v2,,08:00-18:00,,,,,,,,,,,,,,,,,,0
83e9d68df4b15f218bf15d56,宏递物流有限公司,生活服务,物流公司,江苏省,南京市,江宁区,江苏省南京市江宁区禄口街道石埝社区88号(好途停车场内),,1,0,118.893713,31.723066,,life,http://api.map.baidu.com/place/detail?uid=83e9d68df4b15f218bf15d56&output=html&source=placeapi_v2,,09:00-19:00,,,,,,,,,,,,,,,,,,0
7fe2c1a818adaf8317b54bf3,国际行李提取3,生活服务,物流公司,江苏省,南京市,江宁区,南京市江宁区禄口镇空港路南京禄口国际机场F1,7fe2c1a818adaf8317b54bf3,1,0,118.883475,31.736161,,life,http://api.map.baidu.com/place/detail?uid=7fe2c1a818adaf8317b54bf3&output=html&source=placeapi_v2,,,,,,,,,,,,,,,,,,,,0
f86199ed8b90675b0c0e6bcc,国内行李提取4,生活服务,物流公司,江苏省,南京市,江宁区,南京市江宁区禄口镇空港路南京禄口国际机场F1,,1,0,118.883283,31.736053,,life,http://api.map.baidu.com/place/detail?uid=f86199ed8b90675b0c0e6bcc&output=html&source=placeapi_v2,,,,,,,,,,,,,,,,,,,,0
a96dd3873d5a02e3c356ac1d,国内行李提取9,生活服务,物流公司,江苏省,南京市,江宁区,南京市江宁区禄口镇空港路南京禄口国际机场F1,,1,0,118.882103,31.735692,,life,http://api.map.baidu.com/place/detail?uid=a96dd3873d5a02e3c356ac1d&output=html&source=placeapi_v2,,,,,,,,,,,,,,,,,,,,0
5ea7a1db810f30ead8eced6d,大达物流(宝湾物流园营业部),生活服务,物流公司,江苏省,南京市,江宁区,江苏南京市江宁区云龙路33号,,1,0,118.800361,31.770617,,life,http://api.map.baidu.com/place/detail?uid=5ea7a1db810f30ead8eced6d&output=html&source=placeapi_v2,,08:00-18:00,0.0,,,,,,,0,,,,,,,,118.8004561704,31.770390302228,0
a1afd3bae97eb48a29fc48da,东方航空物流股份有限公司南京分公司,生活服务,物流公司,江苏省,南京市,江宁区,南京市江宁区纬三路南京禄口国际机场,a1afd3bae97eb48a29fc48da,1,0,118.888203,31.746417,,life,http://api.map.baidu.com/place/detail?uid=a1afd3bae97eb48a29fc48da&output=html&source=placeapi_v2,,,0.0,,,,,,,0,1,,,,,,,118.88825947134,31.746445411431,0
3d22270a1688fadd9fec2b49,货运中心,生活服务,物流公司,江苏省,南京市,江宁区,江苏省南京市江宁区翔燕路15号,3d22270a1688fadd9fec2b49,1,0,118.885641,31.744401,,life,http://api.map.baidu.com/place/detail?uid=3d22270a1688fadd9fec2b49&output=html&source=placeapi_v2,,08:00-18:00,5,,,,,,,1,1,,,,,,,118.88574899759,31.744229277532,0
631c4157406c286131f71d74,南京禄口国际机场凤凰汽车运输有限公司(汽车运输分公司),生活服务,物流公司,江苏省,南京市,江宁区,南京市江宁区翔鹰三路16号,631c4157406c286131f71d74,1,1,118.890422,31.742861,,life,http://api.map.baidu.com/place/detail?uid=631c4157406c286131f71d74&output=html&source=placeapi_v2,,08:00-18:00,,,,,,,,,,,,,,,,118.89025879128,31.743077929369,1
283711bf268fa7ff0ab93a73,超规行李托运(国际),生活服务,物流公司,江苏省,南京市,江宁区,南京市江宁区禄口镇空港路南京禄口国际机场F3,,1,0,118.884388,31.737297,,life,http://api.map.baidu.com/place/detail?uid=283711bf268fa7ff0ab93a73&output=html&source=placeapi_v2,,08:00-18:00,,,,,,,,,,,,,,,,,,0
1633c51d545658fe7bf7965a,国际行李提取1,生活服务,物流公司,江苏省,南京市,江宁区,南京市江宁区禄口镇空港路南京禄口国际机场F1,,1,0,118.883981,31.736531,,life,http://api.map.baidu.com/place/detail?uid=1633c51d545658fe7bf7965a&output=html&source=placeapi_v2,,,0.0,,,,,,,,0,,,,,,,,,0
671b8126a43d3e9d5cbe86ad,国内行李提取6,生活服务,物流公司,江苏省,南京市,江宁区,南京市江宁区禄口镇空港路南京禄口国际机场F1,,1,0,118.882984,31.735913,,life,http://api.map.baidu.com/place/detail?uid=671b8126a43d3e9d5cbe86ad&output=html&source=placeapi_v2,,08:00-18:00,,,,,,,,,,,,,,,,,,0
7fe2c1a818adaf8317b54bf3,国际行李提取3,生活服务,物流公司,江苏省,南京市,江宁区,南京市江宁区禄口镇空港路南京禄口国际机场F1,7fe2c1a818adaf8317b54bf3,1,0,118.883475,31.736161,,life,http://api.map.baidu.com/place/detail?uid=7fe2c1a818adaf8317b54bf3&output=html&source=placeapi_v2,,,,,,,,,,,,,,,,,,,,0
f86199ed8b90675b0c0e6bcc,国内行李提取4,生活服务,物流公司,江苏省,南京市,江宁区,南京市江宁区禄口镇空港路南京禄口国际机场F1,,1,0,118.883283,31.736053,,life,http://api.map.baidu.com/place/detail?uid=f86199ed8b90675b0c0e6bcc&output=html&source=placeapi_v2,,,,,,,,,,,,,,,,,,,,0
a96dd3873d5a02e3c356ac1d,国内行李提取9,生活服务,物流公司,江苏省,南京市,江宁区,南京市江宁区禄口镇空港路南京禄口国际机场F1,,1,0,118.882103,31.735692,,life,http://api.map.baidu.com/place/detail?uid=a96dd3873d5a02e3c356ac1d&output=html&source=placeapi_v2,,,,,,,,,,,,,,,,,,,,0
87248d960f79b8b32906cebf,南京佳港物流有限公司,生活服务,物流公司,江苏省,南京市,溧水区,江苏省南京市溧水区柘宁东路308号,87248d960f79b8b32906cebf,1,0,118.939092,31.750059,,life,http://api.map.baidu.com/place/detail?uid=87248d960f79b8b32906cebf&output=html&source=placeapi_v2,,09:00-18:30,,,,,,,,1,,,,,,,,118.9393559098,31.750112960002,0
d497cfc740dbac337fc8765e,万通物流园,生活服务,物流公司,江苏省,南京市,江宁区,江苏省南京市江宁区将军大道666-1号,,1,0,118.813249,31.787092,,life,http://api.map.baidu.com/place/detail?uid=d497cfc740dbac337fc8765e&output=html&source=placeapi_v2,,08:00-18:00,,,,,,,,,,,,,,,,118.81344402777,31.787095412123,0
97604cf96214cce42fb96d4d,中国邮政速递物流(禄口揽投部),生活服务,物流公司,江苏省,南京市,江宁区,江苏省南京市江宁区将军大道666号,97604cf96214cce42fb96d4d,1,0,118.808831,31.788711,"(025)52235183,18362938661",life,http://api.map.baidu.com/place/detail?uid=97604cf96214cce42fb96d4d&output=html&source=placeapi_v2,,08:00-18:00,0.0,,,,,,,3,1,,,,,,,118.80858981745,31.788455348226,0
101bc61b216836a3c42ba177,南京万通物流有限公司,生活服务,物流公司,江苏省,南京市,江宁区,江苏省南京市江宁区信诚大道16号,101bc61b216836a3c42ba177,1,0,118.812725,31.788009,,life,http://api.map.baidu.com/place/detail?uid=101bc61b216836a3c42ba177&output=html&source=placeapi_v2,,08:30-17:00,1.0,,,,,,,,1,,,,,,,118.81345300274,31.787111542157,0
8a54493be3bd6eba4657269c,普洛斯江宁物流园(将军大道店),生活服务,物流公司,江苏省,南京市,江宁区,江苏省南京市江宁区将军大道668号,8a54493be3bd6eba4657269c,1,0,118.811642,31.782497,,life,http://api.map.baidu.com/place/detail?uid=8a54493be3bd6eba4657269c&output=html&source=placeapi_v2,,08:00-18:00,5,,,,,,,1,1,,,,,,,118.81228959919,31.781621547499,0
d6af64f1c3a779f32fb17e34,瑞顺物流,生活服务,物流公司,江苏省,南京市,江宁区,江苏省南京市江宁区钟萃路4号,,1,0,118.800805,31.778301,,life,http://api.map.baidu.com/place/detail?uid=d6af64f1c3a779f32fb17e34&output=html&source=placeapi_v2,,,0.0,,,,,,,0,1,,,,,,,,,0
6548b002504fd35f3ce231c3,顺丰速运(南京江宁将军路营业点),生活服务,物流公司,江苏省,南京市,江宁区,江苏省南京市江宁区陶禄路润新电镀厂内,6548b002504fd35f3ce231c3,1,0,118.7906,31.784257,95338,life,http://api.map.baidu.com/place/detail?uid=6548b002504fd35f3ce231c3&output=html&source=placeapi_v2,,08:00-20:00,,,,,,,,,,,,,,,,118.79052820929,31.784375228855,0
5ea7a1db810f30ead8eced6d,大达物流(宝湾物流园营业部),生活服务,物流公司,江苏省,南京市,江宁区,江苏南京市江宁区云龙路33号,,1,0,118.800361,31.770617,,life,http://api.map.baidu.com/place/detail?uid=5ea7a1db810f30ead8eced6d&output=html&source=placeapi_v2,,08:00-18:00,0.0,,,,,,,0,,,,,,,,118.8004561704,31.770390302228,0
344aaf1b8dc1ba1ad5b74e57,极兔速递(南京禄口转运中心),生活服务,物流公司,江苏省,南京市,江宁区,江苏省南京市江宁区飞天大道73号,,1,0,118.841516,31.777565,,life,http://api.map.baidu.com/place/detail?uid=344aaf1b8dc1ba1ad5b74e57&output=html&source=placeapi_v2,,,,,,,,,,,,,,,,,,118.84150612601,31.778271964648,0
6696427234c8f6953a04b11f,财加运实业,生活服务,物流公司,江苏省,南京市,江宁区,南京市江宁区龙川路招商依云郡,,1,0,118.851219,31.78261,,life,http://api.map.baidu.com/place/detail?uid=6696427234c8f6953a04b11f&output=html&source=placeapi_v2,,,,,,,,,,2,,,,,,,,,,0
b76c44759311ac5bbfa822a8,一米嘀答物流公司,生活服务,物流公司,江苏省,南京市,江宁区,南京市江宁区禄口镇华商路40号新普洛斯,,1,0,118.837896,31.771856,,life,http://api.map.baidu.com/place/detail?uid=b76c44759311ac5bbfa822a8&output=html&source=placeapi_v2,,,0.0,,,,,,,0,,,,,,,,,,0
e385b1e6f558f6686fa3cca9,南京友鑫宠物托运公司,生活服务,物流公司,江苏省,南京市,江宁区,江苏省南京市江宁区X103(金航路),,1,0,118.895567,31.778218,13675111151,life,http://api.map.baidu.com/place/detail?uid=e385b1e6f558f6686fa3cca9&output=html&source=placeapi_v2,,00:00-24:00,,,,,,,,0,1,,,,,,,118.89539519349,31.778172218113,0
f4d566a0106f25b645e27439,圆通速递(正阳路店),生活服务,物流公司,江苏省,南京市,江宁区,江苏省南京市江宁区正阳路2号,,1,0,118.863606,31.782689,95554,life,http://api.map.baidu.com/place/detail?uid=f4d566a0106f25b645e27439&output=html&source=placeapi_v2,,09:00-19:00,0.0,,,,,,,10,1,,,,,,,118.86356369014,31.782798972667,0
2a2021643f858651b5f42fd7,越时通物流,生活服务,物流公司,江苏省,南京市,江宁区,江苏省南京市江宁区金石路332号,,1,0,118.8788,31.782699,,life,http://api.map.baidu.com/place/detail?uid=2a2021643f858651b5f42fd7&output=html&source=placeapi_v2,,00:00-24:00,,,,,,,,2,,,,,,,,,,0
64f58c139747068bc42ba190,丰镇物流(镇江)有限公司,生活服务,物流公司,江苏省,镇江市,句容市,镇江市句容市恒达路与康庄大道交叉路口往西北约230米,,1,0,119.03119,31.825725,,life,http://api.map.baidu.com/place/detail?uid=64f58c139747068bc42ba190&output=html&source=placeapi_v2,,,5.0,,,,,,,1,1,,,,,,,,,0
2e7bb1f67877364bd3ff23db,句容市农资连锁配送有限公司郭庄经营服务部,生活服务,物流公司,江苏省,镇江市,句容市,江苏省镇江市句容市X307(聚星街),,1,0,119.041874,31.807989,13921556682,life,http://api.map.baidu.com/place/detail?uid=2e7bb1f67877364bd3ff23db&output=html&source=placeapi_v2,,,,,,,,,,2,,,,,,,,,,0
e30179dfbda171c28505bf3b,江苏捷亚福物流有限公司,生活服务,物流公司,江苏省,南京市,江宁区,南京市江宁区宁芜大道盛江花苑-玫瑰园,,1,0,118.613041,31.85652,,life,http://api.map.baidu.com/place/detail?uid=e30179dfbda171c28505bf3b&output=html&source=placeapi_v2,,,,,,,,,,3,,,,,,,,,,0
8c56251b9961f675475726e8,南京恒盟车队,生活服务,物流公司,江苏省,南京市,江宁区,南京市江宁区宁桥南路盛江花苑-牡丹园,8c56251b9961f675475726e8,1,0,118.615595,31.857781,,life,http://api.map.baidu.com/place/detail?uid=8c56251b9961f675475726e8&output=html&source=placeapi_v2,,,,,,,,,,5,,,,,,,,118.61572182875,31.857752645449,0
050e3a53ff7ddacd9d9d6820,顺心物流管理(南京)有限公司,生活服务,物流公司,江苏省,南京市,江宁区,江苏省南京市江宁区正方路49号,050e3a53ff7ddacd9d9d6820,1,0,118.836985,31.848792,,life,http://api.map.baidu.com/place/detail?uid=050e3a53ff7ddacd9d9d6820&output=html&source=placeapi_v2,,,,,,,,,,,,,,,,,,118.83689734645,31.8488115797,0
38e625c2f29d7b69593ac80e,创源快餐配送中心,生活服务,物流公司,江苏省,南京市,江宁区,江苏省南京市江宁区蓝霞路16号,,1,0,118.839039,31.853773,13057644000,life,http://api.map.baidu.com/place/detail?uid=38e625c2f29d7b69593ac80e&output=html&source=placeapi_v2,,,0,,,,,,,6,0,,,,,,,118.83891189447,31.853782863371,0
fc1998c868e5a9898c1a890f,南京华康物流有限公司,生活服务,物流公司,江苏省,南京市,雨花台区,南京市雨花台区G205,fc1998c868e5a9898c1a890f,1,0,118.616066,31.888151,,life,http://api.map.baidu.com/place/detail?uid=fc1998c868e5a9898c1a890f&output=html&source=placeapi_v2,,09:00-19:00,,,,,,,,,,,,,,,,118.61579947979,31.888978603332,0
55feb2b1471aef4529fc48f2,圆通速递(梅山服务网点),生活服务,物流公司,江苏省,南京市,雨花台区,江苏省南京市雨花台区中兴路9栋2号,55feb2b1471aef4529fc48f2,1,0,118.635518,31.907013,13814546700,life,http://api.map.baidu.com/place/detail?uid=55feb2b1471aef4529fc48f2&output=html&source=placeapi_v2,,09:00-19:00,5,,,,,,,14,1,,,,,,,118.63542962038,31.907087425057,0
ae758312b8377dda11882459,南京驰路冷链物,生活服务,物流公司,江苏省,南京市,江宁区,南京市江宁区X028,,1,0,118.687219,31.887157,"13912975791,15861807283",life,http://api.map.baidu.com/place/detail?uid=ae758312b8377dda11882459&output=html&source=placeapi_v2,,,,,,,,,,3,,,,,,,,,,0
db1f39d4d0ed836ff5c59c71,天地华宇物流(聚缘路店),生活服务,物流公司,江苏省,南京市,江宁区,江苏省南京市江宁区聚缘路9号,,1,0,118.701912,31.878931,4008086666,life,http://api.map.baidu.com/place/detail?uid=db1f39d4d0ed836ff5c59c71&output=html&source=placeapi_v2,,08:00-18:30,0.0,,,,,,,7,,,,,,,,118.70149881656,31.878858565309,0
bb92971978859f344d776e02,樟赣物流有限公司(南京办事处),生活服务,物流公司,江苏省,南京市,江宁区,南京市江宁区水长街禾浩大厦东南侧约210米,,1,0,118.775935,31.89786,15692115067,life,http://api.map.baidu.com/place/detail?uid=bb92971978859f344d776e02&output=html&source=placeapi_v2,,,,,,,,,,,,,,,,,,,,0
df832a6c1bb401290482c239,菲尼克斯亚太物流公司,生活服务,物流公司,江苏省,南京市,江宁区,江苏省南京市江宁区苏源大道68号,df832a6c1bb401290482c239,1,0,118.810468,31.891455,,life,http://api.map.baidu.com/place/detail?uid=df832a6c1bb401290482c239&output=html&source=placeapi_v2,,09:00-19:00,,,,,,,,,,,,,,,,118.81046797485,31.89107366175,0
b1c62eedcb7a49c443afe618,中国外运,生活服务,物流公司,江苏省,南京市,江宁区,江苏省南京市江宁区苏源大道68号南京综合保税区管委会大厦a3库7楼,b1c62eedcb7a49c443afe618,1,0,118.81187,31.891263,(025)87195282,life,http://api.map.baidu.com/place/detail?uid=b1c62eedcb7a49c443afe618&output=html&source=placeapi_v2,,08:00-18:00,0,,,,,,,0,0,,,,,,,118.81214484803,31.891268250847,0
7fd72311bc63e89f5cbe8670,东腾物流(南高东路店),生活服务,物流公司,江苏省,南京市,江宁区,江苏省南京市江宁区双龙大道2889号,7fd72311bc63e89f5cbe8670,1,0,118.837741,31.890449,(025)52728027,life,http://api.map.baidu.com/place/detail?uid=7fd72311bc63e89f5cbe8670&output=html&source=placeapi_v2,,08:00-18:00,,,,,,,,5,,,,,,,,118.83762618842,31.890444773953,0
a89c3bed66fd4bfa223bf241,江苏省圆通速递有限公司,生活服务,物流公司,江苏省,南京市,江宁区,江苏省南京市江宁区铺岗街419号,a89c3bed66fd4bfa223bf241,1,1,118.843195,31.895417,,life,http://api.map.baidu.com/place/detail?uid=a89c3bed66fd4bfa223bf241&output=html&source=placeapi_v2,,00:00-24:00,0,,,,,,,2,1,,,,,,,118.8427287299,31.896620770828,1
e9a8a66fd603d91e9e95de1d,顺丰速运(南京江宁东大商业街营业点),生活服务,物流公司,江苏省,南京市,江宁区,江苏省南京市江宁区东南大学路东大商业街C2-3幢,e9a8a66fd603d91e9e95de1d,1,0,118.829373,31.88663,95338,life,http://api.map.baidu.com/place/detail?uid=e9a8a66fd603d91e9e95de1d&output=html&source=placeapi_v2,,08:00-20:00,0,,,,,,,1,0,,,,,,,118.82937009424,31.886708604163,0
a8f9a43e1bfaeaf938221c93,日日顺物流(南京江宁仓),生活服务,物流公司,江苏省,南京市,江宁区,南京市江宁区瑞泰路南京中南英力新能源有限公司,,1,0,118.980026,31.890888,,life,http://api.map.baidu.com/place/detail?uid=a8f9a43e1bfaeaf938221c93&output=html&source=placeapi_v2,,,,,,,,,,,,,,,,,,,,0
b493d766f2b522c82b11d1d0,金三角物流,生活服务,物流公司,江苏省,南京市,江宁区,江苏省南京市江宁区金阳路1号,,1,0,118.974754,31.881525,,life,http://api.map.baidu.com/place/detail?uid=b493d766f2b522c82b11d1d0&output=html&source=placeapi_v2,,08:00-18:00,,,,,,,,1,,,,,,,,118.97481183783,31.881547727659,0
7bfa08fc9bade07f25d2bb73,南京金三角仓储物流有限公司,生活服务,物流公司,江苏省,南京市,江宁区,江苏省南京市江宁区金阳路1号,7bfa08fc9bade07f25d2bb73,1,1,118.976494,31.881393,(025)52690058,life,http://api.map.baidu.com/place/detail?uid=7bfa08fc9bade07f25d2bb73&output=html&source=placeapi_v2,,09:00-19:00,5.0,,,,,,,1,1,,,,,,,118.9765061633,31.881305702493,1
fae86e7ac2e24ecbcd04ef7f,恒江港物流,生活服务,物流公司,江苏省,南京市,雨花台区,江苏省南京市雨花台区板桥街道九号路南京市三山码头南,fae86e7ac2e24ecbcd04ef7f,1,1,118.614806,31.923201,,life,http://api.map.baidu.com/place/detail?uid=fae86e7ac2e24ecbcd04ef7f&output=html&source=placeapi_v2,,09:00-19:00,,,,,,,,,,,,,,,,118.6149248512,31.923099645905,1
55feb2b1471aef4529fc48f2,圆通速递(梅山服务网点),生活服务,物流公司,江苏省,南京市,雨花台区,江苏省南京市雨花台区中兴路9栋2号,55feb2b1471aef4529fc48f2,1,0,118.635518,31.907013,13814546700,life,http://api.map.baidu.com/place/detail?uid=55feb2b1471aef4529fc48f2&output=html&source=placeapi_v2,,09:00-19:00,5,,,,,,,14,1,,,,,,,118.63542962038,31.907087425057,0
51c1719c68db6b728c1a89b4,梅钢铁梅公司储运中心,生活服务,物流公司,江苏省,南京市,雨花台区,雄风路88-3号附近,51c1719c68db6b728c1a89b4,1,0,118.665346,31.923974,,life,http://api.map.baidu.com/place/detail?uid=51c1719c68db6b728c1a89b4&output=html&source=placeapi_v2,,08:00-18:00,0.0,,,,,,,0,,,,,,,,,,0
4362bc6adc27da10c27da2b8,南京运臻达物流有限公司,生活服务,物流公司,江苏省,南京市,雨花台区,南京市雨花台区工兵路69-5临,4362bc6adc27da10c27da2b8,1,0,118.663661,31.925317,,life,http://api.map.baidu.com/place/detail?uid=4362bc6adc27da10c27da2b8&output=html&source=placeapi_v2,,08:00-18:00,,,,,,,,10,,,,,,,,,,0
5d9b7065436fdb1dc51e514b,中通雨花公司,生活服务,物流公司,江苏省,南京市,雨花台区,江苏省南京市雨花台区大周路170号,5d9b7065436fdb1dc51e514b,1,0,118.741035,31.935574,,life,http://api.map.baidu.com/place/detail?uid=5d9b7065436fdb1dc51e514b&output=html&source=placeapi_v2,,08:30-20:30,,,,,,,,,,,,,,,,118.74108004377,31.935493792288,0
34e48508b3fcc19cd9d89182,长安民生住久物流公司,生活服务,物流公司,江苏省,南京市,江宁区,江苏省南京市江宁区清水亭西路222号,34e48508b3fcc19cd9d89182,1,0,118.805372,31.911599,(025)52789724,life,http://api.map.baidu.com/place/detail?uid=34e48508b3fcc19cd9d89182&output=html&source=placeapi_v2,,08:30-17:30,5,,,,,,,0,3,,,,,,,118.80681426631,31.912506761399,0
744a3034b76ab798a8f72902,万科金域蓝湾2期速递易,生活服务,物流公司,江苏省,南京市,江宁区,江苏省南京市江宁区清水亭东路9号,744a3034b76ab798a8f72902,1,0,118.843411,31.925778,,life,http://api.map.baidu.com/place/detail?uid=744a3034b76ab798a8f72902&output=html&source=placeapi_v2,,,,,,,,,,,,,,,,,,118.84343026608,31.925522578299,0
84b497c38bc034dfcb2915ef,南京天晟运输有限公司,生活服务,物流公司,江苏省,南京市,江宁区,江苏省南京市江宁区潭桥商业街106-1号,84b497c38bc034dfcb2915ef,1,0,118.85395,31.928086,,life,http://api.map.baidu.com/place/detail?uid=84b497c38bc034dfcb2915ef&output=html&source=placeapi_v2,,09:00-19:00,,,,,,,,13,,,,,,,,118.85388524686,31.928272181296,0
abcbe967d20060e00bb93a58,江苏省医药公司医药物流中心,生活服务,物流公司,江苏省,南京市,江宁区,江苏省南京市江宁区开源路288号,abcbe967d20060e00bb93a58,1,1,118.867095,31.924243,,life,http://api.map.baidu.com/place/detail?uid=abcbe967d20060e00bb93a58&output=html&source=placeapi_v2,,08:00-18:00,5,,,,,,,3,2,,,,,,,118.86772901062,31.924582583422,1
6cb44e8a75389a04d7851fbc,江苏雁波物流有限公司(善鉴路店),生活服务,物流公司,江苏省,南京市,江宁区,江苏省南京市江宁区善鉴路9号,6cb44e8a75389a04d7851fbc,1,0,118.8825,31.931937,,life,http://api.map.baidu.com/place/detail?uid=6cb44e8a75389a04d7851fbc&output=html&source=placeapi_v2,,09:00-19:00,0,,,,,,,3,0,,,,,,,118.8826279896,31.931872953812,0
b29c84c378e8a19e44e2744c,江苏宇鑫物流有限公司(总部),生活服务,物流公司,江苏省,南京市,江宁区,江苏省南京市江宁区樵歌路10号,b29c84c378e8a19e44e2744c,1,1,118.915599,31.930119,(025)68223003,life,http://api.map.baidu.com/place/detail?uid=b29c84c378e8a19e44e2744c&output=html&source=placeapi_v2,,08:00-18:00,0.0,,,,,,,0,,,,,,,,118.91407170884,31.931080257943,1
f92dc644e97ef78f4e2fdf90,新杰物流(虎啸路店),生活服务,物流公司,江苏省,南京市,江宁区,南京市江宁区淳化街道淳化工业园(田园方向500米处),f92dc644e97ef78f4e2fdf90,1,1,118.949787,31.928974,,life,http://api.map.baidu.com/place/detail?uid=f92dc644e97ef78f4e2fdf90&output=html&source=placeapi_v2,,09:00-19:00,,,,,,,,,,,,,,,,118.94969901651,31.9290870308,1
a81c6c1a97881ddcf42310a3,中通快递(江宁分公司),生活服务,物流公司,江苏省,南京市,江宁区,南京市江宁区京岚线南京交通技师学院(金陵校区),a81c6c1a97881ddcf42310a3,1,0,118.974491,31.938239,95311,life,http://api.map.baidu.com/place/detail?uid=a81c6c1a97881ddcf42310a3&output=html&source=placeapi_v2,,09:00-18:00,,,,,,,,10,,,,,,,,118.97438608773,31.938308265189,0
72e7ba166e9b6772c056aca6,物流中心,生活服务,物流公司,江苏省,南京市,雨花台区,江苏省南京市雨花台区弘阳装饰城物流中心,,1,0,118.669163,31.946477,,life,http://api.map.baidu.com/place/detail?uid=72e7ba166e9b6772c056aca6&output=html&source=placeapi_v2,,,,,,,,,,,,,,,,,,,,0
c59036b56002f587b13c81d8,福建交通物流有限公司(南京办事处),生活服务,物流公司,江苏省,南京市,雨花台区,雨花经济开发区红太阳装饰城C1区,c59036b56002f587b13c81d8,1,0,118.669014,31.946727,13813381367,life,http://api.map.baidu.com/place/detail?uid=c59036b56002f587b13c81d8&output=html&source=placeapi_v2,,09:00-19:00,,,,,,,,11,,,,,,,,118.66912127101,31.946798428051,0
bdf3550005c1211ad4b74e01,名门航财物流,生活服务,物流公司,江苏省,南京市,雨花台区,南京市雨花台区唐山路弘阳装饰城,bdf3550005c1211ad4b74e01,1,0,118.668777,31.946224,"18036927999,18071676666",life,http://api.map.baidu.com/place/detail?uid=bdf3550005c1211ad4b74e01&output=html&source=placeapi_v2,,09:00-19:00,,,,,,,,13,,,,,,,,118.66886729399,31.946131012758,0
c962861d20b3f998e0110340,硕捷物流,生活服务,物流公司,江苏省,南京市,雨花台区,南京市雨花台区唐山路弘阳装饰城,,1,0,118.668764,31.946202,,life,http://api.map.baidu.com/place/detail?uid=c962861d20b3f998e0110340&output=html&source=placeapi_v2,,,,,,,,,,,,,,,,,,,,0
ebfa24f58dd7f1841ef74d36,小王物流,生活服务,物流公司,江苏省,南京市,雨花台区,南京市雨花台区唐山路弘阳装饰城,,1,0,118.668804,31.946207,"18175263588,18226807851",life,http://api.map.baidu.com/place/detail?uid=ebfa24f58dd7f1841ef74d36&output=html&source=placeapi_v2,,08:00-19:00,,,,,,,,7,,,,,,,,118.6689455876,31.946188626963,0
5ccad44419e40b13ad045793,榕捷物流南京站,生活服务,物流公司,江苏省,南京市,雨花台区,南京市雨花台区唐山路弘阳装饰城,,1,0,118.668272,31.946127,"(025)66925797,13851814523",life,http://api.map.baidu.com/place/detail?uid=5ccad44419e40b13ad045793&output=html&source=placeapi_v2,,,,,,,,,,6,,,,,,,,118.66852393557,31.946183815759,0
d47a305d5ae0fc7788db7306,明威物流,生活服务,物流公司,江苏省,南京市,雨花台区,南京市雨花台区唐山路弘阳装饰城,,1,0,118.668943,31.946292,"15861807655,18951099069",life,http://api.map.baidu.com/place/detail?uid=d47a305d5ae0fc7788db7306&output=html&source=placeapi_v2,,09:00-19:00,,,,,,,,10,,,,,,,,118.66900380139,31.946230692471,0
bbba477a63e19d62c1f1cf81,路路快运,生活服务,物流公司,江苏省,南京市,雨花台区,南京市雨花台区唐山路弘阳装饰城,,1,0,118.66884,31.946224,18260032711,life,http://api.map.baidu.com/place/detail?uid=bbba477a63e19d62c1f1cf81&output=html&source=placeapi_v2,,,,,,,,,,7,,,,,,,,118.66890495006,31.946159262375,0
d672c6dfa330bf799d95debc,好全汇家装一站式配送中心,生活服务,物流公司,江苏省,南京市,雨花台区,南京市雨花台区深圳东路弘阳装饰城,,1,0,118.677883,31.942927,"13400076766,13851826817",life,http://api.map.baidu.com/place/detail?uid=d672c6dfa330bf799d95debc&output=html&source=placeapi_v2,,08:30-17:30,,,,,,,,9,,,,,,,,118.67791614997,31.942894613073,0
a9e4c3e603b7a1f2b817e748,南京中直阁冷链仓储配送中心,生活服务,物流公司,江苏省,南京市,雨花台区,南京市雨花台区古遗井33号,,1,0,118.685803,31.945203,,life,http://api.map.baidu.com/place/detail?uid=a9e4c3e603b7a1f2b817e748&output=html&source=placeapi_v2,,,,,,,,,,,,,,,,,,118.68507641114,31.944989457772,0
7353ef2f14cbc4412ce67b19,申通快递(油坊桥营业部),生活服务,物流公司,江苏省,南京市,雨花台区,江苏省南京市雨花台区龙西路199号,7353ef2f14cbc4412ce67b19,1,0,118.738014,31.964521,13515194463,life,http://api.map.baidu.com/place/detail?uid=7353ef2f14cbc4412ce67b19&output=html&source=placeapi_v2,,00:00-24:00,1,,,,,,,12,2,,,,,,,118.73775914394,31.964541167313,0
6113ef774e7856148e772769,江苏安吉零部件物流有限公司,生活服务,物流公司,江苏省,南京市,江宁区,江苏省南京市江宁区通淮街6号,6113ef774e7856148e772769,1,0,118.807821,31.957105,(025)52795778,life,http://api.map.baidu.com/place/detail?uid=6113ef774e7856148e772769&output=html&source=placeapi_v2,,08:00-18:00,4,,,,,,,2,1,,,,,,,118.80839766991,31.957107224689,0
5e314d8740a304d548cc4a8f,江苏安吉零部件物流,生活服务,物流公司,江苏省,南京市,江宁区,江苏省南京市江宁区胜太西路62号,5e314d8740a304d548cc4a8f,1,2,118.804514,31.950017,(025)52795778,life,http://api.map.baidu.com/place/detail?uid=5e314d8740a304d548cc4a8f&output=html&source=placeapi_v2,,08:00-18:00,4,,,,,,,10,2,,,,,,,118.80452466433,31.949911206566,2
215c5ea69b3745cd07026f44,高铁快递(南京南站营业部),生活服务,物流公司,江苏省,南京市,雨花台区,江苏省南京市雨花台区玉兰路98号,215c5ea69b3745cd07026f44,1,0,118.804089,31.976502,,life,http://api.map.baidu.com/place/detail?uid=215c5ea69b3745cd07026f44&output=html&source=placeapi_v2,,08:00-18:00,4.5,,,,,,,,,,,,,,,118.80372806586,31.97706130963,0
98be6aa6199f81338605bfc0,顺丰速运(百家湖速运营业点),生活服务,物流公司,江苏省,南京市,江宁区,江苏省南京市江宁区胜太西路166号,98be6aa6199f81338605bfc0,1,0,118.793899,31.950904,95338,life,http://api.map.baidu.com/place/detail?uid=98be6aa6199f81338605bfc0&output=html&source=placeapi_v2,,08:00-20:00,1,,,,,,,1,1,,,,,,,118.79412534705,31.950998175853,0
550c5f983346ed4f3617dc05,中铁快运(南京南站店),生活服务,物流公司,江苏省,南京市,雨花台区,江苏省南京市雨花台区玉兰路98号f1层,550c5f983346ed4f3617dc05,1,0,118.804108,31.976501,,life,http://api.map.baidu.com/place/detail?uid=550c5f983346ed4f3617dc05&output=html&source=placeapi_v2,,,,,,,,,,,,,,,,,,,,0
e05b90da3dad70aafda77838,顺丰速运(宏运大道店),生活服务,物流公司,江苏省,南京市,江宁区,江苏省南京市江宁区宏运大道1164号1幢114~115号,e05b90da3dad70aafda77838,1,0,118.816219,31.967194,(025)52397479,life,http://api.map.baidu.com/place/detail?uid=e05b90da3dad70aafda77838&output=html&source=placeapi_v2,,08:00-20:00,5,,,,,,,14,2,,,,,,,118.81618398746,31.967238519255,0
94fc1d15e46efb9931f71d8b,圆通速递(代收点),生活服务,物流公司,江苏省,南京市,江宁区,江苏省南京市江宁区天元东路388号,94fc1d15e46efb9931f71d8b,1,0,118.883192,31.945077,15951720182,life,http://api.map.baidu.com/place/detail?uid=94fc1d15e46efb9931f71d8b&output=html&source=placeapi_v2,,,,,,,,,,4,,,,,,,,,,0
0529132f4f77efaf843304e4,继秀干货配送,生活服务,物流公司,江苏省,南京市,江宁区,江苏省南京市江宁区天印大道天印山农贸市场45号,0529132f4f77efaf843304e4,1,0,118.867639,31.947825,(025)52171876,life,http://api.map.baidu.com/place/detail?uid=0529132f4f77efaf843304e4&output=html&source=placeapi_v2,,,,,,,,,,16,,,,,,,,118.8678282369,31.9478327082,0
47f632ca3b8d764b0d3dda4e,净菜粮油仓储配送区,生活服务,物流公司,江苏省,南京市,江宁区,江苏省南京市江宁区新亭东路天印山农贸市场6号,47f632ca3b8d764b0d3dda4e,1,0,118.865833,31.948428,,life,http://api.map.baidu.com/place/detail?uid=47f632ca3b8d764b0d3dda4e&output=html&source=placeapi_v2,,08:00-18:00,,,,,,,,,,,,,,,,118.86616879588,31.948750986623,0
b7684f5c806989b40782c28b,上海春风物流股份有限公司,生活服务,物流公司,江苏省,南京市,江宁区,江苏省南京市江宁区至道路39号,,1,0,118.925824,31.944677,(025)85356530,life,http://api.map.baidu.com/place/detail?uid=b7684f5c806989b40782c28b&output=html&source=placeapi_v2,,08:00-19:30,,,,,,,,,,,,,,,,118.92576105751,31.944683793178,0
5520c62d95d073468a2fb5e1,江苏安吉汽车物流有限公司商用车装载中心,生活服务,物流公司,江苏省,南京市,江宁区,南京市江宁区赤乌路与建衡路交叉路口西北侧,5520c62d95d073468a2fb5e1,1,0,118.912911,31.965341,,life,http://api.map.baidu.com/place/detail?uid=5520c62d95d073468a2fb5e1&output=html&source=placeapi_v2,,09:00-19:00,,,,,,,,7,,,,,,,,,,0
42e40466713e109ec4f50dfa,日烟物流,生活服务,物流公司,江苏省,南京市,江宁区,南京市江宁区望溪路日y物流公司,,1,0,118.917079,31.949931,,life,http://api.map.baidu.com/place/detail?uid=42e40466713e109ec4f50dfa&output=html&source=placeapi_v2,,,,,,,,,,,,,,,,,,,,0
6f3bd6dc968c0b089d95def5,菜鸟驿站(南京富春江东街水果店),生活服务,物流公司,江苏省,南京市,建邺区,江苏省南京市建邺区沙洲街道楠溪江东街9号途虎养车旁水果店,,1,0,118.74909,31.992982,9519666,life,http://api.map.baidu.com/place/detail?uid=6f3bd6dc968c0b089d95def5&output=html&source=placeapi_v2,,09:00-21:00,,,,,,,,,,,,,,,,,,0
215c5ea69b3745cd07026f44,高铁快递(南京南站营业部),生活服务,物流公司,江苏省,南京市,雨花台区,江苏省南京市雨花台区玉兰路98号,215c5ea69b3745cd07026f44,1,0,118.804089,31.976502,,life,http://api.map.baidu.com/place/detail?uid=215c5ea69b3745cd07026f44&output=html&source=placeapi_v2,,08:00-18:00,4.5,,,,,,,,,,,,,,,118.80372806586,31.97706130963,0
f0ef89c901d30c9efbf0cb82,德邦物流(卡子门店),生活服务,物流公司,江苏省,南京市,秦淮区,江苏省南京市秦淮区明匙路79号,f0ef89c901d30c9efbf0cb82,1,0,118.805693,32.000723,"(025)66970216,(025)66970217",life,http://api.map.baidu.com/place/detail?uid=f0ef89c901d30c9efbf0cb82&output=html&source=placeapi_v2,,08:30-20:30,3.2,,,,,,,10,10,,,,,,,118.80573445817,32.000870014228,0
dc8af729d4c882a0220220f0,京东(南京玉兰路超级站),生活服务,物流公司,江苏省,南京市,雨花台区,江苏南京市雨花台区玉兰路88号,dc8af729d4c882a0220220f0,1,0,118.799689,31.981832,,life,http://api.map.baidu.com/place/detail?uid=dc8af729d4c882a0220220f0&output=html&source=placeapi_v2,,,,,,,,,,10,,,,,,,,118.79859787005,31.982571856174,0
550c5f983346ed4f3617dc05,中铁快运(南京南站店),生活服务,物流公司,江苏省,南京市,雨花台区,江苏省南京市雨花台区玉兰路98号f1层,550c5f983346ed4f3617dc05,1,0,118.804108,31.976501,,life,http://api.map.baidu.com/place/detail?uid=550c5f983346ed4f3617dc05&output=html&source=placeapi_v2,,,,,,,,,,,,,,,,,,,,0
e21ad2433007a085bd484261,美团运力,生活服务,物流公司,江苏省,南京市,雨花台区,江苏省南京市雨花台区玉兰路99号南京明发商业广场F1南京明发商业广场F1南京明发商业广场F1,,1,0,118.804035,31.984816,,life,http://api.map.baidu.com/place/detail?uid=e21ad2433007a085bd484261&output=html&source=placeapi_v2,,,,,,,,,,5,,,,,,,,118.80437480092,31.985133324677,0
39d43f8280abe586a8059d68,南京广鑫物流有限公司,生活服务,物流公司,江苏省,南京市,江宁区,江苏省南京市江宁区前马场109-2号,39d43f8280abe586a8059d68,1,1,118.851448,31.986147,(025)51837812,life,http://api.map.baidu.com/place/detail?uid=39d43f8280abe586a8059d68&output=html&source=placeapi_v2,,08:00-18:00,,,,,,,,,,,,,,,,118.85126268165,31.986062704057,1
39d43f82f139349fa8059dd2,南京农副产品物流中心,生活服务,物流公司,江苏省,南京市,江宁区,江苏省南京市江宁区东麒路66号,39d43f82f139349fa8059dd2,1,9,118.895322,31.993764,(025)87107588,life,http://api.map.baidu.com/place/detail?uid=39d43f82f139349fa8059dd2&output=html&source=placeapi_v2,,08:00-18:00,3.8,,,,,,,1,4,,,,,,,118.8917648903,31.994869867811,9
c7e3e433be73cfb6b3077d62,泰邦物流,生活服务,物流公司,江苏省,南京市,江宁区,江苏省南京市江宁区万泰路89号,c7e3e433be73cfb6b3077d62,1,0,118.878546,31.998377,(025)66652666,life,http://api.map.baidu.com/place/detail?uid=c7e3e433be73cfb6b3077d62&output=html&source=placeapi_v2,,,,,,,,,,1,,,,,,,,118.87865284579,31.99847414982,0
2585208aee81a34adc1e5204,南京祥瑞(集团)仓储冷链物流配送中心,生活服务,物流公司,江苏省,南京市,江宁区,江苏省南京市江宁区临麒路131号,2585208aee81a34adc1e5204,1,0,118.872475,31.99906,,life,http://api.map.baidu.com/place/detail?uid=2585208aee81a34adc1e5204&output=html&source=placeapi_v2,,09:00-19:00,,,,,,,,10,,,,,,,,118.87232917393,31.999086091188,0
0c9847f4f5a61c83bbbd63e1,中通快递(南京白下新街营业部),生活服务,物流公司,江苏省,南京市,江宁区,江苏省南京市江宁区润麒路68号,0c9847f4f5a61c83bbbd63e1,1,0,118.87334,31.994532,95311,life,http://api.map.baidu.com/place/detail?uid=0c9847f4f5a61c83bbbd63e1&output=html&source=placeapi_v2,,09:00-18:00,0,,,,,,,8,1,,,,,,,118.87325516513,31.994436256741,0
161be04f8910ea619ff77947,南京众彩农副产品配送公司,生活服务,物流公司,江苏省,南京市,江宁区,江苏省南京市江宁区东麒路66号,161be04f8910ea619ff77947,1,0,118.892871,31.990602,13851640866,life,http://api.map.baidu.com/place/detail?uid=161be04f8910ea619ff77947&output=html&source=placeapi_v2,,08:00-18:00,3.5,,,,,,,3,,,,,,,,118.89275391119,31.990473490658,0
2dfaf642f5447c76b5f42f71,南京嘉顺纸业有限公司物流仓库,生活服务,物流公司,江苏省,南京市,江宁区,江苏省南京市江宁区上高路南京智通工业炉(宅急送东50米),2dfaf642f5447c76b5f42f71,1,0,118.868672,31.990503,,life,http://api.map.baidu.com/place/detail?uid=2dfaf642f5447c76b5f42f71&output=html&source=placeapi_v2,,09:00-19:00,,,,,,,,,,,,,,,,118.86861861065,31.990444138379,0
73f3876a56067e37ae04574e,宅急送(江苏分公司),生活服务,物流公司,江苏省,南京市,江宁区,江苏省南京市江宁区润发路188号4楼,73f3876a56067e37ae04574e,1,1,118.867551,31.99071,,life,http://api.map.baidu.com/place/detail?uid=73f3876a56067e37ae04574e&output=html&source=placeapi_v2,,,0,,,,,,,6,0,,,,,,,118.86767981761,31.990597552297,1
b364bfb3a9fc9279c72ba1da,顺丰速运(白下高新营业点),生活服务,物流公司,江苏省,南京市,秦淮区,江苏省南京市秦淮区石杨路111号银龙鑫苑5期1-06号,b364bfb3a9fc9279c72ba1da,1,0,118.872737,32.007848,(025)83302893,life,http://api.map.baidu.com/place/detail?uid=b364bfb3a9fc9279c72ba1da&output=html&source=placeapi_v2,,08:00-20:00,,,,,,,,20,,,,,,,,118.87291979714,32.007844593096,0
cd4a7cb507cc0e1a1c1d1147,千万家配送中心,生活服务,物流公司,江苏省,南京市,江宁区,江苏省南京市江宁区润发路322号,cd4a7cb507cc0e1a1c1d1147,1,1,118.86723,31.989715,,life,http://api.map.baidu.com/place/detail?uid=cd4a7cb507cc0e1a1c1d1147&output=html&source=placeapi_v2,,09:00-19:00,,,,,,,,12,,,,,,,,118.86718076848,31.989766482589,1
858ecad648c28e9e1d5800cd,中天纸业百货配送中心,生活服务,物流公司,江苏省,南京市,江宁区,南京市江宁区众彩物流E区314号,858ecad648c28e9e1d5800cd,1,0,118.897131,31.996853,(025)87152060,life,http://api.map.baidu.com/place/detail?uid=858ecad648c28e9e1d5800cd&output=html&source=placeapi_v2,,,,,,,,,,3,,,,,,,,,,0
cbeea5a4a44ec7e7ca1b95f2,务实物流,生活服务,物流公司,江苏省,南京市,江宁区,南京市江宁区众彩路南京农副产品物流中心,,1,0,118.901363,31.994477,,life,http://api.map.baidu.com/place/detail?uid=cbeea5a4a44ec7e7ca1b95f2&output=html&source=placeapi_v2,,,,,,,,,,6,,,,,,,,118.90063185379,31.994671845358,0
dc30150d06a304d0c3364440,南京浩博物流有限公司汤山溢洪河基地,生活服务,物流公司,江苏省,南京市,江宁区,江苏省南京市江宁区万宁路,,1,0,119.089691,31.993613,,life,http://api.map.baidu.com/place/detail?uid=dc30150d06a304d0c3364440&output=html&source=placeapi_v2,,08:00-19:00,,,,,,,,,,,,,,,,119.0896030417,31.993627654435,0
f71d2be0dbca7e142806ce3c,顺丰速运(乐山路店),生活服务,物流公司,江苏省,南京市,建邺区,江苏省南京市建邺区乐山路180号,f71d2be0dbca7e142806ce3c,1,0,118.724313,32.015467,(025)87760157,life,http://api.map.baidu.com/place/detail?uid=f71d2be0dbca7e142806ce3c&output=html&source=placeapi_v2,,08:00-20:00,0.0,,,,,,,,0,,,,,,,118.72419827635,32.015505418641,0
5e52647a0cc44cb6a8f729f1,申通物流,生活服务,物流公司,江苏省,南京市,建邺区,江苏省南京市建邺区所街82号,5e52647a0cc44cb6a8f729f1,1,0,118.755904,32.02714,19941528658,life,http://api.map.baidu.com/place/detail?uid=5e52647a0cc44cb6a8f729f1&output=html&source=placeapi_v2,,08:30-17:30,5,,,,,,,12,2,,,,,,,118.75612916554,32.026838138548,0
3b01d96d06846521725e80e1,中国邮政速递物流(江苏省分公司),生活服务,物流公司,江苏省,南京市,建邺区,江苏南京市建邺区兴隆大街151号,3b01d96d06846521725e80e1,1,0,118.739957,32.020197,,life,http://api.map.baidu.com/place/detail?uid=3b01d96d06846521725e80e1&output=html&source=placeapi_v2,,08:00-18:00,,,,,,,,7,,,,,,,,118.74006778731,32.02031121663,0
5f6799f1e31718592811d14a,连万家配送中心,生活服务,物流公司,江苏省,南京市,建邺区,南京市建邺区长虹路47-8号,5f6799f1e31718592811d14a,1,0,118.773229,32.033862,"(025)86529918,(025)86666418",life,http://api.map.baidu.com/place/detail?uid=5f6799f1e31718592811d14a&output=html&source=placeapi_v2,,06:00-18:00,0,,,,,,,18,1,,,,,,,,,0
3d8b5a25aa9ec62fa8175a5e,顺丰速运(太平南路营业部),生活服务,物流公司,江苏省,南京市,秦淮区,江苏省南京市秦淮区太平南路477号,3d8b5a25aa9ec62fa8175a5e,1,0,118.797159,32.033432,95338,life,http://api.map.baidu.com/place/detail?uid=3d8b5a25aa9ec62fa8175a5e&output=html&source=placeapi_v2,,08:00-20:00,1.2,,,,,,,5,5,,,,,,,118.79704609848,32.033349198234,0
a4a59aa46f593e94c7f50d8d,南京速腾物流有限公司,生活服务,物流公司,江苏省,南京市,秦淮区,南京市秦淮区升州路3号楼17层1708室,a4a59aa46f593e94c7f50d8d,1,0,118.79042,32.029006,(025)52306036,life,http://api.map.baidu.com/place/detail?uid=a4a59aa46f593e94c7f50d8d&output=html&source=placeapi_v2,,09:00-19:00,,,,,,,,,,,,,,,,,,0
f0b7f0b7d0898f9aa20464eb,凝结国际物流,生活服务,物流公司,江苏省,南京市,秦淮区,中华路166号中华路商务楼5层,f0b7f0b7d0898f9aa20464eb,1,0,118.791148,32.030404,,life,http://api.map.baidu.com/place/detail?uid=f0b7f0b7d0898f9aa20464eb&output=html&source=placeapi_v2,,08:00-18:00,4.0,,,,,,,1,1,,,,,,,118.79131610318,32.030280784682,0
2b94070d0e93c486128824e0,美集物流运输(中国)有限公司(南京分公司),生活服务,物流公司,江苏省,南京市,秦淮区,江苏省南京市秦淮区中山南路414号投资大厦d座12楼,,1,0,118.787224,32.028925,,life,http://api.map.baidu.com/place/detail?uid=2b94070d0e93c486128824e0&output=html&source=placeapi_v2,,08:30-21:00,,,,,,,,,,,,,,,,,,0
df2e57c60c05d3a7c16c1463,中外远化工国际物流有限公司(南京分公司),生活服务,物流公司,江苏省,南京市,秦淮区,江苏省南京市秦淮区中山南路414号投资大厦20楼,df2e57c60c05d3a7c16c1463,1,0,118.787224,32.028925,,life,http://api.map.baidu.com/place/detail?uid=df2e57c60c05d3a7c16c1463&output=html&source=placeapi_v2,,08:00-18:00,,,,,,,,0,,,,,,,,,,0
eb6aae207c1ea8551129359d,南京新空间国际物流有限公司,生活服务,物流公司,江苏省,南京市,秦淮区,江苏省南京市秦淮区中山南路315号瑞华大厦9层901室,eb6aae207c1ea8551129359d,1,0,118.789566,32.032133,,life,http://api.map.baidu.com/place/detail?uid=eb6aae207c1ea8551129359d&output=html&source=placeapi_v2,,08:00-18:00,0,,,,,,,1,0,,,,,,,118.78937976253,32.032188127052,0
3dcc101a6d251621cae33c3a,南京沽晨货运代理有限公司,生活服务,物流公司,江苏省,南京市,秦淮区,南京市秦淮区箍桶巷43号1幢402室,,1,0,118.795232,32.021898,,life,http://api.map.baidu.com/place/detail?uid=3dcc101a6d251621cae33c3a&output=html&source=placeapi_v2,,,,,,,,,,,,,,,,,,,,0
ea1d934586f09a081cf74ddd,京东(剪子巷),生活服务,物流公司,江苏省,南京市,秦淮区,江苏省南京市秦淮区剪子巷41号,ea1d934586f09a081cf74ddd,1,0,118.79325,32.019625,,life,http://api.map.baidu.com/place/detail?uid=ea1d934586f09a081cf74ddd&output=html&source=placeapi_v2,,08:00-20:00,0,,,,,,,0,0,,,,,,,118.79320646585,32.019462312915,0
2927f9b85a409decf02d837b,南京联众快运物流公司,生活服务,物流公司,江苏省,南京市,秦淮区,南京市秦淮区中山南路239号盛天大厦7层706室,2927f9b85a409decf02d837b,1,0,118.791136,32.038537,,life,http://api.map.baidu.com/place/detail?uid=2927f9b85a409decf02d837b&output=html&source=placeapi_v2,,09:00-19:00,,,,,,,,,,,,,,,,118.7913150279,32.038723543704,0
742674023b659812d8d891c0,亚东朗升国际物流,生活服务,物流公司,江苏省,南京市,秦淮区,南京市秦淮区中山南路315号瑞华大厦12层,742674023b659812d8d891c0,1,0,118.789566,32.032134,,life,http://api.map.baidu.com/place/detail?uid=742674023b659812d8d891c0&output=html&source=placeapi_v2,,08:00-18:00,,,,,,,,1,,,,,,,,118.789367003,32.032190057518,0
ef2338b176a7bce240e19267,迅达航空货运(香港)有限公司(南京办事处),生活服务,物流公司,江苏省,南京市,秦淮区,江苏省南京市秦淮区中山南路224号诺亚实业商务大厦3层,ef2338b176a7bce240e19267,1,0,118.790192,32.040623,,life,http://api.map.baidu.com/place/detail?uid=ef2338b176a7bce240e19267&output=html&source=placeapi_v2,,08:00-18:00,0,,,,,,,1,0,,,,,,,118.79026355052,32.040438582498,0
40223ed0a83e970ec51b757b,顺丰速运(柳叶街营业部),生活服务,物流公司,江苏省,南京市,秦淮区,江苏省南京市秦淮区柳叶街135-2-3号,40223ed0a83e970ec51b757b,1,0,118.779518,32.032606,(025)52642105,life,http://api.map.baidu.com/place/detail?uid=40223ed0a83e970ec51b757b&output=html&source=placeapi_v2,,08:00-20:00,0,,,,,,,4,2,,,,,,,118.77964124687,32.032737584577,0
6b537bfb1d17ebb609a8d432,晓东农副产品配送有限公司,生活服务,物流公司,江苏省,南京市,秦淮区,江苏省南京市秦淮区科巷菜场南门(大行宫地铁站出入口步行410米),,1,0,118.802438,32.04451,,life,http://api.map.baidu.com/place/detail?uid=6b537bfb1d17ebb609a8d432&output=html&source=placeapi_v2,,,,,,,,,,3,,,,,,,,118.80250347783,32.044582950216,0
ecd69c103f8d5063fa42b285,建邺向中通NO.02515(建邺向分部),生活服务,物流公司,江苏省,南京市,秦淮区,江苏省南京市秦淮区柳叶街11号2楼,ecd69c103f8d5063fa42b285,1,0,118.783463,32.029403,(025)52244150,life,http://api.map.baidu.com/place/detail?uid=ecd69c103f8d5063fa42b285&output=html&source=placeapi_v2,,09:00-18:00,2,,,,,,,6,5,,,,,,,,,0
36d9aba94b71fd3331870a92,申通快递(南京秦虹分部),生活服务,物流公司,江苏省,南京市,秦淮区,江苏省南京市秦淮区应天大街128号,36d9aba94b71fd3331870a92,1,0,118.809044,32.012595,"4008895543,95543",life,http://api.map.baidu.com/place/detail?uid=36d9aba94b71fd3331870a92&output=html&source=placeapi_v2,,07:00-22:00,5,,,,,,,7,1,,,,,,,118.80909602968,32.012477742521,0
5062cc44752773394054d77b,菜鸟驿站(苏宁生活广场店),生活服务,物流公司,江苏省,南京市,秦淮区,江苏省南京市秦淮区龙淮海路68号,,1,0,118.793186,32.042711,,life,http://api.map.baidu.com/place/detail?uid=5062cc44752773394054d77b&output=html&source=placeapi_v2,,,,,,,,,,,,,,,,,,118.79267452975,32.043077077095,0
d127fdf26a5fd3f90782c20d,中通快递(南京秦淮二部),生活服务,物流公司,江苏省,南京市,秦淮区,南京市秦淮区边营100-1号,d127fdf26a5fd3f90782c20d,1,0,118.797647,32.016101,95311,life,http://api.map.baidu.com/place/detail?uid=d127fdf26a5fd3f90782c20d&output=html&source=placeapi_v2,,08:30-17:30,0,,,,,,,13,1,,,,,,,118.79768601539,32.016172526523,0
307b40c1360703d77369d3be,中国邮政速递物流股份有限公司南京分公司(同城业务分公司),生活服务,物流公司,江苏省,南京市,秦淮区,南京市秦淮区苜蓿园大街98阳光公寓西北侧,307b40c1360703d77369d3be,1,0,118.837797,32.034271,,life,http://api.map.baidu.com/place/detail?uid=307b40c1360703d77369d3be&output=html&source=placeapi_v2,,09:00-17:00,,,,,,,,11,,,,,,,,118.83772508826,32.034284083041,0
ea4a3dc9aa9b5f2e4e55477e,中国邮政速递物流苜蓿园揽投部,生活服务,物流公司,江苏省,南京市,秦淮区,江苏省南京市秦淮区苜蓿园大街128号,ea4a3dc9aa9b5f2e4e55477e,1,0,118.837814,32.034479,,life,http://api.map.baidu.com/place/detail?uid=ea4a3dc9aa9b5f2e4e55477e&output=html&source=placeapi_v2,,09:00-17:00,1.2,,,,,,,11,11,,,,,,,118.83774926436,32.034456251379,0
7a74714c2e7b279b343a7158,汇通达,生活服务,物流公司,江苏省,南京市,玄武区,江苏省南京市玄武区钟灵街50号a座,7a74714c2e7b279b343a7158,1,0,118.881327,32.04472,,life,http://api.map.baidu.com/place/detail?uid=7a74714c2e7b279b343a7158&output=html&source=placeapi_v2,,,,,,,,,,4,,,,,,,,118.88132708063,32.044720139867,0
9a853ed0d5045d69d0f49e81,上海维尔物流有限公司(南京分公司),生活服务,物流公司,江苏省,南京市,江宁区,江苏省南京市江宁区天和路8号,9a853ed0d5045d69d0f49e81,1,0,118.926027,32.038975,(025)84193660,life,http://api.map.baidu.com/place/detail?uid=9a853ed0d5045d69d0f49e81&output=html&source=placeapi_v2,,08:00-18:00,,,,,,,,,,,,,,,,118.92615449916,32.038832751904,0
9c485c48c39e0104f603b81d,望达物流(天泉路店),生活服务,物流公司,江苏省,南京市,江宁区,江苏省南京市江宁区天泉路1号,9c485c48c39e0104f603b81d,1,0,118.930879,32.041074,(025)85237011,life,http://api.map.baidu.com/place/detail?uid=9c485c48c39e0104f603b81d&output=html&source=placeapi_v2,,08:00-18:00,,,,,,,,19,,,,,,,,118.93083642697,32.04111483435,0
e9a7dba275cb7d3263180923,日运达物流公司,生活服务,物流公司,江苏省,南京市,江宁区,江苏省南京市江宁区X001,,1,0,118.927403,32.036383,,life,http://api.map.baidu.com/place/detail?uid=e9a7dba275cb7d3263180923&output=html&source=placeapi_v2,,,,,,,,,,,,,,,,,,,,0
1816bbc5bfc06db65a10937f,南京春力贸易有限公司商超配送中心,生活服务,物流公司,江苏省,南京市,江宁区,宝善寺路,,1,0,118.911088,32.017866,,life,http://api.map.baidu.com/place/detail?uid=1816bbc5bfc06db65a10937f&output=html&source=placeapi_v2,,,,,,,,,,5,,,,,,,,118.91097757457,32.017843159449,0
14e959c7501abf86dc1e5207,天际通物流有限公司,生活服务,物流公司,江苏省,南京市,江宁区,江苏省南京市江宁区天泉路1号,,1,0,118.932232,32.040613,"15261408261,18260062506",life,http://api.map.baidu.com/place/detail?uid=14e959c7501abf86dc1e5207&output=html&source=placeapi_v2,,,,,,,,,,11,,,,,,,,,,0
4314b800163d638eb54f540e,江苏双和物流仓储有限公司,生活服务,物流公司,江苏省,南京市,江宁区,恒远物流园4号库,,1,0,118.909756,32.017885,,life,http://api.map.baidu.com/place/detail?uid=4314b800163d638eb54f540e&output=html&source=placeapi_v2,,,,,,,,,,,,,,,,,,,,0
90f264286cc566a7901fc9a0,安能物流(天和路店),生活服务,物流公司,江苏省,南京市,江宁区,天和路8号万家物流园内,,1,0,118.928566,32.03772,,life,http://api.map.baidu.com/place/detail?uid=90f264286cc566a7901fc9a0&output=html&source=placeapi_v2,,,,,,,,,,,,,,,,,,,,0
36a35e78ae32a27731f71d96,江苏省邮政速递物流有限公司(南京分公司),生活服务,物流公司,江苏省,南京市,鼓楼区,江苏南京市鼓楼区江东北路202号601室,36a35e78ae32a27731f71d96,1,0,118.746626,32.056118,,life,http://api.map.baidu.com/place/detail?uid=36a35e78ae32a27731f71d96&output=html&source=placeapi_v2,,08:30-17:30,3.0,,,,,,,14,,,,,,,,,,0
e7d96f1cb2645a6f7adbd288,圆通速递(虎踞路店),生活服务,物流公司,江苏省,南京市,鼓楼区,江苏省南京市鼓楼区红土山5号,e7d96f1cb2645a6f7adbd288,1,0,118.768434,32.051149,95554,life,http://api.map.baidu.com/place/detail?uid=e7d96f1cb2645a6f7adbd288&output=html&source=placeapi_v2,,09:00-19:00,0,,,,,,,6,3,,,,,,,,,0
2c81cbb8b76ba42e9c09f788,顺丰速运(内环西线店),生活服务,物流公司,江苏省,南京市,鼓楼区,江苏省南京市鼓楼区虎踞北路4号,2c81cbb8b76ba42e9c09f788,1,0,118.762789,32.068708,95338,life,http://api.map.baidu.com/place/detail?uid=2c81cbb8b76ba42e9c09f788&output=html&source=placeapi_v2,,08:00-20:00,0,,,,,,,8,2,,,,,,,118.76267500011,32.068756023073,0
cc50ede7b1c0ad8b9a0050d4,增益速递(鼓楼分公司),生活服务,物流公司,江苏省,南京市,鼓楼区,南京市鼓楼区天目路玉泉路小区,cc50ede7b1c0ad8b9a0050d4,1,0,118.773004,32.065349,,life,http://api.map.baidu.com/place/detail?uid=cc50ede7b1c0ad8b9a0050d4&output=html&source=placeapi_v2,,,,,,,,,,,,,,,,,,,,0
bf29b70292b3b69909b93a55,中国邮政速递物流汉中门揽投部,生活服务,物流公司,江苏省,南京市,鼓楼区,江苏省南京市鼓楼区虎踞路11号,bf29b70292b3b69909b93a55,1,0,118.770268,32.049951,(025)86604578,life,http://api.map.baidu.com/place/detail?uid=bf29b70292b3b69909b93a55&output=html&source=placeapi_v2,,09:00-17:00,0,,,,,,,20,1,,,,,,,118.77041550106,32.050101950266,0
e740dd6e166c59f96140a965,顺丰速运(童家山店),生活服务,物流公司,江苏省,南京市,鼓楼区,江苏省南京市鼓楼区童家山3号,e740dd6e166c59f96140a965,1,0,118.768852,32.07622,(025)83735262,life,http://api.map.baidu.com/place/detail?uid=e740dd6e166c59f96140a965&output=html&source=placeapi_v2,,00:00-24:00,0,,,,,,,5,3,,,,,,,118.76898147399,32.076094267902,0
4bba09c5f8170b4614b54b13,江苏省邮政速递物流有限公司,生活服务,物流公司,江苏省,南京市,玄武区,江苏省南京市玄武区中山路362号,4bba09c5f8170b4614b54b13,1,0,118.791202,32.063714,,life,http://api.map.baidu.com/place/detail?uid=4bba09c5f8170b4614b54b13&output=html&source=placeapi_v2,,,,,,,,,,1,,,,,,,,,,0
2d870fd1d749e0246fa3cc8e,华宇物流有限公司,生活服务,物流公司,江苏省,南京市,玄武区,江苏省南京市玄武区珠江路573号,2d870fd1d749e0246fa3cc8e,1,0,118.80726,32.054265,(025)83378577,life,http://api.map.baidu.com/place/detail?uid=2d870fd1d749e0246fa3cc8e&output=html&source=placeapi_v2,,08:00-20:00,5,,,,,,,17,1,,,,,,,118.80717204882,32.054288710603,0
e6a820013a3fcbac43024577,邮政速递物流(新街口揽投部店),生活服务,物流公司,江苏省,南京市,玄武区,江苏省南京市玄武区韩家巷10-2号,e6a820013a3fcbac43024577,1,0,118.792114,32.053816,,life,http://api.map.baidu.com/place/detail?uid=e6a820013a3fcbac43024577&output=html&source=placeapi_v2,,07:00-02:30,1,,,,,,,5,4,,,,,,,118.79209258498,32.053731987056,0
940e826d1c9699732bb97c77,韵达速递(网巾市服务站),生活服务,物流公司,江苏省,南京市,玄武区,江苏省南京市玄武区石婆婆庵16号,940e826d1c9699732bb97c77,1,0,118.798277,32.051934,(025)84542249,life,http://api.map.baidu.com/place/detail?uid=940e826d1c9699732bb97c77&output=html&source=placeapi_v2,,09:00-19:00,2.2,,,,,,,10,8,,,,,,,118.79826026078,32.051863747811,0
610772548bdb410528201a5b,圆通速递(同创软件大厦东北),生活服务,物流公司,江苏省,南京市,玄武区,江苏省南京市玄武区四牌楼61号同创软件大厦1楼,610772548bdb410528201a5b,1,0,118.799037,32.058947,95554,enterprise,http://api.map.baidu.com/place/detail?uid=610772548bdb410528201a5b&output=html&source=placeapi_v2,,09:00-19:00,,,,,,,,,4,,,,,,,,,0
a71ef287f8f9fa1b7c29bda9,马士基物流(南京分公司),生活服务,物流公司,江苏省,南京市,玄武区,江苏南京市玄武区中山路268号汇杰广场23楼,a71ef287f8f9fa1b7c29bda9,1,0,118.791166,32.060092,,life,http://api.map.baidu.com/place/detail?uid=a71ef287f8f9fa1b7c29bda9&output=html&source=placeapi_v2,,08:00-18:00,,,,,,,,0,,,,,,,,118.79126054478,32.060199025125,0
19698e9b833f8a3d63180993,邮政速递物流鼓楼揽投部(鼓楼按投部),生活服务,物流公司,江苏省,南京市,玄武区,江苏省南京市玄武区北京东路28号,19698e9b833f8a3d63180993,1,0,118.806942,32.063466,,life,http://api.map.baidu.com/place/detail?uid=19698e9b833f8a3d63180993&output=html&source=placeapi_v2,,09:00-17:00,,,,,,,,12,,,,,,,,118.80685911601,32.063770447604,0
cf87f234c00a29cabfa822e4,港中旅华贸国际物流股份有限公司(南京分公司),生活服务,物流公司,江苏省,南京市,秦淮区,江苏省南京市秦淮区中山东路288号a座42楼,cf87f234c00a29cabfa822e4,1,0,118.801817,32.047046,(025)84677563,life,http://api.map.baidu.com/place/detail?uid=cf87f234c00a29cabfa822e4&output=html&source=placeapi_v2,,08:30-21:00,,,,,,,,0,,,,,,,,,,0
d2f0bded0c323ee1ca1b95fc,南京华基物流有限公司,生活服务,物流公司,江苏省,南京市,鼓楼区,南京市鼓楼区云南路20号鸿德大厦A座8层802室,d2f0bded0c323ee1ca1b95fc,1,0,118.781972,32.069543,,life,http://api.map.baidu.com/place/detail?uid=d2f0bded0c323ee1ca1b95fc&output=html&source=placeapi_v2,,09:00-19:00,,,,,,,,,,,,,,,,118.78220183439,32.069421875516,0
94cef59be6c8fc7e1b94c6de,江苏环球国际货运有限公司,生活服务,物流公司,江苏省,南京市,玄武区,南京市玄武区长江路99号长江贸易大楼13层1307号,94cef59be6c8fc7e1b94c6de,1,0,118.793199,32.050962,,life,http://api.map.baidu.com/place/detail?uid=94cef59be6c8fc7e1b94c6de&output=html&source=placeapi_v2,,09:00-19:00,,,,,,,,0,,,,,,,,118.7933067949,32.051409863884,0
3b509645bae5a3d2157643d4,南京经纬专利商标代理有限公司,生活服务,物流公司,江苏省,南京市,鼓楼区,江苏省南京市鼓楼区中山路179号b座12楼,3b509645bae5a3d2157643d4,1,0,118.789967,32.056034,(025)86649148,life,http://api.map.baidu.com/place/detail?uid=3b509645bae5a3d2157643d4&output=html&source=placeapi_v2,,,5,,,,,,,0,3,,,,,,,118.78967629857,32.056277185011,0
ab50e76b86a499572811d177,圆通速递(汉口路店),生活服务,物流公司,江苏省,南京市,鼓楼区,江苏省南京市鼓楼区汉口路61号101室,ab50e76b86a499572811d177,1,0,118.785084,32.059486,,life,http://api.map.baidu.com/place/detail?uid=ab50e76b86a499572811d177&output=html&source=placeapi_v2,,09:00-19:00,3.0,,,,,,,3,3,,,,,,,,,0
bd5f788a2b59970ca5da3928,南京金海洋运输有限公司,生活服务,物流公司,江苏省,南京市,玄武区,南京市玄武区珠江路588号未来城A2座407号,bd5f788a2b59970ca5da3928,1,0,118.805015,32.054001,,life,http://api.map.baidu.com/place/detail?uid=bd5f788a2b59970ca5da3928&output=html&source=placeapi_v2,,08:00-18:00,0,,,,,,,,0,,,,,,,118.80534750589,32.053976887523,0
553b2a316086a80c2cb9088b,江苏省苏铁航运有限公司,生活服务,物流公司,江苏省,南京市,秦淮区,南京市秦淮区洪武路23号隆盛大厦18层,553b2a316086a80c2cb9088b,1,0,118.79531,32.04641,,life,http://api.map.baidu.com/place/detail?uid=553b2a316086a80c2cb9088b&output=html&source=placeapi_v2,,09:00-19:00,,,,,,,,,,,,,,,,118.79543111945,32.046346884598,0
7a74714c2e7b279b343a7158,汇通达,生活服务,物流公司,江苏省,南京市,玄武区,江苏省南京市玄武区钟灵街50号a座,7a74714c2e7b279b343a7158,1,0,118.881327,32.04472,,life,http://api.map.baidu.com/place/detail?uid=7a74714c2e7b279b343a7158&output=html&source=placeapi_v2,,,,,,,,,,4,,,,,,,,118.88132708063,32.044720139867,0
cc8a3a52584e3fd7d3ff23d8,麒麟有大型仓库(配送),生活服务,物流公司,江苏省,南京市,江宁区,南京市江宁区宁杭公路悦民公寓一期-北区东北侧约190米,,1,0,118.932029,32.060291,,life,http://api.map.baidu.com/place/detail?uid=cc8a3a52584e3fd7d3ff23d8&output=html&source=placeapi_v2,,,,,,,,,,,,,,,,,,,,0
be34bdb5a7410c07e3110301,神隆运输公司,生活服务,物流公司,江苏省,南京市,栖霞区,江苏省南京市栖霞区马群芝嘉花园1幢(宁杭公路北),be34bdb5a7410c07e3110301,1,0,118.917197,32.05946,,life,http://api.map.baidu.com/place/detail?uid=be34bdb5a7410c07e3110301&output=html&source=placeapi_v2,,,,,,,,,,,,,,,,,,118.91720575124,32.059402967748,0
4f042598fd675e7a4d2fdfc1,南京好省易食品贸易有限公司南京配送中心,生活服务,物流公司,江苏省,南京市,江宁区,江苏省南京市江宁区麒麟街道宁杭公路锦绣花园旁,4f042598fd675e7a4d2fdfc1,1,0,118.942087,32.064049,,life,http://api.map.baidu.com/place/detail?uid=4f042598fd675e7a4d2fdfc1&output=html&source=placeapi_v2,,09:00-19:00,,,,,,,,17,,,,,,,,,,0
4d5b1ff368fea653bda2405a,南京永通物流有限公司,生活服务,物流公司,江苏省,南京市,江宁区,江苏省南京市江宁区东晨路麒麟门金宝汽配城17栋118号,,1,0,118.969572,32.061012,"(025)85693103,(025)86111899,13218088777,15951967520",life,http://api.map.baidu.com/place/detail?uid=4d5b1ff368fea653bda2405a&output=html&source=placeapi_v2,,,,,,,,,,15,,,,,,,,118.96960899964,32.061119021691,0
3d4b0b468aab33cb5d17c3c6,天地华宇物流(江宁分公司),生活服务,物流公司,江苏省,南京市,江宁区,南京市江宁区麒麟门大道金宝麒麟商业广场,,1,0,118.969279,32.060843,4008086666,life,http://api.map.baidu.com/place/detail?uid=3d4b0b468aab33cb5d17c3c6&output=html&source=placeapi_v2,,08:00-18:30,,,,,,,,17,,,,,,,,118.96933558509,32.060745091352,0
32c6757079befdddc33644f3,上海曹杰物流有限公司,生活服务,物流公司,江苏省,南京市,江宁区,南京市江宁区麒麟门金宝汽配城16幢028/038号,,1,0,118.970353,32.061048,(025)85563335,life,http://api.map.baidu.com/place/detail?uid=32c6757079befdddc33644f3&output=html&source=placeapi_v2,,08:00-18:00,,,,,,,,,,,,,,,,,,0
271ca7afcb5de26307026f42,南京拓达物流有限公司,生活服务,物流公司,江苏省,南京市,江宁区,江苏省南京市江宁区麒麟街道东晨路东郊小镇南侧飞燕物流1号门,,1,0,118.965828,32.055574,,life,http://api.map.baidu.com/place/detail?uid=271ca7afcb5de26307026f42&output=html&source=placeapi_v2,,,,,,,,,,,,,,,,,,,,0
c72c0a659c157e2ea8175a4a,宏递快运,生活服务,物流公司,江苏省,南京市,江宁区,南京市江宁区金宝汽配城23栋,,1,0,118.968909,32.061682,,life,http://api.map.baidu.com/place/detail?uid=c72c0a659c157e2ea8175a4a&output=html&source=placeapi_v2,,08:00-18:00,,,,,,,,15,,,,,,,,118.9690478758,32.061698347335,0
043bd2c5030632fef03cbad0,上海主赐物流有限公司(南京分部),生活服务,物流公司,江苏省,南京市,江宁区,南京市江宁区麒麟门大道金宝麒麟商业广场,,1,0,118.9701,32.061783,"13918561877,17316312775",life,http://api.map.baidu.com/place/detail?uid=043bd2c5030632fef03cbad0&output=html&source=placeapi_v2,,,,,,,,,,11,,,,,,,,,,0
f6175d7dfa9d68db1f3894b0,上海缘畅物流有限公司(南京运营中心),生活服务,物流公司,江苏省,南京市,江宁区,江苏省南京市江宁区麒麟门镇徐家边2号,,1,0,118.965387,32.055085,,life,http://api.map.baidu.com/place/detail?uid=f6175d7dfa9d68db1f3894b0&output=html&source=placeapi_v2,,05:00-22:00,,,,,,,,,,,,,,,,118.96551034601,32.05530498011,0
38e480374ad31c49363a7182,中远物流有限公司,生活服务,物流公司,江苏省,南京市,鼓楼区,江苏省南京市鼓楼区中山北路330号6楼,38e480374ad31c49363a7182,1,1,118.759033,32.092129,"(025)58779070,(025)58779098",life,http://api.map.baidu.com/place/detail?uid=38e480374ad31c49363a7182&output=html&source=placeapi_v2,,08:00-18:00,0,,,,,,,15,1,,,,,,,118.75891163631,32.091935085969,1
78d7016695bb23ad8415417c,中外运代理有限公司,生活服务,物流公司,江苏省,南京市,鼓楼区,江苏省南京市鼓楼区中山北路330号,78d7016695bb23ad8415417c,1,0,118.758929,32.092195,,life,http://api.map.baidu.com/place/detail?uid=78d7016695bb23ad8415417c&output=html&source=placeapi_v2,,09:00-18:30,,,,,,,,5,,,,,,,,118.75873020285,32.0920817779,0
280cfdaf536316b214948e2d,南京五虎将物流有限公司,生活服务,物流公司,江苏省,南京市,鼓楼区,江苏省南京市鼓楼区建宁路28号,280cfdaf536316b214948e2d,1,0,118.777781,32.098676,,life,http://api.map.baidu.com/place/detail?uid=280cfdaf536316b214948e2d&output=html&source=placeapi_v2,,,,,,,,,,,,,,,,,,,,0
37967133895769450c3dda04,寄包柜(家乐福店),生活服务,物流公司,江苏省,南京市,鼓楼区,南京市鼓楼区大桥南路7号家乐福B1,,1,0,118.760675,32.093676,,life,http://api.map.baidu.com/place/detail?uid=37967133895769450c3dda04&output=html&source=placeapi_v2,,,,,,,,,,,,,,,,,,118.76084097466,32.093780487526,0
99eab57a1ed150038d7727cc,寄包柜(家乐福店),生活服务,物流公司,江苏省,南京市,鼓楼区,南京市鼓楼区大桥南路7号家乐福F1,,1,0,118.760612,32.093535,,life,http://api.map.baidu.com/place/detail?uid=99eab57a1ed150038d7727cc&output=html&source=placeapi_v2,,,,,,,,,,,,,,,,,,118.76084097466,32.093780487526,0
47e17ff47773ac1b83a00c54,南京西站货场-一库,生活服务,物流公司,江苏省,南京市,鼓楼区,南京市鼓楼区建宁路绿城花园北侧约120米,47e17ff47773ac1b83a00c54,1,0,118.776785,32.09892,,life,http://api.map.baidu.com/place/detail?uid=47e17ff47773ac1b83a00c54&output=html&source=placeapi_v2,,,,,,,,,,1,,,,,,,,,,0
8e2186ea115d77ed1b11d5a6,韵达快递南京三牌楼服务站,生活服务,物流公司,江苏省,南京市,鼓楼区,江苏省南京市鼓楼区三牌楼大街220号,8e2186ea115d77ed1b11d5a6,1,0,118.769773,32.087654,13601580933,life,http://api.map.baidu.com/place/detail?uid=8e2186ea115d77ed1b11d5a6&output=html&source=placeapi_v2,,10:00-22:00,0,,,,,,,15,3,,,,,,,118.76979928414,32.087577516216,0
ca0184fb2c6e4bbe85420ef5,铁路法院泰哈车队,生活服务,物流公司,江苏省,南京市,鼓楼区,江苏省南京市鼓楼区龙江路8号铁路法院2楼,ca0184fb2c6e4bbe85420ef5,1,0,118.749745,32.101117,,life,http://api.map.baidu.com/place/detail?uid=ca0184fb2c6e4bbe85420ef5&output=html&source=placeapi_v2,,,,,,,,,,1,,,,,,,,,,0
61085211943b56a1c41b7582,中铁快运(南京建宁路营业部),生活服务,物流公司,江苏省,南京市,鼓楼区,江苏省南京市鼓楼区建宁路28号,61085211943b56a1c41b7582,1,0,118.778075,32.098553,(025)85610209,life,http://api.map.baidu.com/place/detail?uid=61085211943b56a1c41b7582&output=html&source=placeapi_v2,,08:00-18:00,3.4,,,,,,,25,7,,,,,,,118.77794516971,32.098495201839,0
c2f7087826bc829988db73a3,中储南京物流有限公司(经销分公司),生活服务,物流公司,江苏省,南京市,鼓楼区,江苏省南京市鼓楼区河路道1号,c2f7087826bc829988db73a3,1,0,118.790843,32.103599,(025)85506350,life,http://api.map.baidu.com/place/detail?uid=c2f7087826bc829988db73a3&output=html&source=placeapi_v2,,09:00-18:30,3,,,,,,,15,,,,,,,,118.79086747593,32.103523752878,0
a8cef8b917c5611c8605bf30,中国物流公司(南京分公司),生活服务,物流公司,江苏省,南京市,鼓楼区,南京市鼓楼区中央门外郭家山26-3号,a8cef8b917c5611c8605bf30,1,0,118.780412,32.105196,,life,http://api.map.baidu.com/place/detail?uid=a8cef8b917c5611c8605bf30&output=html&source=placeapi_v2,,09:00-19:00,,,,,,,,,,,,,,,,118.78047347033,32.105206867225,0
06ab94f998a2a90e5e0d02c5,南京邮政中央门营业投递部(龙蟠路店),生活服务,物流公司,江苏省,南京市,玄武区,江苏省南京市玄武区龙蟠路121号,06ab94f998a2a90e5e0d02c5,1,0,118.806634,32.090729,,life,http://api.map.baidu.com/place/detail?uid=06ab94f998a2a90e5e0d02c5&output=html&source=placeapi_v2,,08:00-18:00,0.0,,,,,,,1,1,,,,,,,118.80661787247,32.090694221571,0
61085211943b56a1c41b7582,中铁快运(南京建宁路营业部),生活服务,物流公司,江苏省,南京市,鼓楼区,江苏省南京市鼓楼区建宁路28号,61085211943b56a1c41b7582,1,0,118.778075,32.098553,(025)85610209,life,http://api.map.baidu.com/place/detail?uid=61085211943b56a1c41b7582&output=html&source=placeapi_v2,,08:00-18:00,3.4,,,,,,,25,7,,,,,,,118.77794516971,32.098495201839,0
d5464cf89eb0a457fda778e6,南京王家湾物流中心,生活服务,物流公司,江苏省,南京市,玄武区,江苏省南京市玄武区玄武大道东方城a座108号,d5464cf89eb0a457fda778e6,1,0,118.851471,32.096148,,life,http://api.map.baidu.com/place/detail?uid=d5464cf89eb0a457fda778e6&output=html&source=placeapi_v2,,08:00-18:00,0,,,,,,,0,0,,,,,,,118.84978027904,32.09665501987,0
f8f97ead5b6473cd9e09f743,江苏凤凰物流园,生活服务,物流公司,江苏省,南京市,玄武区,江苏省南京市玄武区花园路8-1号,f8f97ead5b6473cd9e09f743,1,0,118.831581,32.084502,,life,http://api.map.baidu.com/place/detail?uid=f8f97ead5b6473cd9e09f743&output=html&source=placeapi_v2,,08:00-18:00,0,,,,,,,8,3,,,,,,,118.83189029574,32.084488850303,0
ca0cc96aaa2b8408eb1e973c,中通快递,生活服务,物流公司,江苏省,南京市,浦口区,南京市浦口区浦厂二村(南京仓杨收),ca0cc96aaa2b8408eb1e973c,1,0,118.691152,32.13227,95311,life,http://api.map.baidu.com/place/detail?uid=ca0cc96aaa2b8408eb1e973c&output=html&source=placeapi_v2,,09:00-19:00,0,,,,,,,5,0,,,,,,,,,0
1107a84ed93a2bbf7cc876ad,速德物流(浦口公司),生活服务,物流公司,江苏省,南京市,浦口区,南京市浦口区浦珠北路大华柳州苑商铺21栋111门店,,1,0,118.722476,32.12221,"13921427573,15062271486",life,http://api.map.baidu.com/place/detail?uid=1107a84ed93a2bbf7cc876ad&output=html&source=placeapi_v2,,08:00-18:00,5,,,,,,,10,1,,,,,,,118.7225365468,32.122406006999,0
d51c6b29f2a33dea0f0e6b89,中铁南京大桥物流基地(大华锦绣华城A块六期东),生活服务,物流公司,江苏省,南京市,浦口区,江苏省南京市浦口区浦珠北路25号,d51c6b29f2a33dea0f0e6b89,1,0,118.73147,32.128204,(025)66629378,life,http://api.map.baidu.com/place/detail?uid=d51c6b29f2a33dea0f0e6b89&output=html&source=placeapi_v2,,,,,,,,,,1,,,,,,,,118.73114020886,32.12831049392,0
9f206b147e1619b2e60738aa,京东(南京顶山配送站),生活服务,物流公司,江苏省,南京市,浦口区,顶山街道丽都雅苑30栋115室,9f206b147e1619b2e60738aa,1,0,118.700115,32.119554,,life,http://api.map.baidu.com/place/detail?uid=9f206b147e1619b2e60738aa&output=html&source=placeapi_v2,,09:00-19:00,,,,,,,,,,,,,,,,118.70004210548,32.1196589795,0
4f7ed28eb7b0ef5fb020a857,顺丰速运(弘阳速运营业点),生活服务,物流公司,江苏省,南京市,浦口区,江苏省南京市浦口区江山路15号幸福美地12栋,4f7ed28eb7b0ef5fb020a857,1,0,118.74729,32.1393,95338,life,http://api.map.baidu.com/place/detail?uid=4f7ed28eb7b0ef5fb020a857&output=html&source=placeapi_v2,,08:00-20:00,3.0,,,,,,,6,,,,,,,,118.74735641633,32.13953799344,0
9c1889bf3418ddf15fbe8601,扬子晚报九九递送公司桥北发行站,生活服务,物流公司,江苏省,南京市,浦口区,江苏省南京市浦口区杨子晚报桥北发行站3期348栋1108室,9c1889bf3418ddf15fbe8601,1,0,118.757329,32.138752,,life,http://api.map.baidu.com/place/detail?uid=9c1889bf3418ddf15fbe8601&output=html&source=placeapi_v2,,,,,,,,,,,,,,,,,,118.75720078023,32.138400946948,0
9ddd1003c606234dc909f0ce,长客集团物流中心,生活服务,物流公司,江苏省,南京市,鼓楼区,南京市鼓楼区水吉南路绿苑东南侧约70米,9ddd1003c606234dc909f0ce,1,2,118.807729,32.116262,,life,http://api.map.baidu.com/place/detail?uid=9ddd1003c606234dc909f0ce&output=html&source=placeapi_v2,,08:00-18:00,,,,,,,,12,,,,,,,,118.80746961103,32.116340196948,2
7524cb4fed645e3405026f82,港华物流,生活服务,物流公司,江苏省,南京市,鼓楼区,江苏省南京市鼓楼区上元门6号,7524cb4fed645e3405026f82,1,1,118.782327,32.12708,,life,http://api.map.baidu.com/place/detail?uid=7524cb4fed645e3405026f82&output=html&source=placeapi_v2,,08:00-18:00,,,,,,,,,,,,,,,,118.7821266561,32.126974672017,1
4283a63611112dae4c6d4604,申通快递(幕盛路店),生活服务,物流公司,江苏省,南京市,鼓楼区,南京市鼓楼区五塘新村4-1号,4283a63611112dae4c6d4604,1,0,118.790496,32.115858,95543,life,http://api.map.baidu.com/place/detail?uid=4283a63611112dae4c6d4604&output=html&source=placeapi_v2,,09:00-19:00,0,,,,,,,11,0,,,,,,,,,0
bcaebff8752e4e54c9e33c4d,南京神六储运有限公司,生活服务,物流公司,江苏省,南京市,栖霞区,江苏省南京市栖霞区水吉路168号,bcaebff8752e4e54c9e33c4d,1,0,118.814947,32.13269,(025)85339766,life,http://api.map.baidu.com/place/detail?uid=bcaebff8752e4e54c9e33c4d&output=html&source=placeapi_v2,,08:00-18:00,,,,,,,,8,,,,,,,,118.81491809231,32.132738416448,0
32f80182892784b225d2bbb4,宇鑫物流(高力汽配城店),生活服务,物流公司,江苏省,南京市,栖霞区,南京市栖霞区高力汽配城4栋23号,32f80182892784b225d2bbb4,1,0,118.841929,32.12473,(025)68205326,life,http://api.map.baidu.com/place/detail?uid=32f80182892784b225d2bbb4&output=html&source=placeapi_v2,,08:00-21:30,,,,,,,,9,,,,,,,,118.84182719319,32.124811813247,0
d36f9316b403d99fdbd89110,宁鑫物流高力汽配城网点,生活服务,物流公司,江苏省,南京市,栖霞区,南京市栖霞区高力科技汽配城11幢101号,d36f9316b403d99fdbd89110,1,0,118.842655,32.124283,(025)68205326,life,http://api.map.baidu.com/place/detail?uid=d36f9316b403d99fdbd89110&output=html&source=placeapi_v2,,,0.0,,,,,,,0,1,,,,,,,118.8426546691,32.124203102787,0
ed04c5d848712519e6e96585,菜鸟驿站(南京晓庄村47号4-108店),生活服务,物流公司,江苏省,南京市,栖霞区,南京市栖霞区燕子矶街道行知国晓庄村47号4栋108号,ed04c5d848712519e6e96585,1,0,118.82152,32.124854,9519666,life,http://api.map.baidu.com/place/detail?uid=ed04c5d848712519e6e96585&output=html&source=placeapi_v2,,07:30-22:30,,,,,,,,,,,,,,,,,,0
4ad993ca94bcdb365abbbc32,百事物流,生活服务,物流公司,江苏省,南京市,栖霞区,江苏省南京市栖霞区恒发路8号,4ad993ca94bcdb365abbbc32,1,0,118.864486,32.138354,,life,http://api.map.baidu.com/place/detail?uid=4ad993ca94bcdb365abbbc32&output=html&source=placeapi_v2,,08:30-18:00,,,,,,,,,,,,,,,,118.86447059153,32.138493817209,0
b0a4a864513f5d788bb988e2,百腾物流(南京分公司),生活服务,物流公司,江苏省,南京市,栖霞区,江苏省南京市栖霞区尧新大道90号,,1,0,118.874527,32.135397,(025)57054930,life,http://api.map.baidu.com/place/detail?uid=b0a4a864513f5d788bb988e2&output=html&source=placeapi_v2,,08:30-18:00,,,,,,,,,,,,,,,,118.87444146469,32.135398535455,0
bda882a1b059c46c5d0d02e3,南京博旭物流(金尧路店),生活服务,物流公司,江苏省,南京市,栖霞区,南京市栖霞区金尧路青田雅居18栋,bda882a1b059c46c5d0d02e3,1,0,118.881466,32.129837,(025)52124760,life,http://api.map.baidu.com/place/detail?uid=bda882a1b059c46c5d0d02e3&output=html&source=placeapi_v2,,08:00-18:00,,,,,,,,12,,,,,,,,118.88155976871,32.129707392414,0
eb367503f81c4c6601ec01b6,和黄佳和物流中心,生活服务,物流公司,江苏省,南京市,栖霞区,江苏省南京市栖霞区尧新大道90号,eb367503f81c4c6601ec01b6,1,1,118.87438,32.135211,,life,http://api.map.baidu.com/place/detail?uid=eb367503f81c4c6601ec01b6&output=html&source=placeapi_v2,,08:00-18:00,5.0,,,,,,,1,1,,,,,,,118.87443901591,32.135307063763,1
90d887b544246d06354aaea3,苏久物流(燕尧路店),生活服务,物流公司,江苏省,南京市,栖霞区,江苏省南京市栖霞区燕尧路88号,90d887b544246d06354aaea3,1,1,118.867766,32.124077,"(025)85612391,(025)85637718",life,http://api.map.baidu.com/place/detail?uid=90d887b544246d06354aaea3&output=html&source=placeapi_v2,,08:30-21:30,0,,,,,,,10,0,,,,,,,118.86786190953,32.124007547663,1
e889a744f1852cc88605bf49,江苏金陵交运集团有限公司尧化门物流基地,生活服务,物流公司,江苏省,南京市,栖霞区,江苏省南京市栖霞区燕尧路88号c4区03栋,e889a744f1852cc88605bf49,1,0,118.866458,32.124716,(025)86755106,life,http://api.map.baidu.com/place/detail?uid=e889a744f1852cc88605bf49&output=html&source=placeapi_v2,,08:00-18:00,4.5,,,,,,,15,2,,,,,,,118.86666842262,32.124693797027,0
4eb3b533fc1fd0754302454f,南京出口加工区中外运物流公司,生活服务,物流公司,江苏省,南京市,栖霞区,江苏省南京市栖霞区恒广路36号,4eb3b533fc1fd0754302454f,1,0,118.884439,32.142974,,life,http://api.map.baidu.com/place/detail?uid=4eb3b533fc1fd0754302454f&output=html&source=placeapi_v2,,09:00-18:30,3.0,,,,,,,0,,,,,,,,118.88428980539,32.143041233583,0
e30f8e8e687c9a575b10933e,尧化中转站,生活服务,物流公司,江苏省,南京市,栖霞区,南京市栖霞区金尧路9号,e30f8e8e687c9a575b10933e,1,0,118.878257,32.128484,,life,http://api.map.baidu.com/place/detail?uid=e30f8e8e687c9a575b10933e&output=html&source=placeapi_v2,,,,,,,,,,10,,,,,,,,118.8784004983,32.128298362532,0
8d96925c8f2b7a38c0f1cfbb,南京捷顺达物流集团,生活服务,物流公司,江苏省,南京市,栖霞区,江苏省南京市栖霞区广月路12号,8d96925c8f2b7a38c0f1cfbb,1,1,118.918617,32.135172,(025)87775555,life,http://api.map.baidu.com/place/detail?uid=8d96925c8f2b7a38c0f1cfbb&output=html&source=placeapi_v2,,,,,,,,,,0,,,,,,,,118.91875154369,32.135292695159,1
d445a6b02f511fe6167643b7,新华书店集团公司物流配送中心(仙新中路店),生活服务,物流公司,江苏省,南京市,栖霞区,江苏省南京市栖霞区仙新路98号,d445a6b02f511fe6167643b7,1,2,118.905795,32.138336,,life,http://api.map.baidu.com/place/detail?uid=d445a6b02f511fe6167643b7&output=html&source=placeapi_v2,,08:00-18:00,,,,,,,,,,,,,,,,118.9049990334,32.137071081172,2
ef91c561667974d02b3a9fa1,江苏浩邦贸易有限公司仓储物流中心,生活服务,物流公司,江苏省,南京市,栖霞区,南京市栖霞区十月村路与栖霞大道交叉口东200米,,1,0,118.915526,32.141391,,life,http://api.map.baidu.com/place/detail?uid=ef91c561667974d02b3a9fa1&output=html&source=placeapi_v2,,,0.0,,,,,,,0,,,,,,,,,,0
e3082848e58339bfb34c494f,南京视信仓储运输有限公司,生活服务,物流公司,江苏省,南京市,栖霞区,南京市栖霞区友谊路99号,e3082848e58339bfb34c494f,1,0,118.932988,32.141663,,life,http://api.map.baidu.com/place/detail?uid=e3082848e58339bfb34c494f&output=html&source=placeapi_v2,,08:00-18:00,,,,,,,,,,,,,,,,118.93288953034,32.141550333665,0
812513e600d5e41e441a329d,南京富友物流有限公司,生活服务,物流公司,江苏省,镇江市,句容市,镇江市句容市五地路宝华仙林国际汽配基地,,1,0,119.04475,32.147974,,life,http://api.map.baidu.com/place/detail?uid=812513e600d5e41e441a329d&output=html&source=placeapi_v2,,09:00-19:00,,,,,,,,1,,,,,,,,,,0
fc427e7b9ef4606a7adbd2bb,快递联盟妈妈驿站(华莱士・全鸡汉堡京东紫晶店),生活服务,物流公司,江苏省,镇江市,句容市,江苏省镇江市句容市京东紫晶7栋,,1,0,119.045116,32.132771,,life,http://api.map.baidu.com/place/detail?uid=fc427e7b9ef4606a7adbd2bb&output=html&source=placeapi_v2,,09:00-20:30,,,,,,,,4,,,,,,,,,,0
27ddf196d2710acdce04ef52,南京宏宝国际物流有限公司,生活服务,物流公司,江苏省,镇江市,句容市,镇江市句容市五地路南京创亚物流有限公司,,1,0,119.04915,32.149179,(0511)87898308,life,http://api.map.baidu.com/place/detail?uid=27ddf196d2710acdce04ef52&output=html&source=placeapi_v2,,09:00-19:00,,,,,,,,3,,,,,,,,119.04924921605,32.149360454481,0
08f280f3dba834d16340a9c1,顺丰速运(高新速运营业点),生活服务,物流公司,江苏省,南京市,浦口区,江苏省南京市浦口区浦泗路17号,08f280f3dba834d16340a9c1,1,0,118.683757,32.170494,(025)58737781,life,http://api.map.baidu.com/place/detail?uid=08f280f3dba834d16340a9c1&output=html&source=placeapi_v2,,08:00-20:00,0.0,,,,,,,13,,,,,,,,118.6837286196,32.170799409477,0
4f46d2ba4f8bae81c4effb9f,捷顺达物流(浦泗路店),生活服务,物流公司,江苏省,南京市,浦口区,江苏省南京市浦口区浦泗路17号,4f46d2ba4f8bae81c4effb9f,1,3,118.684253,32.169907,(025)58529233,life,http://api.map.baidu.com/place/detail?uid=4f46d2ba4f8bae81c4effb9f&output=html&source=placeapi_v2,,08:00-18:00,,,,,,,,14,,,,,,,,118.68440786613,32.170169162151,3
13f3426c8064cbdce9f85302,韵达速递(南京浦口高新区龙泰路仓储分部),生活服务,物流公司,江苏省,南京市,浦口区,江苏省南京市浦口区龙泰路16号b区b4栋,13f3426c8064cbdce9f85302,1,0,118.687093,32.169309,(025)95546,life,http://api.map.baidu.com/place/detail?uid=13f3426c8064cbdce9f85302&output=html&source=placeapi_v2,,08:00-19:00,0,,,,,,,10,0,,,,,,,118.68690646338,32.169256751344,0
b6175cc43668d146c51b759f,巨国仓储,生活服务,物流公司,江苏省,南京市,栖霞区,江苏省南京市栖霞区恒达路6号,b6175cc43668d146c51b759f,1,1,118.868708,32.154177,(025)85804928,life,http://api.map.baidu.com/place/detail?uid=b6175cc43668d146c51b759f&output=html&source=placeapi_v2,,09:00-18:00,,,,,,,,9,,,,,,,,118.86870834957,32.15426809841,1
0b306210381b1b4100ec0172,南京六星仓储有限公司,生活服务,物流公司,江苏省,南京市,栖霞区,江苏省南京市栖霞区新港大道1号,0b306210381b1b4100ec0172,1,0,118.888092,32.17731,,life,http://api.map.baidu.com/place/detail?uid=0b306210381b1b4100ec0172&output=html&source=placeapi_v2,,08:00-20:00,,,,,,,,6,,,,,,,,118.8882018145,32.177369998442,0
0f9a9a88c46ca1a1b21e3642,港池物流仓库,生活服务,物流公司,江苏省,南京市,栖霞区,江苏省南京市栖霞区栖霞街道甘家巷红枫浴室对面,0f9a9a88c46ca1a1b21e3642,1,1,118.94323,32.167638,,life,http://api.map.baidu.com/place/detail?uid=0f9a9a88c46ca1a1b21e3642&output=html&source=placeapi_v2,,09:00-19:00,,,,,,,,,,,,,,,,118.94341356207,32.167874991105,1
260873283285fc60cb213d6d,南京心聚缘物流有限公司,生活服务,物流公司,江苏省,南京市,浦口区,南京市浦口区浦泗路290号,8fe16be0d418546cc929156b,1,0,118.641535,32.187742,(025)58202088,life,http://api.map.baidu.com/place/detail?uid=260873283285fc60cb213d6d&output=html&source=placeapi_v2,,09:00-17:00,0,,,,,,,9,0,,,,,,,118.64143441094,32.187674161019,0
fe23ebe7d75444fb25d2bbe5,安能物流(南京江北分拨中心),生活服务,物流公司,江苏省,南京市,浦口区,江苏省南京市浦口区b区27栋,,1,0,118.645192,32.186462,"(025)57660019,17361868339",life,http://api.map.baidu.com/place/detail?uid=fe23ebe7d75444fb25d2bbe5&output=html&source=placeapi_v2,,06:00-24:00,1,,,,,,,10,1,,,,,,,118.64528079613,32.186366296775,0
26aaf42bab485b612fe67b3b,春秋物流,生活服务,物流公司,江苏省,南京市,浦口区,江苏省南京市浦口区浦泗路心聚源物流园20栋10号,,1,0,118.644626,32.186473,"13912994902,13951619440",life,http://api.map.baidu.com/place/detail?uid=26aaf42bab485b612fe67b3b&output=html&source=placeapi_v2,,,,,,,,,,9,,,,,,,,,,0
597b158aae38c123afee7a7e,江苏金陵交运集团(江北物流基地),生活服务,物流公司,江苏省,南京市,浦口区,江苏省南京市浦口区丁解路42号,597b158aae38c123afee7a7e,1,1,118.729492,32.204826,,enterprise,http://api.map.baidu.com/place/detail?uid=597b158aae38c123afee7a7e&output=html&source=placeapi_v2,,,,,,,,,,,3,,,,,,,118.72956607218,32.204879747076,1
6032f8d5f68731672fb96d3a,菜鸟驿站(南京香溢紫苑快递服务站),生活服务,物流公司,江苏省,南京市,浦口区,江苏省南京市浦口区学府路香溢紫郡1期34幢108室,6032f8d5f68731672fb96d3a,1,0,118.705611,32.184793,,life,http://api.map.baidu.com/place/detail?uid=6032f8d5f68731672fb96d3a&output=html&source=placeapi_v2,,09:00-19:00,0,,,,,,,10,0,,,,,,,118.70558575719,32.184578116077,0
89fd4ea3c51db347e5e965f4,江苏省沿江物流有限公司,生活服务,物流公司,江苏省,南京市,浦口区,南京市浦口区新华社区802号,89fd4ea3c51db347e5e965f4,1,1,118.75167,32.183216,,life,http://api.map.baidu.com/place/detail?uid=89fd4ea3c51db347e5e965f4&output=html&source=placeapi_v2,,08:00-18:00,0.0,,,,,,,0,,,,,,,,118.75174651711,32.183392809443,1
9d5e22157cfc4ef5c9fa5fa2,圆通速递(东兴路店),生活服务,物流公司,江苏省,南京市,六合区,江苏省南京市六合区龙袍街道青玉线圆通速递旁(太华园附近),9d5e22157cfc4ef5c9fa5fa2,1,0,118.95826,32.202468,15150521940,life,http://api.map.baidu.com/place/detail?uid=9d5e22157cfc4ef5c9fa5fa2&output=html&source=placeapi_v2,,09:00-19:00,0.0,,,,,,,5,1,,,,,,,118.95823870843,32.202503710021,0
9a1d6fd38fe5c1f2f842b205,天恒国际物流有限公司(南京分公司),生活服务,物流公司,江苏省,南京市,栖霞区,南京市栖霞区疏港路1号龙潭物流基地5号库,,1,0,119.080487,32.197839,,life,http://api.map.baidu.com/place/detail?uid=9a1d6fd38fe5c1f2f842b205&output=html&source=placeapi_v2,,08:30-20:00,,,,,,,,,,,,,,,,,,0
c2dcb45fd7fa1e4fc26c14d5,南京龙潭物流基地开发有限公司,生活服务,物流公司,江苏省,南京市,栖霞区,南京市栖霞区港际路龙潭港保税物流中心,c2dcb45fd7fa1e4fc26c14d5,1,0,119.079233,32.195076,,life,http://api.map.baidu.com/place/detail?uid=c2dcb45fd7fa1e4fc26c14d5&output=html&source=placeapi_v2,,,,,,,,,,1,,,,,,,,119.07884093745,32.195076158098,0
901299360bb66ff640e192f6,新时速物流有限公司(南京二部),生活服务,物流公司,江苏省,南京市,栖霞区,江苏省南京市栖霞区龙潭港疏港路1号老保税仓库1号仓库116号门,,1,0,119.078547,32.201148,,life,http://api.map.baidu.com/place/detail?uid=901299360bb66ff640e192f6&output=html&source=placeapi_v2,,,,,,,,,,,,,,,,,,,,0
006957cd3336b1ce0869d978,韵达速递(大厂分公司),生活服务,物流公司,江苏省,南京市,六合区,南京市六合区凤凰北路与园东路交叉路口东南侧,006957cd3336b1ce0869d978,1,0,118.76551,32.225374,95546,life,http://api.map.baidu.com/place/detail?uid=006957cd3336b1ce0869d978&output=html&source=placeapi_v2,,08:00-19:00,,,,,,,,11,,,,,,,,118.76539599984,32.225496049872,0
fe4d3a92caa90c68047ce801,申通快递(太子山路店),生活服务,物流公司,江苏省,南京市,六合区,江苏省南京市六合区太子山路161号,fe4d3a92caa90c68047ce801,1,0,118.763837,32.220547,"4008895543,95543",life,http://api.map.baidu.com/place/detail?uid=fe4d3a92caa90c68047ce801&output=html&source=placeapi_v2,,09:00-19:00,,,,,,,,10,,,,,,,,118.76379254516,32.220454288677,0
e4863435e05212e526e0a08a,YUNDA(沿江分公司),生活服务,物流公司,江苏省,南京市,六合区,南京市六合区九村西路35号,e4863435e05212e526e0a08a,1,0,118.76625,32.241274,15150525164,life,http://api.map.baidu.com/place/detail?uid=e4863435e05212e526e0a08a&output=html&source=placeapi_v2,,08:00-19:00,3,,,,,,,11,2,,,,,,,118.76617474268,32.241318835116,0
03e86d0ad17aa403f4b9169e,南京农大肉类食品有限公司江北配送中心,生活服务,物流公司,江苏省,南京市,六合区,南京市六合区葛中路尚品・馨苑,03e86d0ad17aa403f4b9169e,1,0,118.748951,32.240562,,life,http://api.map.baidu.com/place/detail?uid=03e86d0ad17aa403f4b9169e&output=html&source=placeapi_v2,,,0,,,,,,,,0,,,,,,,,,0
75d82a07fc15c0e2028972b0,易购快递点(南京桥北汽车客运站店),生活服务,物流公司,江苏省,南京市,六合区,江苏省南京市六合区大桥北路22-1号,,1,0,118.771292,32.236894,,life,http://api.map.baidu.com/place/detail?uid=75d82a07fc15c0e2028972b0&output=html&source=placeapi_v2,,,,,,,,,,,,,,,,,,,,0
4f7f931683528fba9c09f7e2,南京市振大联运公司,生活服务,物流公司,江苏省,南京市,六合区,江苏省南京市六合区湛水路669号,4f7f931683528fba9c09f7e2,1,0,118.772348,32.23889,,life,http://api.map.baidu.com/place/detail?uid=4f7f931683528fba9c09f7e2&output=html&source=placeapi_v2,,,,,,,,,,,,,,,,,,,,0
eef2d52802dbbfda3ae4a6be,南京俊邦物流有限公司,生活服务,物流公司,江苏省,南京市,六合区,江苏省南京市六合区丁家山路208号,eef2d52802dbbfda3ae4a6be,1,0,118.789613,32.234836,,life,http://api.map.baidu.com/place/detail?uid=eef2d52802dbbfda3ae4a6be&output=html&source=placeapi_v2,,08:00-18:00,,,,,,,,13,,,,,,,,118.78954625717,32.234894795666,0
d549d7776cd03a3b5b3ac8b1,南京浩方物流,生活服务,物流公司,江苏省,南京市,六合区,江苏省南京市六合区湛水路388号,d549d7776cd03a3b5b3ac8b1,1,0,118.794628,32.241498,,life,http://api.map.baidu.com/place/detail?uid=d549d7776cd03a3b5b3ac8b1&output=html&source=placeapi_v2,,08:00-18:00,,,,,,,,4,,,,,,,,118.79454362055,32.241414112919,0
38e480374af51c49363a719c,南京三圣物流有限公司(湛水路店),生活服务,物流公司,江苏省,南京市,六合区,江苏省南京市六合区湛水路1号,38e480374af51c49363a719c,1,1,118.790136,32.23861,(025)58365111,life,http://api.map.baidu.com/place/detail?uid=38e480374af51c49363a719c&output=html&source=placeapi_v2,,08:00-17:30,5,,,,,,,12,1,,,,,,,118.78971713422,32.238474259105,1
f1f5cac5c372989837b06c9c,南京鼎高物流有限公司,生活服务,物流公司,江苏省,南京市,六合区,江苏省南京市六合区新华东路246-1号,f1f5cac5c372989837b06c9c,1,0,118.786102,32.247624,13805171208,life,http://api.map.baidu.com/place/detail?uid=f1f5cac5c372989837b06c9c&output=html&source=placeapi_v2,,08:00-18:00,,,,,,,,5,,,,,,,,,,0
15ed53ce0e54ab549322e09c,扬子石化客车运输公司,生活服务,物流公司,江苏省,南京市,六合区,江苏省南京市六合区兴达路7号,15ed53ce0e54ab549322e09c,1,0,118.781718,32.240302,,life,http://api.map.baidu.com/place/detail?uid=15ed53ce0e54ab549322e09c&output=html&source=placeapi_v2,,09:00-19:00,,,,,,,,8,1,,,,,,,118.78166057028,32.240401493213,0
d0f5ee6e936530afb35c6a36,南京天宇运输有限公司,生活服务,物流公司,江苏省,南京市,六合区,江苏省南京市六合区湛水路668号丰安科技2楼,,1,0,118.793919,32.247373,,life,http://api.map.baidu.com/place/detail?uid=d0f5ee6e936530afb35c6a36&output=html&source=placeapi_v2,,09:00-19:00,4.0,,,,,,,,1,,,,,,,118.7943550276,32.247333534058,0
bb1d38e4c333e54d0d0a709c,扬子物流公司,生活服务,物流公司,江苏省,南京市,六合区,江苏省南京市六合区乙烯路299号,bb1d38e4c333e54d0d0a709c,1,0,118.828721,32.243319,(025)57782269,life,http://api.map.baidu.com/place/detail?uid=bb1d38e4c333e54d0d0a709c&output=html&source=placeapi_v2,,08:00-18:00,,,,,,,,0,,,,,,,,118.82805980337,32.242996173251,0
217753edb03508bc4e554704,江苏环宝物流有限公司危化品仓储物流,生活服务,物流公司,江苏省,南京市,六合区,沿江三路西50米,217753edb03508bc4e554704,1,0,118.834008,32.249644,,life,http://api.map.baidu.com/place/detail?uid=217753edb03508bc4e554704&output=html&source=placeapi_v2,,09:00-19:00,,,,,,,,,,,,,,,,118.83412486893,32.249807752988,0
a7b918b139351327c51e51cc,江苏省联运有限公司,生活服务,物流公司,江苏省,南京市,六合区,南京市六合区沿江二路,,1,0,118.833982,32.24968,,life,http://api.map.baidu.com/place/detail?uid=a7b918b139351327c51e51cc&output=html&source=placeapi_v2,,09:00-19:00,,,,,,,,,,,,,,,,,,0
198e191109577379626858ce,绿点储运(南京分公司),生活服务,物流公司,江苏省,南京市,栖霞区,江苏省南京市栖霞区路8号,,1,0,119.108575,32.234351,,life,http://api.map.baidu.com/place/detail?uid=198e191109577379626858ce&output=html&source=placeapi_v2,,,,,,,,,,1,,,,,,,,,,0
9532f6f6de9b60c5871541a0,江苏智航国际物流有限公司(龙潭店),生活服务,物流公司,江苏省,南京市,栖霞区,南京市栖霞区龙潭街道宝港路66号南京综合保税区430室,,1,0,119.096001,32.220063,,life,http://api.map.baidu.com/place/detail?uid=9532f6f6de9b60c5871541a0&output=html&source=placeapi_v2,,,,,,,,,,,,,,,,,,119.09597717595,32.219540747629,0
eabb6ba3262d9e6499005066,南京高唐物流中心,生活服务,物流公司,江苏省,南京市,六合区,江苏省南京市六合区中鑫路689号,eabb6ba3262d9e6499005066,1,2,118.73384,32.263767,,life,http://api.map.baidu.com/place/detail?uid=eabb6ba3262d9e6499005066&output=html&source=placeapi_v2,,08:00-18:00,3,,,,,,,14,1,,,,,,,118.73209340084,32.264197277565,2
c41e00503241884776e5b694,安能物流公司,生活服务,物流公司,江苏省,南京市,六合区,江苏省南京市六合区中山科技园中鑫路689号高塘物流中心院内,c41e00503241884776e5b694,1,0,118.732628,32.264018,"(025)58398985,13675102916",life,http://api.map.baidu.com/place/detail?uid=c41e00503241884776e5b694&output=html&source=placeapi_v2,,08:00-18:00,,,,,,,,11,,,,,,,,118.73275236093,32.263930505123,0
e400d1ecf44d22fff4b91649,南京镖宇物流有限公司,生活服务,物流公司,江苏省,南京市,六合区,江苏省南京市六合区中鑫路689号,,1,0,118.732429,32.265286,,life,http://api.map.baidu.com/place/detail?uid=e400d1ecf44d22fff4b91649&output=html&source=placeapi_v2,,,,,,,,,,1,,,,,,,,,,0
1ab03dd0327cbd86e31103bc,安能物流公司(中鑫路店),生活服务,物流公司,江苏省,南京市,六合区,中山科技园中鑫路689号高塘物流中心院内德邦物流斜对面,,1,0,118.732634,32.263972,,life,http://api.map.baidu.com/place/detail?uid=1ab03dd0327cbd86e31103bc&output=html&source=placeapi_v2,,,,,,,,,,,,,,,,,,,,0
d93b33ebe00ea9b0e856fac1,易通大件起重运输公司,生活服务,物流公司,江苏省,南京市,六合区,江苏省南京市六合区众泰路29号,d93b33ebe00ea9b0e856fac1,1,0,118.758415,32.253262,(025)58379668,life,http://api.map.baidu.com/place/detail?uid=d93b33ebe00ea9b0e856fac1&output=html&source=placeapi_v2,,09:00-18:30,,,,,,,,,,,,,,,,118.75906073436,32.252699797831,0
76a945228c5baf66d618b71c,东来物流,生活服务,物流公司,江苏省,南京市,六合区,江苏省南京市六合区园区西路118号,,1,0,118.802503,32.285567,,life,http://api.map.baidu.com/place/detail?uid=76a945228c5baf66d618b71c&output=html&source=placeapi_v2,,,,,,,,,,,,,,,,,,118.80235210976,32.28565340768,0
cdbfb28ea4e5e14b3a13fdfa,南京扬子物流限责任公司铁路运输分公司,生活服务,物流公司,江苏省,南京市,六合区,南京市六合区成品路与新华东路交叉路口往东南约90米,,1,0,118.799168,32.257846,,life,http://api.map.baidu.com/place/detail?uid=cdbfb28ea4e5e14b3a13fdfa&output=html&source=placeapi_v2,,,,,,,,,,,,,,,,,,118.79932651978,32.258032083318,0
b1c556e8aabca60cb526559e,南京化学工业园区物流中心,生活服务,物流公司,江苏省,南京市,六合区,江苏南京市六合区罐区南路168号,b1c556e8aabca60cb526559e,1,0,118.831322,32.257667,,life,http://api.map.baidu.com/place/detail?uid=b1c556e8aabca60cb526559e&output=html&source=placeapi_v2,,08:00-18:00,,,,,,,,0,,,,,,,,118.83137842689,32.257526146716,0
1ce0ce0477caa9ea3c9a5e97,圆通速递(新大街店),生活服务,物流公司,江苏省,南京市,六合区,江苏省南京市六合区新大街68号,1ce0ce0477caa9ea3c9a5e97,1,0,119.00406,32.274846,95554,life,http://api.map.baidu.com/place/detail?uid=1ce0ce0477caa9ea3c9a5e97&output=html&source=placeapi_v2,,00:00-24:00,0.0,,,,,,,2,1,,,,,,,119.00406394585,32.274894767731,0
481c5d42e1e6710fa8059dae,申通快递(东沟网点),生活服务,物流公司,江苏省,南京市,六合区,南京市六合区东红路143号,481c5d42e1e6710fa8059dae,1,0,118.992839,32.274959,95543,life,http://api.map.baidu.com/place/detail?uid=481c5d42e1e6710fa8059dae&output=html&source=placeapi_v2,,09:00-19:00,,,,,,,,1,,,,,,,,,,0
76a945228c5baf66d618b71c,东来物流,生活服务,物流公司,江苏省,南京市,六合区,江苏省南京市六合区园区西路118号,,1,0,118.802503,32.285567,,life,http://api.map.baidu.com/place/detail?uid=76a945228c5baf66d618b71c&output=html&source=placeapi_v2,,,,,,,,,,,,,,,,,,118.80235210976,32.28565340768,0
1687700871061a00932ca3b3,壹米滴答(六合营业部),生活服务,物流公司,江苏省,南京市,六合区,江苏省南京市六合区南京国际画家村1栋125门面正门右边第三家,,1,0,118.807438,32.307084,,life,http://api.map.baidu.com/place/detail?uid=1687700871061a00932ca3b3&output=html&source=placeapi_v2,,08:30-19:30,,,,,,,,5,,,,,,,,118.80738482236,32.307127826189,0
a2953b61d682ff23eee4a51f,仪征化纤股份有限公司物流公司物流园,生活服务,物流公司,江苏省,扬州市,仪征市,江苏省扬州市仪征市真州镇康大路十五里墩收费站东南,a2953b61d682ff23eee4a51f,1,0,119.111798,32.30167,,life,http://api.map.baidu.com/place/detail?uid=a2953b61d682ff23eee4a51f&output=html&source=placeapi_v2,,08:00-18:00,,,,,,,,0,,,,,,,,119.11178286769,32.301881733481,0
a73f77daf0aacc978505bf32,南京联畅物流股份有限公司,生活服务,物流公司,江苏省,南京市,六合区,江苏省南京市六合区Z湖路Z湖广场2栋1单元1301室,a73f77daf0aacc978505bf32,1,0,118.825497,32.325392,,life,http://api.map.baidu.com/place/detail?uid=a73f77daf0aacc978505bf32&output=html&source=placeapi_v2,,08:00-18:00,,,,,,,,,,,,,,,,118.82533161809,32.325646887193,0
7b686cbf65d4e2091811d59f,收货处(紫晶国际购物中心店),生活服务,物流公司,江苏省,南京市,六合区,南京市六合区紫霞街10号紫晶国际购物中心F1,7b686cbf65d4e2091811d59f,1,0,118.850525,32.346083,,life,http://api.map.baidu.com/place/detail?uid=7b686cbf65d4e2091811d59f&output=html&source=placeapi_v2,,,,,,,,,,,,,,,,,,,,0
8e760be98a62fa057f29bd7a,申通快递(苏沪物流公司),生活服务,物流公司,江苏省,南京市,六合区,南京市六合区文峰路灵岩花园东侧约30米,,1,0,118.884518,32.339421,95543,life,http://api.map.baidu.com/place/detail?uid=8e760be98a62fa057f29bd7a&output=html&source=placeapi_v2,,09:00-19:00,,,,,,,,1,,,,,,,,118.88451852411,32.339415483634,0
ec62c9fa9118fffdc9fa5fdd,圆通速递(天石路店),生活服务,物流公司,江苏省,南京市,六合区,江苏省南京市六合区天石路91号,,1,0,118.943272,32.330261,95554,life,http://api.map.baidu.com/place/detail?uid=ec62c9fa9118fffdc9fa5fdd&output=html&source=placeapi_v2,,09:00-19:00,,,,,,,,3,,,,,,,,118.94324327119,32.33029499673,0
