uid,name,cat_L1,cat_L2,province,city,area,address,street_id,detail,child_num,loc_lng,loc_lat,telephone,type,detail_url,price,shop_hours,overall_rating,taste_rating,service_rating,environment_rating,facility_rating,hygiene_rating,technology_rating,image_num,comment_num,groupon_num,discount_num,favorite_num,checkin_num,brand,content_tag,naviloc_lng,naviloc_lat,child_num
051b870b9c421ba9735e800c,中国体育彩票(北岭路店),生活服务,彩票销售点,江苏省,南京市,高淳区,江苏省南京市高淳区镇兴路108-3号,051b870b9c421ba9735e800c,1,0,118.876422,31.336836,,life,http://api.map.baidu.com/place/detail?uid=051b870b9c421ba9735e800c&output=html&source=placeapi_v2,,,,,,,,,,7,,,,,,,,118.87637767958,31.336912967944,0
8ca5a78b90f3ccdb6b49f36e,中国体育彩票(镇兴路店),生活服务,彩票销售点,江苏省,南京市,高淳区,江苏省南京市高淳区镇兴路160-6号,8ca5a78b90f3ccdb6b49f36e,1,0,118.88582,31.334191,(025)57310923,life,http://api.map.baidu.com/place/detail?uid=8ca5a78b90f3ccdb6b49f36e&output=html&source=placeapi_v2,,07:00-20:00,,,,,,,,7,,,,,,,,118.88587084644,31.334462853958,0
586dc6e6a54427199d95dee6,中国体育彩票(北岭路店),生活服务,彩票销售点,江苏省,南京市,高淳区,江苏省南京市高淳区北岭路168-45号四期35幢,586dc6e6a54427199d95dee6,1,0,118.890949,31.338646,,life,http://api.map.baidu.com/place/detail?uid=586dc6e6a54427199d95dee6&output=html&source=placeapi_v2,,,,,,,,,,8,,,,,,,,,,0
136d430fc63c2d2993114cd0,中国体育彩票(淳安东路店),生活服务,彩票销售点,江苏省,南京市,高淳区,南京市高淳区淳安东路丹凤雅苑,136d430fc63c2d2993114cd0,1,0,118.885771,31.332366,95086,life,http://api.map.baidu.com/place/detail?uid=136d430fc63c2d2993114cd0&output=html&source=placeapi_v2,,,,,,,,,,8,,,,,,,,118.88577792752,31.332484324019,0
2132252d1784c7b94d55475f,中国体育彩票(学山路店),生活服务,彩票销售点,江苏省,南京市,高淳区,江苏省南京市高淳区淳中路37-25号温州商贸城14号,,1,0,118.875898,31.332442,,life,http://api.map.baidu.com/place/detail?uid=2132252d1784c7b94d55475f&output=html&source=placeapi_v2,,,,,,,,,,6,,,,,,,,118.87579361481,31.332434696174,0
2124bce4fbb3097d1df74d4e,中国体育彩票(栗园路店),生活服务,彩票销售点,江苏省,南京市,高淳区,南京市高淳区栗园路高淳区实验小学北侧约50米,2124bce4fbb3097d1df74d4e,1,0,118.877609,31.331282,,life,http://api.map.baidu.com/place/detail?uid=2124bce4fbb3097d1df74d4e&output=html&source=placeapi_v2,,,,,,,,,,10,,,,,,,,,,0
448aa6e444f41cea2e473372,中国体育彩票(太安路店),生活服务,彩票销售点,江苏省,南京市,高淳区,江苏省南京市高淳区太安路80号,448aa6e444f41cea2e473372,1,0,118.871434,31.334837,,life,http://api.map.baidu.com/place/detail?uid=448aa6e444f41cea2e473372&output=html&source=placeapi_v2,,,,,,,,,,11,,,,,,,,118.87128468978,31.334775990049,0
e5d84720daaad91e0482c23c,中国体育彩票(宝塔路店),生活服务,彩票销售点,江苏省,南京市,高淳区,江苏省南京市高淳区北漪路1~3号,,1,0,118.888018,31.330469,95086,life,http://api.map.baidu.com/place/detail?uid=e5d84720daaad91e0482c23c&output=html&source=placeapi_v2,,,,,,,,,,11,,,,,,,,118.88858414859,31.330296083648,0
6421b45b1dfc06a62fb96d89,中国体育彩票(淳中路店),生活服务,彩票销售点,江苏省,南京市,高淳区,江苏省南京市高淳区淳中路39号,6421b45b1dfc06a62fb96d89,1,0,118.874206,31.331379,(025)57317637,life,http://api.map.baidu.com/place/detail?uid=6421b45b1dfc06a62fb96d89&output=html&source=placeapi_v2,,,,,,,,,,8,,,,,,,,,,0
46f7f5ffdc48c75c2902e157,中国体育彩票(太安路店),生活服务,彩票销售点,江苏省,南京市,高淳区,南京市高淳区太安路康桥家园东侧约110米,,1,0,118.871687,31.333124,18912988153,life,http://api.map.baidu.com/place/detail?uid=46f7f5ffdc48c75c2902e157&output=html&source=placeapi_v2,,,,,,,,,,7,,,,,,,,,,0
67a7500a5b6e0bdb4e776ee2,中国体育彩票(凤凰商业街店),生活服务,彩票销售点,江苏省,南京市,高淳区,江苏省南京市高淳区石臼湖北路76号高淳碧桂园6幢105号,67a7500a5b6e0bdb4e776ee2,1,0,118.894391,31.346875,18602527616,life,http://api.map.baidu.com/place/detail?uid=67a7500a5b6e0bdb4e776ee2&output=html&source=placeapi_v2,,08:00-22:00,,,,,,,,3,,,,,,,,,,0
30957486f2e9d1db132935ad,中国体育彩票(固城湖南路店),生活服务,彩票销售点,江苏省,南京市,高淳区,南京市高淳区淳溪镇固城湖南路11-17号,30957486f2e9d1db132935ad,1,0,118.883946,31.328864,95086,life,http://api.map.baidu.com/place/detail?uid=30957486f2e9d1db132935ad&output=html&source=placeapi_v2,,,,,,,,,,14,,,,,,,,118.88409350048,31.328888159695,0
23e76177e63e3d3f0869d9f0,中国体育彩票(石臼湖北路店),生活服务,彩票销售点,江苏省,南京市,高淳区,江苏省南京市高淳区石臼湖北路2-14号,23e76177e63e3d3f0869d9f0,1,0,118.894326,31.330726,,life,http://api.map.baidu.com/place/detail?uid=23e76177e63e3d3f0869d9f0&output=html&source=placeapi_v2,,,,,,,,,,14,,,,,,,,118.89410022322,31.330306033429,0
0dbe6703877a54792806ce91,中国体育彩票(县府路店),生活服务,彩票销售点,江苏省,南京市,高淳区,江苏省南京市高淳区县府路15~17号,0dbe6703877a54792806ce91,1,0,118.876109,31.325619,,life,http://api.map.baidu.com/place/detail?uid=0dbe6703877a54792806ce91&output=html&source=placeapi_v2,,,,,,,,,,3,,,,,,,,,,0
e685050659c2968afb2d6147,中国福利彩票(凯悦路店),生活服务,彩票销售点,江苏省,南京市,高淳区,江苏省南京市高淳区官溪路101----7号,,1,0,118.892018,31.34101,,life,http://api.map.baidu.com/place/detail?uid=e685050659c2968afb2d6147&output=html&source=placeapi_v2,,08:30-20:00,,,,,,,,8,,,,,,,,,,0
f693e95733b4ea6626d2bb7b,中国福利彩票(镇兴路店),生活服务,彩票销售点,江苏省,南京市,高淳区,江苏省南京市高淳区镇兴路166号,f693e95733b4ea6626d2bb7b,1,0,118.885852,31.33424,954168,life,http://api.map.baidu.com/place/detail?uid=f693e95733b4ea6626d2bb7b&output=html&source=placeapi_v2,,08:30-20:00,,,,,,,,3,,,,,,,,118.88588336792,31.33446156815,0
1f8d948b243f694a465726ba,中国福利彩票(栗园路销售厅),生活服务,彩票销售点,江苏省,南京市,高淳区,江苏南京市高淳区学山路162-3号,1f8d948b243f694a465726ba,1,0,118.877672,31.331282,,life,http://api.map.baidu.com/place/detail?uid=1f8d948b243f694a465726ba&output=html&source=placeapi_v2,,08:30-20:00,0.0,,,,,,,13,,,,,,,,118.87757708901,31.33135855455,0
bb4fd7b83346c28988fc06ba,中国福利彩票(太安路店),生活服务,彩票销售点,江苏省,南京市,高淳区,南京市高淳区太安路太安新村东南侧约30米,bb4fd7b83346c28988fc06ba,1,0,118.871617,31.334308,,life,http://api.map.baidu.com/place/detail?uid=bb4fd7b83346c28988fc06ba&output=html&source=placeapi_v2,,08:30-20:00,,,,,,,,7,,,,,,,,,,0
ef3fb98a4d29130f4c3a59bb,中国福利彩票(官溪路店),生活服务,彩票销售点,江苏省,南京市,高淳区,江苏省南京市高淳区官溪路101-7号,ef3fb98a4d29130f4c3a59bb,1,0,118.87294,31.325591,954168,life,http://api.map.baidu.com/place/detail?uid=ef3fb98a4d29130f4c3a59bb&output=html&source=placeapi_v2,,08:30-20:00,,,,,,,,2,,,,,,,,,,0
9091dafe1025466d42d63eb2,中国福利彩票(县府路店),生活服务,彩票销售点,江苏省,南京市,高淳区,江苏南京市高淳区县府路13-3号,,1,0,118.875354,31.326148,954168,life,http://api.map.baidu.com/place/detail?uid=9091dafe1025466d42d63eb2&output=html&source=placeapi_v2,,08:30-20:00,,,,,,,,4,,,,,,,,118.87525292113,31.326104851752,0
392fcc0baf73422371210b48,中国福利彩票(丹阳湖北路店),生活服务,彩票销售点,江苏省,南京市,高淳区,江苏省南京市高淳区丹阳湖北路34号,392fcc0baf73422371210b48,1,0,118.902513,31.338795,954168,life,http://api.map.baidu.com/place/detail?uid=392fcc0baf73422371210b48&output=html&source=placeapi_v2,,08:30-20:00,,,,,,,,5,,,,,,,,118.90269536215,31.338776771166,0
1be8907016676bfd88b98819,中国福利彩票(濑渚路店),生活服务,彩票销售点,江苏省,南京市,高淳区,南京市高淳区濑渚路波塔东郡,,1,0,118.909301,31.333384,,life,http://api.map.baidu.com/place/detail?uid=1be8907016676bfd88b98819&output=html&source=placeapi_v2,,,,,,,,,,4,,,,,,,,,,0
879e42e779c56d810b69d99e,中国福利彩票(北岭路店),生活服务,彩票销售点,江苏省,南京市,高淳区,江苏省南京市高淳区北岭路186号,,1,0,118.9057,31.340097,,life,http://api.map.baidu.com/place/detail?uid=879e42e779c56d810b69d99e&output=html&source=placeapi_v2,,08:30-22:15,,,,,,,,2,,,,,,,,,,0
62ad21e7929197ec9d9d68f2,中国体育彩票(北岭路店),生活服务,彩票销售点,江苏省,南京市,高淳区,江苏省南京市高淳区北岭路186号1幢113室,,1,0,118.905621,31.340022,(025)57307416,life,http://api.map.baidu.com/place/detail?uid=62ad21e7929197ec9d9d68f2&output=html&source=placeapi_v2,,,,,,,,,,4,,,,,,,,,,0
8b1d739e969ee54b80a00c85,中国体育彩票(茅山路店),生活服务,彩票销售点,江苏省,南京市,高淳区,江苏省南京市高淳区茅山路商业街a40号,8b1d739e969ee54b80a00c85,1,0,118.947424,31.367821,95086,life,http://api.map.baidu.com/place/detail?uid=8b1d739e969ee54b80a00c85&output=html&source=placeapi_v2,,,,,,,,,,7,,,,,,,,118.94739838064,31.367867692434,0
dfb5afc4bd7da0d68bfc0624,中国体育彩票(新港路店),生活服务,彩票销售点,江苏省,南京市,高淳区,江苏省南京市高淳区新港东路35-4号,dfb5afc4bd7da0d68bfc0624,1,0,119.001236,31.392043,,life,http://api.map.baidu.com/place/detail?uid=dfb5afc4bd7da0d68bfc0624&output=html&source=placeapi_v2,,,,,,,,,,7,,,,,,,,119.00123486829,31.39204680271,0
d9c5760df8996803a6da398a,中国体育彩票(毛公铺路店),生活服务,彩票销售点,江苏省,南京市,溧水区,南京市溧水区毛公铺路江苏省溧水区农村商业银行(毛公铺支行)南侧约250米,,1,0,119.013412,31.426216,,life,http://api.map.baidu.com/place/detail?uid=d9c5760df8996803a6da398a&output=html&source=placeapi_v2,,,,,,,,,,4,,,,,,,,,,0
1100958702870bc9c91b953a,中国福利彩票(双牌石大街店),生活服务,彩票销售点,江苏省,南京市,高淳区,南京市高淳区漆桥街道双牌石大街1号,1100958702870bc9c91b953a,1,0,119.001032,31.397826,954168,life,http://api.map.baidu.com/place/detail?uid=1100958702870bc9c91b953a&output=html&source=placeapi_v2,,08:30-20:00,,,,,,,,16,,,,,,,,119.00112276785,31.397681809768,0
344d38e5ac5f45919222e00e,中国福利彩票(王垛路店),生活服务,彩票销售点,安徽省,马鞍山市,当涂县,马鞍山市当涂县王垛路天天向上幼儿园(王垛路)西北侧约80米,,1,0,118.662645,31.449814,954168,life,http://api.map.baidu.com/place/detail?uid=344d38e5ac5f45919222e00e&output=html&source=placeapi_v2,,08:30-20:00,,,,,,,,,,,,,,,,,,0
b7cf6e822f35f372f319377e,中国体育彩票(西湖路店),生活服务,彩票销售点,江苏省,南京市,溧水区,南京市溧水区西湖路江苏省溧水区农村商业银行(孔镇支行)东侧约80米,,1,0,119.009411,31.491237,,life,http://api.map.baidu.com/place/detail?uid=b7cf6e822f35f372f319377e&output=html&source=placeapi_v2,,08:30-19:00,,,,,,,,2,,,,,,,,,,0
0b0e43760d1960cb1f38942d,中国福利彩票(马尹路店),生活服务,彩票销售点,安徽省,马鞍山市,博望区,马鞍山市博望区马尹路永昌华城东南侧约200米,,1,0,118.809202,31.562857,954168,life,http://api.map.baidu.com/place/detail?uid=0b0e43760d1960cb1f38942d&output=html&source=placeapi_v2,,08:30-20:00,,,,,,,,6,,,,,,,,,,0
6a48617f855c9a7db5147fe5,中国体育彩票(马尹路店),生活服务,彩票销售点,安徽省,马鞍山市,博望区,马鞍山市博望区马尹路永昌华城东南侧约200米,,1,0,118.809188,31.562839,95086,life,http://api.map.baidu.com/place/detail?uid=6a48617f855c9a7db5147fe5&output=html&source=placeapi_v2,,,,,,,,,,8,,,,,,,,,,0
dc56fc24022b5a296018091f,中国体育彩票(多蓝水岸店),生活服务,彩票销售点,安徽省,马鞍山市,博望区,马鞍山市博望区沧波路多蓝水岸,,1,0,118.847435,31.570941,13275551168,life,http://api.map.baidu.com/place/detail?uid=dc56fc24022b5a296018091f&output=html&source=placeapi_v2,,,,,,,,,,6,,,,,,,,118.84729235635,31.570929574275,0
40eca84c55dc773275e5b6e0,中国体育彩票(新城路店),生活服务,彩票销售点,安徽省,马鞍山市,博望区,马鞍山市博望区横山路中河丹桂园东侧约100米,40eca84c55dc773275e5b6e0,1,0,118.852727,31.572065,95086,life,http://api.map.baidu.com/place/detail?uid=40eca84c55dc773275e5b6e0&output=html&source=placeapi_v2,,,,,,,,,,5,,,,,,,,,,0
c22141b96d711da4fda7786a,中国福利彩票(沧波路店),生活服务,彩票销售点,安徽省,马鞍山市,博望区,马鞍山市博望区辽河西路博望时代花园西北侧约120米,c22141b96d711da4fda7786a,1,0,118.848028,31.56833,954168,life,http://api.map.baidu.com/place/detail?uid=c22141b96d711da4fda7786a&output=html&source=placeapi_v2,,,,,,,,,,5,,,,,,,,118.84804675152,31.568213148366,0
475267ac86677b4f246e98e8,中国福利彩票(辽河西路店),生活服务,彩票销售点,安徽省,马鞍山市,博望区,马鞍山市博望区辽河西路星河湾・名门世家1期北侧,,1,0,118.838553,31.567307,954168,life,http://api.map.baidu.com/place/detail?uid=475267ac86677b4f246e98e8&output=html&source=placeapi_v2,,08:30-20:00,,,,,,,,8,,,,,,,,,,0
f3e55daeddcf190dfbf0cbe9,中国体育彩票(沧波路店),生活服务,彩票销售点,安徽省,马鞍山市,博望区,马鞍山市博望区辽河西路博望时代花园西北侧约120米,f3e55daeddcf190dfbf0cbe9,1,0,118.848087,31.568389,95086,life,http://api.map.baidu.com/place/detail?uid=f3e55daeddcf190dfbf0cbe9&output=html&source=placeapi_v2,,,,,,,,,,8,,,,,,,,118.84710436526,31.568127637372,0
7d4a8c19c5dab1144e2fdfbf,好运来彩吧,生活服务,彩票销售点,安徽省,马鞍山市,博望区,马鞍山市博望区辽河西路博望时代花园西北侧约120米,7d4a8c19c5dab1144e2fdfbf,1,0,118.848097,31.568326,(0555)6769297,life,http://api.map.baidu.com/place/detail?uid=7d4a8c19c5dab1144e2fdfbf&output=html&source=placeapi_v2,,,,,,,,,,3,,,,,,,,,,0
bace18b2c8756fac8bfc062a,涛金彩吧,生活服务,彩票销售点,安徽省,马鞍山市,博望区,安徽省马鞍山市博望区建设中路紫金城891号,bace18b2c8756fac8bfc062a,1,0,118.856515,31.569559,(0555)6760823,life,http://api.map.baidu.com/place/detail?uid=bace18b2c8756fac8bfc062a&output=html&source=placeapi_v2,,09:00-21:00,,,,,,,,9,,,,,,,,,,0
9b131e524329c693ed74f8c6,中国体育彩票(正大街店),生活服务,彩票销售点,江苏省,南京市,溧水区,南京市溧水区正大街石湫镇明觉小学南侧约40米,,1,0,118.897026,31.573863,,life,http://api.map.baidu.com/place/detail?uid=9b131e524329c693ed74f8c6&output=html&source=placeapi_v2,,08:30-20:00,,,,,,,,4,,,,,,,,118.89704886434,31.573702115809,0
1dfccef2eb884a803fe23107,中国福利彩票(S314店),生活服务,彩票销售点,安徽省,马鞍山市,博望区,马鞍山市博望区丹阳路中央城西南侧约170米,1dfccef2eb884a803fe23107,1,0,118.725915,31.630869,(0555)6917700,life,http://api.map.baidu.com/place/detail?uid=1dfccef2eb884a803fe23107&output=html&source=placeapi_v2,,08:30-20:00,,,,,,,,7,,,,,,,,,,0
c052433476ec977adbeceda3,中国福利彩票(双拥路店),生活服务,彩票销售点,安徽省,马鞍山市,博望区,马鞍山市博望区双拥路新市镇工业园西北侧约60米,,1,0,118.783625,31.605405,954168,life,http://api.map.baidu.com/place/detail?uid=c052433476ec977adbeceda3&output=html&source=placeapi_v2,,08:30-20:00,,,,,,,,,,,,,,,,,,0
e292bf88625a04487ec87654,中国福利彩票(平安西路店),生活服务,彩票销售点,江苏省,南京市,溧水区,南京市溧水区平安西路与茅山路交叉路口西南侧,,1,0,118.986831,31.614377,954168,life,http://api.map.baidu.com/place/detail?uid=e292bf88625a04487ec87654&output=html&source=placeapi_v2,,08:30-20:00,,,,,,,,5,,,,,,,,118.98684427992,31.614479625532,0
b9c977235cc7328cb5147fd2,中国体育彩票(平安西路店),生活服务,彩票销售点,江苏省,南京市,溧水区,南京市溧水区平安西路与茅山路交叉路口西侧,,1,0,118.986436,31.614417,95086,life,http://api.map.baidu.com/place/detail?uid=b9c977235cc7328cb5147fd2&output=html&source=placeapi_v2,,,,,,,,,,6,,,,,,,,118.98645254056,31.614533055685,0
e292bf88625a04487ec87654,中国福利彩票(平安西路店),生活服务,彩票销售点,江苏省,南京市,溧水区,南京市溧水区平安西路与茅山路交叉路口西南侧,,1,0,118.986831,31.614377,954168,life,http://api.map.baidu.com/place/detail?uid=e292bf88625a04487ec87654&output=html&source=placeapi_v2,,08:30-20:00,,,,,,,,5,,,,,,,,118.98684427992,31.614479625532,0
6455de2508777116a1046496,中国福利彩票(平安西路店),生活服务,彩票销售点,江苏省,南京市,溧水区,南京市溧水区平安西路平山路商住楼西侧约110米,,1,0,118.994323,31.613281,(025)57233989,life,http://api.map.baidu.com/place/detail?uid=6455de2508777116a1046496&output=html&source=placeapi_v2,,08:30-20:00,,,,,,,,9,,,,,,,,,,0
f8876a6bb2222b9043024512,中国体育彩票(金牛南路店),生活服务,彩票销售点,江苏省,南京市,溧水区,南京市溧水区金牛南路6号,f8876a6bb2222b9043024512,1,0,118.994317,31.613128,(025)57233989,life,http://api.map.baidu.com/place/detail?uid=f8876a6bb2222b9043024512&output=html&source=placeapi_v2,,08:00-20:00,,,,,,,,9,,,,,,,,118.99448381942,31.613033463824,0
2ff713fa80384fe4e507385a,中国福利彩票(楚云街店),生活服务,彩票销售点,江苏省,南京市,江宁区,南京市江宁区楚云街丹阳幼儿园北侧约80米,,1,0,118.727234,31.638899,,life,http://api.map.baidu.com/place/detail?uid=2ff713fa80384fe4e507385a&output=html&source=placeapi_v2,,08:30-20:00,,,,,,,,2,,,,,,,,,,0
b926bef81d3b511814c8f689,中国体育彩票(秀园路店),生活服务,彩票销售点,江苏省,南京市,溧水区,江苏省南京市溧水区致远路辛庄北苑1栋103室,b926bef81d3b511814c8f689,1,0,119.047792,31.648028,95086,life,http://api.map.baidu.com/place/detail?uid=b926bef81d3b511814c8f689&output=html&source=placeapi_v2,,09:00-22:15,,,,,,,,8,,,,,,,,119.04769646354,31.647924945684,0
b11cdc0ae29926dec37da2fb,中国福利彩票(秦淮大道店),生活服务,彩票销售点,江苏省,南京市,溧水区,南京市溧水区秦淮大道水岸康城,,1,0,119.051526,31.646051,954168,life,http://api.map.baidu.com/place/detail?uid=b11cdc0ae29926dec37da2fb&output=html&source=placeapi_v2,,08:30-20:00,,,,,,,,4,,,,,,,,119.05170012676,31.64605996,0
8e2d69fdc7c6a1bf6fc02c51,中国体育彩票(秀园路店),生活服务,彩票销售点,江苏省,南京市,溧水区,江苏省南京市溧水区秀园路55号1幢104室,8e2d69fdc7c6a1bf6fc02c51,1,0,119.04412,31.648915,95086,life,http://api.map.baidu.com/place/detail?uid=8e2d69fdc7c6a1bf6fc02c51&output=html&source=placeapi_v2,,,,,,,,,,12,,,,,,,,119.04424603614,31.648758982029,0
28ed955ad836f83739221cac,中国福利彩票(秀园路店),生活服务,彩票销售点,江苏省,南京市,溧水区,南京市溧水区秀园路55号1幢104号,28ed955ad836f83739221cac,1,0,119.044109,31.648851,,life,http://api.map.baidu.com/place/detail?uid=28ed955ad836f83739221cac&output=html&source=placeapi_v2,,08:30-20:00,,,,,,,,4,,,,,,,,,,0
099ca4449e9291344207c19c,中国体育彩票(致远路店),生活服务,彩票销售点,江苏省,南京市,溧水区,南京市溧水区致远路宏泰嘉苑,099ca4449e9291344207c19c,1,0,119.047111,31.657711,95086,life,http://api.map.baidu.com/place/detail?uid=099ca4449e9291344207c19c&output=html&source=placeapi_v2,,08:30-21:00,,,,,,,,14,,,,,,,,119.04710199999,31.657875942159,0
67943e5ba2a64976bb17e7b9,中国体育彩票(园村巷店),生活服务,彩票销售点,江苏省,南京市,溧水区,江苏省南京市溧水区中山东路36号,67943e5ba2a64976bb17e7b9,1,0,119.040944,31.654458,,life,http://api.map.baidu.com/place/detail?uid=67943e5ba2a64976bb17e7b9&output=html&source=placeapi_v2,,08:30-22:00,0,,,,,,,21,0,,,,,,,119.04081361169,31.654478343986,0
c49db4103f8bb1df1e1d1176,中国体育彩票(园村巷店),生活服务,彩票销售点,江苏省,南京市,溧水区,江苏省南京市溧水区珍珠南路59-12号,c49db4103f8bb1df1e1d1176,1,0,119.040158,31.653046,95086,life,http://api.map.baidu.com/place/detail?uid=c49db4103f8bb1df1e1d1176&output=html&source=placeapi_v2,,08:30-22:00,,,,,,,,8,,,,,,,,,,0
146685ca93efe786f7b916cf,中国体育彩票(大东门街店),生活服务,彩票销售点,江苏省,南京市,溧水区,江苏省南京市溧水区大东门街2-7号,146685ca93efe786f7b916cf,1,0,119.037487,31.655837,95086,life,http://api.map.baidu.com/place/detail?uid=146685ca93efe786f7b916cf&output=html&source=placeapi_v2,,08:30-22:00,,,,,,,,11,,,,,,,,119.03739736122,31.655725019035,0
d4c5715532f229b1471a3239,中国体育彩票(淮源街店),生活服务,彩票销售点,江苏省,南京市,溧水区,江苏省南京市溧水区分龙岗西路32-3号,d4c5715532f229b1471a3239,1,0,119.043518,31.66142,13913386698,life,http://api.map.baidu.com/place/detail?uid=d4c5715532f229b1471a3239&output=html&source=placeapi_v2,,08:00-22:00,0,,,,,,,10,0,,,,,,,119.04340898698,31.661405796293,0
710ce042a549bfc96c3e1bac,中国体育彩票(珍珠路店),生活服务,彩票销售点,江苏省,南京市,溧水区,江苏省南京市溧水区珍珠路1-12号,710ce042a549bfc96c3e1bac,1,0,119.037594,31.657854,95086,life,http://api.map.baidu.com/place/detail?uid=710ce042a549bfc96c3e1bac&output=html&source=placeapi_v2,,08:30-21:30,,,,,,,,12,,,,,,,,,,0
c725ada39c3c7c57f5e73bf3,中国体育彩票(中山路店),生活服务,彩票销售点,江苏省,南京市,溧水区,南京市溧水区方塘巷县前新村东南侧约30米,c725ada39c3c7c57f5e73bf3,1,0,119.034892,31.655141,95086,life,http://api.map.baidu.com/place/detail?uid=c725ada39c3c7c57f5e73bf3&output=html&source=placeapi_v2,,08:30-21:30,,,,,,,,8,,,,,,,,119.03484404818,31.655039968265,0
ee0c525c8b61bf0196f08c67,中国体育彩票(秦淮大道店),生活服务,彩票销售点,江苏省,南京市,溧水区,江苏省南京市溧水区秦淮大道溧水区第三高级中学东北侧约150米,ee0c525c8b61bf0196f08c67,1,0,119.050757,31.666667,95086,life,http://api.map.baidu.com/place/detail?uid=ee0c525c8b61bf0196f08c67&output=html&source=placeapi_v2,,08:30-22:00,,,,,,,,7,,,,,,,,119.05096245175,31.666677615993,0
b14673218dc4b720ee74f82d,中国体育彩票(交通路店),生活服务,彩票销售点,江苏省,南京市,溧水区,南京市溧水区交通路尚城领寓东北侧约90米,,1,0,119.048517,31.666796,95086,life,http://api.map.baidu.com/place/detail?uid=b14673218dc4b720ee74f82d&output=html&source=placeapi_v2,,08:30-20:00,,,,,,,,5,,,,,,,,119.048412961,31.666920282419,0
33de90cdd906ea25bea24036,中国体育彩票(中大街店),生活服务,彩票销售点,江苏省,南京市,溧水区,江苏省南京市溧水区大西门街白酒巷42号,,1,0,119.034828,31.661234,95086,life,http://api.map.baidu.com/place/detail?uid=33de90cdd906ea25bea24036&output=html&source=placeapi_v2,,,,,,,,,,4,,,,,,,,,,0
b74d46bae49e49a63517dcd6,中国体育彩票(仪凤北路店),生活服务,彩票销售点,江苏省,南京市,溧水区,江苏省南京市溧水区文昌东街29号,b74d46bae49e49a63517dcd6,1,0,119.054241,31.667145,95086,life,http://api.map.baidu.com/place/detail?uid=b74d46bae49e49a63517dcd6&output=html&source=placeapi_v2,,,,,,,,,,11,,,,,,,,119.05414099979,31.667055944014,0
10393becc545fec40e3ddac4,中国福利彩票(中山路店),生活服务,彩票销售点,江苏省,南京市,溧水区,南京市溧水区园村巷三元新村西侧,10393becc545fec40e3ddac4,1,0,119.040443,31.653653,954168,life,http://api.map.baidu.com/place/detail?uid=10393becc545fec40e3ddac4&output=html&source=placeapi_v2,,08:30-20:00,,,,,,,,6,,,,,,,,119.04062719084,31.65362367236,0
b80e698f1471fb148936eeba,中国福利彩票(宝塔路店),生活服务,彩票销售点,江苏省,南京市,溧水区,江苏省南京市溧水区宝塔路8-18号f1,b80e698f1471fb148936eeba,1,0,119.034072,31.663023,(025)56200059,life,http://api.map.baidu.com/place/detail?uid=b80e698f1471fb148936eeba&output=html&source=placeapi_v2,,08:30-20:00,,,,,,,,11,,,,,,,,119.03396506253,31.662989029433,0
e9fce06646b95217b320a8ad,中国福利彩票(珍珠路店),生活服务,彩票销售点,江苏省,南京市,溧水区,南京市溧水区珍珠路尚溧城东北侧约40米,,1,0,119.037577,31.657869,,life,http://api.map.baidu.com/place/detail?uid=e9fce06646b95217b320a8ad&output=html&source=placeapi_v2,,,,,,,,,,2,,,,,,,,,,0
a76955a24f9148936fa3ccf8,中国福利彩票(小东门街店),生活服务,彩票销售点,江苏省,南京市,溧水区,江苏省南京市溧水区中山路5号,a76955a24f9148936fa3ccf8,1,0,119.03207,31.659574,954168,life,http://api.map.baidu.com/place/detail?uid=a76955a24f9148936fa3ccf8&output=html&source=placeapi_v2,,08:30-20:00,,,,,,,,10,,,,,,,,,,0
b4dc8e6a3cff5644441a32ab,中国福利彩票(交通路店),生活服务,彩票销售点,江苏省,南京市,溧水区,南京市溧水区交通路明都苑,,1,0,119.038854,31.664067,954168,life,http://api.map.baidu.com/place/detail?uid=b4dc8e6a3cff5644441a32ab&output=html&source=placeapi_v2,,,,,,,,,,5,,,,,,,,119.03881122403,31.664240468248,0
fbef9983a3a24afa5fd4fe48,中国福利彩票(交通路店),生活服务,彩票销售点,江苏省,南京市,溧水区,江苏省南京市溧水区交通路65号,fbef9983a3a24afa5fd4fe48,1,0,119.040041,31.664711,954168,life,http://api.map.baidu.com/place/detail?uid=fbef9983a3a24afa5fd4fe48&output=html&source=placeapi_v2,,08:30-20:00,,,,,,,,9,,,,,,,,119.04007129423,31.664558037208,0
14dfb35e7c3ff40e2efaa785,中国福利彩票(32011146投注站),生活服务,彩票销售点,江苏省,南京市,江宁区,南京市江宁区南铜路铜景园北侧约170米,14dfb35e7c3ff40e2efaa785,1,0,118.87978,31.690418,13376069093,life,http://api.map.baidu.com/place/detail?uid=14dfb35e7c3ff40e2efaa785&output=html&source=placeapi_v2,,08:30-20:00,,,,,,,,7,,,,,,,,118.87976253786,31.690618577691,0
a413bc34d5680697d42ce21d,中国体育彩票(铜岭路店),生活服务,彩票销售点,江苏省,南京市,江宁区,南京市江宁区南铜路铜景园北侧约170米,a413bc34d5680697d42ce21d,1,0,118.87979,31.690412,13376069093,life,http://api.map.baidu.com/place/detail?uid=a413bc34d5680697d42ce21d&output=html&source=placeapi_v2,,,,,,,,,,2,,,,,,,,118.87974268441,31.690621364108,0
d2badbb08bc1b6d615a1908f,中国福利彩票(中兴西路店),生活服务,彩票销售点,江苏省,南京市,溧水区,南京市溧水区中兴西路创维乐活城北门西侧约50米,d2badbb08bc1b6d615a1908f,1,0,119.016733,31.697639,,life,http://api.map.baidu.com/place/detail?uid=d2badbb08bc1b6d615a1908f&output=html&source=placeapi_v2,,08:30-20:00,,,,,,,,7,,,,,,,,,,0
44f0fac4bf321dbc0aa8d499,中国福利彩票(机场路店),生活服务,彩票销售点,江苏省,南京市,溧水区,溧水开发区机场路碧水家园,44f0fac4bf321dbc0aa8d499,1,0,119.040776,31.682047,(025)56619958,life,http://api.map.baidu.com/place/detail?uid=44f0fac4bf321dbc0aa8d499&output=html&source=placeapi_v2,,08:30-20:00,,,,,,,,9,,,,,,,,119.04075449151,31.682338182815,0
1c79423eb71899d59fec2b57,中国福利彩票(开园路店),生活服务,彩票销售点,江苏省,南京市,溧水区,南京市溧水区开园路秦淮花苑-南区,1c79423eb71899d59fec2b57,1,0,119.054821,31.675928,954168,life,http://api.map.baidu.com/place/detail?uid=1c79423eb71899d59fec2b57&output=html&source=placeapi_v2,,08:30-20:00,0,,,,,,,9,0,,,,,,,,,0
65231bb030c6e673badf8f34,中国体育彩票(秦淮大道店),生活服务,彩票销售点,江苏省,南京市,溧水区,南京市溧水区秦淮大道北宸新苑西南侧,65231bb030c6e673badf8f34,1,0,119.050514,31.681322,95086,life,http://api.map.baidu.com/place/detail?uid=65231bb030c6e673badf8f34&output=html&source=placeapi_v2,,,,,,,,,,9,,,,,,,,119.0505768559,31.681322226582,0
1661a01fc209a910afee7ad2,中国体育彩票(珍珠北路店),生活服务,彩票销售点,江苏省,南京市,溧水区,南京市溧水区珍珠北路美丽新城-北区,1661a01fc209a910afee7ad2,1,0,119.036952,31.67917,95086,life,http://api.map.baidu.com/place/detail?uid=1661a01fc209a910afee7ad2&output=html&source=placeapi_v2,,08:00-23:00,,,,,,,,9,,,,,,,,119.03711296668,31.679183691371,0
46bf39169e9b5da2067ce89b,中国体育彩票(机场路店),生活服务,彩票销售点,江苏省,南京市,溧水区,江苏省南京市溧水区宝塔北路2号一品骊城43栋,,1,0,119.030647,31.680772,95086,life,http://api.map.baidu.com/place/detail?uid=46bf39169e9b5da2067ce89b&output=html&source=placeapi_v2,,,,,,,,,,4,,,,,,,,119.03070641078,31.680717870595,0
c19addff7e8edd785e17c31b,中国福利彩票(32016197销售点),生活服务,彩票销售点,江苏省,南京市,江宁区,雨润连锁超市江宁横溪店(吴楚东路南),,1,0,118.789825,31.726694,,life,http://api.map.baidu.com/place/detail?uid=c19addff7e8edd785e17c31b&output=html&source=placeapi_v2,,08:30-20:00,,,,,,,,,,,,,,,,,,0
f3b83d5dfeacc4774354d72a,中国福利彩票(金航路店),生活服务,彩票销售点,江苏省,南京市,江宁区,南京市江宁区五圩路王朝快捷酒店西南侧约90米,f3b83d5dfeacc4774354d72a,1,0,118.896669,31.726422,954168,life,http://api.map.baidu.com/place/detail?uid=f3b83d5dfeacc4774354d72a&output=html&source=placeapi_v2,,,,,,,,,,1,,,,,,,,,,0
62621aa71eb2b1ddf5c59c72,中国体育彩票(金鸡泉路店),生活服务,彩票销售点,江苏省,南京市,溧水区,南京市溧水区金鸡泉路新城佳苑,,1,0,118.966561,31.734236,,life,http://api.map.baidu.com/place/detail?uid=62621aa71eb2b1ddf5c59c72&output=html&source=placeapi_v2,,,,,,,,,,1,,,,,,,,,,0
054818f2f460d95cb8bd6317,彩票销售点,生活服务,彩票销售点,江苏省,南京市,江宁区,南京市江宁区1层到达厅旅客出口旁,054818f2f460d95cb8bd6317,1,0,118.878205,31.739118,,life,http://api.map.baidu.com/place/detail?uid=054818f2f460d95cb8bd6317&output=html&source=placeapi_v2,,,,,,,,,,,,,,,,,,,,0
a13ec51349af44c0eb1e97e2,中国体育彩票(崇贤南街店),生活服务,彩票销售点,江苏省,南京市,溧水区,南京市溧水区崇贤南街柘塘中心卫生院东北侧约50米,,1,0,118.926862,31.762162,95086,life,http://api.map.baidu.com/place/detail?uid=a13ec51349af44c0eb1e97e2&output=html&source=placeapi_v2,,,,,,,,,,1,,,,,,,,,,0
1f88043c32a1376f8bf15d78,中国体育彩票(桃盛大街店),生活服务,彩票销售点,江苏省,南京市,江宁区,江苏省南京市江宁区桃盛路31号,1f88043c32a1376f8bf15d78,1,0,118.784605,31.780784,95086,life,http://api.map.baidu.com/place/detail?uid=1f88043c32a1376f8bf15d78&output=html&source=placeapi_v2,,08:00-22:30,,,,,,,,2,,,,,,,,,,0
c8dac650ddcb1230fe0eb02b,中国体育彩票(文理路店),生活服务,彩票销售点,江苏省,南京市,江宁区,江苏省南京市江宁区纬一路105号,,1,0,118.790772,31.775319,95086,life,http://api.map.baidu.com/place/detail?uid=c8dac650ddcb1230fe0eb02b&output=html&source=placeapi_v2,,,,,,,,,,5,,,,,,,,118.79077159709,31.775318770798,0
bf1b8b2d3f2b28b632870a1c,中国福利彩票(金宁街店),生活服务,彩票销售点,江苏省,南京市,江宁区,江苏省南京市江宁区东虹街8号,bf1b8b2d3f2b28b632870a1c,1,0,118.782144,31.782911,954168,life,http://api.map.baidu.com/place/detail?uid=bf1b8b2d3f2b28b632870a1c&output=html&source=placeapi_v2,,08:30-20:00,,,,,,,,2,,,,,,,,118.78233399309,31.78298413749,0
f452d46f82369bc89d82ea4d,中国体育彩票(金宁街店),生活服务,彩票销售点,江苏省,南京市,江宁区,江苏省南京市江宁区贞白街7号,f452d46f82369bc89d82ea4d,1,0,118.782143,31.78291,95086,life,http://api.map.baidu.com/place/detail?uid=f452d46f82369bc89d82ea4d&output=html&source=placeapi_v2,,08:30-20:00,,,,,,,,7,,,,,,,,118.78232443422,31.782927588421,0
8034c8d0491556d5a5da3974,中国体育彩票(沽塘街店),生活服务,彩票销售点,江苏省,南京市,江宁区,南京市江宁区贞白街童乐育幼园西侧约210米,8034c8d0491556d5a5da3974,1,0,118.78101,31.781985,,life,http://api.map.baidu.com/place/detail?uid=8034c8d0491556d5a5da3974&output=html&source=placeapi_v2,,,,,,,,,,2,,,,,,,,,,0
32b02249a60e470c970319aa,中国体育彩票(天禄大道店),生活服务,彩票销售点,江苏省,南京市,江宁区,南京市江宁区天禄大道南京禄口晨虹花园酒店(南京禄口机场店)东南侧约30米,,1,0,118.883352,31.785351,,life,http://api.map.baidu.com/place/detail?uid=32b02249a60e470c970319aa&output=html&source=placeapi_v2,,,,,,,,,,1,,,,,,,,,,0
f3e7df9006f14832dc1e5270,中国体育彩票(金宁路店),生活服务,彩票销售点,江苏省,南京市,江宁区,南京市江宁区金宁路禄口街道第二幼儿园西北侧,f3e7df9006f14832dc1e5270,1,0,118.878694,31.778463,95086,life,http://api.map.baidu.com/place/detail?uid=f3e7df9006f14832dc1e5270&output=html&source=placeapi_v2,,,,,,,,,,3,,,,,,,,118.87871057539,31.778440755067,0
cda246c1d606ec89cb213dc6,中国体育彩票(白云路店),生活服务,彩票销售点,江苏省,南京市,江宁区,南京市江宁区白云路尚品宾馆(瑞彤店),cda246c1d606ec89cb213dc6,1,0,118.872335,31.782563,,life,http://api.map.baidu.com/place/detail?uid=cda246c1d606ec89cb213dc6&output=html&source=placeapi_v2,,,,,,,,,,2,,,,,,,,118.87217957813,31.78263545735,0
a523ff739821b7d93686f4c9,中国福利彩票(32011112销售点),生活服务,彩票销售点,江苏省,南京市,江宁区,江苏省南京市江宁区信陵路7号,,1,0,118.870329,31.781694,,life,http://api.map.baidu.com/place/detail?uid=a523ff739821b7d93686f4c9&output=html&source=placeapi_v2,,,,,,,,,,2,,,,,,,,118.87015757238,31.781802629434,0
0e139749e1acd009f40e77bb,中国福利彩票(禄口大街店),生活服务,彩票销售点,江苏省,南京市,江宁区,江苏省南京市江宁区禄口大街174号,0e139749e1acd009f40e77bb,1,0,118.876551,31.775628,15850603393,life,http://api.map.baidu.com/place/detail?uid=0e139749e1acd009f40e77bb&output=html&source=placeapi_v2,,08:30-20:00,,,,,,,,8,,,,,,,,118.87671505797,31.775727176408,0
e202e626d74b12f4c42ba1cd,中国体育彩票(信陵路店),生活服务,彩票销售点,江苏省,南京市,江宁区,江苏省南京市江宁区信陵路1号,e202e626d74b12f4c42ba1cd,1,0,118.872664,31.779322,95086,life,http://api.map.baidu.com/place/detail?uid=e202e626d74b12f4c42ba1cd&output=html&source=placeapi_v2,,,,,,,,,,9,,,,,,,,118.87276461846,31.779374423206,0
17242efa95e48baa31870acb,中国体育彩票(禄口大街店),生活服务,彩票销售点,江苏省,南京市,江宁区,南京市江宁区禄口大街永欣新寓玫瑰苑东侧约110米,,1,0,118.876138,31.77614,,life,http://api.map.baidu.com/place/detail?uid=17242efa95e48baa31870acb&output=html&source=placeapi_v2,,,,,,,,,,4,,,,,,,,,,0
5536cbcad3f13d1d441a32bc,中国体育彩票(马甫路店),生活服务,彩票销售点,江苏省,南京市,江宁区,南京市江宁区马甫路君驰华庭北侧约50米,,1,0,118.865153,31.795975,95086,life,http://api.map.baidu.com/place/detail?uid=5536cbcad3f13d1d441a32bc&output=html&source=placeapi_v2,,,,,,,,,,1,,,,,,,,,,0
1e25bbd2bee7a0a0e215f9c8,中国体育彩票(来凤路店),生活服务,彩票销售点,江苏省,南京市,江宁区,江苏省南京市江宁区虹南路146号,1e25bbd2bee7a0a0e215f9c8,1,0,118.86219,31.784189,13002577138,life,http://api.map.baidu.com/place/detail?uid=1e25bbd2bee7a0a0e215f9c8&output=html&source=placeapi_v2,,,,,,,,,,6,,,,,,,,118.86218398001,31.784154099424,0
47196c0d98f9e99cfa2d61da,中国福利彩票(茅亭路店),生活服务,彩票销售点,江苏省,南京市,江宁区,江苏省南京市江宁区茅亭路180号,47196c0d98f9e99cfa2d61da,1,0,118.865278,31.783773,18951953726,life,http://api.map.baidu.com/place/detail?uid=47196c0d98f9e99cfa2d61da&output=html&source=placeapi_v2,,08:30-20:00,5,,,,,,,3,1,,,,,,,118.86526887701,31.783706760126,0
89dccd027c32930d8c55ecd3,中国福利彩票(信陵路店),生活服务,彩票销售点,江苏省,南京市,江宁区,江苏省南京市江宁区信陵路9号,,1,0,118.872293,31.779193,954168,life,http://api.map.baidu.com/place/detail?uid=89dccd027c32930d8c55ecd3&output=html&source=placeapi_v2,,08:30-20:00,,,,,,,,1,,,,,,,,,,0
f5c17fd503073df14c3a59b4,中国福利彩票(32016141销售点),生活服务,彩票销售点,江苏省,南京市,江宁区,蓝天路150号,,1,0,118.867421,31.782278,,life,http://api.map.baidu.com/place/detail?uid=f5c17fd503073df14c3a59b4&output=html&source=placeapi_v2,,08:30-20:00,,,,,,,,1,,,,,,,,118.8672530677,31.782171742461,0
d90d18eeb8516290c91b95b8,中国福利彩票(集贤街店),生活服务,彩票销售点,江苏省,南京市,江宁区,南京市江宁区长干街紫金农商银行(周岗支行)西侧约50米,,1,0,118.955832,31.80136,,life,http://api.map.baidu.com/place/detail?uid=d90d18eeb8516290c91b95b8&output=html&source=placeapi_v2,,,,,,,,,,1,,,,,,,,,,0
79e91dcefa5659d65c0d02c1,福利彩票(西泉路店),生活服务,彩票销售点,江苏省,南京市,江宁区,南京市江宁区西泉路希泉新寓东南侧,79e91dcefa5659d65c0d02c1,1,0,118.788563,31.823839,,life,http://api.map.baidu.com/place/detail?uid=79e91dcefa5659d65c0d02c1&output=html&source=placeapi_v2,,08:30-20:00,,,,,,,,2,,,,,,,,,,0
55caeb14901ef191b020a829,中国体育彩票(娘娘巷店),生活服务,彩票销售点,江苏省,南京市,江宁区,南京市江宁区娘娘巷秣陵小学东北侧约80米,,1,0,118.845418,31.837291,95086,life,http://api.map.baidu.com/place/detail?uid=55caeb14901ef191b020a829&output=html&source=placeapi_v2,,,,,,,,,,6,,,,,,,,118.84533828675,31.837336531464,0
1313bb0e5360fa78fe0eb020,中国福利彩票(宁茅线店),生活服务,彩票销售点,江苏省,镇江市,句容市,镇江市句容市凤仪路碧桂园世纪城邦,,1,0,119.018676,31.820239,954168,life,http://api.map.baidu.com/place/detail?uid=1313bb0e5360fa78fe0eb020&output=html&source=placeapi_v2,,10:00-22:00,,,,,,,,3,,,,,,,,,,0
bfc3a7fae2e041115f17c3a4,中国福利彩票(朝阳路店),生活服务,彩票销售点,江苏省,镇江市,句容市,镇江市句容市X302(宁茅线),,1,0,119.04026,31.817515,,life,http://api.map.baidu.com/place/detail?uid=bfc3a7fae2e041115f17c3a4&output=html&source=placeapi_v2,,10:00-22:00,,,,,,,,8,,,,,,,,119.04037627165,31.817617626097,0
f16d1e5d193ece11bc48420b,中国福利彩票(聚星街店),生活服务,彩票销售点,江苏省,镇江市,句容市,镇江市句容市兴业街普罗旺斯小镇东北侧约250米,f16d1e5d193ece11bc48420b,1,0,119.040536,31.810965,954168,life,http://api.map.baidu.com/place/detail?uid=f16d1e5d193ece11bc48420b&output=html&source=placeapi_v2,,10:00-22:00,,,,,,,,12,,,,,,,,119.04066700014,31.810936973214,0
51dcbd190cb7012f0869d9f5,中国福利彩票(聚星街店),生活服务,彩票销售点,江苏省,镇江市,句容市,镇江市句容市聚星街丹湖小区-A区西南侧约220米,,1,0,119.035164,31.814321,954168,life,http://api.map.baidu.com/place/detail?uid=51dcbd190cb7012f0869d9f5&output=html&source=placeapi_v2,,10:00-22:00,,,,,,,,4,,,,,,,,,,0
3849784fa363dee6a2a93462,中国体育彩票(兴业街店),生活服务,彩票销售点,江苏省,镇江市,句容市,镇江市句容市兴业街鼎雅居北苑西侧约190米,3849784fa363dee6a2a93462,1,0,119.041487,31.811618,95086,life,http://api.map.baidu.com/place/detail?uid=3849784fa363dee6a2a93462&output=html&source=placeapi_v2,,,,,,,,,,8,,,,,,,,,,0
8bae12bf467d0d62e31103e9,中国体育彩票(宁茅线店),生活服务,彩票销售点,江苏省,镇江市,句容市,X302(宁茅线),,1,0,119.080681,31.814721,,life,http://api.map.baidu.com/place/detail?uid=8bae12bf467d0d62e31103e9&output=html&source=placeapi_v2,,10:00-22:00,,,,,,,,3,,,,,,,,,,0
71c24131bd423109be4842ad,中国福利彩票(宁桥南路店),生活服务,彩票销售点,江苏省,南京市,江宁区,江苏省南京市江宁区盛江路牡丹园2-10号,71c24131bd423109be4842ad,1,0,118.614395,31.858694,954168,life,http://api.map.baidu.com/place/detail?uid=71c24131bd423109be4842ad&output=html&source=placeapi_v2,,08:30-20:00,,,,,,,,9,,,,,,,,118.61436856653,31.858821822426,0
1c7e358e04eb358f3517dcc6,中国体育彩票(宁芜大道店),生活服务,彩票销售点,江苏省,南京市,江宁区,南京市江宁区宁芜大道江宁初级中学西侧约70米,,1,0,118.613017,31.862043,95086,life,http://api.map.baidu.com/place/detail?uid=1c7e358e04eb358f3517dcc6&output=html&source=placeapi_v2,,08:30-20:00,0.0,,,,,,,9,,,,,,,,,,0
daf07566b7ea12e8095cb348,中国体育彩票(兴庄路店),生活服务,彩票销售点,江苏省,南京市,江宁区,南京市江宁区兴庄路庙庄工业园,,1,0,118.659022,31.850893,,life,http://api.map.baidu.com/place/detail?uid=daf07566b7ea12e8095cb348&output=html&source=placeapi_v2,,,,,,,,,,1,,,,,,,,,,0
560748a89c399f3b2ffaa79e,中国福利彩票(32016187销售点),生活服务,彩票销售点,江苏省,南京市,江宁区,江苏省南京市江宁区谷里街道邻里大道24-1号,560748a89c399f3b2ffaa79e,1,0,118.709538,31.872482,954168,life,http://api.map.baidu.com/place/detail?uid=560748a89c399f3b2ffaa79e&output=html&source=placeapi_v2,,08:30-20:00,4.0,,,,,,,10,0,,,,,,,118.70969273722,31.872676956278,0
a92c97d5af0f483a9122e053,中国体育彩票(正方中路店),生活服务,彩票销售点,江苏省,南京市,江宁区,南京市江宁区秣陵街道正方中路8号白玉兰宾馆旁,a92c97d5af0f483a9122e053,1,0,118.841797,31.846571,95086,life,http://api.map.baidu.com/place/detail?uid=a92c97d5af0f483a9122e053&output=html&source=placeapi_v2,,08:30-20:00,0,,,,,,,9,0,,,,,,,118.84192967727,31.846554442493,0
d53ae098972ee85684330487,中国体育彩票(正方东路店),生活服务,彩票销售点,江苏省,南京市,江宁区,江苏省南京市江宁区正方东路宏建公寓05栋,d53ae098972ee85684330487,1,0,118.846269,31.845104,95086,life,http://api.map.baidu.com/place/detail?uid=d53ae098972ee85684330487&output=html&source=placeapi_v2,,08:30-20:00,,,,,,,,11,,,,,,,,,,0
9d611e82f6713a5688fc06c9,中国体育彩票(金龙街店),生活服务,彩票销售点,江苏省,南京市,江宁区,江苏省南京市江宁区金龙街27号,9d611e82f6713a5688fc06c9,1,0,118.842834,31.842405,95086,life,http://api.map.baidu.com/place/detail?uid=9d611e82f6713a5688fc06c9&output=html&source=placeapi_v2,,,,,,,,,,8,,,,,,,,118.84277164735,31.842509224074,0
17f88d6b4f713410102935e7,中国福利彩票(32016109销售点),生活服务,彩票销售点,江苏省,南京市,江宁区,江苏省南京市江宁区正方东路1号,17f88d6b4f713410102935e7,1,0,118.845912,31.845233,954168,life,http://api.map.baidu.com/place/detail?uid=17f88d6b4f713410102935e7&output=html&source=placeapi_v2,,08:30-20:00,0.0,,,,,,,7,,,,,,,,118.84592311508,31.845378954771,0
48fa46acf4572676e9f853ff,中国福利彩票(陵园路店),生活服务,彩票销售点,江苏省,南京市,江宁区,南京市江宁区九龙路虹南苑小区西北侧约130米,,1,0,118.937708,31.844086,954168,life,http://api.map.baidu.com/place/detail?uid=48fa46acf4572676e9f853ff&output=html&source=placeapi_v2,,08:30-20:00,,,,,,,,1,,,,,,,,,,0
1a445e3adffba4a504026f9d,中国体育彩票(灵顺南路店),生活服务,彩票销售点,江苏省,南京市,江宁区,南京市江宁区河南西街新燕公寓东北侧,1a445e3adffba4a504026f9d,1,0,118.991227,31.863567,95086,life,http://api.map.baidu.com/place/detail?uid=1a445e3adffba4a504026f9d&output=html&source=placeapi_v2,,,,,,,,,,1,,,,,,,,,,0
b28b71e243816726902ca3d8,中国体育彩票(X207店),生活服务,彩票销售点,江苏省,南京市,江宁区,南京市江宁区宁桥北路中国石油(乔高线)南侧约90米,,1,0,118.622885,31.885365,95086,life,http://api.map.baidu.com/place/detail?uid=b28b71e243816726902ca3d8&output=html&source=placeapi_v2,,,,,,,,,,9,,,,,,,,118.62273086827,31.885413175118,0
3566adc1a1edcc16f942b2f1,中国体育彩票(宁芜公路店),生活服务,彩票销售点,江苏省,南京市,雨花台区,江苏省南京市雨花台区雄风路492-8号,3566adc1a1edcc16f942b2f1,1,0,118.635337,31.903075,15895823881,life,http://api.map.baidu.com/place/detail?uid=3566adc1a1edcc16f942b2f1&output=html&source=placeapi_v2,,,,,,,,,,3,,,,,,,,,,0
c13583220d67ef4f2ce67b7a,中国福利彩票(宁芜公路店),生活服务,彩票销售点,江苏省,南京市,雨花台区,南京市雨花台区宁芜公路梅苑新村东北侧,,1,0,118.637753,31.903119,954168,life,http://api.map.baidu.com/place/detail?uid=c13583220d67ef4f2ce67b7a&output=html&source=placeapi_v2,,08:30-20:00,,,,,,,,12,,,,,,,,,,0
b318ea38b3a57efd16a190d8,中国体育彩票(宁芜公路店),生活服务,彩票销售点,江苏省,南京市,雨花台区,南京市雨花台区宁芜公路梅苑新村东北侧,,1,0,118.637736,31.90313,95086,life,http://api.map.baidu.com/place/detail?uid=b318ea38b3a57efd16a190d8&output=html&source=placeapi_v2,,,,,,,,,,9,,,,,,,,118.63779769744,31.903201945765,0
70b21dca47ed8e35eedfca53,中国福利彩票(宁桥北路店),生活服务,彩票销售点,江苏省,南京市,江宁区,南京市江宁区江谷路南京蓝天专修学院江宁校区南侧约100米,70b21dca47ed8e35eedfca53,1,0,118.620898,31.880791,954168,life,http://api.map.baidu.com/place/detail?uid=70b21dca47ed8e35eedfca53&output=html&source=placeapi_v2,,,,,,,,,,8,,,,,,,,118.62088162553,31.880702712875,0
d2a03c61db43893e88db73e8,彩票销售店,生活服务,彩票销售点,江苏省,南京市,雨花台区,江苏省南京市雨花台区板桥街道雄风路472-1号东南方向5米,,1,0,118.638634,31.904775,,life,http://api.map.baidu.com/place/detail?uid=d2a03c61db43893e88db73e8&output=html&source=placeapi_v2,,,,,,,,,,,,,,,,,,,,0
a236bcd1879801ebeedfca4a,中国体育彩票(湖景路店),生活服务,彩票销售点,江苏省,南京市,雨花台区,江苏省南京市雨花台区大方路古雄新居68-38号,,1,0,118.669396,31.907994,,life,http://api.map.baidu.com/place/detail?uid=a236bcd1879801ebeedfca4a&output=html&source=placeapi_v2,,,,,,,,,,7,,,,,,,,,,0
af22f4c92d42fbfcca213d44,中国体育彩票(秣周东路店),生活服务,彩票销售点,江苏省,南京市,江宁区,江苏省南京市江宁区秣周东路29号翠屏诚园商业街1-102-4室,,1,0,118.839432,31.875404,(025)52859549,life,http://api.map.baidu.com/place/detail?uid=af22f4c92d42fbfcca213d44&output=html&source=placeapi_v2,,09:00-20:00,,,,,,,,,,,,,,,,,,0
0cc9b7af1d462a82d6b74e59,中国福利彩票(瑞文路店),生活服务,彩票销售点,江苏省,南京市,江宁区,招商方山里14-7号,,1,0,118.902245,31.886462,18114926453,life,http://api.map.baidu.com/place/detail?uid=0cc9b7af1d462a82d6b74e59&output=html&source=placeapi_v2,,08:30-20:00,0,,,,,,,10,0,,,,,,,118.90203047953,31.886584824946,0
71560a739c0d6608e607387b,中国福利彩票(凤汇大道店),生活服务,彩票销售点,江苏省,南京市,雨花台区,南京市雨花台区龙藏大道锦华新城,71560a739c0d6608e607387b,1,0,118.645122,31.931161,,life,http://api.map.baidu.com/place/detail?uid=71560a739c0d6608e607387b&output=html&source=placeapi_v2,,09:00-21:00,,,,,,,,6,,,,,,,,118.64497638555,31.931281287729,0
6b98388de7e6288288db73a7,中国体育彩票(三鸿路店),生活服务,彩票销售点,江苏省,南京市,雨花台区,江苏省南京市雨花台区三鸿路6号,6b98388de7e6288288db73a7,1,0,118.640929,31.938146,95086,life,http://api.map.baidu.com/place/detail?uid=6b98388de7e6288288db73a7&output=html&source=placeapi_v2,,,,,,,,,,9,,,,,,,,,,0
5929a599af5a28a2ab059d67,中国福利彩票(华兴路店),生活服务,彩票销售点,江苏省,南京市,雨花台区,江苏省南京市雨花台区辅机路1号,5929a599af5a28a2ab059d67,1,0,118.670115,31.925836,954168,life,http://api.map.baidu.com/place/detail?uid=5929a599af5a28a2ab059d67&output=html&source=placeapi_v2,,08:30-20:00,,,,,,,,9,,,,,,,,,,0
a1ee29fd3408c2baf503b84a,中国体育彩票(振兴路店),生活服务,彩票销售点,江苏省,南京市,雨花台区,南京市雨花台区广场路向阳雅居西南侧,,1,0,118.667004,31.928658,13390758292,life,http://api.map.baidu.com/place/detail?uid=a1ee29fd3408c2baf503b84a&output=html&source=placeapi_v2,,08:00-20:00,,,,,,,,,,,,,,,,118.66698031164,31.9286017873,0
07e814099cb8743aa6da398e,中国福利彩票(新湖大道店),生活服务,彩票销售点,江苏省,南京市,雨花台区,南京市雨花台区X202宋都南郡国际北区东北门东南侧约30米,,1,0,118.675714,31.919849,954168,life,http://api.map.baidu.com/place/detail?uid=07e814099cb8743aa6da398e&output=html&source=placeapi_v2,,08:30-20:00,,,,,,,,12,,,,,,,,118.67551719816,31.920031945352,0
a0b933c5ff962cf0ce04ef60,中国体育彩票(雄风路店),生活服务,彩票销售点,江苏省,南京市,雨花台区,南京市雨花台区国关路南京中天专修学院北侧约30米,,1,0,118.658831,31.928698,95086,life,http://api.map.baidu.com/place/detail?uid=a0b933c5ff962cf0ce04ef60&output=html&source=placeapi_v2,,,,,,,,,,5,,,,,,,,,,0
cce11678e4122f09e6e96590,中国体育彩票(大方路店),生活服务,彩票销售点,江苏省,南京市,雨花台区,江苏省南京市雨花台区莲花湖东街板桥新城古雄新居68-38号,,1,0,118.669931,31.911204,95086,life,http://api.map.baidu.com/place/detail?uid=cce11678e4122f09e6e96590&output=html&source=placeapi_v2,,,,,,,,,,7,,,,,,,,118.66978700432,31.910994327372,0
a236bcd1879801ebeedfca4a,中国体育彩票(湖景路店),生活服务,彩票销售点,江苏省,南京市,雨花台区,江苏省南京市雨花台区大方路古雄新居68-38号,,1,0,118.669396,31.907994,,life,http://api.map.baidu.com/place/detail?uid=a236bcd1879801ebeedfca4a&output=html&source=placeapi_v2,,,,,,,,,,7,,,,,,,,,,0
16aebbe0504d1f926d20b9db,中国福利彩票(新湖大道店),生活服务,彩票销售点,江苏省,南京市,雨花台区,南京市雨花台区新湖大道富力尚悦居,,1,0,118.679438,31.922771,954168,life,http://api.map.baidu.com/place/detail?uid=16aebbe0504d1f926d20b9db&output=html&source=placeapi_v2,,08:30-20:00,,,,,,,,8,,,,,,,,118.67947762952,31.922727424236,0
61145e0df81378895b109348,中国体育彩票(01826号站点),生活服务,彩票销售点,江苏省,南京市,雨花台区,江苏省南京市雨花台区工兵路69-26号,61145e0df81378895b109348,1,0,118.656365,31.927759,13901597722,life,http://api.map.baidu.com/place/detail?uid=61145e0df81378895b109348&output=html&source=placeapi_v2,,09:00-21:00,0.0,,,,,,,9,,,,,,,,118.65616864608,31.92764540739,0
d35863b76b918acd86420e98,中国福利彩票(大方路店),生活服务,彩票销售点,江苏省,南京市,雨花台区,南京市雨花台区莲花湖东街金地自在城-三期,,1,0,118.669935,31.911206,954168,life,http://api.map.baidu.com/place/detail?uid=d35863b76b918acd86420e98&output=html&source=placeapi_v2,,08:30-20:00,,,,,,,,5,,,,,,,,118.66979940364,31.910988706409,0
b01697eda6ee2fe404fef580,中国体育彩排(雄风路),生活服务,彩票销售点,江苏省,南京市,雨花台区,南京市雨花台区青年路凤凰山庄东北侧约30米,b01697eda6ee2fe404fef580,1,0,118.65642,31.927747,,life,http://api.map.baidu.com/place/detail?uid=b01697eda6ee2fe404fef580&output=html&source=placeapi_v2,,,,,,,,,,3,,,,,,,,118.65625296283,31.927744770472,0
3a84ed005c6ce12e40ab9ad4,中国福利彩票(荆刘路店),生活服务,彩票销售点,江苏省,南京市,江宁区,江苏省南京市江宁区荆刘路9号,,1,0,118.698393,31.918658,954168,life,http://api.map.baidu.com/place/detail?uid=3a84ed005c6ce12e40ab9ad4&output=html&source=placeapi_v2,,08:30-20:00,,,,,,,,7,,,,,,,,,,0
fcf3341783894aa05d17c345,中国福利彩票(佛城西路店),生活服务,彩票销售点,江苏省,南京市,江宁区,江苏省南京市江宁区佛城西路11号,fcf3341783894aa05d17c345,1,0,118.791664,31.916689,954168,life,http://api.map.baidu.com/place/detail?uid=fcf3341783894aa05d17c345&output=html&source=placeapi_v2,,08:30-20:00,0,,,,,,,13,0,,,,,,,118.79166798658,31.916839549802,0
bfce0b2b112d9682a10464d8,中国体育彩票(金智路店),生活服务,彩票销售点,江苏省,南京市,江宁区,江苏省南京市江宁区金智路31号2楼,bfce0b2b112d9682a10464d8,1,0,118.788553,31.912507,95086,life,http://api.map.baidu.com/place/detail?uid=bfce0b2b112d9682a10464d8&output=html&source=placeapi_v2,,,0,,,,,,,6,0,,,,,,,118.78844498043,31.912502248106,0
4802de869cc1a8353904b104,中国福利彩票(殷华街店),生活服务,彩票销售点,江苏省,南京市,江宁区,江苏省南京市江宁区殷华街28号,4802de869cc1a8353904b104,1,0,118.838562,31.923839,954168,life,http://api.map.baidu.com/place/detail?uid=4802de869cc1a8353904b104&output=html&source=placeapi_v2,,08:30-20:00,,,,,,,,15,,,,,,,,118.83870740869,31.923774790448,0
ef63d4f371859050cae33cd4,中国福利彩票(殷华街店),生活服务,彩票销售点,江苏省,南京市,江宁区,江苏省南京市江宁区殷华街殷富商业街5~7号,ef63d4f371859050cae33cd4,1,0,118.838765,31.921298,(025)52721798,life,http://api.map.baidu.com/place/detail?uid=ef63d4f371859050cae33cd4&output=html&source=placeapi_v2,,08:30-20:00,,,,,,,,8,,,,,,,,118.83902718479,31.921308782084,0
22eae3d92413fb21100daa5d,中国福利彩票(殷富街店),生活服务,彩票销售点,江苏省,南京市,江宁区,南京市江宁区殷巷小区243-8幢(林峰烟酒旁),22eae3d92413fb21100daa5d,1,0,118.843066,31.920781,(025)52721798,life,http://api.map.baidu.com/place/detail?uid=22eae3d92413fb21100daa5d&output=html&source=placeapi_v2,,08:30-19:00,,,,,,,,14,,,,,,,,118.84307545876,31.920562428365,0
625e369842af755571455bce,中国福利彩票(殷华街店),生活服务,彩票销售点,江苏省,南京市,江宁区,江苏省南京市江宁区殷华街殷巷新寓13幢,625e369842af755571455bce,1,0,118.839085,31.918583,954168,life,http://api.map.baidu.com/place/detail?uid=625e369842af755571455bce&output=html&source=placeapi_v2,,08:30-20:00,,,,,,,,3,,,,,,,,,,0
b201068928e273b745e27420,中国福利彩票(双龙大道店),生活服务,彩票销售点,江苏省,南京市,江宁区,江苏省南京市江宁区清水亭西路9号,b201068928e273b745e27420,1,0,118.832738,31.922765,954168,life,http://api.map.baidu.com/place/detail?uid=b201068928e273b745e27420&output=html&source=placeapi_v2,,08:20-22:30,,,,,,,,13,,,,,,,,118.83272326569,31.922817701074,0
c3bdb2f53ead590c593ac86e,中国福利彩票(殷华街店),生活服务,彩票销售点,江苏省,南京市,江宁区,南京市江宁区集源街汇金九龙商业街,c3bdb2f53ead590c593ac86e,1,0,118.838893,31.916487,954168,life,http://api.map.baidu.com/place/detail?uid=c3bdb2f53ead590c593ac86e&output=html&source=placeapi_v2,,08:30-20:00,,,,,,,,9,,,,,,,,118.83878369961,31.916490038644,0
f15c91251a83359cf03cbaaa,中国体育彩票(殷华街店),生活服务,彩票销售点,江苏省,南京市,江宁区,南京市江宁区殷华街御海温景,,1,0,118.838562,31.923826,95086,life,http://api.map.baidu.com/place/detail?uid=f15c91251a83359cf03cbaaa&output=html&source=placeapi_v2,,,,,,,,,,6,,,,,,,,118.83869984137,31.923833558191,0
32aaac9b915bd25c8bfc0647,中国福利彩票(长亭街店),生活服务,彩票销售点,江苏省,南京市,江宁区,江苏省南京市江宁区长亭街9号二区1栋,,1,0,118.830463,31.920742,18051968063,life,http://api.map.baidu.com/place/detail?uid=32aaac9b915bd25c8bfc0647&output=html&source=placeapi_v2,,08:00-22:00,0,,,,,,,2,0,,,,,,,118.83037454712,31.92066028691,0
531bd36a87d47aaa71455b32,中国体育彩票(殷富商业街店),生活服务,彩票销售点,江苏省,南京市,江宁区,江苏省南京市江宁区殷富商业街05幢-6号,531bd36a87d47aaa71455b32,1,0,118.838791,31.921254,13851448178,life,http://api.map.baidu.com/place/detail?uid=531bd36a87d47aaa71455b32&output=html&source=placeapi_v2,,,,,,,,,,10,,,,,,,,118.83903162332,31.921236736785,0
642fd068e0f20dfc14b54b2b,中国福利彩票(铺岗街店),生活服务,彩票销售点,江苏省,南京市,江宁区,江苏省南京市江宁区诚信大道998号金轮星光名座5栋,642fd068e0f20dfc14b54b2b,1,0,118.843403,31.914484,954168,life,http://api.map.baidu.com/place/detail?uid=642fd068e0f20dfc14b54b2b&output=html&source=placeapi_v2,,08:30-20:00,,,,,,,,13,,,,,,,,118.84344092717,31.91422543111,0
06da857c5dcd93ee0bf5ebbe,中国福利彩票(前庄路店),生活服务,彩票销售点,江苏省,南京市,江宁区,江苏省南京市江宁区前庄路9号,06da857c5dcd93ee0bf5ebbe,1,0,118.846466,31.913884,954168,life,http://api.map.baidu.com/place/detail?uid=06da857c5dcd93ee0bf5ebbe&output=html&source=placeapi_v2,,08:30-20:00,,,,,,,,7,,,,,,,,118.84653799981,31.913903245311,0
464641ef7f375050626858cb,中国福利彩票(天元中路店),生活服务,彩票销售点,江苏省,南京市,江宁区,江苏省南京市江宁区天元中路68号,464641ef7f375050626858cb,1,0,118.847199,31.937322,(025)95189518,life,http://api.map.baidu.com/place/detail?uid=464641ef7f375050626858cb&output=html&source=placeapi_v2,,08:30-20:00,0,,,,,,,12,0,,,,,,,,,0
52ed1e9531ce1439f82213a0,中国体育彩票(殷富街投注站),生活服务,彩票销售点,江苏省,南京市,江宁区,江苏省南京市江宁区殷富街272-5号,,1,0,118.849121,31.920232,(025)85095121,life,http://api.map.baidu.com/place/detail?uid=52ed1e9531ce1439f82213a0&output=html&source=placeapi_v2,,09:00-23:45,0,,,,,,,8,0,,,,,,,118.84884629104,31.919913759156,0
6640253768b08e55d42ce258,中国体育彩票(长亭街店),生活服务,彩票销售点,江苏省,南京市,江宁区,江苏省南京市江宁区长亭街9号二区1栋3楼,6640253768b08e55d42ce258,1,0,118.830466,31.9207,18051968063,life,http://api.map.baidu.com/place/detail?uid=6640253768b08e55d42ce258&output=html&source=placeapi_v2,,08:00-23:00,,,,,,,,11,,,,,,,,,,0
1ff0266a4968c777fa42b2c1,中国体育彩票(科建路店),生活服务,彩票销售点,江苏省,南京市,江宁区,江苏省南京市江宁区科建路2~6号,1ff0266a4968c777fa42b2c1,1,0,118.850668,31.931226,95086,life,http://api.map.baidu.com/place/detail?uid=1ff0266a4968c777fa42b2c1&output=html&source=placeapi_v2,,10:00-22:00,0,,,,,,,17,0,,,,,,,,,0
30500287ff6e268c3010afa4,中国体育彩票(铺岗街店),生活服务,彩票销售点,江苏省,南京市,江宁区,南京市江宁区殷富街殷巷新寓(242-297幢),,1,0,118.843104,31.920806,95086,life,http://api.map.baidu.com/place/detail?uid=30500287ff6e268c3010afa4&output=html&source=placeapi_v2,,,,,,,,,,10,,,,,,,,118.8431153579,31.920563734138,0
2534018541a68ee5b04c493c,中国体育彩票(殷华街店),生活服务,彩票销售点,江苏省,南京市,江宁区,江苏省南京市江宁区殷富街272-5号3幢,2534018541a68ee5b04c493c,1,0,118.838934,31.916572,15305178468,life,http://api.map.baidu.com/place/detail?uid=2534018541a68ee5b04c493c&output=html&source=placeapi_v2,,08:30-20:00,0.0,,,,,,,17,,,,,,,,118.83893630502,31.916660032581,0
ce54b006538e5b04b55f1e37,中国体育彩票(殷富街店),生活服务,彩票销售点,江苏省,南京市,江宁区,江苏省南京市江宁区殷富街272-5号,ce54b006538e5b04b55f1e37,1,0,118.845296,31.920856,95086,life,http://api.map.baidu.com/place/detail?uid=ce54b006538e5b04b55f1e37&output=html&source=placeapi_v2,,,,,,,,,,14,,,,,,,,118.84530970446,31.920652619235,0
2bdb2d64a94a0225fe0eb04f,中国体育彩票(长亭街店),生活服务,彩票销售点,江苏省,南京市,江宁区,江苏南京市江宁区长亭街55号,2bdb2d64a94a0225fe0eb04f,1,0,118.834687,31.911248,18118805522,life,http://api.map.baidu.com/place/detail?uid=2bdb2d64a94a0225fe0eb04f&output=html&source=placeapi_v2,,,,,,,,,,18,,,,,,,,118.83462663224,31.91111196506,0
02d9513f362c9c42d22dd61a,体育彩票店,生活服务,彩票销售点,江苏省,南京市,江宁区,南京市江宁区铺岗街殷巷农贸市场,,1,0,118.842681,31.916517,,life,http://api.map.baidu.com/place/detail?uid=02d9513f362c9c42d22dd61a&output=html&source=placeapi_v2,,,,,,,,,,2,,,,,,,,,,0
70e87e4889c5fac35e17c3b0,中国体育彩票(科宁路店),生活服务,彩票销售点,江苏省,南京市,江宁区,江苏省南京市江宁区科宁路106号,70e87e4889c5fac35e17c3b0,1,0,118.851957,31.927609,95086,life,http://api.map.baidu.com/place/detail?uid=70e87e4889c5fac35e17c3b0&output=html&source=placeapi_v2,,10:00-24:00,0.0,,,,,,,22,,,,,,,,118.85189874753,31.927770503098,0
5980e32e097dfa200869d925,中国体育彩票(颐丰街店),生活服务,彩票销售点,江苏省,南京市,江宁区,江苏省南京市江宁区诚信大道990号优尚天地北区5栋103室,,1,0,118.842293,31.914398,15852933880,life,http://api.map.baidu.com/place/detail?uid=5980e32e097dfa200869d925&output=html&source=placeapi_v2,,,,,,,,,,7,,,,,,,,,,0
81156acea0445a2dc17da273,中国体育彩票(天元中路店),生活服务,彩票销售点,江苏省,南京市,江宁区,江苏南京市江宁区天元中路99号,,1,0,118.838486,31.936083,95086,life,http://api.map.baidu.com/place/detail?uid=81156acea0445a2dc17da273&output=html&source=placeapi_v2,,,,,,,,,,5,,,,,,,,,,0
1fe6d7afc2079bdbe5e96562,中国体育彩票(竹山路店),生活服务,彩票销售点,江苏省,南京市,江宁区,江苏省南京市江宁区科健路2~6号,,1,0,118.855372,31.930194,13705181333,life,http://api.map.baidu.com/place/detail?uid=1fe6d7afc2079bdbe5e96562&output=html&source=placeapi_v2,,00:00-24:00,,,,,,,,6,,,,,,,,118.85542306145,31.930211582986,0
dcadcf7f0a27c3d59d9d68ae,中国福利彩票(印湖路店),生活服务,彩票销售点,江苏省,南京市,江宁区,江苏省南京市江宁区印湖路印湖山庄7号楼105室,dcadcf7f0a27c3d59d9d68ae,1,0,118.878679,31.921372,954168,life,http://api.map.baidu.com/place/detail?uid=dcadcf7f0a27c3d59d9d68ae&output=html&source=placeapi_v2,,08:30-20:00,0,,,,,,,10,0,,,,,,,118.87867879514,31.921409909364,0
e42993223e4b0c3bb6265569,中国体育彩票(文博路店),生活服务,彩票销售点,江苏省,南京市,江宁区,江宁区文博路1号宜家国际公寓17栋,e42993223e4b0c3bb6265569,1,0,118.91677,31.911755,95086,life,http://api.map.baidu.com/place/detail?uid=e42993223e4b0c3bb6265569&output=html&source=placeapi_v2,,08:30-20:00,,,,,,,,11,,,,,,,,,,0
3479aa76b6210f143686f446,中国福利彩票(文博路店),生活服务,彩票销售点,江苏省,南京市,江宁区,文博路1号宜家国际公寓17栋,,1,0,118.916771,31.911742,954168,life,http://api.map.baidu.com/place/detail?uid=3479aa76b6210f143686f446&output=html&source=placeapi_v2,,08:30-20:00,0,,,,,,,4,0,,,,,,,,,0
849a566afc1eeefab11e369e,中国福利彩票(鹏山路店),生活服务,彩票销售点,江苏省,南京市,江宁区,江苏省南京市江宁区龙眠大道588号东方龙湖湾东湖苑1栋105号,849a566afc1eeefab11e369e,1,0,118.905609,31.924428,954168,life,http://api.map.baidu.com/place/detail?uid=849a566afc1eeefab11e369e&output=html&source=placeapi_v2,,08:30-20:00,,,,,,,,8,,,,,,,,118.90585333361,31.924336668457,0
43a21ddd514022b195ca07ea,中国体育彩票(宋墅路店),生活服务,彩票销售点,江苏省,南京市,江宁区,南京市江宁区宋墅路博学苑玉兰园,43a21ddd514022b195ca07ea,1,0,118.90802,31.931169,95086,life,http://api.map.baidu.com/place/detail?uid=43a21ddd514022b195ca07ea&output=html&source=placeapi_v2,,,,,,,,,,12,,,,,,,,118.90813458046,31.931008415275,0
9866ffef07e85ec8270bd08d,中国福利彩票(104国道店),生活服务,彩票销售点,江苏省,南京市,江宁区,南京市江宁区104国道附近,,1,0,118.972159,31.936696,,life,http://api.map.baidu.com/place/detail?uid=9866ffef07e85ec8270bd08d&output=html&source=placeapi_v2,,08:30-20:00,0.0,,,,,,,7,,,,,,,,118.97211752407,31.936536849351,0
58301f337c4b19d779dbd229,中国体育彩票(梅龙路店),生活服务,彩票销售点,江苏省,南京市,江宁区,南京市江宁区梅龙路索墅新苑,,1,0,119.008898,31.933547,,life,http://api.map.baidu.com/place/detail?uid=58301f337c4b19d779dbd229&output=html&source=placeapi_v2,,,,,,,,,,8,,,,,,,,,,0
d8d9a6d5728e41c21a94c6d7,中国体育彩票(弘阳家居博览中心办公楼店),生活服务,彩票销售点,江苏省,南京市,雨花台区,南京市雨花台区龙藏大道弘阳装饰城办公楼1层,d8d9a6d5728e41c21a94c6d7,1,0,118.674505,31.947871,95086,life,http://api.map.baidu.com/place/detail?uid=d8d9a6d5728e41c21a94c6d7&output=html&source=placeapi_v2,,,0,,,,,,,21,0,,,,,,,118.67450977458,31.947963490435,0
f227284dba4d272ee6073802,中国福利彩票(32011023销售点),生活服务,彩票销售点,江苏省,南京市,雨花台区,南京市雨花台区龙藏大道弘阳装饰城办公楼1层,f227284dba4d272ee6073802,1,0,118.674477,31.947803,,life,http://api.map.baidu.com/place/detail?uid=f227284dba4d272ee6073802&output=html&source=placeapi_v2,,08:30-20:00,0.0,,,,,,,11,,,,,,,,118.67497186203,31.947446167172,0
46640e3a8e5b6217ae045746,中国体育彩票(西善桥南路店),生活服务,彩票销售点,江苏省,南京市,雨花台区,江苏省南京市雨花台区西善桥南路24号,46640e3a8e5b6217ae045746,1,0,118.713372,31.960055,95086,life,http://api.map.baidu.com/place/detail?uid=46640e3a8e5b6217ae045746&output=html&source=placeapi_v2,,00:00-24:00,,,,,,,,8,,,,,,,,118.71339151105,31.959899197489,0
0ebeda08563c5a4395f08cbd,中国福利彩票(32011040销售点),生活服务,彩票销售点,江苏省,南京市,雨花台区,江苏省南京市雨花台区西善桥南路24号,0ebeda08563c5a4395f08cbd,1,0,118.713043,31.959955,954168,life,http://api.map.baidu.com/place/detail?uid=0ebeda08563c5a4395f08cbd&output=html&source=placeapi_v2,,,,,,,,,,8,,,,,,,,118.71308011434,31.959839233827,0
1dd48a628d5bb5bd52e5c5e7,福利彩票(兴梅中路店),生活服务,彩票销售点,江苏省,南京市,雨花台区,江苏省南京市雨花台区西善桥北路9号,1dd48a628d5bb5bd52e5c5e7,1,0,118.720257,31.957079,,life,http://api.map.baidu.com/place/detail?uid=1dd48a628d5bb5bd52e5c5e7&output=html&source=placeapi_v2,,08:30-20:00,0.0,,,,,,,13,,,,,,,,,,0
728e4cc2956189e6d6b74eee,中国福利彩票(宁芜公路店),生活服务,彩票销售点,江苏省,南京市,雨花台区,南京市雨花台区宁芜公路西善公寓东北侧约40米,728e4cc2956189e6d6b74eee,1,0,118.724316,31.964443,954168,life,http://api.map.baidu.com/place/detail?uid=728e4cc2956189e6d6b74eee&output=html&source=placeapi_v2,,08:30-20:00,,,,,,,,14,,,,,,,,118.7244195299,31.964380329694,0
ff66c32beed6d5efd13ce3b0,中国福利彩票(莲池路店),生活服务,彩票销售点,江苏省,南京市,建邺区,江苏省南京市建邺区莲池路40-3号,,1,0,118.722399,31.967992,954168,life,http://api.map.baidu.com/place/detail?uid=ff66c32beed6d5efd13ce3b0&output=html&source=placeapi_v2,,08:30-20:00,,,,,,,,6,,,,,,,,118.72254653837,31.967971068372,0
9dbea78f7fe9ad7f00ff2dc2,中国福利彩票(岱山中路店),生活服务,彩票销售点,江苏省,南京市,雨花台区,江苏省南京市雨花台区岱山中路8-16号,9dbea78f7fe9ad7f00ff2dc2,1,0,118.699847,31.949561,15050580568,life,http://api.map.baidu.com/place/detail?uid=9dbea78f7fe9ad7f00ff2dc2&output=html&source=placeapi_v2,,10:18-22:58,,,,,,,,12,,,,,,,,118.69951840864,31.949354407578,0
abc755168e48e1e88bfc06b6,中国体育彩票(西善桥北路店),生活服务,彩票销售点,江苏省,南京市,雨花台区,江苏省南京市雨花台区辅机路182号9号,abc755168e48e1e88bfc06b6,1,0,118.724325,31.964452,95086,life,http://api.map.baidu.com/place/detail?uid=abc755168e48e1e88bfc06b6&output=html&source=placeapi_v2,,,,,,,,,,3,,,,,,,,118.72442204336,31.964383954722,0
4c5cb5828bfbd78c5a109355,中国体育彩票(天迈广场店),生活服务,彩票销售点,江苏省,南京市,建邺区,江苏省南京市建邺区友谊街44-6号,,1,0,118.72747,31.97227,,life,http://api.map.baidu.com/place/detail?uid=4c5cb5828bfbd78c5a109355&output=html&source=placeapi_v2,,09:30-21:30,,,,,,,,,,,,,,,,,,0
7dc00a1fd77adfeb276e9822,体育彩票(西柿路店),生活服务,彩票销售点,江苏省,南京市,雨花台区,江苏省南京市雨花台区岱山中路8-16号,,1,0,118.702204,31.949135,,life,http://api.map.baidu.com/place/detail?uid=7dc00a1fd77adfeb276e9822&output=html&source=placeapi_v2,,,,,,,,,,3,,,,,,,,118.70236480463,31.948934223345,0
12327f320592fb96018972d9,中国体育彩票(中和路店),生活服务,彩票销售点,江苏省,南京市,建邺区,江苏省南京市建邺区中和路101-8号,12327f320592fb96018972d9,1,0,118.717272,31.974067,,life,http://api.map.baidu.com/place/detail?uid=12327f320592fb96018972d9&output=html&source=placeapi_v2,,08:30-20:00,,,,,,,,14,,,,,,,,118.71698406295,31.97421958717,0
ff64412f3a76a7dda1d230a2,中国体育彩票(岱山中路店),生活服务,彩票销售点,江苏省,南京市,雨花台区,江苏省南京市雨花台区岱山中路8-16号,ff64412f3a76a7dda1d230a2,1,0,118.699947,31.949541,95086,life,http://api.map.baidu.com/place/detail?uid=ff64412f3a76a7dda1d230a2&output=html&source=placeapi_v2,,,,,,,,,,10,,,,,,,,118.69954874531,31.949315496847,0
76f99e331c73237ec17da272,中国体育彩票(中和路店),生活服务,彩票销售点,江苏省,南京市,建邺区,江苏省南京市建邺区中和路79-9号,76f99e331c73237ec17da272,1,0,118.718868,31.976441,95086,life,http://api.map.baidu.com/place/detail?uid=76f99e331c73237ec17da272&output=html&source=placeapi_v2,,,,,,,,,,7,,,,,,,,118.71884841429,31.976451754776,0
e2fb5d932ba4dee436b06ca5,中国体育彩票(宁丹路店),生活服务,彩票销售点,江苏省,南京市,雨花台区,南京市雨花台区王燕街翠岭银河幼儿园西南侧约30米,,1,0,118.763648,31.958245,95086,life,http://api.map.baidu.com/place/detail?uid=e2fb5d932ba4dee436b06ca5&output=html&source=placeapi_v2,,08:30-21:00,,,,,,,,10,,,,,,,,118.76359771438,31.958149713425,0
0dab220b2d711dc528fc48cb,中国福利彩票(宁丹路店),生活服务,彩票销售点,江苏省,南京市,雨花台区,宁丹路18号,0dab220b2d711dc528fc48cb,1,0,118.764018,31.957255,954168,life,http://api.map.baidu.com/place/detail?uid=0dab220b2d711dc528fc48cb&output=html&source=placeapi_v2,,08:30-20:00,0.0,,,,,,,14,0,,,,,,,118.76417294521,31.95715469486,0
ba37e96d8797e4e983a12e65,中国福利彩票(福园路店),生活服务,彩票销售点,江苏省,南京市,雨花台区,南京市雨花台区福园路牛首福园,ba37e96d8797e4e983a12e65,1,0,118.757832,31.951764,954168,life,http://api.map.baidu.com/place/detail?uid=ba37e96d8797e4e983a12e65&output=html&source=placeapi_v2,,08:30-20:00,,,,,,,,14,,,,,,,,118.75792948835,31.951756937725,0
2743504f80b0dec24afc8dbf,中国福利彩票(3211015销售点),生活服务,彩票销售点,江苏省,南京市,雨花台区,南京市雨花台区江艺路春江新城新河苑二期-A区,2743504f80b0dec24afc8dbf,1,0,118.75129,31.965872,954168,life,http://api.map.baidu.com/place/detail?uid=2743504f80b0dec24afc8dbf&output=html&source=placeapi_v2,,08:30-20:00,0.0,,,,,,,12,,,,,,,,,,0
9a282928d9d6325ccd04ef26,中国体育彩票(福园路店),生活服务,彩票销售点,江苏省,南京市,雨花台区,南京市雨花台区福园路牛首福园,9a282928d9d6325ccd04ef26,1,0,118.757819,31.951771,95086,life,http://api.map.baidu.com/place/detail?uid=9a282928d9d6325ccd04ef26&output=html&source=placeapi_v2,,,,,,,,,,3,,,,,,,,118.75792863496,31.951748815782,0
9726c6ed145aff144107c16b,中国体育彩票(站点号:01219店),生活服务,彩票销售点,江苏省,南京市,雨花台区,江苏省南京市雨花台区江艺路3-3号,9726c6ed145aff144107c16b,1,0,118.751872,31.965021,95086,life,http://api.map.baidu.com/place/detail?uid=9726c6ed145aff144107c16b&output=html&source=placeapi_v2,,,5.0,,,,,,,13,0,,,,,,,118.75195999851,31.964914649114,0
98e0ff6a03585ef1077ce83d,中国体育彩票(江淮路店),生活服务,彩票销售点,江苏省,南京市,雨花台区,江苏省南京市雨花台区王燕街6号,98e0ff6a03585ef1077ce83d,1,0,118.764329,31.966553,95086,life,http://api.map.baidu.com/place/detail?uid=98e0ff6a03585ef1077ce83d&output=html&source=placeapi_v2,,,,,,,,,,8,,,,,,,,118.76444739641,31.966609064947,0
d40d830ebfc88cb2badf8fd5,中国体育彩票(宁丹路店),生活服务,彩票销售点,江苏省,南京市,雨花台区,江苏省南京市雨花台区宁丹路5~6号,,1,0,118.768538,31.961361,18994037534,life,http://api.map.baidu.com/place/detail?uid=d40d830ebfc88cb2badf8fd5&output=html&source=placeapi_v2,,08:30-21:00,0.0,,,,,,,11,0,,,,,,,118.76850617695,31.961208491966,0
1b1d82143f3a2b931fe99954,中国体育彩票(茗苑路店),生活服务,彩票销售点,江苏省,南京市,雨花台区,江苏省南京市雨花台区宁丹路9-3号定坊和苑c区,1b1d82143f3a2b931fe99954,1,0,118.75255,31.949286,95086,life,http://api.map.baidu.com/place/detail?uid=1b1d82143f3a2b931fe99954&output=html&source=placeapi_v2,,,0,,,,,,,11,0,,,,,,,,,0
f9870a86d0a97f7c9d95de77,中国体育彩票(西春路店),生活服务,彩票销售点,江苏省,南京市,雨花台区,南京市雨花台区西春路春江新城韩府坊,f9870a86d0a97f7c9d95de77,1,0,118.756356,31.96954,,life,http://api.map.baidu.com/place/detail?uid=f9870a86d0a97f7c9d95de77&output=html&source=placeapi_v2,,08:30-20:00,,,,,,,,1,,,,,,,,118.756459353,31.969567931419,0
de3891ba321be4c922026278,中国体育彩票(春江路店),生活服务,彩票销售点,江苏省,南京市,雨花台区,江苏南京市雨花台区宁双路春江新城升景坊1栋,de3891ba321be4c922026278,1,0,118.764921,31.969238,,life,http://api.map.baidu.com/place/detail?uid=de3891ba321be4c922026278&output=html&source=placeapi_v2,,08:30-20:00,,,,,,,,,,,,,,,,118.76497790061,31.969125378268,0
40282a17d31a225dc41b7537,中国体育彩票(铁心桥大道店),生活服务,彩票销售点,江苏省,南京市,雨花台区,南京市雨花台区铁心桥大街30-12号,40282a17d31a225dc41b7537,1,0,118.768462,31.967503,95086,life,http://api.map.baidu.com/place/detail?uid=40282a17d31a225dc41b7537&output=html&source=placeapi_v2,,08:30-21:00,5.0,,,,,,,11,0,,,,,,,118.76845670547,31.967458302721,0
deec65351804e8c3e5e9658b,中国体育彩票(第51297号投注站),生活服务,彩票销售点,江苏省,南京市,雨花台区,江苏省南京市雨花台区龙西路197-2号,deec65351804e8c3e5e9658b,1,0,118.737408,31.963406,95086,life,http://api.map.baidu.com/place/detail?uid=deec65351804e8c3e5e9658b&output=html&source=placeapi_v2,,,0.0,,,,,,,15,0,,,,,,,118.73740998247,31.963290618437,0
2358542642c188432811d190,中国福利彩票(宁丹路店),生活服务,彩票销售点,江苏省,南京市,雨花台区,南京市雨花台区宁丹路银河苑,2358542642c188432811d190,1,0,118.764818,31.958162,954168,life,http://api.map.baidu.com/place/detail?uid=2358542642c188432811d190&output=html&source=placeapi_v2,,08:30-20:00,,,,,,,,5,,,,,,,,118.76488195709,31.958097102639,0
e65053586d54135452e5c5d6,中国福利彩票(江淮路店),生活服务,彩票销售点,江苏省,南京市,雨花台区,南京市雨花台区江淮路春江佳园,e65053586d54135452e5c5d6,1,0,118.764329,31.966597,954168,life,http://api.map.baidu.com/place/detail?uid=e65053586d54135452e5c5d6&output=html&source=placeapi_v2,,08:30-20:00,,,,,,,,7,,,,,,,,118.76442594128,31.966642510733,0
fea2ad518f2e334cd3ff2378,中国福利彩票(春江路店),生活服务,彩票销售点,江苏省,南京市,雨花台区,江苏省南京市雨花台区春江路28号,fea2ad518f2e334cd3ff2378,1,0,118.764977,31.969152,954168,life,http://api.map.baidu.com/place/detail?uid=fea2ad518f2e334cd3ff2378&output=html&source=placeapi_v2,,08:30-20:00,,,,,,,,13,,,,,,,,,,0
18109ecf8ef6b235f4eafccf,中国福利彩票(西春路店),生活服务,彩票销售点,江苏省,南京市,雨花台区,南京市雨花台区西春路春江新城韩府坊,,1,0,118.756388,31.969525,954168,life,http://api.map.baidu.com/place/detail?uid=18109ecf8ef6b235f4eafccf&output=html&source=placeapi_v2,,08:30-20:00,,,,,,,,,,,,,,,,,,0
26fcd736cc8b5d00f50e77e4,中国福利彩票(宁丹路店),生活服务,彩票销售点,江苏省,南京市,雨花台区,南京市雨花台区宁丹路银杏山庄,,1,0,118.768606,31.961368,954168,life,http://api.map.baidu.com/place/detail?uid=26fcd736cc8b5d00f50e77e4&output=html&source=placeapi_v2,,08:30-20:00,,,,,,,,7,,,,,,,,,,0
9eeea1235baae82d9f09f743,中国体育彩票(胜太西路店),生活服务,彩票销售点,江苏省,南京市,江宁区,江苏省南京市江宁区胜太西路117号,,1,0,118.800213,31.949329,95086,life,http://api.map.baidu.com/place/detail?uid=9eeea1235baae82d9f09f743&output=html&source=placeapi_v2,,08:00-21:30,,,,,,,,,,,,,,,,118.80020241975,31.949439256039,0
48fb0e81d299db4a6c3e1bb4,中国体育彩票(托乐嘉乐尚天地店),生活服务,彩票销售点,江苏省,南京市,江宁区,江苏省南京市江宁区胜太西路117号,,1,0,118.791119,31.95097,95086,life,http://api.map.baidu.com/place/detail?uid=48fb0e81d299db4a6c3e1bb4&output=html&source=placeapi_v2,,,0,,,,,,,9,0,,,,,,,,,0
1a6f66dd02ca493ea2a9341f,中国体育彩票(胜太西路店),生活服务,彩票销售点,江苏省,南京市,江宁区,江苏省南京市江宁区胜太西路28号,1a6f66dd02ca493ea2a9341f,1,0,118.810261,31.950381,95086,life,http://api.map.baidu.com/place/detail?uid=1a6f66dd02ca493ea2a9341f&output=html&source=placeapi_v2,,,0,,,,,,,15,0,,,,,,,118.81025443775,31.950294203516,0
181960f9b1375b3aede4a5c9,中国体育彩票(六朝路店),生活服务,彩票销售点,江苏省,南京市,雨花台区,南京市雨花台区诚信街证大喜玛拉雅中心-C座,181960f9b1375b3aede4a5c9,1,0,118.811156,31.970354,95086,life,http://api.map.baidu.com/place/detail?uid=181960f9b1375b3aede4a5c9&output=html&source=placeapi_v2,,,,,,,,,,8,,,,,,,,118.81128182078,31.970159784839,0
a3e38a5b67c5a19517c905c0,中国福利彩票(胜利西路店),生活服务,彩票销售点,江苏省,南京市,江宁区,南京市江宁区胜利西路碧水湾西园,a3e38a5b67c5a19517c905c0,1,0,118.811458,31.952988,954168,life,http://api.map.baidu.com/place/detail?uid=a3e38a5b67c5a19517c905c0&output=html&source=placeapi_v2,,08:30-20:00,,,,,,,,6,,,,,,,,118.81147073802,31.952797584271,0
b24d843a3badff05a7c7567d,中国福利彩票(32014101投注站),生活服务,彩票销售点,江苏省,南京市,江宁区,江苏省南京市江宁区胜太西路19-5号,b24d843a3badff05a7c7567d,1,0,118.812084,31.950048,954168,life,http://api.map.baidu.com/place/detail?uid=b24d843a3badff05a7c7567d&output=html&source=placeapi_v2,,08:30-20:00,0,,,,,,,20,0,,,,,,,,,0
de7d14679410d1b240afe6b5,中国福利彩票(宏运大道店),生活服务,彩票销售点,江苏省,南京市,江宁区,江苏省南京市江宁区宏运大道1164号,de7d14679410d1b240afe6b5,1,0,118.815941,31.967094,954168,life,http://api.map.baidu.com/place/detail?uid=de7d14679410d1b240afe6b5&output=html&source=placeapi_v2,,08:30-20:00,,,,,,,,9,,,,,,,,118.8159761473,31.967120233244,0
19d756a067258120f3193727,中国福利彩票(通淮街店),生活服务,彩票销售点,江苏省,南京市,江宁区,江宁区通淮街18号太平花苑84幢一单元,,1,0,118.808482,31.944031,,life,http://api.map.baidu.com/place/detail?uid=19d756a067258120f3193727&output=html&source=placeapi_v2,,08:30-20:00,,,,,,,,7,,,,,,,,118.80807628853,31.944001947952,0
3ace50c6adae4fb5eddfca9d,中国福利彩票(花神大道店),生活服务,彩票销售点,江苏省,南京市,雨花台区,南京市雨花台区花神大道景明佳园,3ace50c6adae4fb5eddfca9d,1,0,118.783355,31.971265,954168,life,http://api.map.baidu.com/place/detail?uid=3ace50c6adae4fb5eddfca9d&output=html&source=placeapi_v2,,08:30-20:00,0.0,,,,,,,11,0,,,,,,,118.78354206309,31.970913601544,0
10dbc1db17e2585fb64f5406,中国体育彩票(北沿路店),生活服务,彩票销售点,江苏省,南京市,江宁区,江苏省南京市江宁区北沿路86号,10dbc1db17e2585fb64f5406,1,0,118.840624,31.960643,95086,life,http://api.map.baidu.com/place/detail?uid=10dbc1db17e2585fb64f5406&output=html&source=placeapi_v2,,,,,,,,,,16,,,,,,,,118.84050995212,31.960638672155,0
53f4558ceecdea183ee231ac,中国福利彩票(明月路店),生活服务,彩票销售点,江苏省,南京市,江宁区,江苏省南京市江宁区明月路68号,53f4558ceecdea183ee231ac,1,0,118.838089,31.955832,954168,life,http://api.map.baidu.com/place/detail?uid=53f4558ceecdea183ee231ac&output=html&source=placeapi_v2,,08:30-20:00,0,,,,,,,14,0,,,,,,,118.83822994045,31.955822079896,0
284b4c908b3686205d17c34e,中国体育彩票(招商街店),生活服务,彩票销售点,江苏省,南京市,江宁区,江苏省南京市江宁区招商街93号,,1,0,118.839484,31.957039,95086,life,http://api.map.baidu.com/place/detail?uid=284b4c908b3686205d17c34e&output=html&source=placeapi_v2,,,,,,,,,,11,,,,,,,,118.83947309107,31.957150649142,0
dc00c609021e9df740e1925f,中国福利彩票(北沿路店),生活服务,彩票销售点,江苏省,南京市,江宁区,江苏省南京市江宁区北沿路86号,dc00c609021e9df740e1925f,1,0,118.84072,31.960648,954168,life,http://api.map.baidu.com/place/detail?uid=dc00c609021e9df740e1925f&output=html&source=placeapi_v2,,08:30-20:00,,,,,,,,5,,,,,,,,118.84050972934,31.960643408765,0
87da63371335ebc13517dce6,中国体育彩票(明月路店),生活服务,彩票销售点,江苏省,南京市,江宁区,江苏省南京市江宁区明月路48号,87da63371335ebc13517dce6,1,0,118.838613,31.955931,15365087773,life,http://api.map.baidu.com/place/detail?uid=87da63371335ebc13517dce6&output=html&source=placeapi_v2,,,,,,,,,,14,,,,,,,,118.83872367521,31.955903114443,0
0c7bce6b7b77ece8fb22136a,中国体育彩票(文靖西路店),生活服务,彩票销售点,江苏省,南京市,江宁区,南京市江宁区东山镇文靖西路119号,0c7bce6b7b77ece8fb22136a,1,0,118.842296,31.96572,(025)51192927,life,http://api.map.baidu.com/place/detail?uid=0c7bce6b7b77ece8fb22136a&output=html&source=placeapi_v2,,08:30-20:00,4.0,,,,,,,21,0,,,,,,,118.84229560202,31.965837941679,0
bdce92081574fa86aa0dd88b,中国体育彩票(金箔路店),生活服务,彩票销售点,江苏省,南京市,江宁区,江苏省南京市江宁区金箔路756号附近,bdce92081574fa86aa0dd88b,1,0,118.850213,31.955093,18005151540,life,http://api.map.baidu.com/place/detail?uid=bdce92081574fa86aa0dd88b&output=html&source=placeapi_v2,,09:00-22:00,5.0,,,,,,,13,0,,,,,,,118.85025604858,31.95513639143,0
66c683a867645306ea56faec,中国体育彩票(文靖路店),生活服务,彩票销售点,江苏省,南京市,江宁区,南京市江宁区文靖路31号,,1,0,118.848424,31.965799,95086,life,http://api.map.baidu.com/place/detail?uid=66c683a867645306ea56faec&output=html&source=placeapi_v2,,08:30-21:00,,,,,,,,9,,,,,,,,118.84847821125,31.965578958013,0
cf68a87e59cf364d0e3dda94,中国体育彩票(双龙大道店),生活服务,彩票销售点,江苏省,南京市,江宁区,江苏省南京市江宁区殷富街272-5号,,1,0,118.828668,31.956388,95086,life,http://api.map.baidu.com/place/detail?uid=cf68a87e59cf364d0e3dda94&output=html&source=placeapi_v2,,08:30-20:00,,,,,,,,4,,,,,,,,118.82848943864,31.956377123973,0
e6317df53d00843922f017f1,中国体育彩票(文靖路店),生活服务,彩票销售点,江苏省,南京市,江宁区,江苏省南京市江宁区文靖路106号,e6317df53d00843922f017f1,1,0,118.850585,31.965792,95086,life,http://api.map.baidu.com/place/detail?uid=e6317df53d00843922f017f1&output=html&source=placeapi_v2,,08:30-20:00,,,,,,,,15,,,,,,,,118.85056626761,31.96593922159,0
1573730e9873a779fda778a1,中国体育彩票(严柳街店),生活服务,彩票销售点,江苏省,南京市,江宁区,南京市江宁区商业街b1-27号,1573730e9873a779fda778a1,1,0,118.828984,31.954512,95086,life,http://api.map.baidu.com/place/detail?uid=1573730e9873a779fda778a1&output=html&source=placeapi_v2,,,0.0,,,,,,,6,,,,,,,,118.82891046455,31.954353668684,0
8f3c9d8edd3d9001a2d230da,中国体育彩票(玉堂巷店),生活服务,彩票销售点,江苏省,南京市,江宁区,江苏省南京市江宁区前元街1号中心花园,8f3c9d8edd3d9001a2d230da,1,0,118.8546,31.957288,95086,life,http://api.map.baidu.com/place/detail?uid=8f3c9d8edd3d9001a2d230da&output=html&source=placeapi_v2,,,,,,,,,,8,,,,,,,,118.85465503989,31.957271323353,0
cda7acfc9f4ce1199222e0d6,中国体育彩票(新亭西路店),生活服务,彩票销售点,江苏省,南京市,江宁区,江苏省南京市江宁区新亭西路168号,cda7acfc9f4ce1199222e0d6,1,0,118.847979,31.948582,95086,life,http://api.map.baidu.com/place/detail?uid=cda7acfc9f4ce1199222e0d6&output=html&source=placeapi_v2,,,,,,,,,,9,,,,,,,,118.84798922763,31.948512275433,0
902fd11d450f02632902e189,中国体育彩票(芙阁路店),生活服务,彩票销售点,江苏省,南京市,江宁区,江苏省南京市江宁区芙阁路219号,902fd11d450f02632902e189,1,0,118.854501,31.964018,95086,life,http://api.map.baidu.com/place/detail?uid=902fd11d450f02632902e189&output=html&source=placeapi_v2,,08:30-20:00,,,,,,,,13,,,,,,,,118.8543132535,31.96399938156,0
608f69b5e8a87905a80dd8db,中国体育彩票(双龙大道店),生活服务,彩票销售点,江苏省,南京市,江宁区,江苏省南京市江宁区双龙大道833号南方花园a组团35栋115室,608f69b5e8a87905a80dd8db,1,0,118.825967,31.964863,95086,life,http://api.map.baidu.com/place/detail?uid=608f69b5e8a87905a80dd8db&output=html&source=placeapi_v2,,08:30-20:00,0.0,,,,,,,16,0,,,,,,,118.82589697205,31.96484203638,0
75a8642342eba7bb25d2bb83,中国体育彩票(竞彩专营店),生活服务,彩票销售点,江苏省,南京市,江宁区,江苏省南京市江宁区竹山路366-8号,75a8642342eba7bb25d2bb83,1,0,118.857872,31.962019,(025)52180858,life,http://api.map.baidu.com/place/detail?uid=75a8642342eba7bb25d2bb83&output=html&source=placeapi_v2,,09:00-21:00,0,,,,,,,17,0,,,,,,,,,0
4736c4db550d3b95c41e516e,中国体育彩票(鞭鞍街店),生活服务,彩票销售点,江苏省,南京市,江宁区,江苏省南京市江宁区东山街道岔路社区学院路12号,4736c4db550d3b95c41e516e,1,0,118.828866,31.971903,13770955621,life,http://api.map.baidu.com/place/detail?uid=4736c4db550d3b95c41e516e&output=html&source=placeapi_v2,,08:30-21:05,,,,,,,,16,,,,,,,,118.82874385942,31.971901337272,0
24ab66a9618efcc987154111,中国体育彩票(金箔路店),生活服务,彩票销售点,江苏省,南京市,江宁区,南京市江宁区金箔路金箔路465号院,24ab66a9618efcc987154111,1,0,118.859436,31.95222,13914785700,life,http://api.map.baidu.com/place/detail?uid=24ab66a9618efcc987154111&output=html&source=placeapi_v2,,09:30-19:00,,,,,,,,,,,,,,,,,,0
e31e523eeb383228047ce8fb,中国体育彩票(站点号01766店),生活服务,彩票销售点,江苏省,南京市,江宁区,江苏省南京市江宁区东新北路130号,e31e523eeb383228047ce8fb,1,0,118.858644,31.967358,(025)86182882,life,http://api.map.baidu.com/place/detail?uid=e31e523eeb383228047ce8fb&output=html&source=placeapi_v2,,,3.0,,,,,,,21,0,,,,,,,118.85854326905,31.96730485035,0
1e387b66a18a6a98471a32da,中国体育彩票(上元路店),生活服务,彩票销售点,江苏省,南京市,江宁区,南京市江宁区天印大道829号,1e387b66a18a6a98471a32da,1,0,118.861591,31.96042,95086,life,http://api.map.baidu.com/place/detail?uid=1e387b66a18a6a98471a32da&output=html&source=placeapi_v2,,,,,,,,,,8,,,,,,,,,,0
4b4b00318394d1078c55ec1d,中国福利彩票(文靖西路店),生活服务,彩票销售点,江苏省,南京市,江宁区,江苏省南京市江宁区文靖西路119号,4b4b00318394d1078c55ec1d,1,0,118.842273,31.965784,(025)51192927,life,http://api.map.baidu.com/place/detail?uid=4b4b00318394d1078c55ec1d&output=html&source=placeapi_v2,,08:30-19:00,4.0,,,,,,,16,0,,,,,,,,,0
34537370b980c8ce3f9a5e31,中国福利彩票(芙阁路店),生活服务,彩票销售点,江苏省,南京市,江宁区,南京市江宁区土山路土山路88号院,,1,0,118.849465,31.961933,954168,life,http://api.map.baidu.com/place/detail?uid=34537370b980c8ce3f9a5e31&output=html&source=placeapi_v2,,,,,,,,,,,,,,,,,,118.84934529705,31.961897978513,0
9b4e7de90e2d98d96d20b928,中国福利彩票(文靖路店),生活服务,彩票销售点,江苏省,南京市,江宁区,江苏省南京市江宁区文靖路31号,,1,0,118.84847,31.96581,18915944425,life,http://api.map.baidu.com/place/detail?uid=9b4e7de90e2d98d96d20b928&output=html&source=placeapi_v2,,08:00-23:00,,,,,,,,9,,,,,,,,118.84853845072,31.965592739123,0
4f6c699bb62b61e4a21de954,中国福利彩票(金盛路店),生活服务,彩票销售点,江苏省,南京市,江宁区,江苏省南京市江宁区鞭鞍街25号,4f6c699bb62b61e4a21de954,1,0,118.828858,31.972583,13915953868,life,http://api.map.baidu.com/place/detail?uid=4f6c699bb62b61e4a21de954&output=html&source=placeapi_v2,,08:30-19:00,,,,,,,,19,,,,,,,,118.82872769531,31.972580542132,0
4292acd0f3672e7a940319e2,中国福利彩票(竹山路店),生活服务,彩票销售点,江苏省,南京市,江宁区,江苏省南京市江宁区竹山路120号,,1,0,118.851947,31.951332,954168,life,http://api.map.baidu.com/place/detail?uid=4292acd0f3672e7a940319e2&output=html&source=placeapi_v2,,00:00-24:00,,,,,,,,12,,,,,,,,118.85206642344,31.951412237053,0
a9e5231c5cdb8a799b68b414,中国福利彩票(新医路店),生活服务,彩票销售点,江苏省,南京市,江宁区,江苏省南京市江宁区上元二街488号嘉顺时代广场7栋,a9e5231c5cdb8a799b68b414,1,0,118.857061,31.95966,954168,life,http://api.map.baidu.com/place/detail?uid=a9e5231c5cdb8a799b68b414&output=html&source=placeapi_v2,,08:30-20:00,0,,,,,,,11,0,,,,,,,118.85702260491,31.959750389289,0
5712e7b7764ee61488f15d28,中国福利彩票(顺达佳苑店),生活服务,彩票销售点,江苏省,南京市,江宁区,江苏省南京市江宁区上元大街749号,5712e7b7764ee61488f15d28,1,0,118.860929,31.962628,954168,life,http://api.map.baidu.com/place/detail?uid=5712e7b7764ee61488f15d28&output=html&source=placeapi_v2,,08:30-20:00,0,,,,,,,15,0,,,,,,,118.86097114091,31.962529314784,0
efe65b7841adf31021f017b8,中国福利彩票(文靖路店),生活服务,彩票销售点,江苏省,南京市,江宁区,江苏省南京市江宁区文靖路106号,efe65b7841adf31021f017b8,1,0,118.850654,31.96579,954168,life,http://api.map.baidu.com/place/detail?uid=efe65b7841adf31021f017b8&output=html&source=placeapi_v2,,08:30-20:00,,,,,,,,12,,,,,,,,118.8506349772,31.96594657598,0
6227d58115c801a64afc8d2d,中国福利彩票(同曦街店),生活服务,彩票销售点,江苏省,南京市,江宁区,南京市江宁区文采路南京正人少儿艺术学院(百家湖分院),,1,0,118.829776,31.94878,954168,life,http://api.map.baidu.com/place/detail?uid=6227d58115c801a64afc8d2d&output=html&source=placeapi_v2,,08:30-20:00,,,,,,,,9,,,,,,,,118.82969769841,31.948777158625,0
c7f8d875b3f23d0af6c59c8f,中国福利彩票(金箔路店),生活服务,彩票销售点,江苏省,南京市,江宁区,南京市江宁区金箔路金箔路465号院,c7f8d875b3f23d0af6c59c8f,1,0,118.859455,31.952208,(025)32014120,life,http://api.map.baidu.com/place/detail?uid=c7f8d875b3f23d0af6c59c8f&output=html&source=placeapi_v2,,08:30-20:00,,,,,,,,6,,,,,,,,118.8594553896,31.952361271889,0
e5ff5bfdc5ad6df625e0a0cb,中国福利彩票(苏尧广场店),生活服务,彩票销售点,江苏省,南京市,江宁区,江苏省南京市江宁区东山街道东新南路15号苏尧广场F1,e5ff5bfdc5ad6df625e0a0cb,1,0,118.860117,31.959104,954168,life,http://api.map.baidu.com/place/detail?uid=e5ff5bfdc5ad6df625e0a0cb&output=html&source=placeapi_v2,,08:30-20:00,,,,,,,,13,,,,,,,,118.86007477664,31.958998030186,0
df678dd0eefa6cb01576432e,中国体育彩票(上元大街店),生活服务,彩票销售点,江苏省,南京市,江宁区,江苏省南京市江宁区上元大街755号,df678dd0eefa6cb01576432e,1,0,118.861031,31.962666,13805191003,life,http://api.map.baidu.com/place/detail?uid=df678dd0eefa6cb01576432e&output=html&source=placeapi_v2,,,0,,,,,,,13,0,,,,,,,118.86107458259,31.962561062714,0
6d51df7f93dcbed58b2fb522,中国体育彩票(东新南路店),生活服务,彩票销售点,江苏省,南京市,江宁区,江苏省南京市江宁区东新南路240号,6d51df7f93dcbed58b2fb522,1,0,118.860094,31.957147,95086,life,http://api.map.baidu.com/place/detail?uid=6d51df7f93dcbed58b2fb522&output=html&source=placeapi_v2,,,,,,,,,,8,,,,,,,,,,0
b2346824f94c2ceb43e19282,中国福利彩票(东新南路店),生活服务,彩票销售点,江苏省,南京市,江宁区,江苏省南京市江宁区东新南路246号,b2346824f94c2ceb43e19282,1,0,118.860084,31.957098,954168,life,http://api.map.baidu.com/place/detail?uid=b2346824f94c2ceb43e19282&output=html&source=placeapi_v2,,08:30-20:00,,,,,,,,11,,,,,,,,118.86027646779,31.957162278735,0
22bf1e46ec82940e88b98850,中国福利彩票(新亭东路店),生活服务,彩票销售点,江苏省,南京市,江宁区,南京市江宁区新亭东路保利樾公馆,,1,0,118.885924,31.958655,,life,http://api.map.baidu.com/place/detail?uid=22bf1e46ec82940e88b98850&output=html&source=placeapi_v2,,08:30-20:00,,,,,,,,6,,,,,,,,,,0
0ffbc10ecc053119e8e582ae,中国体育彩票(新亭东路店),生活服务,彩票销售点,江苏省,南京市,江宁区,江苏省南京市江宁区泉东路26号119栋,0ffbc10ecc053119e8e582ae,1,0,118.885485,31.954305,95086,life,http://api.map.baidu.com/place/detail?uid=0ffbc10ecc053119e8e582ae&output=html&source=placeapi_v2,,,,,,,,,,11,,,,,,,,118.88540997889,31.954391085853,0
23b085d5c6c458e5095cb34f,中国体育彩票(湖东路店),生活服务,彩票销售点,江苏省,南京市,江宁区,天元吉第城商业7幢106室,23b085d5c6c458e5095cb34f,1,0,118.879492,31.955926,95086,life,http://api.map.baidu.com/place/detail?uid=23b085d5c6c458e5095cb34f&output=html&source=placeapi_v2,,,,,,,,,,16,,,,,,,,118.87949023451,31.956077337547,0
11e1a9768cb6abe85e17c3e3,中国福利彩票(天云南街店),生活服务,彩票销售点,江苏省,南京市,江宁区,江苏省南京市江宁区天云南街35号,11e1a9768cb6abe85e17c3e3,1,0,118.888492,31.962217,954168,life,http://api.map.baidu.com/place/detail?uid=11e1a9768cb6abe85e17c3e3&output=html&source=placeapi_v2,,08:30-20:00,,,,,,,,16,,,,,,,,118.88831520131,31.962273282271,0
38fd64c01c1c9c88b9df8fb9,彩票销售点,生活服务,彩票销售点,江苏省,南京市,江宁区,江苏省南京市江宁区同夏路19号,,1,0,118.869713,31.963532,,life,http://api.map.baidu.com/place/detail?uid=38fd64c01c1c9c88b9df8fb9&output=html&source=placeapi_v2,,,,,,,,,,,,,,,,,,,,0
f7e94db7bebd8b2640e19241,中国福利彩票(新亭东路店),生活服务,彩票销售点,江苏省,南京市,江宁区,高新技术产业园科学园湖山路369天元吉第城45栋,f7e94db7bebd8b2640e19241,1,0,118.878792,31.950968,954168,life,http://api.map.baidu.com/place/detail?uid=f7e94db7bebd8b2640e19241&output=html&source=placeapi_v2,,08:30-20:00,,,,,,,,12,,,,,,,,,,0
baaeef8ae37dd0db250bd020,中国福利彩票(新亭东路店),生活服务,彩票销售点,江苏省,南京市,江宁区,江苏省南京市江宁区成元路222号二街区148号,baaeef8ae37dd0db250bd020,1,0,118.871707,31.950217,(025)81669481,life,http://api.map.baidu.com/place/detail?uid=baaeef8ae37dd0db250bd020&output=html&source=placeapi_v2,,08:30-20:00,,,,,,,,4,,,,,,,,118.8716980217,31.950330969988,0
8057fe551a08d4431e1d1160,中国福利彩票(天元东路店),生活服务,彩票销售点,江苏省,南京市,江宁区,江苏南京市江宁区天元东路865号,8057fe551a08d4431e1d1160,1,0,118.882114,31.945826,954168,life,http://api.map.baidu.com/place/detail?uid=8057fe551a08d4431e1d1160&output=html&source=placeapi_v2,,08:30-20:00,,,,,,,,17,,,,,,,,,,0
a81524f908204d7e2806ced3,中国福利彩票(天元东路店),生活服务,彩票销售点,江苏省,南京市,江宁区,南京市江宁区义乌路义乌小商品城,,1,0,118.883755,31.944625,954168,life,http://api.map.baidu.com/place/detail?uid=a81524f908204d7e2806ced3&output=html&source=placeapi_v2,,08:30-20:00,,,,,,,,5,,,,,,,,118.88374176447,31.944554256345,0
1c67c0bedd1b1ae25b1093c2,中国福利彩票(万安北路店),生活服务,彩票销售点,江苏省,南京市,江宁区,江苏省南京市江宁区文靖东路88号,,1,0,118.884794,31.973542,15950499366,life,http://api.map.baidu.com/place/detail?uid=1c67c0bedd1b1ae25b1093c2&output=html&source=placeapi_v2,,08:30-20:00,,,,,,,,5,,,,,,,,,,0
855efae3d9271a0b8bb988f4,中国福利彩票(天元东路店),生活服务,彩票销售点,江苏省,南京市,江宁区,南京市江宁区淳化街道天元东路951号(江宁汽车客运站对面),,1,0,118.885532,31.943879,18061247701,life,http://api.map.baidu.com/place/detail?uid=855efae3d9271a0b8bb988f4&output=html&source=placeapi_v2,,08:30-22:30,,,,,,,,13,,,,,,,,118.8855066689,31.943822949293,0
c5d0f61a6b2bb734c3364449,中国福利彩票(新亭东路店),生活服务,彩票销售点,江苏省,南京市,江宁区,南京市江宁区新亭东路馨绿园,,1,0,118.866887,31.950393,954168,life,http://api.map.baidu.com/place/detail?uid=c5d0f61a6b2bb734c3364449&output=html&source=placeapi_v2,,,,,,,,,,5,,,,,,,,118.86690371219,31.950234505898,0
2baa7aa78b0ddf55e115f9a2,中国体育彩票(天景山路店),生活服务,彩票销售点,江苏省,南京市,江宁区,南京市江宁区尚学路南京市竹山中学(湖东路校区)西侧,,1,0,118.881951,31.949255,,life,http://api.map.baidu.com/place/detail?uid=2baa7aa78b0ddf55e115f9a2&output=html&source=placeapi_v2,,,,,,,,,,5,,,,,,,,,,0
67418637957ff00b47572663,中国体育彩票(陈陵路店),生活服务,彩票销售点,江苏省,南京市,江宁区,南京市江宁区陈陵路新塘小区东北侧约30米,,1,0,118.890162,31.969888,95086,life,http://api.map.baidu.com/place/detail?uid=67418637957ff00b47572663&output=html&source=placeapi_v2,,,,,,,,,,11,,,,,,,,118.89008297762,31.970087612642,0
77a6a78b923de3f1a6da393e,中国体育彩票(万安西路店),生活服务,彩票销售点,江苏省,南京市,江宁区,江苏省南京市江宁区万安西路168号,,1,0,118.87442,31.965264,,life,http://api.map.baidu.com/place/detail?uid=77a6a78b923de3f1a6da393e&output=html&source=placeapi_v2,,,,,,,,,,8,,,,,,,,118.87446273387,31.965212491292,0
a841bfc20880eae5a0d230cc,中国体育彩票(天印大道店),生活服务,彩票销售点,江苏省,南京市,江宁区,江苏省南京市江宁区天印大道1241号a区,a841bfc20880eae5a0d230cc,1,0,118.870689,31.952104,95086,life,http://api.map.baidu.com/place/detail?uid=a841bfc20880eae5a0d230cc&output=html&source=placeapi_v2,,08:30-21:30,,,,,,,,14,,,,,,,,118.87066275604,31.952099076005,0
79080b425e761b9bc51e5160,中国体育彩票(天元东路店),生活服务,彩票销售点,江苏省,南京市,江宁区,天天东路388号义乌商品城A区9栋1层,,1,0,118.883733,31.94463,95086,life,http://api.map.baidu.com/place/detail?uid=79080b425e761b9bc51e5160&output=html&source=placeapi_v2,,,,,,,,,,7,,,,,,,,,,0
bc2b1644a6827d6d5bf6beb1,中国体育彩票(天元东路店),生活服务,彩票销售点,江苏省,南京市,江宁区,江苏省南京市江宁区天元东路943号,bc2b1644a6827d6d5bf6beb1,1,0,118.88694,31.946706,95086,life,http://api.map.baidu.com/place/detail?uid=bc2b1644a6827d6d5bf6beb1&output=html&source=placeapi_v2,,,,,,,,,,9,,,,,,,,118.88697053139,31.946586608636,0
ce2b28cced85c9c0f82d6148,中国体育彩票(天元东路店),生活服务,彩票销售点,江苏省,南京市,江宁区,江苏省南京市江宁区天元东路829号,,1,0,118.879924,31.945444,95086,life,http://api.map.baidu.com/place/detail?uid=ce2b28cced85c9c0f82d6148&output=html&source=placeapi_v2,,,,,,,,,,13,,,,,,,,,,0
1e387b66a18a6a98471a32da,中国体育彩票(上元路店),生活服务,彩票销售点,江苏省,南京市,江宁区,南京市江宁区天印大道829号,1e387b66a18a6a98471a32da,1,0,118.861591,31.96042,95086,life,http://api.map.baidu.com/place/detail?uid=1e387b66a18a6a98471a32da&output=html&source=placeapi_v2,,,,,,,,,,8,,,,,,,,,,0
d088ac09e477e965276e989e,中国体育彩票(上元大街店),生活服务,彩票销售点,江苏省,南京市,江宁区,南京市江宁区上元大街利民小区(上元大街),d088ac09e477e965276e989e,1,0,118.864163,31.96335,,life,http://api.map.baidu.com/place/detail?uid=d088ac09e477e965276e989e&output=html&source=placeapi_v2,,,,,,,,,,10,,,,,,,,118.86412724839,31.963432848642,0
81eca0888fc53bd188fc0681,中国福利彩票(庄中路店),生活服务,彩票销售点,江苏省,南京市,江宁区,南京市江宁区新采路与庄中路交叉路口往东约90米,81eca0888fc53bd188fc0681,1,0,118.949907,31.957245,,life,http://api.map.baidu.com/place/detail?uid=81eca0888fc53bd188fc0681&output=html&source=placeapi_v2,,08:30-20:00,,,,,,,,10,,,,,,,,,,0
ff16f942406c942000ec011f,中国体育彩票(梅龙路店),生活服务,彩票销售点,江苏省,南京市,江宁区,江苏省南京市江宁区东月桥路29号万宇汽车五金博览中心b4,,1,0,118.951428,31.945704,,life,http://api.map.baidu.com/place/detail?uid=ff16f942406c942000ec011f&output=html&source=placeapi_v2,,,,,,,,,,8,,,,,,,,118.95138781829,31.94561430076,0
b481e7963672a4ef980050bc,中国福利彩票(新亭街店),生活服务,彩票销售点,江苏省,南京市,建邺区,新亭街海峡城云龙湾7栋107室,b481e7963672a4ef980050bc,1,0,118.69013,31.985132,"13451818992,19848344331",life,http://api.map.baidu.com/place/detail?uid=b481e7963672a4ef980050bc&output=html&source=placeapi_v2,,09:00-23:00,,,,,,,,13,,,,,,,,,,0
0dc95eeed50056d00bb93ae6,中国体育彩票(金沙江东街店),生活服务,彩票销售点,江苏省,南京市,建邺区,南京市建邺区金沙江东街保利香槟国际,,1,0,118.724223,31.988274,95086,life,http://api.map.baidu.com/place/detail?uid=0dc95eeed50056d00bb93ae6&output=html&source=placeapi_v2,,08:30-20:00,,,,,,,,11,,,,,,,,118.72430550618,31.988298413408,0
a358a1255acda6f03be4a68a,中国福利彩票(金沙江东街店),生活服务,彩票销售点,江苏省,南京市,建邺区,南京市建邺区金沙江东街保利香槟国际,,1,0,118.72423,31.988271,954168,life,http://api.map.baidu.com/place/detail?uid=a358a1255acda6f03be4a68a&output=html&source=placeapi_v2,,08:30-20:00,0,,,,,,,1,0,,,,,,,,,0
a7100dc68704b187f8dc85ec,体育彩票福利彩票(庐山路店),生活服务,彩票销售点,江苏省,南京市,建邺区,南京市建邺区庐山路河西中央公园,,1,0,118.732446,32.001092,,life,http://api.map.baidu.com/place/detail?uid=a7100dc68704b187f8dc85ec&output=html&source=placeapi_v2,,08:30-20:00,,,,,,,,,,,,,,,,118.73253769735,32.001040713457,0
07bfa25ea417ab778e772790,中国福利彩票(南京台湾名品城店),生活服务,彩票销售点,江苏省,南京市,建邺区,江苏省南京市建邺区河西大街230号(近黄山路)南京台湾名品城F1,07bfa25ea417ab778e772790,1,0,118.723701,32.006874,954168,life,http://api.map.baidu.com/place/detail?uid=07bfa25ea417ab778e772790&output=html&source=placeapi_v2,,08:30-20:00,0,,,,,,,29,1,,,,,,,,,0
8ccbe4fded4f25bfbfa240ab,中国体育彩票(嵩山路店),生活服务,彩票销售点,江苏省,南京市,建邺区,江苏省南京市建邺区雨润大街19号,8ccbe4fded4f25bfbfa240ab,1,0,118.730475,31.986836,95086,life,http://api.map.baidu.com/place/detail?uid=8ccbe4fded4f25bfbfa240ab&output=html&source=placeapi_v2,,09:30-22:00,0,,,,,,,9,0,,,,,,,118.73036742807,31.986915340032,0
d960629c6a74f430c356ac08,中国体育彩票(白龙江东街店),生活服务,彩票销售点,江苏省,南京市,建邺区,江苏省南京市建邺区白龙江东街72-1号,,1,0,118.733058,31.995056,95086,life,http://api.map.baidu.com/place/detail?uid=d960629c6a74f430c356ac08&output=html&source=placeapi_v2,,,,,,,,,,1,,,,,,,,,,0
76f99e331c73237ec17da272,中国体育彩票(中和路店),生活服务,彩票销售点,江苏省,南京市,建邺区,江苏省南京市建邺区中和路79-9号,76f99e331c73237ec17da272,1,0,118.718868,31.976441,95086,life,http://api.map.baidu.com/place/detail?uid=76f99e331c73237ec17da272&output=html&source=placeapi_v2,,,,,,,,,,7,,,,,,,,118.71884841429,31.976451754776,0
e13433e0a106489a7369d306,中国体育彩票(小行路店),生活服务,彩票销售点,江苏省,南京市,雨花台区,南京市雨花台区小行路星如雨宾馆,e13433e0a106489a7369d306,1,0,118.753088,31.991694,95086,life,http://api.map.baidu.com/place/detail?uid=e13433e0a106489a7369d306&output=html&source=placeapi_v2,,08:00-20:00,,,,,,,,16,,,,,,,,118.75318138409,31.991552703294,0
84d993b8b8327558c6effbcb,中国体育彩票(小行路店),生活服务,彩票销售点,江苏省,南京市,雨花台区,江苏省南京市雨花台区小行路26号,84d993b8b8327558c6effbcb,1,0,118.763195,31.995469,95086,life,http://api.map.baidu.com/place/detail?uid=84d993b8b8327558c6effbcb&output=html&source=placeapi_v2,,,,,,,,,,19,,,,,,,,118.76325349898,31.995366409345,0
0abe90b979f467b20bccdd1d,中国福利彩票(小行路店),生活服务,彩票销售点,江苏省,南京市,雨花台区,江苏省南京市雨花台区小行路26-2号,0abe90b979f467b20bccdd1d,1,0,118.763245,31.995502,954168,life,http://api.map.baidu.com/place/detail?uid=0abe90b979f467b20bccdd1d&output=html&source=placeapi_v2,,08:30-20:00,,,,,,,,6,,,,,,,,,,0
2804ed084f2df296fb2d6111,中国福利彩票(小行路店),生活服务,彩票销售点,江苏省,南京市,雨花台区,江苏省南京市雨花台区小行路2~4号,2804ed084f2df296fb2d6111,1,0,118.768268,31.998729,,life,http://api.map.baidu.com/place/detail?uid=2804ed084f2df296fb2d6111&output=html&source=placeapi_v2,,08:30-20:00,,,,,,,,20,,,,,,,,118.76839227361,31.998637400756,0
41a14ed178a71de1f503b8ea,中国体育彩票(嵩山路店),生活服务,彩票销售点,江苏省,南京市,建邺区,江苏省南京市建邺区嵩山路127-12号,,1,0,118.746019,32.004501,95086,life,http://api.map.baidu.com/place/detail?uid=41a14ed178a71de1f503b8ea&output=html&source=placeapi_v2,,,,,,,,,,9,,,,,,,,,,0
7500ab308499e34a5fd4fe72,中国体育彩票(雨花西路店),生活服务,彩票销售点,江苏省,南京市,雨花台区,江苏省南京市雨花台区雨花西路222-16号,7500ab308499e34a5fd4fe72,1,0,118.772705,32.003409,(025)52403585,life,http://api.map.baidu.com/place/detail?uid=7500ab308499e34a5fd4fe72&output=html&source=placeapi_v2,,07:00-22:00,0.0,,,,,,,36,,,,,,,,,,0
4cc23c8a6b5c2f6c7adbd200,中国体育彩票(郁金香路店),生活服务,彩票销售点,江苏省,南京市,雨花台区,江苏省南京市雨花台区郁金香路18-1号,,1,0,118.799355,31.993128,95086,life,http://api.map.baidu.com/place/detail?uid=4cc23c8a6b5c2f6c7adbd200&output=html&source=placeapi_v2,,,,,,,,,,11,,,,,,,,118.79918136978,31.993065600577,0
93464fe47f412de3f4e73b37,中国福利彩票(郁金香路店),生活服务,彩票销售点,江苏省,南京市,雨花台区,南京市雨花台区郁金香路玉兰小区,,1,0,118.799297,31.993106,954168,life,http://api.map.baidu.com/place/detail?uid=93464fe47f412de3f4e73b37&output=html&source=placeapi_v2,,08:30-20:00,,,,,,,,6,,,,,,,,118.79918177581,31.99306478154,0
83ae2f57906bd2bdd5b74e86,中国体育彩票(丁墙路店),生活服务,彩票销售点,江苏省,南京市,雨花台区,江苏省南京市雨花台区玉兰路99号明发商业广场1栋1143室,83ae2f57906bd2bdd5b74e86,1,0,118.805439,31.987497,95086,life,http://api.map.baidu.com/place/detail?uid=83ae2f57906bd2bdd5b74e86&output=html&source=placeapi_v2,,,,,,,,,,11,,,,,,,,118.80547544615,31.987497280843,0
70fd9ebd6dfd8bcec5f025d0,中国体育彩票(南京明发商业广场店),生活服务,彩票销售点,江苏省,南京市,雨花台区,江苏省南京市雨花台区玉兰路99号南京明发商业广场F1南京明发商业广场F1南京明发商业广场F1,70fd9ebd6dfd8bcec5f025d0,1,0,118.803303,31.982463,95086,life,http://api.map.baidu.com/place/detail?uid=70fd9ebd6dfd8bcec5f025d0&output=html&source=placeapi_v2,,08:30-20:00,0,,,,,,,13,0,,,,,,,118.80322378141,31.982620693125,0
61a79d6ccc6905e00f0e6b1c,中国体育彩票(永乐路店),生活服务,彩票销售点,江苏省,南京市,秦淮区,江苏省南京市秦淮区永乐路68号,,1,0,118.807718,32.003586,95086,life,http://api.map.baidu.com/place/detail?uid=61a79d6ccc6905e00f0e6b1c&output=html&source=placeapi_v2,,,,,,,,,,7,,,,,,,,118.8076314189,32.003434403844,0
409767f8e1478eedcf04efb0,中国体育彩票(汇康路店),生活服务,彩票销售点,江苏省,南京市,秦淮区,江苏省南京市秦淮区汇景路174号,409767f8e1478eedcf04efb0,1,0,118.812901,31.988991,(025)86295017,life,http://api.map.baidu.com/place/detail?uid=409767f8e1478eedcf04efb0&output=html&source=placeapi_v2,,,,,,,,,,3,,,,,,,,,,0
8b17351f986c4c5a00ec01c8,中国体育彩票(永乐路店),生活服务,彩票销售点,江苏省,南京市,秦淮区,南京市秦淮区永乐路风光里小区,8b17351f986c4c5a00ec01c8,1,0,118.811085,32.002072,95086,life,http://api.map.baidu.com/place/detail?uid=8b17351f986c4c5a00ec01c8&output=html&source=placeapi_v2,,,,,,,,,,1,,,,,,,,118.81095870927,32.001894806259,0
8cfb55b8ff739c3b047ce825,中国体育彩票(养虎仓店),生活服务,彩票销售点,江苏省,南京市,秦淮区,南京市秦淮区养虎仓开源小区,,1,0,118.798172,32.00715,95086,life,http://api.map.baidu.com/place/detail?uid=8cfb55b8ff739c3b047ce825&output=html&source=placeapi_v2,,,,,,,,,,9,,,,,,,,118.79807770444,32.007239280464,0
3e9ba73f02e1e6f0eb1e9735,中国体育彩票(汇景北路店),生活服务,彩票销售点,江苏省,南京市,秦淮区,江苏省南京市秦淮区汇景北路41号,,1,0,118.814621,31.989683,"(025)86535583,13584062603",life,http://api.map.baidu.com/place/detail?uid=3e9ba73f02e1e6f0eb1e9735&output=html&source=placeapi_v2,,,,,,,,,,8,,,,,,,,118.81471446352,31.989546700658,0
b90af656b02b7107eee4a507,中国体育彩票(大明西路店),生活服务,彩票销售点,江苏省,南京市,秦淮区,江苏省南京市秦淮区大明西路城南枫景小区2楼,,1,0,118.81375,32.005474,95086,life,http://api.map.baidu.com/place/detail?uid=b90af656b02b7107eee4a507&output=html&source=placeapi_v2,,,,,,,,,,7,,,,,,,,,,0
887b0c87c6583e0b5a3ac808,中国体育彩票(汇景路店),生活服务,彩票销售点,江苏省,南京市,秦淮区,江苏省南京市秦淮区汇景路54号,887b0c87c6583e0b5a3ac808,1,0,118.818904,31.990017,95086,life,http://api.map.baidu.com/place/detail?uid=887b0c87c6583e0b5a3ac808&output=html&source=placeapi_v2,,,,,,,,,,11,,,,,,,,,,0
cf2f12a9d6a693c8f4e73bcd,中国体育彩票(汇景北路店),生活服务,彩票销售点,江苏省,南京市,秦淮区,南京市秦淮区汇景家园汇吉苑,cf2f12a9d6a693c8f4e73bcd,1,0,118.819865,31.991468,95086,life,http://api.map.baidu.com/place/detail?uid=cf2f12a9d6a693c8f4e73bcd&output=html&source=placeapi_v2,,,0.0,,,,,,,11,,,,,,,,118.81973700551,31.99162604361,0
438034a54bc40cae1d1d112a,中国福利彩票(丁墙路店),生活服务,彩票销售点,江苏省,南京市,雨花台区,江苏省南京市雨花台区玉兰路99号,,1,0,118.805414,31.987553,15850740182,life,http://api.map.baidu.com/place/detail?uid=438034a54bc40cae1d1d112a&output=html&source=placeapi_v2,,08:30-20:00,,,,,,,,6,,,,,,,,118.80547407444,31.987496218434,0
5a85eb91b10596acd618b767,中国福利彩票(永乐北路店),生活服务,彩票销售点,江苏省,南京市,秦淮区,江苏省南京市秦淮区永乐路107号,5a85eb91b10596acd618b767,1,0,118.808847,32.005372,954168,life,http://api.map.baidu.com/place/detail?uid=5a85eb91b10596acd618b767&output=html&source=placeapi_v2,,08:30-20:00,,,,,,,,8,,,,,,,,118.80877379312,32.00537313261,0
a3fbd51748ea6d9441e1920c,中国福利彩票(永乐路店),生活服务,彩票销售点,江苏省,南京市,秦淮区,南京市秦淮区永乐路洪家园新寓,,1,0,118.807707,32.003568,954168,life,http://api.map.baidu.com/place/detail?uid=a3fbd51748ea6d9441e1920c&output=html&source=placeapi_v2,,08:30-20:00,,,,,,,,8,,,,,,,,118.80763124373,32.003434476338,0
e1d2e1da4fcb46446cc02caf,体彩福彩双彩店,生活服务,彩票销售点,江苏省,南京市,秦淮区,江苏省南京市秦淮区汇景北路41号,,1,0,118.814642,31.989693,,life,http://api.map.baidu.com/place/detail?uid=e1d2e1da4fcb46446cc02caf&output=html&source=placeapi_v2,,,,,,,,,,1,,,,,,,,,,0
df6ed120acd2e128601c6701,中国福利彩票(永乐路店),生活服务,彩票销售点,江苏省,南京市,秦淮区,江苏省南京市秦淮区永乐路108号龙翔121号,,1,0,118.806196,32.00394,954168,life,http://api.map.baidu.com/place/detail?uid=df6ed120acd2e128601c6701&output=html&source=placeapi_v2,,09:00-23:00,,,,,,,,4,,,,,,,,,,0
40324d3fbe2cf0560b69d9aa,中国福利彩票(汇景北路店),生活服务,彩票销售点,江苏省,南京市,秦淮区,江苏省南京市秦淮区汇景北路复地宴南都1栋1室,40324d3fbe2cf0560b69d9aa,1,0,118.812953,31.98898,(025)86295017,life,http://api.map.baidu.com/place/detail?uid=40324d3fbe2cf0560b69d9aa&output=html&source=placeapi_v2,,08:30-20:00,,,,,,,,10,,,,,,,,118.81314547683,31.989073777305,0
ce010c63ee415158f942b2ae,中国福利彩票(晨光路店),生活服务,彩票销售点,江苏省,南京市,秦淮区,江苏省南京市秦淮区晨光路33-1号,ce010c63ee415158f942b2ae,1,0,118.800103,32.006344,,life,http://api.map.baidu.com/place/detail?uid=ce010c63ee415158f942b2ae&output=html&source=placeapi_v2,,,,,,,,,,7,,,,,,,,118.80020693643,32.006385406114,0
7d2053fc7c316d6b2811d16a,中国福利彩票(永乐路店),生活服务,彩票销售点,江苏省,南京市,秦淮区,南京市秦淮区永乐路风光里小区,7d2053fc7c316d6b2811d16a,1,0,118.811013,32.00201,954168,life,http://api.map.baidu.com/place/detail?uid=7d2053fc7c316d6b2811d16a&output=html&source=placeapi_v2,,,,,,,,,,6,,,,,,,,,,0
598b0c0b7e20efdcd81318dc,中国福利彩票(汇景路店),生活服务,彩票销售点,江苏省,南京市,秦淮区,江苏省南京市秦淮区苏家桥路8-6号,598b0c0b7e20efdcd81318dc,1,0,118.818909,31.990048,954168,life,http://api.map.baidu.com/place/detail?uid=598b0c0b7e20efdcd81318dc&output=html&source=placeapi_v2,,08:30-20:00,,,,,,,,4,,,,,,,,118.819045136,31.989956797934,0
cf2f12a9d6a693c8f4e73bcd,中国体育彩票(汇景北路店),生活服务,彩票销售点,江苏省,南京市,秦淮区,南京市秦淮区汇景家园汇吉苑,cf2f12a9d6a693c8f4e73bcd,1,0,118.819865,31.991468,95086,life,http://api.map.baidu.com/place/detail?uid=cf2f12a9d6a693c8f4e73bcd&output=html&source=placeapi_v2,,,0.0,,,,,,,11,,,,,,,,118.81973700551,31.99162604361,0
671f1a461d62e6122cb17ef8,中国体育彩票(梅家廊路店),生活服务,彩票销售点,江苏省,南京市,秦淮区,江苏省南京市秦淮区绕城路银龙花园4期13栋102室,671f1a461d62e6122cb17ef8,1,0,118.85511,32.003948,95086,life,http://api.map.baidu.com/place/detail?uid=671f1a461d62e6122cb17ef8&output=html&source=placeapi_v2,,,,,,,,,,6,,,,,,,,118.85511284332,32.00386022073,0
da18b541c1f92fa13b221ccf,中国体育彩票(润发路店),生活服务,彩票销售点,江苏省,南京市,江宁区,江苏省南京市江宁区高桥门神17号,da18b541c1f92fa13b221ccf,1,0,118.870075,31.990277,,life,http://api.map.baidu.com/place/detail?uid=da18b541c1f92fa13b221ccf&output=html&source=placeapi_v2,,,0.0,,,,,,,11,,,,,,,,118.8702514498,31.990389675563,0
062ed1ec64c360db3010af2f,中国福利彩票(万福路店),生活服务,彩票销售点,江苏省,南京市,江宁区,江苏省南京市江宁区大里万福路华庭北园北门公交站边,062ed1ec64c360db3010af2f,1,0,118.883044,32.003118,(025)86183891,life,http://api.map.baidu.com/place/detail?uid=062ed1ec64c360db3010af2f&output=html&source=placeapi_v2,,09:00-21:30,0.0,,,,,,,12,0,,,,,,,118.88307965672,32.003362440267,0
e21e94abeff9977861685849,中国福利彩票(润发路店),生活服务,彩票销售点,江苏省,南京市,江宁区,南京市江宁区润发路上坊派出所西南侧约140米,e21e94abeff9977861685849,1,0,118.870105,31.990233,,life,http://api.map.baidu.com/place/detail?uid=e21e94abeff9977861685849&output=html&source=placeapi_v2,,08:30-20:00,0.0,,,,,,,11,,,,,,,,118.8702514498,31.990389675563,0
470c3605dd3ce3b9246e98b4,中国体育彩票丰泽路店,生活服务,彩票销售点,江苏省,南京市,江宁区,江苏省南京市江宁区丰泽路118号中粮鸿云30栋122号,,1,0,118.888109,32.000676,95086,life,http://api.map.baidu.com/place/detail?uid=470c3605dd3ce3b9246e98b4&output=html&source=placeapi_v2,,,,,,,,,,7,,,,,,,,118.88784253361,32.000803675212,0
7c39481175890c590f0a70dc,中国体育彩票(51576号站点),生活服务,彩票销售点,江苏省,南京市,秦淮区,江苏省南京市秦淮区石杨路银龙鑫苑旁,7c39481175890c590f0a70dc,1,0,118.872787,32.007916,,life,http://api.map.baidu.com/place/detail?uid=7c39481175890c590f0a70dc&output=html&source=placeapi_v2,,,0.0,,,,,,,20,0,,,,,,,118.87292283296,32.007849731722,0
ca9c93b758c962384bcc4ad1,彩票销售店,生活服务,彩票销售点,江苏省,南京市,江宁区,江苏省南京市江宁区X102(上高路),,1,0,118.875778,31.986771,,life,http://api.map.baidu.com/place/detail?uid=ca9c93b758c962384bcc4ad1&output=html&source=placeapi_v2,,,,,,,,,,,,,,,,,,,,0
aaabb7cb43aef4e21576436f,中国福利彩票(兴隆大街店),生活服务,彩票销售点,江苏省,南京市,建邺区,江苏省南京市建邺区兴隆大街201-1号,aaabb7cb43aef4e21576436f,1,0,118.73173,32.023914,954168,life,http://api.map.baidu.com/place/detail?uid=aaabb7cb43aef4e21576436f&output=html&source=placeapi_v2,,08:30-20:00,,,,,,,,9,,,,,,,,118.73171298372,32.02405231125,0
3e2e611dd9df611b734b87f9,中国体育彩票(兴隆大街店),生活服务,彩票销售点,江苏省,南京市,建邺区,江苏省南京市建邺区兴隆大街171-3号,3e2e611dd9df611b734b87f9,1,0,118.731754,32.023965,95086,life,http://api.map.baidu.com/place/detail?uid=3e2e611dd9df611b734b87f9&output=html&source=placeapi_v2,,,0.0,,,,,,,20,,,,,,,,118.73172452875,32.024055036998,0
d639a4fd61a2f903ad0457d5,嘉邺国际后街彩票店,生活服务,彩票销售点,江苏省,南京市,建邺区,江苏省南京市建邺区河西中央商务区嘉邺国际后街彩票店,,1,0,118.728976,32.014732,,life,http://api.map.baidu.com/place/detail?uid=d639a4fd61a2f903ad0457d5&output=html&source=placeapi_v2,,,,,,,,,,,,,,,,,,,,0
2eeac41bd65abb2a4afc8df0,中国福利彩票(南湖路店),生活服务,彩票销售点,江苏省,南京市,建邺区,南京市建邺区南湖路利星公寓,2eeac41bd65abb2a4afc8df0,1,0,118.758999,32.026395,,life,http://api.map.baidu.com/place/detail?uid=2eeac41bd65abb2a4afc8df0&output=html&source=placeapi_v2,,08:30-20:00,,,,,,,,7,,,,,,,,118.75895873088,32.026416327299,0
e69729803fa124989d95de20,中国福利彩票(所街店),生活服务,彩票销售点,江苏省,南京市,建邺区,南京市建邺区所街城开怡家西园,,1,0,118.755543,32.026983,(025)86425440,life,http://api.map.baidu.com/place/detail?uid=e69729803fa124989d95de20&output=html&source=placeapi_v2,,09:00-21:00,,,,,,,,4,,,,,,,,,,0
1df2ecf505d91440ce04efaa,中国体育彩票(南湖路店),生活服务,彩票销售点,江苏省,南京市,建邺区,江苏省南京市建邺区南湖路99号,1df2ecf505d91440ce04efaa,1,0,118.760972,32.029216,,life,http://api.map.baidu.com/place/detail?uid=1df2ecf505d91440ce04efaa&output=html&source=placeapi_v2,,,,,,,,,,11,,,,,,,,118.76107084925,32.029316227931,0
17da64c0585084c8a1d230df,南京市体育彩票管理中心,生活服务,彩票销售点,江苏省,南京市,建邺区,江苏省南京市建邺区集庆门大街99号,17da64c0585084c8a1d230df,1,0,118.763382,32.029232,,life,http://api.map.baidu.com/place/detail?uid=17da64c0585084c8a1d230df&output=html&source=placeapi_v2,,"09:00-11:30,13:30-17:00",0.0,,,,,,,17,0,,,,,,,118.76343623049,32.029310264005,0
e15cbeb2250d2d39246e98ef,中国福利彩票(湖西街店),生活服务,彩票销售点,江苏省,南京市,建邺区,南京市建邺区湖西街安如村,e15cbeb2250d2d39246e98ef,1,0,118.754661,32.029392,(025)86425440,life,http://api.map.baidu.com/place/detail?uid=e15cbeb2250d2d39246e98ef&output=html&source=placeapi_v2,,08:30-20:00,,,,,,,,20,,,,,,,,118.75453966783,32.029441592132,0
5306dec0c14b191490114c84,中国福利彩票(南京市南湖路销售厅),生活服务,彩票销售点,江苏省,南京市,建邺区,江苏省南京市建邺区南湖路113号,5306dec0c14b191490114c84,1,0,118.757135,32.023492,,life,http://api.map.baidu.com/place/detail?uid=5306dec0c14b191490114c84&output=html&source=placeapi_v2,,00:00-24:00,0,,,,,,,16,0,,,,,,,118.75703004756,32.023542795683,0
7cafcf086c468549c7effb5d,中国福利彩票(湖西街店),生活服务,彩票销售点,江苏省,南京市,建邺区,江苏省南京市建邺区湖西街51-7号,7cafcf086c468549c7effb5d,1,0,118.755433,32.031702,954168,life,http://api.map.baidu.com/place/detail?uid=7cafcf086c468549c7effb5d&output=html&source=placeapi_v2,,08:30-20:00,,,,,,,,7,,,,,,,,118.75535247083,32.031720692192,0
7dc35373ecd0ff766240a982,中国福利彩票(文体路店),生活服务,彩票销售点,江苏省,南京市,建邺区,南京市建邺区文体路真园开园,7dc35373ecd0ff766240a982,1,0,118.763166,32.025412,954168,life,http://api.map.baidu.com/place/detail?uid=7dc35373ecd0ff766240a982&output=html&source=placeapi_v2,,,,,,,,,,3,,,,,,,,118.76328400004,32.025389015154,0
0d3e566b5305ee036268581c,中国福利彩票(应天大街店),生活服务,彩票销售点,江苏省,南京市,建邺区,江苏省南京市建邺区应天大街108号华润苏果超市1楼,,1,0,118.755951,32.021793,954168,life,http://api.map.baidu.com/place/detail?uid=0d3e566b5305ee036268581c&output=html&source=placeapi_v2,,08:30-20:00,,,,,,,,11,,,,,,,,118.75570166105,32.021912344419,0
915d20bc3730c76807026f98,中国福利彩票(文体路店),生活服务,彩票销售点,江苏省,南京市,建邺区,南京市建邺区所街贡园小区,915d20bc3730c76807026f98,1,0,118.763139,32.023538,954168,life,http://api.map.baidu.com/place/detail?uid=915d20bc3730c76807026f98&output=html&source=placeapi_v2,,08:30-20:00,,,,,,,,12,,,,,,,,118.76307458257,32.023659294238,0
6bd0da84f8018b46b54f5432,中国福利彩票(应天大街店),生活服务,彩票销售点,江苏省,南京市,建邺区,江苏省南京市建邺区南湖路58号,6bd0da84f8018b46b54f5432,1,0,118.759158,32.021571,954168,life,http://api.map.baidu.com/place/detail?uid=6bd0da84f8018b46b54f5432&output=html&source=placeapi_v2,,08:30-20:00,,,,,,,,2,,,,,,,,,,0
eb5e7afc850b4b1872455bdb,中国福利彩票(文体路店),生活服务,彩票销售点,江苏省,南京市,建邺区,南京市建邺区文体路东升沿一小区,,1,0,118.765333,32.030042,954168,life,http://api.map.baidu.com/place/detail?uid=eb5e7afc850b4b1872455bdb&output=html&source=placeapi_v2,,08:30-20:00,,,,,,,,4,,,,,,,,118.76544534915,32.030008938578,0
966db7d23401b7a38bdb7303,中国福利彩票(文体西街店),生活服务,彩票销售点,江苏省,南京市,建邺区,南京市建邺区文体西街利民小区(文体西路),966db7d23401b7a38bdb7303,1,0,118.764324,32.031933,954168,life,http://api.map.baidu.com/place/detail?uid=966db7d23401b7a38bdb7303&output=html&source=placeapi_v2,,08:30-20:00,,,,,,,,7,,,,,,,,118.76426655942,32.031948307656,0
ce6ce81ef8e8ac8f82a12ecb,中国福利彩票(庐山路店),生活服务,彩票销售点,江苏省,南京市,建邺区,江苏省南京市建邺区庐山路28-3号,ce6ce81ef8e8ac8f82a12ecb,1,0,118.749345,32.022369,954168,life,http://api.map.baidu.com/place/detail?uid=ce6ce81ef8e8ac8f82a12ecb&output=html&source=placeapi_v2,,08:30-20:00,,,,,,,,19,,,,,,,,,,0
79898be161b8f3213517dce3,中国福利彩票(彩虹路店),生活服务,彩票销售点,江苏省,南京市,建邺区,江苏省南京市建邺区彩虹路彩虹苑3-2号,79898be161b8f3213517dce3,1,0,118.768079,32.030272,954168,life,http://api.map.baidu.com/place/detail?uid=79898be161b8f3213517dce3&output=html&source=placeapi_v2,,08:30-20:00,,,,,,,,8,,,,,,,,,,0
c06909af35571cf1bfa822dc,中国福利彩票(应天大街店),生活服务,彩票销售点,江苏省,南京市,建邺区,江苏省南京市建邺区应天大街765号5,c06909af35571cf1bfa822dc,1,0,118.764169,32.019466,954168,life,http://api.map.baidu.com/place/detail?uid=c06909af35571cf1bfa822dc&output=html&source=placeapi_v2,,08:30-20:00,,,,,,,,17,,,,,,,,,,0
dfc19a2305219302e81e9786,中国福利彩票(集庆门大街店),生活服务,彩票销售点,江苏省,南京市,建邺区,江苏省南京市建邺区湖西街莺歌苑21号,dfc19a2305219302e81e9786,1,0,118.748795,32.034234,(025)86466280,life,http://api.map.baidu.com/place/detail?uid=dfc19a2305219302e81e9786&output=html&source=placeapi_v2,,08:30-20:00,5.0,,,,,,,15,0,,,,,,,118.74879285355,32.03415213947,0
6963c3981d50b23faeee7abc,中国福利彩票(凤栖路店),生活服务,彩票销售点,江苏省,南京市,建邺区,南京市建邺区福园街白鹭花园凤栖苑,,1,0,118.751198,32.03702,954168,life,http://api.map.baidu.com/place/detail?uid=6963c3981d50b23faeee7abc&output=html&source=placeapi_v2,,08:30-20:00,,,,,,,,7,,,,,,,,118.75121926567,32.037097595756,0
6f8ef79202040146e215f970,中国体育彩票(庐山路店),生活服务,彩票销售点,江苏省,南京市,建邺区,江苏省南京市建邺区应天大街867号,6f8ef79202040146e215f970,1,0,118.750012,32.02564,95086,life,http://api.map.baidu.com/place/detail?uid=6f8ef79202040146e215f970&output=html&source=placeapi_v2,,08:30-20:00,,,,,,,,20,,,,,,,,118.75004218093,32.025695591399,0
1b8def07c5ece254734b87c8,中国体育彩票(黄山路店),生活服务,彩票销售点,江苏省,南京市,建邺区,南京市建邺区黄山路3号(红霞餐厅隔壁),1b8def07c5ece254734b87c8,1,0,118.755489,32.02132,95086,life,http://api.map.baidu.com/place/detail?uid=1b8def07c5ece254734b87c8&output=html&source=placeapi_v2,,08:30-20:00,0,,,,,,,29,0,,,,,,,118.75530926413,32.021349724558,0
b52999b4e35ce7d36d20b9cf,中国体育彩票(南湖路店),生活服务,彩票销售点,江苏省,南京市,建邺区,南京市建邺区南湖路沿河社区,,1,0,118.761529,32.031057,(025)51877078,life,http://api.map.baidu.com/place/detail?uid=b52999b4e35ce7d36d20b9cf&output=html&source=placeapi_v2,,08:30-22:00,,,,,,,,5,,,,,,,,118.76164481257,32.030979771053,0
c6afb92adaf472eac71e51f3,中国体育彩票(南湖路店),生活服务,彩票销售点,江苏省,南京市,建邺区,江苏省南京市建邺区南湖路16号,c6afb92adaf472eac71e51f3,1,0,118.76283,32.03478,(025)52233366,life,http://api.map.baidu.com/place/detail?uid=c6afb92adaf472eac71e51f3&output=html&source=placeapi_v2,,09:00-23:00,0,,,,,,,18,0,,,,,,,118.76301865047,32.034728939928,0
89538fb21e283753902ca38d,中国体育彩票(文体路店),生活服务,彩票销售点,江苏省,南京市,建邺区,南京市建邺区文体路东升沿一小区,89538fb21e283753902ca38d,1,0,118.765338,32.030045,95086,life,http://api.map.baidu.com/place/detail?uid=89538fb21e283753902ca38d&output=html&source=placeapi_v2,,,,,,,,,,5,,,,,,,,118.76544729847,32.030013835419,0
858f82ddb81dd87d0c0e6bac,中国体育彩票(怡康街店),生活服务,彩票销售点,江苏省,南京市,建邺区,江苏省南京市建邺区黄山路9号5幢104室,858f82ddb81dd87d0c0e6bac,1,0,118.755559,32.0192,95086,life,http://api.map.baidu.com/place/detail?uid=858f82ddb81dd87d0c0e6bac&output=html&source=placeapi_v2,,,,,,,,,,6,,,,,,,,118.75551614658,32.019130691019,0
64ffdd42c5bdd4f46f20b998,中国体育彩票(庐山路店),生活服务,彩票销售点,江苏省,南京市,建邺区,南京市建邺区庐山路兴达新寓,64ffdd42c5bdd4f46f20b998,1,0,118.749337,32.022342,95086,life,http://api.map.baidu.com/place/detail?uid=64ffdd42c5bdd4f46f20b998&output=html&source=placeapi_v2,,,,,,,,,,5,,,,,,,,118.74940509098,32.022287152551,0
3212c8e76a3132bc82a12e7f,中国体育彩票(所街店),生活服务,彩票销售点,江苏省,南京市,建邺区,南京市建邺区所街贡园小区,3212c8e76a3132bc82a12e7f,1,0,118.764454,32.022936,95086,life,http://api.map.baidu.com/place/detail?uid=3212c8e76a3132bc82a12e7f&output=html&source=placeapi_v2,,,,,,,,,,8,,,,,,,,,,0
0f278c74622cca6ec4f50d8f,中国体育彩票(文体路店),生活服务,彩票销售点,江苏省,南京市,建邺区,南京市建邺区文体路真园开园,,1,0,118.763215,32.025376,95086,life,http://api.map.baidu.com/place/detail?uid=0f278c74622cca6ec4f50d8f&output=html&source=placeapi_v2,,,,,,,,,,4,,,,,,,,,,0
14b5d1864d309271be484200,中国体育彩票(云锦路店),生活服务,彩票销售点,江苏省,南京市,建邺区,江苏省南京市建邺区云锦路80-4号,14b5d1864d309271be484200,1,0,118.749894,32.036853,(025)84733080,life,http://api.map.baidu.com/place/detail?uid=14b5d1864d309271be484200&output=html&source=placeapi_v2,,10:00-24:00,0.0,,,,,,,29,,,,,,,,118.75017970791,32.036808767223,0
5ada1d09702ceefb46e274fe,中国体育彩票(应天大街店),生活服务,彩票销售点,江苏省,南京市,建邺区,南京市建邺区应天大街虹苑新寓小区,5ada1d09702ceefb46e274fe,1,0,118.759179,32.021562,95086,life,http://api.map.baidu.com/place/detail?uid=5ada1d09702ceefb46e274fe&output=html&source=placeapi_v2,,,,,,,,,,8,,,,,,,,,,0
c9e96bbfd9b3bd57b75f1e16,中国体育彩票(所街店),生活服务,彩票销售点,江苏省,南京市,建邺区,南京市建邺区所街贡园小区,c9e96bbfd9b3bd57b75f1e16,1,0,118.763154,32.023537,95086,life,http://api.map.baidu.com/place/detail?uid=c9e96bbfd9b3bd57b75f1e16&output=html&source=placeapi_v2,,,,,,,,,,1,,,,,,,,118.7630856452,32.023404752281,0
8e7b8f50b17a1df772455b79,中国体育彩票(彩虹路店),生活服务,彩票销售点,江苏省,南京市,建邺区,南京市建邺区彩虹路彩虹苑,8e7b8f50b17a1df772455b79,1,0,118.768332,32.029082,95086,life,http://api.map.baidu.com/place/detail?uid=8e7b8f50b17a1df772455b79&output=html&source=placeapi_v2,,,,,,,,,,8,,,,,,,,118.7684607757,32.0291007442,0
e6c909e4ff792bd20c0a701b,中国体育彩票(应天大街店),生活服务,彩票销售点,江苏省,南京市,建邺区,江苏省南京市建邺区应天大街765-5号,e6c909e4ff792bd20c0a701b,1,0,118.764112,32.019451,95086,life,http://api.map.baidu.com/place/detail?uid=e6c909e4ff792bd20c0a701b&output=html&source=placeapi_v2,,,,,,,,,,10,,,,,,,,118.76411687567,32.019566648433,0
f1942e4d08e32c35b05c6a4a,中国体育彩票(集庆门大街店),生活服务,彩票销售点,江苏省,南京市,建邺区,江苏省南京市建邺区集庆门大街莺歌苑小区21101号,f1942e4d08e32c35b05c6a4a,1,0,118.748827,32.034228,95086,life,http://api.map.baidu.com/place/detail?uid=f1942e4d08e32c35b05c6a4a&output=html&source=placeapi_v2,,08:30-20:00,,,,,,,,11,,,,,,,,118.74882526621,32.03415158581,0
b8bb71ea98b891dc283a9f0e,中国体育彩票(南湖东路店),生活服务,彩票销售点,江苏省,南京市,建邺区,江苏省南京市建邺区南湖路16号,,1,0,118.765433,32.033063,95086,life,http://api.map.baidu.com/place/detail?uid=b8bb71ea98b891dc283a9f0e&output=html&source=placeapi_v2,,,,,,,,,,9,,,,,,,,118.76540385372,32.032982814506,0
2a6a44f3228b6978b320a8c4,豪爵铃木销售店(云锦路店),生活服务,彩票销售点,江苏省,南京市,建邺区,南京市建邺区云锦路万达广场-东坊,2a6a44f3228b6978b320a8c4,1,0,118.750312,32.038597,,life,http://api.map.baidu.com/place/detail?uid=2a6a44f3228b6978b320a8c4&output=html&source=placeapi_v2,,,,,,,,,,14,,,,,,,,118.75055554186,32.038558638087,0
8ca70e49fff0d91543ab9ac0,中国体育彩票(南湖东路店),生活服务,彩票销售点,江苏省,南京市,建邺区,江苏省南京市建邺区玉塘东街14-3号,8ca70e49fff0d91543ab9ac0,1,0,118.761269,32.033832,95086,life,http://api.map.baidu.com/place/detail?uid=8ca70e49fff0d91543ab9ac0&output=html&source=placeapi_v2,,,,,,,,,,9,,,,,,,,118.76131819947,32.033979092044,0
97de287eb97d2d13970319e6,中国体育彩票(水西门大街店),生活服务,彩票销售点,江苏省,南京市,建邺区,江苏省南京市建邺区明清园路河西万达广场f座129-41号,97de287eb97d2d13970319e6,1,0,118.756482,32.039926,95086,life,http://api.map.baidu.com/place/detail?uid=97de287eb97d2d13970319e6&output=html&source=placeapi_v2,,10:00-24:00,0,,,,,,,10,0,,,,,,,118.75637554379,32.040034121649,0
