uid,name,cat_L1,cat_L2,province,city,area,address,street_id,detail,child_num,loc_lng,loc_lat,telephone,type,detail_url,price,shop_hours,overall_rating,taste_rating,service_rating,environment_rating,facility_rating,hygiene_rating,technology_rating,image_num,comment_num,groupon_num,discount_num,favorite_num,checkin_num,brand,content_tag,naviloc_lng,naviloc_lat,child_num
4e16c9729c62d01114b54b7b,天津富优农业科技有限公司,公司企业,农林园艺,天津市,天津市,滨海新区,天津市滨海新区五星村路与徐太路交叉口东南,,1,0,117.287848,38.618367,,enterprise,http://api.map.baidu.com/place/detail?uid=4e16c9729c62d01114b54b7b&output=html&source=placeapi_v2,,,,,,,,,,,,,,,,,,,,0
28092f0aa8c124a3f8221362,天津绿源生态农业科技有限公司,公司企业,农林园艺,天津市,天津市,滨海新区,天津市滨海新区北排水河,,1,0,117.428264,38.617557,18526675666,enterprise,http://api.map.baidu.com/place/detail?uid=28092f0aa8c124a3f8221362&output=html&source=placeapi_v2,,,0.0,,,,,,,,1,,,,,,,,,0
92372462aa3067e68515414d,大华养殖场,公司企业,农林园艺,天津市,天津市,滨海新区,天津市滨海新区海滨高速公路,,1,0,117.547126,38.624454,,enterprise,http://api.map.baidu.com/place/detail?uid=92372462aa3067e68515414d&output=html&source=placeapi_v2,,,,,,,,,,,,,,,,,,,,0
745f52512565421f1e5800d6,天津蔓朵莎桦苗木种植有限公司,公司企业,农林园艺,天津市,天津市,滨海新区,天津市滨海新区S233与北和顺路交叉路口往东北约260米,,1,0,117.193518,38.659871,,enterprise,http://api.map.baidu.com/place/detail?uid=745f52512565421f1e5800d6&output=html&source=placeapi_v2,,,,,,,,,,,,,,,,,,,,0
f921dff2a1d5ee440b69d93b,东恒养殖场,公司企业,农林园艺,天津市,天津市,滨海新区,工农大道东50米,,1,0,117.304094,38.649566,,enterprise,http://api.map.baidu.com/place/detail?uid=f921dff2a1d5ee440b69d93b&output=html&source=placeapi_v2,,,,,,,,,,,,,,,,,,,,0
8c3fa0e8d34463fabda2406e,天津滨海明星冬枣温棚基地,公司企业,农林园艺,天津市,天津市,滨海新区,天津市滨海新区远太路,,1,0,117.350729,38.651998,,enterprise,http://api.map.baidu.com/place/detail?uid=8c3fa0e8d34463fabda2406e&output=html&source=placeapi_v2,,,0.0,,,,,,,,1,,,,,,,,,0
dff8505f69f5376a40024546,天津滨海明星冬枣温棚基地,公司企业,农林园艺,天津市,天津市,滨海新区,天津市滨海新区远太路,,1,0,117.363599,38.662057,,enterprise,http://api.map.baidu.com/place/detail?uid=dff8505f69f5376a40024546&output=html&source=placeapi_v2,,,0.0,,,,,,,,1,,,,,,,,,0
50c2b059adf719f203ec0135,李官庄农场,公司企业,农林园艺,天津市,天津市,滨海新区,天津市滨海新区大港发展路和徐太路交口西北侧,,1,0,117.186889,38.69429,13502158781,enterprise,http://api.map.baidu.com/place/detail?uid=50c2b059adf719f203ec0135&output=html&source=placeapi_v2,,00:00-24:00,,,,,,,,,,,,,,,,,,0
14fdcedfd7b12b014054d726,天津腾丰农业设施有限公司,公司企业,农林园艺,天津市,天津市,滨海新区,天津市滨海新区向阳大道向阳里西北侧约270米,,1,0,117.205738,38.689602,,enterprise,http://api.map.baidu.com/place/detail?uid=14fdcedfd7b12b014054d726&output=html&source=placeapi_v2,,,0.0,,,,,,,,,,,,,,,,,0
f2873c25eb6c2e312bd7aba4,中国东盟农业科技种子基地,公司企业,农林园艺,天津市,天津市,滨海新区,钱顺线,f2873c25eb6c2e312bd7aba4,1,0,117.203093,38.701842,,enterprise,http://api.map.baidu.com/place/detail?uid=f2873c25eb6c2e312bd7aba4&output=html&source=placeapi_v2,,,,,,,,,,,,,,,,,,,,0
bd84f128653a7870eb1e97ee,天津市大苏庄农场,公司企业,农林园艺,天津市,天津市,滨海新区,天津市滨海新区太平村,,1,0,117.304244,38.672777,,enterprise,http://api.map.baidu.com/place/detail?uid=bd84f128653a7870eb1e97ee&output=html&source=placeapi_v2,,,0,,,,,,,,0,,,,,,,,,0
676a673e59f907ee1d1d1100,天津群英蔬菜种植专业合作社,公司企业,农林园艺,天津市,天津市,滨海新区,中华路与祯益街交叉口东50米,,1,0,117.368883,38.679123,(022)63191004,enterprise,http://api.map.baidu.com/place/detail?uid=676a673e59f907ee1d1d1100&output=html&source=placeapi_v2,,,,,,,,,,,,,,,,,,,,0
9f59e5b1e25f9cc27adbd220,天津市大港区兴盛畜禽良种场,公司企业,农林园艺,天津市,天津市,滨海新区,西围堤道西50米,,1,0,117.442735,38.679211,,enterprise,http://api.map.baidu.com/place/detail?uid=9f59e5b1e25f9cc27adbd220&output=html&source=placeapi_v2,,,,,,,,,,,,,,,,,,,,0
71f65cf68fbd4402130daa20,植沐园艺,公司企业,农林园艺,天津市,天津市,滨海新区,天津市滨海新区三号院a4号,,1,0,117.510355,38.729513,15122168802,enterprise,http://api.map.baidu.com/place/detail?uid=71f65cf68fbd4402130daa20&output=html&source=placeapi_v2,,,,,,,,,,,,,,,,,,,,0
635c3b6d7de8ffadbfa822fc,天津盛瑞农业科技有限公司,公司企业,农林园艺,天津市,天津市,滨海新区,天津市滨海新区东风大道与红旗路交叉路口往西约100米,,1,0,117.529703,38.725309,15564537011,enterprise,http://api.map.baidu.com/place/detail?uid=635c3b6d7de8ffadbfa822fc&output=html&source=placeapi_v2,,,0.0,,,,,,,,1,,,,,,,,,0
29650117053929ab3f9a5e5a,天津引豪蚯蚓养殖专业合作社,公司企业,农林园艺,天津市,天津市,静海区,天津市静海区S120(新津涞线),,1,0,116.778495,38.765805,,enterprise,http://api.map.baidu.com/place/detail?uid=29650117053929ab3f9a5e5a&output=html&source=placeapi_v2,,,0.0,,,,,,,,2,,,,,,,,,0
c7aaf2d902cae7a4db1318cc,天津市盛典养殖种植专业合作社,公司企业,农林园艺,天津市,天津市,静海区,天津市静海区唐王路与张庄子路交叉口西100米,,1,0,116.965597,38.743212,,enterprise,http://api.map.baidu.com/place/detail?uid=c7aaf2d902cae7a4db1318cc&output=html&source=placeapi_v2,,,,,,,,,,,,,,,,,,,,0
90555da8213e48c15abbbc41,天津市联众枣树种植专业合作社,公司企业,农林园艺,天津市,天津市,静海区,天津市静海区S225与二经路交叉路口往东北约130米,,1,0,116.969529,38.745539,"(022)68353222,13821394678",enterprise,http://api.map.baidu.com/place/detail?uid=90555da8213e48c15abbbc41&output=html&source=placeapi_v2,,,,,,,,,,,,,,,,,,,,0
9e0e527e6ad39b06d0ff2376,天津市惠泽农业发展有限公司(华北仓),公司企业,农林园艺,天津市,天津市,静海区,天津市静海区S225(团唐线),,1,0,116.975141,38.748221,17034077777,enterprise,http://api.map.baidu.com/place/detail?uid=9e0e527e6ad39b06d0ff2376&output=html&source=placeapi_v2,,,,,,,,,,,,,,,,,,116.97493983956,38.748430230324,0
39f2f588df2ae4aaa21de940,冠鸿肉鸽养殖场,公司企业,农林园艺,天津市,天津市,静海区,天津市静海区唐官屯镇大郝庄村掌合便利超市对面,,1,0,116.990967,38.755746,15620202278,enterprise,http://api.map.baidu.com/place/detail?uid=39f2f588df2ae4aaa21de940&output=html&source=placeapi_v2,,,0.0,,,,,,,,0,,,,,,,,,0
9e0e527e6ad39b06d0ff2376,天津市惠泽农业发展有限公司(华北仓),公司企业,农林园艺,天津市,天津市,静海区,天津市静海区S225(团唐线),,1,0,116.975141,38.748221,17034077777,enterprise,http://api.map.baidu.com/place/detail?uid=9e0e527e6ad39b06d0ff2376&output=html&source=placeapi_v2,,,,,,,,,,,,,,,,,,116.97493983956,38.748430230324,0
7cd23790dac37ab7a2a93449,水木生华农业合作社,公司企业,农林园艺,天津市,天津市,静海区,天津市静海区唐官屯镇亚家庄村村西1公里,,1,0,117.049468,38.7472,,enterprise,http://api.map.baidu.com/place/detail?uid=7cd23790dac37ab7a2a93449&output=html&source=placeapi_v2,,,,,,,,,,,,,,,,,,,,0
8c27dcb841055819d7851f0e,天津市金天地谷物种植专业合作社,公司企业,农林园艺,天津市,天津市,静海区,天津市静海区X541(蔡中路),,1,0,117.097755,38.752538,,enterprise,http://api.map.baidu.com/place/detail?uid=8c27dcb841055819d7851f0e&output=html&source=placeapi_v2,,,,,,,,,,,,,,,,,,,,0
71544276871dc77597031969,利民薯类种植专业合作社,公司企业,农林园艺,天津市,天津市,静海区,天津市静海区蔡中路惠泽家园西侧约160米,,1,0,117.104604,38.744958,,enterprise,http://api.map.baidu.com/place/detail?uid=71544276871dc77597031969&output=html&source=placeapi_v2,,,,,,,,,,,,,,,,,,117.10479846008,38.74497192264,0
eb72f9ca018e3a3107026f03,滨海新区秋凡养殖场,公司企业,农林园艺,天津市,天津市,滨海新区,天津市滨海新区津王路与团王线交叉路口往南约100米,,1,1,117.166271,38.764025,,enterprise,http://api.map.baidu.com/place/detail?uid=eb72f9ca018e3a3107026f03&output=html&source=placeapi_v2,,,,,,,,,,,,,,,,,,,,1
1f2321bcff1a894a441a32f6,嘉立荷第十四奶牛场,公司企业,农林园艺,天津市,天津市,滨海新区,天津市滨海新区,,1,0,117.22617,38.752009,,enterprise,http://api.map.baidu.com/place/detail?uid=1f2321bcff1a894a441a32f6&output=html&source=placeapi_v2,,,,,,,,,,,,,,,,,,117.22543184863,38.751913169153,0
a62e51ecdfdd80fb82a12ea0,天津市宏邦畜禽养殖专业合作社,公司企业,农林园艺,天津市,天津市,滨海新区,天津市滨海新区北大港农场,,1,0,117.251982,38.745364,,enterprise,http://api.map.baidu.com/place/detail?uid=a62e51ecdfdd80fb82a12ea0&output=html&source=placeapi_v2,,,0.0,,,,,,,,1,,,,,,,,,0
71e968bdb1944d50a5da3957,天津市腾源畜牧养殖有限公司,公司企业,农林园艺,天津市,天津市,滨海新区,天津市滨海新区中塘镇洋苏路钱圈水库东450米,71e968bdb1944d50a5da3957,1,0,117.247116,38.769052,,enterprise,http://api.map.baidu.com/place/detail?uid=71e968bdb1944d50a5da3957&output=html&source=placeapi_v2,,,,,,,,,,,,,,,,,,117.24634851783,38.769001760889,0
1cea15a9b4d8efc607fef5da,天津滨海养虾场,公司企业,农林园艺,天津市,天津市,滨海新区,北穿港路,,1,0,117.555456,38.766764,,enterprise,http://api.map.baidu.com/place/detail?uid=1cea15a9b4d8efc607fef5da&output=html&source=placeapi_v2,,,,,,,,,,,,,,,,,,117.55546721431,38.768934783292,0
133265407d65826cd4851f57,静海区正东畜牧养殖场,公司企业,农林园艺,天津市,天津市,静海区,天津市静海区沿庄镇S120,,1,0,116.783193,38.796028,13821395858,enterprise,http://api.map.baidu.com/place/detail?uid=133265407d65826cd4851f57&output=html&source=placeapi_v2,,,,,,,,,,,,,,,,,,,,0
984d9402956ffafe0c0e6b5c,英捷养殖场,公司企业,农林园艺,天津市,天津市,静海区,天津市静海区,,1,0,116.823056,38.794322,18512295279,enterprise,http://api.map.baidu.com/place/detail?uid=984d9402956ffafe0c0e6b5c&output=html&source=placeapi_v2,,,,,,,,,,,,,,,,,,,,0
9d7d7cda93922b492806cee7,大老板獒园,公司企业,农林园艺,天津市,天津市,静海区,京福公路东50米,,1,0,116.93908,38.794595,(022)82865807,enterprise,http://api.map.baidu.com/place/detail?uid=9d7d7cda93922b492806cee7&output=html&source=placeapi_v2,,,,,,,,,,,,,,,,,,,,0
a2df9c10253d1ec37ab55c31,天津恒晟瑞丰农业科技有限公司,公司企业,农林园艺,天津市,天津市,静海区,天津市静海区蔡中路蔡公庄中心小学东北侧约190米,,1,0,117.091393,38.792799,"(022)28875111,13212058399",enterprise,http://api.map.baidu.com/place/detail?uid=a2df9c10253d1ec37ab55c31&output=html&source=placeapi_v2,,,,,,,,,,,,,,,,,,117.0911473595,38.79277249886,0
3143fabc6cfb0b63100daa17,天津农丰农机专业合作社,公司企业,农林园艺,天津市,天津市,静海区,天津市静海区S213(团王线),,1,0,117.138156,38.771299,,enterprise,http://api.map.baidu.com/place/detail?uid=3143fabc6cfb0b63100daa17&output=html&source=placeapi_v2,,07:00-19:00,,,,,,,,,,,,,,,,,,0
6ca8ef8ccaaad64e80a00cf0,天津聚兴达淡水养殖合作社,公司企业,农林园艺,天津市,天津市,静海区,天津市静海区天津银发牧业有限公司北800米,,1,0,117.14287,38.784424,,enterprise,http://api.map.baidu.com/place/detail?uid=6ca8ef8ccaaad64e80a00cf0&output=html&source=placeapi_v2,,,,,,,,,,,,,,,,,,,,0
af1139ea4905cca70782c2d2,天津市海河金丰公社农业服务有限公司,公司企业,农林园艺,天津市,天津市,静海区,天津市静海区金丰公社服务有限公司,,1,0,117.137963,38.775657,,enterprise,http://api.map.baidu.com/place/detail?uid=af1139ea4905cca70782c2d2&output=html&source=placeapi_v2,,,,,,,,,,,,,,,,,,,,0
04e8a899c2e7e2a1593ac844,华运通食用菌基地,公司企业,农林园艺,天津市,天津市,静海区,天津市静海区唐王线,,1,0,117.10987,38.779253,,enterprise,http://api.map.baidu.com/place/detail?uid=04e8a899c2e7e2a1593ac844&output=html&source=placeapi_v2,,,,,,,,,,,,,,,,,,,,0
20d69c649fb2f3139b68b4c9,天津市绍印谷物种植专业合作社,公司企业,农林园艺,天津市,天津市,静海区,天津市静海区,,1,0,117.137991,38.775612,,enterprise,http://api.map.baidu.com/place/detail?uid=20d69c649fb2f3139b68b4c9&output=html&source=placeapi_v2,,,,,,,,,,,,,,,,,,117.13813025132,38.775563743923,0
a13a2f1945004f7f03ff2d40,天津飞龙鑫业农业科技发展有限公司(新厂区),公司企业,农林园艺,天津市,天津市,静海区,天津市静海区大邱庄镇205国道西刘家房子工业区88号,,1,0,117.162566,38.800704,,enterprise,http://api.map.baidu.com/place/detail?uid=a13a2f1945004f7f03ff2d40&output=html&source=placeapi_v2,,,5.0,,,,,,,,2,,,,,,,117.16314194141,38.800385413234,0
a242cde18d333f84ca1b957a,天津市生宝畜牧养殖农民专业合作社,公司企业,农林园艺,天津市,天津市,静海区,天津市静海区王新路东50米,,1,0,117.173266,38.800402,,enterprise,http://api.map.baidu.com/place/detail?uid=a242cde18d333f84ca1b957a&output=html&source=placeapi_v2,,,4,,,,,,,,1,,,,,,,,,0
63f0e36cc499ac47f60e7714,大港盛鑫林苗圃培育中心,公司企业,农林园艺,天津市,天津市,滨海新区,天津市滨海新区洋苏路,,1,0,117.22574,38.785506,,enterprise,http://api.map.baidu.com/place/detail?uid=63f0e36cc499ac47f60e7714&output=html&source=placeapi_v2,,,,,,,,,,,,,,,,,,117.22546351928,38.785352242494,0
63553ce47d8993358c1a895e,天津市农心誉畜牧养殖合作社,公司企业,农林园艺,天津市,天津市,滨海新区,天津市滨海新区,,1,0,117.252144,38.796718,,enterprise,http://api.map.baidu.com/place/detail?uid=63553ce47d8993358c1a895e&output=html&source=placeapi_v2,,,0.0,,,,,,,,1,,,,,,,,,0
71e968bdb1944d50a5da3957,天津市腾源畜牧养殖有限公司,公司企业,农林园艺,天津市,天津市,滨海新区,天津市滨海新区中塘镇洋苏路钱圈水库东450米,71e968bdb1944d50a5da3957,1,0,117.247116,38.769052,,enterprise,http://api.map.baidu.com/place/detail?uid=71e968bdb1944d50a5da3957&output=html&source=placeapi_v2,,,,,,,,,,,,,,,,,,117.24634851783,38.769001760889,0
c4d2032d09e15ac75abbbca6,硕成农场,公司企业,农林园艺,天津市,天津市,滨海新区,天津市滨海新区X423(洋苏路),,1,0,117.233837,38.77672,,enterprise,http://api.map.baidu.com/place/detail?uid=c4d2032d09e15ac75abbbca6&output=html&source=placeapi_v2,,,,,,,,,,,,,,,,,,,,0
b0b1fc25edc768ed82288a34,天津誉洋蛋鸡养殖合作社,公司企业,农林园艺,天津市,天津市,滨海新区,天津市滨海新区仁和路,,1,0,117.253,38.797014,,enterprise,http://api.map.baidu.com/place/detail?uid=b0b1fc25edc768ed82288a34&output=html&source=placeapi_v2,,,,,,,,,,,,,,,,,,117.2529965113,38.797211023106,0
dd2e283972020dc36d20b902,天津溢洋蛋鸡养殖合作社,公司企业,农林园艺,天津市,天津市,滨海新区,天津市滨海新区仁和路,,1,0,117.252736,38.797021,,enterprise,http://api.map.baidu.com/place/detail?uid=dd2e283972020dc36d20b902&output=html&source=placeapi_v2,,,,,,,,,,,,,,,,,,,,0
e5c5f0676393ed9128d7ab2f,天津振群畜牧养殖场,公司企业,农林园艺,天津市,天津市,滨海新区,天津市滨海新区中塘镇试验场路,,1,0,117.267403,38.771652,,enterprise,http://api.map.baidu.com/place/detail?uid=e5c5f0676393ed9128d7ab2f&output=html&source=placeapi_v2,,,,,,,,,,,,,,,,,,,,0
1cea15a9b4d8efc607fef5da,天津滨海养虾场,公司企业,农林园艺,天津市,天津市,滨海新区,北穿港路,,1,0,117.555456,38.766764,,enterprise,http://api.map.baidu.com/place/detail?uid=1cea15a9b4d8efc607fef5da&output=html&source=placeapi_v2,,,,,,,,,,,,,,,,,,117.55546721431,38.768934783292,0
45ffe67b38dd1d4a740269ab,天津市维行林木种植专业合作社,公司企业,农林园艺,天津市,天津市,静海区,陈黄路东50米,,1,0,116.836924,38.817506,,enterprise,http://api.map.baidu.com/place/detail?uid=45ffe67b38dd1d4a740269ab&output=html&source=placeapi_v2,,,,,,,,,,,,,,,,,,,,0
377202b1bd2776253913fddf,天津市凯胜果树种植专业合作社,公司企业,农林园艺,天津市,天津市,静海区,天津市静海区沿庄镇当滩头村北,377202b1bd2776253913fddf,1,0,116.812558,38.808906,15692221760,enterprise,http://api.map.baidu.com/place/detail?uid=377202b1bd2776253913fddf&output=html&source=placeapi_v2,,,0.0,,,,,,,,0,,,,,,,116.81234787893,38.808947299184,0
527e111a65f4d7d86ca3ccc3,天津市静海区鸿福源肉鸡养殖农场,公司企业,农林园艺,天津市,天津市,静海区,天津市静海区邹家嘴村邹嘴垂钓园西50米,,1,0,116.899801,38.818552,15122468878,enterprise,http://api.map.baidu.com/place/detail?uid=527e111a65f4d7d86ca3ccc3&output=html&source=placeapi_v2,,00:00-24:00,,,,,,,,,,,,,,,,,,0
ad05078f1e40603341d63e74,天津雪兆丰农业科技有限公司,公司企业,农林园艺,天津市,天津市,静海区,天津市静海区陈大路90号,,1,0,116.924226,38.826637,(022)68750678,enterprise,http://api.map.baidu.com/place/detail?uid=ad05078f1e40603341d63e74&output=html&source=placeapi_v2,,,,,,,,,,,,,,,,,,,,0
557d6c5200c0b4665e17c3b2,顺益发肉鸡养殖场,公司企业,农林园艺,天津市,天津市,静海区,天津市静海区陈官屯镇邹咀村新104国道东500米,,1,0,116.898529,38.818574,13821409225,enterprise,http://api.map.baidu.com/place/detail?uid=557d6c5200c0b4665e17c3b2&output=html&source=placeapi_v2,,00:00-24:00,,,,,,,,,,,,,,,,,,0
c54382e2496cea15ca09f001,阿朗(天津)农业科技有限公司,公司企业,农林园艺,天津市,天津市,静海区,陈官屯工业园104国道东300米,,1,0,116.943623,38.825812,18522514006,enterprise,http://api.map.baidu.com/place/detail?uid=c54382e2496cea15ca09f001&output=html&source=placeapi_v2,,,,,,,,,,,,,,,,,,,,0
61e6d165ee19e157210220d0,天津市福海蔬菜种植专业合作社,公司企业,农林园艺,天津市,天津市,静海区,天津市静海区庞尚路,,1,0,116.980447,38.815764,13323397339,enterprise,http://api.map.baidu.com/place/detail?uid=61e6d165ee19e157210220d0&output=html&source=placeapi_v2,,09:00-18:30,,,,,,,,,,,,,,,,,,0
f54c1ede128a98e551e5c5bb,天津市东旭奶牛养殖专业合作社,公司企业,农林园艺,天津市,天津市,静海区,天津市静海区陈大公路南,f54c1ede128a98e551e5c5bb,1,0,117.04875,38.818254,"18622367726,18920086666",enterprise,http://api.map.baidu.com/place/detail?uid=f54c1ede128a98e551e5c5bb&output=html&source=placeapi_v2,,,,,,,,,,,,,,,,,,117.0483135477,38.817577026269,0
ea2d3c403df5be79a0acc489,隆瑞农业设施,公司企业,农林园艺,天津市,天津市,静海区,天津市静海区团王线壳牌加油站东南侧约240米,,1,0,117.077009,38.819227,(022)28893335,enterprise,http://api.map.baidu.com/place/detail?uid=ea2d3c403df5be79a0acc489&output=html&source=placeapi_v2,,08:00-18:00,5,,,,,,,,1,,,,,,,117.07708761353,38.819026004614,0
28b46ce71a7cf099b6f42f77,天津市兴进农业设施有限公司,公司企业,农林园艺,天津市,天津市,静海区,天津市静海区大邱庄镇大屯工业区,,1,0,117.08433,38.817952,15122260182,enterprise,http://api.map.baidu.com/place/detail?uid=28b46ce71a7cf099b6f42f77&output=html&source=placeapi_v2,,,,,,,,,,,,,,,,,,,,0
f90b7588f04406db631809d5,天津宇辰农业科技有限公司,公司企业,农林园艺,天津市,天津市,静海区,天津市静海区大邱庄镇大屯工业区,,1,0,117.085966,38.821873,15822540678,enterprise,http://api.map.baidu.com/place/detail?uid=f90b7588f04406db631809d5&output=html&source=placeapi_v2,,,5.0,,,,,,,,1,,,,,,,,,0
7ebc7452c08b82cf88b98889,种植大棚养殖大棚,公司企业,农林园艺,天津市,天津市,静海区,天津市静海区团王线胜泰办公楼,7ebc7452c08b82cf88b98889,1,0,117.082605,38.809651,15722008888,enterprise,http://api.map.baidu.com/place/detail?uid=7ebc7452c08b82cf88b98889&output=html&source=placeapi_v2,,,,,,,,,,,,,,,,,,,,0
d92a6a0116e5156559bbbcfc,天津盛达农业设施科技有限公司,公司企业,农林园艺,天津市,天津市,静海区,天津市静海区陈大公路3号底商,,1,0,117.076232,38.824007,(022)68507355,enterprise,http://api.map.baidu.com/place/detail?uid=d92a6a0116e5156559bbbcfc&output=html&source=placeapi_v2,,,,,,,,,,,,,,,,,,,,0
278410a6af7f7e4dcc06a43a,天津市裕隆发农业设施科技有限公司,公司企业,农林园艺,天津市,天津市,静海区,天津市静海区大邱庄镇商贸街(大屯村西100米),,1,0,117.067623,38.815783,(022)68206218,enterprise,http://api.map.baidu.com/place/detail?uid=278410a6af7f7e4dcc06a43a&output=html&source=placeapi_v2,,,,,,,,,,,,,,,,,,,,0
739e1ddc8a9625094bcc4a6c,福顺德农业科技有限公司,公司企业,农林园艺,天津市,天津市,静海区,天津市静海区团王线大邱庄镇,,1,0,117.073592,38.82447,,enterprise,http://api.map.baidu.com/place/detail?uid=739e1ddc8a9625094bcc4a6c&output=html&source=placeapi_v2,,,,,,,,,,,,,,,,,,,,0
637f790db48580578d77272d,天元昌昊农业设施,公司企业,农林园艺,天津市,天津市,静海区,太平路西50米,,1,0,117.126248,38.824239,,enterprise,http://api.map.baidu.com/place/detail?uid=637f790db48580578d77272d&output=html&source=placeapi_v2,,,,,,,,,,,,,,,,,,117.12637716518,38.824381956259,0
d27f00c02be91f18deee8b9c,名利丰农业设施有限公司,公司企业,农林园艺,天津市,天津市,静海区,天津市静海区大邱庄镇官坑幸福小区西250米,,1,0,117.12549,38.807147,"13920225198,15202228787",enterprise,http://api.map.baidu.com/place/detail?uid=d27f00c02be91f18deee8b9c&output=html&source=placeapi_v2,,,,,,,,,,,,,,,,,,117.1253817735,38.806988175816,0
7058a27788f9bb8648cc4abf,天津市农沣农业科技发展有限公司,公司企业,农林园艺,天津市,天津市,静海区,官坑村,,1,0,117.124487,38.807522,18902006726,enterprise,http://api.map.baidu.com/place/detail?uid=7058a27788f9bb8648cc4abf&output=html&source=placeapi_v2,,,0.0,,,,,,,,1,,,,,,,,,0
bc7c07875760b98eeb56fa33,天津市腾亿养殖专业示范园,公司企业,农林园艺,天津市,天津市,静海区,天津市静海区团泊镇薛家房子山深线东,,1,1,117.178764,38.821071,,enterprise,http://api.map.baidu.com/place/detail?uid=bc7c07875760b98eeb56fa33&output=html&source=placeapi_v2,,,,,,,,,,,,,,,,,,117.17870120639,38.820999830042,1
81e597d846e109fe29d7ab20,天津市祥和顺林木种植专业合作社,公司企业,农林园艺,天津市,天津市,静海区,天津市静海区津石高速,,1,1,117.167943,38.825334,,enterprise,http://api.map.baidu.com/place/detail?uid=81e597d846e109fe29d7ab20&output=html&source=placeapi_v2,,,,,,,,,,,,,,,,,,117.16772137624,38.825365835344,1
a13a2f1945004f7f03ff2d40,天津飞龙鑫业农业科技发展有限公司(新厂区),公司企业,农林园艺,天津市,天津市,静海区,天津市静海区大邱庄镇205国道西刘家房子工业区88号,,1,0,117.162566,38.800704,,enterprise,http://api.map.baidu.com/place/detail?uid=a13a2f1945004f7f03ff2d40&output=html&source=placeapi_v2,,,5.0,,,,,,,,2,,,,,,,117.16314194141,38.800385413234,0
a242cde18d333f84ca1b957a,天津市生宝畜牧养殖农民专业合作社,公司企业,农林园艺,天津市,天津市,静海区,天津市静海区王新路东50米,,1,0,117.173266,38.800402,,enterprise,http://api.map.baidu.com/place/detail?uid=a242cde18d333f84ca1b957a&output=html&source=placeapi_v2,,,4,,,,,,,,1,,,,,,,,,0
e7d550a7bf0a7917ad31e551,常流庄杨柳庄养鱼场,公司企业,农林园艺,天津市,天津市,滨海新区,天津市滨海新区中塘镇长深高速公路赵连庄乡二排干渠,,1,0,117.220498,38.82242,,enterprise,http://api.map.baidu.com/place/detail?uid=e7d550a7bf0a7917ad31e551&output=html&source=placeapi_v2,,,,,,,,,,,,,,,,,,,,0
ff8f5017e34f2cb9ce04ef9e,天津市百胜蛋鸡养殖专业合作社,公司企业,农林园艺,天津市,天津市,滨海新区,天津市滨海新区,,1,0,117.250819,38.820301,,enterprise,http://api.map.baidu.com/place/detail?uid=ff8f5017e34f2cb9ce04ef9e&output=html&source=placeapi_v2,,,,,,,,,,,,,,,,,,,,0
814b9abced8e3f5796ca074f,金沃野农作物种植专业合作社,公司企业,农林园艺,天津市,天津市,静海区,常流庄路东100米,,1,1,117.239228,38.829325,,enterprise,http://api.map.baidu.com/place/detail?uid=814b9abced8e3f5796ca074f&output=html&source=placeapi_v2,,,,,,,,,,,,,,,,,,,,1
f013d0536d6f8141cf06a4e2,港泰鑫晁蛋鸡养殖场,公司企业,农林园艺,天津市,天津市,滨海新区,天津市滨海新区东河筒村,,1,0,117.300413,38.821394,,enterprise,http://api.map.baidu.com/place/detail?uid=f013d0536d6f8141cf06a4e2&output=html&source=placeapi_v2,,,0.0,,,,,,,,1,,,,,,,,,0
53349ee3657d216d220262d8,子牙镇综合养殖场,公司企业,农林园艺,天津市,天津市,静海区,天津市静海区,,1,0,116.803662,38.8365,,enterprise,http://api.map.baidu.com/place/detail?uid=53349ee3657d216d220262d8&output=html&source=placeapi_v2,,,,,,,,,,,,,,,,,,116.80438806567,38.834699283967,0
8c42e313a00a04657bf79603,天津市志亮谷物种植专业合作社,公司企业,农林园艺,天津市,天津市,静海区,天津市静海区罗庄子村东环街24号,,1,0,116.853567,38.850341,,enterprise,http://api.map.baidu.com/place/detail?uid=8c42e313a00a04657bf79603&output=html&source=placeapi_v2,,,,,,,,,,,,,,,,,,,,0
6fcc7e96877f8f8cc61e51e1,天津市俊来肉鸡养殖场,公司企业,农林园艺,天津市,天津市,静海区,天津市静海区陈官屯镇西长屯村新村西,,1,0,116.908493,38.850781,13512891081,enterprise,http://api.map.baidu.com/place/detail?uid=6fcc7e96877f8f8cc61e51e1&output=html&source=placeapi_v2,,08:00-20:00,,,,,,,,,,,,,,,,,,0
3f1e8112ad9f22f182288acb,天津市静海区亿缘果树种植家庭农场,公司企业,农林园艺,天津市,天津市,静海区,陈官屯镇南长屯村委会东,,1,0,116.924056,38.841878,13820448686,enterprise,http://api.map.baidu.com/place/detail?uid=3f1e8112ad9f22f182288acb&output=html&source=placeapi_v2,,00:00-24:00,,,,,,,,,,,,,,,,,,0
9efe13d09a88de7329d7ab85,亚华奶牛场,公司企业,农林园艺,天津市,天津市,静海区,天津市静海区潘村路北50米,,1,0,116.900435,38.835631,,enterprise,http://api.map.baidu.com/place/detail?uid=9efe13d09a88de7329d7ab85&output=html&source=placeapi_v2,,,,,,,,,,,,,,,,,,,,0
024494f765e649c22e4733fd,天津市静海县宏硕发生猪养殖场,公司企业,农林园艺,天津市,天津市,静海区,天津市静海区,,1,0,116.930551,38.849978,,enterprise,http://api.map.baidu.com/place/detail?uid=024494f765e649c22e4733fd&output=html&source=placeapi_v2,,,,,,,,,,,,,,,,,,,,0
59f3d97c42a3c084f603b8d6,天津市静海区文成养殖场,公司企业,农林园艺,天津市,天津市,静海区,天津市静海区双塘镇杨家园开发区,59f3d97c42a3c084f603b8d6,1,0,116.950684,38.854456,,enterprise,http://api.map.baidu.com/place/detail?uid=59f3d97c42a3c084f603b8d6&output=html&source=placeapi_v2,,,,,,,,,,,,,,,,,,116.95068209009,38.854507409939,0
fdd5e7dc5e8b65642cb96dc8,天津市振华兴旺肉牛养殖专业合作社,公司企业,农林园艺,天津市,天津市,静海区,天津市静海区,,1,0,117.006691,38.855851,,enterprise,http://api.map.baidu.com/place/detail?uid=fdd5e7dc5e8b65642cb96dc8&output=html&source=placeapi_v2,,09:00-17:00,5.0,,,,,,,,1,,,,,,,117.00710213224,38.855845532495,0
03fc7928fc2bffd15fd4fe01,众养优品畜牧养殖专业合作社,公司企业,农林园艺,天津市,天津市,静海区,天津市静海区大邱庄镇团大线北500米,,1,0,116.989775,38.834502,,enterprise,http://api.map.baidu.com/place/detail?uid=03fc7928fc2bffd15fd4fe01&output=html&source=placeapi_v2,,,,,,,,,,,,,,,,,,,,0
772544748f687e8642d63e9f,天津农信达农业科技有限公司,公司企业,农林园艺,天津市,天津市,静海区,崔庄子鑫盛豪钢管院内,,1,0,117.027088,38.862014,13754444300,enterprise,http://api.map.baidu.com/place/detail?uid=772544748f687e8642d63e9f&output=html&source=placeapi_v2,,00:00-24:00,5.0,,,,,,,,1,,,,,,,117.02750228117,38.862072691665,0
7e414c1182107ae10ab93a74,天津万强晟农业设施科技有限公司,公司企业,农林园艺,天津市,天津市,静海区,天津市静海区百亿道大邱庄镇,,1,0,117.076533,38.863539,,enterprise,http://api.map.baidu.com/place/detail?uid=7e414c1182107ae10ab93a74&output=html&source=placeapi_v2,,,,,,,,,,,,,,,,,,,,0
7233d8a2ec2b6501102935d8,天津市兴邦农业设施科技有限公司,公司企业,农林园艺,天津市,天津市,静海区,天津市静海区通达路1号,,1,0,117.065461,38.843809,(022)68589190,enterprise,http://api.map.baidu.com/place/detail?uid=7233d8a2ec2b6501102935d8&output=html&source=placeapi_v2,,,5.0,,,,,,,,1,,,,,,,117.06534904842,38.843682169788,0
1f02c9290debbb165b3ac8ed,天津市怡轩特农业科技发展有限公司,公司企业,农林园艺,天津市,天津市,静海区,天津市静海区大邱庄镇百亿道22号,,1,0,117.066634,38.85333,18222604777,enterprise,http://api.map.baidu.com/place/detail?uid=1f02c9290debbb165b3ac8ed&output=html&source=placeapi_v2,,,,,,,,,,,,,,,,,,,,0
efd00122c9b1362a0b1cc763,中瑞祥农业科技,公司企业,农林园艺,天津市,天津市,静海区,天津市静海区园区路8号,,1,0,117.160563,38.837261,,enterprise,http://api.map.baidu.com/place/detail?uid=efd00122c9b1362a0b1cc763&output=html&source=placeapi_v2,,,,,,,,,,,,,,,,,,117.16037949746,38.837378441556,0
a67cfc5e6604228f26d2bb0c,中隆袁品(天津)农业科技有限公司,公司企业,农林园艺,天津市,天津市,静海区,天津市静海区团泊洼王新公路88号,,1,0,117.211794,38.841193,18020012070,enterprise,http://api.map.baidu.com/place/detail?uid=a67cfc5e6604228f26d2bb0c&output=html&source=placeapi_v2,,,,,,,,,,,1,,,,,,,,,0
bbbbb4558a1a1c0a8c55ec90,天津国兴木业大港波尔山羊繁育基地,公司企业,农林园艺,天津市,天津市,静海区,天津市静海区王新路,,1,0,117.205575,38.834415,,enterprise,http://api.map.baidu.com/place/detail?uid=bbbbb4558a1a1c0a8c55ec90&output=html&source=placeapi_v2,,,,,,,,,,,,,,,,,,,,0
d9725f8aa3b4f93f2b3a9f88,油建鸡场,公司企业,农林园艺,天津市,天津市,静海区,王新公路西200米,,1,0,117.204161,38.835249,,enterprise,http://api.map.baidu.com/place/detail?uid=d9725f8aa3b4f93f2b3a9f88&output=html&source=placeapi_v2,,,,,,,,,,,,,,,,,,,,0
bddc765d491615b408f5eb9e,老兵散养芦花鸡养殖场,公司企业,农林园艺,天津市,天津市,静海区,天津市静海区团泊洼生活基地一分场,,1,0,117.237416,38.861341,,enterprise,http://api.map.baidu.com/place/detail?uid=bddc765d491615b408f5eb9e&output=html&source=placeapi_v2,,,,,,,,,,,,,,,,,,,,0
18023aa3798cb610400245bf,天津栖凤冬枣种植专业合作社,公司企业,农林园艺,天津市,天津市,滨海新区,天津市滨海新区大港中塘镇南台村六斗东头,18023aa3798cb610400245bf,1,0,117.278258,38.840438,15602097278,enterprise,http://api.map.baidu.com/place/detail?uid=18023aa3798cb610400245bf&output=html&source=placeapi_v2,,,,,,,,,,,,,,,,,,,,0
babbec3620a399c857bfff9d,七五四农场,公司企业,农林园艺,天津市,天津市,西青区,天津市西青区,,1,0,117.338978,38.85821,,enterprise,http://api.map.baidu.com/place/detail?uid=babbec3620a399c857bfff9d&output=html&source=placeapi_v2,,,,,,,,,,,,,,,,,,,,0
dead6477c53f1c17f33cbae0,天津如意康健畜牧养殖专业合作社,公司企业,农林园艺,天津市,天津市,西青区,天津市西青区,,1,0,117.339749,38.86365,,enterprise,http://api.map.baidu.com/place/detail?uid=dead6477c53f1c17f33cbae0&output=html&source=placeapi_v2,,,,,,,,,,,,,,,,,,,,0
5634ee1ac8327b0504026f3a,沛雨甘霖养羊场养殖二场,公司企业,农林园艺,天津市,天津市,滨海新区,天津市滨海新区万安路2328号,,1,0,117.396955,38.849346,,enterprise,http://api.map.baidu.com/place/detail?uid=5634ee1ac8327b0504026f3a&output=html&source=placeapi_v2,,,,,,,,,,,,,,,,,,,,0
289cea3d0417655d0582c268,善缘犬类养殖场,公司企业,农林园艺,天津市,天津市,滨海新区,天津市滨海新区中塘大街中花园公寓西北侧约210米,,1,0,117.373635,38.863574,,enterprise,http://api.map.baidu.com/place/detail?uid=289cea3d0417655d0582c268&output=html&source=placeapi_v2,,,,,,,,,,,,,,,,,,117.37349451802,38.863497102493,0
637c8ed076c1b91c36b06cd2,天津市绿丰盛世农业科技有限公司,公司企业,农林园艺,天津市,天津市,滨海新区,天津市滨海新区港乾里小区西南侧约150米,,1,0,117.408658,38.855835,,enterprise,http://api.map.baidu.com/place/detail?uid=637c8ed076c1b91c36b06cd2&output=html&source=placeapi_v2,,,,,,,,,,,,,,,,,,,,0
aee03c1b82c5e46140d63e77,振业里早点市场,公司企业,农林园艺,天津市,天津市,滨海新区,天津市滨海新区迎宾街大港第九中学东南侧约80米,aee03c1b82c5e46140d63e77,1,0,117.468943,38.841966,,enterprise,http://api.map.baidu.com/place/detail?uid=aee03c1b82c5e46140d63e77&output=html&source=placeapi_v2,,,,,,,,,,,,,,,,,,117.46895153733,38.841865367259,0
8ff57b2abf3e23e645572679,山水园林绿化,公司企业,农林园艺,天津市,天津市,滨海新区,天津市滨海新区东环路天津大港福兴医院东侧约60米,8ff57b2abf3e23e645572679,1,0,117.487385,38.850098,,enterprise,http://api.map.baidu.com/place/detail?uid=8ff57b2abf3e23e645572679&output=html&source=placeapi_v2,,,,,,,,,,,,,,,,,,117.48718783175,38.850012193812,0
bf61b979b1fc9dfdb45f1e9a,惠康园林,公司企业,农林园艺,天津市,天津市,滨海新区,天津市滨海新区育才路古林商贸城,bf61b979b1fc9dfdb45f1e9a,1,0,117.485591,38.839318,,enterprise,http://api.map.baidu.com/place/detail?uid=bf61b979b1fc9dfdb45f1e9a&output=html&source=placeapi_v2,,,,,,,,,,,,,,,,,,,,0
bb2fbcd53f6d701e49fd3f26,盐旺虾养殖,公司企业,农林园艺,天津市,天津市,滨海新区,天津市滨海新区S312(轻纺大道),,1,0,117.592938,38.850419,,enterprise,http://api.map.baidu.com/place/detail?uid=bb2fbcd53f6d701e49fd3f26&output=html&source=placeapi_v2,,,,,,,,,,,,,,,,,,,,0
22e478aceb917c629cf779e9,天津市金豚公司养殖基地,公司企业,农林园艺,天津市,天津市,滨海新区,天津市滨海新区轻纺大道附近,,1,0,117.626217,38.852807,,enterprise,http://api.map.baidu.com/place/detail?uid=22e478aceb917c629cf779e9&output=html&source=placeapi_v2,,,,,,,,,,,,,,,,,,,,0
1e26b2d60c0016be4354d7ab,天津海发珍品养殖车间,公司企业,农林园艺,天津市,天津市,滨海新区,轻纺大道,1e26b2d60c0016be4354d7ab,1,0,117.624942,38.853224,,enterprise,http://api.map.baidu.com/place/detail?uid=1e26b2d60c0016be4354d7ab&output=html&source=placeapi_v2,,09:00-18:30,,,,,,,,,,,,,,,,,,0
15f9f3ec64b41b160869d9c7,静海县广成冬枣种植专业合作社,公司企业,农林园艺,天津市,天津市,静海区,天津市静海区王口镇张家村东200米,,1,0,116.746093,38.896243,,enterprise,http://api.map.baidu.com/place/detail?uid=15f9f3ec64b41b160869d9c7&output=html&source=placeapi_v2,,,0.0,,,,,,,,,,,,,,,,,0
59059835f9b1abf032870ad4,天津轩禾农业机械制造有限公司,公司企业,农林园艺,天津市,天津市,静海区,天津市静海市静海区长春道22号,,1,0,116.809109,38.880642,,enterprise,http://api.map.baidu.com/place/detail?uid=59059835f9b1abf032870ad4&output=html&source=placeapi_v2,,,0.0,,,,,,,,,,,,,,,116.80922143081,38.880853222714,0
f348ef222e64a2d159bbbc54,中慈康艺源枫林湾康养基地,公司企业,农林园艺,天津市,天津市,静海区,天津市静海双塘镇凤凰湖中慈康艺源枫林湾康养,,1,0,116.89952,38.865189,(022)68248888,enterprise,http://api.map.baidu.com/place/detail?uid=f348ef222e64a2d159bbbc54&output=html&source=placeapi_v2,,,,,,,,,,,,,,,,,,,,0
442e3aae3eb7a9e151e5c59a,天津市静海区西双塘家庭农场,公司企业,农林园艺,天津市,天津市,静海区,天津市静海区静双路西双塘民俗风景区,,1,0,116.906264,38.867322,,enterprise,http://api.map.baidu.com/place/detail?uid=442e3aae3eb7a9e151e5c59a&output=html&source=placeapi_v2,,,,,,,,,,,,,,,,,,,,0
d6ee8724e950b5e3a8f0cdd8,东双塘奶牛场,公司企业,农林园艺,天津市,天津市,静海区,京李路南200米,,1,0,116.941066,38.882786,,enterprise,http://api.map.baidu.com/place/detail?uid=d6ee8724e950b5e3a8f0cdd8&output=html&source=placeapi_v2,,,,,,,,,,,,,,,,,,,,0
2d4aa0aa701e6f11213bf239,光大奶牛场,公司企业,农林园艺,天津市,天津市,静海区,天津市静海区S6津沧高速辅路东50米,,1,0,116.973102,38.877665,,enterprise,http://api.map.baidu.com/place/detail?uid=2d4aa0aa701e6f11213bf239&output=html&source=placeapi_v2,,,,,,,,,,,,,,,,,,,,0
e5c9ee959da63dd379b55cfb,天津市源元生猪养殖有限公司,公司企业,农林园艺,天津市,天津市,静海区,天津市静海区富士达东侧,,1,0,117.00802,38.893118,,enterprise,http://api.map.baidu.com/place/detail?uid=e5c9ee959da63dd379b55cfb&output=html&source=placeapi_v2,,,,,,,,,,,,,,,,,,,,0
882d222f25d152b7922ca3ce,天津市传奇锦鲤养殖场,公司企业,农林园艺,天津市,天津市,静海区,天津市静海区团泊路东100米,,1,0,117.055152,38.87918,,enterprise,http://api.map.baidu.com/place/detail?uid=882d222f25d152b7922ca3ce&output=html&source=placeapi_v2,,,,,,,,,,,,,,,,,,,,0
7e414c1182107ae10ab93a74,天津万强晟农业设施科技有限公司,公司企业,农林园艺,天津市,天津市,静海区,天津市静海区百亿道大邱庄镇,,1,0,117.076533,38.863539,,enterprise,http://api.map.baidu.com/place/detail?uid=7e414c1182107ae10ab93a74&output=html&source=placeapi_v2,,,,,,,,,,,,,,,,,,,,0
daff78c501835fa024d2bba3,团泊洼奶牛养殖中心,公司企业,农林园艺,天津市,天津市,静海区,天津市静海区山深线与团唐线交叉口西南350米,,1,1,117.130701,38.867586,,enterprise,http://api.map.baidu.com/place/detail?uid=daff78c501835fa024d2bba3&output=html&source=placeapi_v2,,09:00-18:00,,,,,,,,,,,,,,,,117.13074712145,38.867566144049,1
cdef4edf2177c94d28d7abda,团泊洼基地养鸡场,公司企业,农林园艺,天津市,天津市,静海区,天津市静海区荣乌高速公路团泊洼基地养鸡场,cdef4edf2177c94d28d7abda,1,0,117.20721,38.868968,,enterprise,http://api.map.baidu.com/place/detail?uid=cdef4edf2177c94d28d7abda&output=html&source=placeapi_v2,,,,,,,,,,,,,,,,,,,,0
e26aedb989733310d23ce365,天津超林水产养殖有限公司,公司企业,农林园艺,天津市,天津市,西青区,天津市西青区王稳庄镇稻香公园里,,1,0,117.255118,38.879343,,enterprise,http://api.map.baidu.com/place/detail?uid=e26aedb989733310d23ce365&output=html&source=placeapi_v2,,,,,,,,,,,,,,,,,,,,0
dfd4383b42317819c17da254,二候庄养鱼场,公司企业,农林园艺,天津市,天津市,西青区,天津市西青区王稳庄镇二侯庄村,,1,0,117.259869,38.878738,,enterprise,http://api.map.baidu.com/place/detail?uid=dfd4383b42317819c17da254&output=html&source=placeapi_v2,,,,,,,,,,,,,,,,,,,,0
bcf17d4a56291c540869d9df,天津市雏鹏蔬菜种植专业合作社,公司企业,农林园艺,天津市,天津市,西青区,天津市西青区王稳庄镇二候庄菜市场,,1,0,117.258708,38.88825,(022)23992988,enterprise,http://api.map.baidu.com/place/detail?uid=bcf17d4a56291c540869d9df&output=html&source=placeapi_v2,,09:00-17:00,0.0,,,,,,,,,,,,,,,117.2588322201,38.888129987407,0
a29a6ffcf78ac839b75f1e0f,王稳庄养鱼场,公司企业,农林园艺,天津市,天津市,西青区,天津市西青区稳康路泰康园西侧约30米,,1,0,117.256271,38.892382,,enterprise,http://api.map.baidu.com/place/detail?uid=a29a6ffcf78ac839b75f1e0f&output=html&source=placeapi_v2,,,,,,,,,,,,,,,,,,,,0
dead6477c53f1c17f33cbae0,天津如意康健畜牧养殖专业合作社,公司企业,农林园艺,天津市,天津市,西青区,天津市西青区,,1,0,117.339749,38.86365,,enterprise,http://api.map.baidu.com/place/detail?uid=dead6477c53f1c17f33cbae0&output=html&source=placeapi_v2,,,,,,,,,,,,,,,,,,,,0
5fbf07371768334e26d2bb09,天津瑞景田源家庭农场,公司企业,农林园艺,天津市,天津市,津南区,天津市津南区八里台镇刘家沟村二区双顺路西,,1,0,117.369205,38.880134,13332090389,enterprise,http://api.map.baidu.com/place/detail?uid=5fbf07371768334e26d2bb09&output=html&source=placeapi_v2,,,5,,,,,,,,1,,,,,,,117.36955795463,38.880176157781,0
dc5ea56ef6711a81c9fa5ff8,天津联起盛源农业发展有限公司,公司企业,农林园艺,天津市,天津市,津南区,天津市津南区毛家沟桥,,1,0,117.368169,38.885695,13332090389,enterprise,http://api.map.baidu.com/place/detail?uid=dc5ea56ef6711a81c9fa5ff8&output=html&source=placeapi_v2,,,5,,,,,,,,2,,,,,,,,,0
0fdfbbe23e33d44c03ec01e0,顺水观赏鱼养殖专业合作社,公司企业,农林园艺,天津市,天津市,津南区,天津市津南区双顺路,,1,0,117.372119,38.889398,(022)88520006,enterprise,http://api.map.baidu.com/place/detail?uid=0fdfbbe23e33d44c03ec01e0&output=html&source=placeapi_v2,0.0,,,,,,,,,,,,,,,,,,,0
289cea3d0417655d0582c268,善缘犬类养殖场,公司企业,农林园艺,天津市,天津市,滨海新区,天津市滨海新区中塘大街中花园公寓西北侧约210米,,1,0,117.373635,38.863574,,enterprise,http://api.map.baidu.com/place/detail?uid=289cea3d0417655d0582c268&output=html&source=placeapi_v2,,,,,,,,,,,,,,,,,,117.37349451802,38.863497102493,0
84c83dbc13edbe02a80dd854,天津舒琦无花果种植专业合作社,公司企业,农林园艺,天津市,天津市,津南区,天津市津南区北中塘村一区,,1,0,117.374946,38.868192,18322556681,enterprise,http://api.map.baidu.com/place/detail?uid=84c83dbc13edbe02a80dd854&output=html&source=placeapi_v2,,08:00-20:00,,,,,,,,,,,,,,,,,,0
d8799cd71e259b66fd0eb0ea,凤林家禽养殖场,公司企业,农林园艺,天津市,天津市,滨海新区,天津市滨海新区立达街新日(安和路),d8799cd71e259b66fd0eb0ea,1,0,117.427017,38.868087,,enterprise,http://api.map.baidu.com/place/detail?uid=d8799cd71e259b66fd0eb0ea&output=html&source=placeapi_v2,,,,,,,,,,,,,,,,,,,,0
22d597c5de5ce0ed14b54bc5,天津胜澜畜牧养殖专业合作社,公司企业,农林园艺,天津市,天津市,滨海新区,中塘镇立达街新日电动车厂后门往前50米,22d597c5de5ce0ed14b54bc5,1,0,117.426856,38.867988,,enterprise,http://api.map.baidu.com/place/detail?uid=22d597c5de5ce0ed14b54bc5&output=html&source=placeapi_v2,,,,,,,,,,,,,,,,,,,,0
c42119a5c98cf790d72ce220,天津浩鹏种植专业合作社,公司企业,农林园艺,天津市,天津市,津南区,天津市津南区葛万北路,,1,0,117.417987,38.896454,,enterprise,http://api.map.baidu.com/place/detail?uid=c42119a5c98cf790d72ce220&output=html&source=placeapi_v2,,,0.0,,,,,,,,1,,,,,,,,,0
3a93861bb7e63e70d22dd694,滨海新区长营养殖场,公司企业,农林园艺,天津市,天津市,滨海新区,天津市滨海新区津歧线与学海路交叉路口往东约90米,3a93861bb7e63e70d22dd694,1,0,117.471274,38.880847,13920107979,enterprise,http://api.map.baidu.com/place/detail?uid=3a93861bb7e63e70d22dd694&output=html&source=placeapi_v2,,,,,,,,,,,,,,,,,,117.47113096841,38.880806492296,0
3a7ccc797640188288f15da0,板桥农场,公司企业,农林园艺,天津市,天津市,滨海新区,天津市滨海新区津歧线与板南路交叉路口北侧,3a7ccc797640188288f15da0,1,0,117.47568,38.871405,,enterprise,http://api.map.baidu.com/place/detail?uid=3a7ccc797640188288f15da0&output=html&source=placeapi_v2,,,,,,,,,,,,,,,,,,117.47552554274,38.871355096691,0
b582b765fc9fa841e01103e4,天津通洋农业科技有限公司,公司企业,农林园艺,天津市,天津市,滨海新区,天津市滨海新区,,1,0,117.479748,38.889552,,enterprise,http://api.map.baidu.com/place/detail?uid=b582b765fc9fa841e01103e4&output=html&source=placeapi_v2,,,,,,,,,,,,,,,,,,,,0
f675175e69c0fc53a7c75620,长芦塘沽盐场,公司企业,农林园艺,天津市,天津市,滨海新区,天津市滨海新区中央大道,f675175e69c0fc53a7c75620,1,0,117.600592,38.887667,,enterprise,http://api.map.baidu.com/place/detail?uid=f675175e69c0fc53a7c75620&output=html&source=placeapi_v2,,,,,,,,,,,,,,,,,,,,0
15f9f3ec64b41b160869d9c7,静海县广成冬枣种植专业合作社,公司企业,农林园艺,天津市,天津市,静海区,天津市静海区王口镇张家村东200米,,1,0,116.746093,38.896243,,enterprise,http://api.map.baidu.com/place/detail?uid=15f9f3ec64b41b160869d9c7&output=html&source=placeapi_v2,,,0.0,,,,,,,,,,,,,,,,,0
546d6b068be5be6873210bb0,天津市学峰畜牧养殖专业合作社,公司企业,农林园艺,天津市,天津市,静海区,天津市静海区,,1,0,116.781207,38.904358,,enterprise,http://api.map.baidu.com/place/detail?uid=546d6b068be5be6873210bb0&output=html&source=placeapi_v2,,,,,,,,,,,,,,,,,,,,0
d5b1c7f34e9b1019bea24018,天津恒兴业农业科技专业合作社,公司企业,农林园艺,天津市,天津市,静海区,天津市静海区王口镇丁家村公交站南100米,,1,0,116.774946,38.901346,(022)68132990,enterprise,http://api.map.baidu.com/place/detail?uid=d5b1c7f34e9b1019bea24018&output=html&source=placeapi_v2,,08:00-18:00,,,,,,,,,,,,,,,,,,0
0b228d86ad063411eb56fa05,梁头林场,公司企业,农林园艺,天津市,天津市,静海区,天津市静海区静邓路,,1,0,116.867957,38.904379,,enterprise,http://api.map.baidu.com/place/detail?uid=0b228d86ad063411eb56fa05&output=html&source=placeapi_v2,,,,,,,,,,,,,,,,,,,,0
fdbdd3e7d91a8ee5b220a8bf,绿康现代农业科技有限公司,公司企业,农林园艺,天津市,天津市,静海区,天津市静海区静海镇静双路西150米,,1,0,116.906602,38.903649,,enterprise,http://api.map.baidu.com/place/detail?uid=fdbdd3e7d91a8ee5b220a8bf&output=html&source=placeapi_v2,,,,,,,,,,,,,,,,,,,,0
5906cef440c3723a2bb97cd2,农海农业科技发展有限公司,公司企业,农林园艺,天津市,天津市,静海区,天津市静海区花园街3号,5906cef440c3723a2bb97cd2,1,0,116.901869,38.921908,18622705858,enterprise,http://api.map.baidu.com/place/detail?uid=5906cef440c3723a2bb97cd2&output=html&source=placeapi_v2,,,0,,,,,,,,0,,,,,,,,,0
23304b2803a5e30f465726d1,龙海现代农业示范园,公司企业,农林园艺,天津市,天津市,静海区,天津市静海区子牙快速路旁边,,1,0,116.895275,38.908338,,enterprise,http://api.map.baidu.com/place/detail?uid=23304b2803a5e30f465726d1&output=html&source=placeapi_v2,,,,,,,,,,,,,,,,,,,,0
9e158b1680b83199631809a6,天津市胜起农作物种植专业合作社,公司企业,农林园艺,天津市,天津市,静海区,南环与京福线交口南行一公里处十字路口东侧,,1,0,116.89726,38.899788,13012226126,enterprise,http://api.map.baidu.com/place/detail?uid=9e158b1680b83199631809a6&output=html&source=placeapi_v2,,08:00-18:00,0.0,,,,,,,,,,,,,,,,,0
11e62a73602efdb0e0110375,天津市汇德农业机械销售有限公司,公司企业,农林园艺,天津市,天津市,静海区,天津市静海区G104(京福线),,1,0,116.936141,38.9072,,enterprise,http://api.map.baidu.com/place/detail?uid=11e62a73602efdb0e0110375&output=html&source=placeapi_v2,,,0.0,,,,,,,,1,,,,,,,,,0
57163e3a20316760eee4a578,大候庄养鱼场,公司企业,农林园艺,天津市,天津市,西青区,天津市西青区大候庄养鱼场,,1,0,117.226877,38.919112,,enterprise,http://api.map.baidu.com/place/detail?uid=57163e3a20316760eee4a578&output=html&source=placeapi_v2,,,,,,,,,,,,,,,,,,,,0
c7e9428457a65b47705e8020,天津市稳稳哒稻农业科技有限公司,公司企业,农林园艺,天津市,天津市,西青区,天津市西青区王稳庄镇赛达工业园盛达二支路30号2号3号厂房,,1,0,117.287332,38.897115,18526291350,enterprise,http://api.map.baidu.com/place/detail?uid=c7e9428457a65b47705e8020&output=html&source=placeapi_v2,,,0.0,,,,,,,,1,,,,,,,,,0
be7b9e74be9768375cbe86f6,天津市安平顺达粮食种植专业合作社,公司企业,农林园艺,天津市,天津市,津南区,天津市津南区夏经路福纬道1号,,1,0,117.385947,38.92168,"(022)27605766,15522452208",enterprise,http://api.map.baidu.com/place/detail?uid=be7b9e74be9768375cbe86f6&output=html&source=placeapi_v2,,08:00-20:00,,,,,,,,,,,,,,,,,,0
5ab073beda18e6d65cd4fe03,天津亚男园林景观工程有限公司,公司企业,农林园艺,天津市,天津市,津南区,天津市津南区中海公园城瞰湖苑3-101号,,1,0,117.360873,38.923188,13132044734,enterprise,http://api.map.baidu.com/place/detail?uid=5ab073beda18e6d65cd4fe03&output=html&source=placeapi_v2,,,,,,,,,,,,,,,,,,,,0
284edc68fd2e895c2cb17e0d,小星星农场,公司企业,农林园艺,天津市,天津市,津南区,天津市津南区融创星耀五洲小星星农场,,1,0,117.360626,38.908475,,enterprise,http://api.map.baidu.com/place/detail?uid=284edc68fd2e895c2cb17e0d&output=html&source=placeapi_v2,,,,,,,,,,,1,,,,,,,,,0
9145348ecbd1b993940319fa,天津市金角畜禽养殖公司,公司企业,农林园艺,天津市,天津市,津南区,天津市津南区双顺路,,1,0,117.402386,38.903115,,enterprise,http://api.map.baidu.com/place/detail?uid=9145348ecbd1b993940319fa&output=html&source=placeapi_v2,,,,,,,,,,,,,,,,,,,,0
c42119a5c98cf790d72ce220,天津浩鹏种植专业合作社,公司企业,农林园艺,天津市,天津市,津南区,天津市津南区葛万北路,,1,0,117.417987,38.896454,,enterprise,http://api.map.baidu.com/place/detail?uid=c42119a5c98cf790d72ce220&output=html&source=placeapi_v2,,,0.0,,,,,,,,1,,,,,,,,,0
c56424022f6d44e659bbbc36,园林景观,公司企业,农林园艺,天津市,天津市,津南区,天津市津南区津歧公路,,1,0,117.45435,38.897559,,enterprise,http://api.map.baidu.com/place/detail?uid=c56424022f6d44e659bbbc36&output=html&source=placeapi_v2,,,,,,,,,,,,,,,,,,,,0
5fa29c14d3dc5b19fe0eb0e3,富顺园林景观,公司企业,农林园艺,天津市,天津市,津南区,天津市津南区津歧公路迎新木材综合市场东北侧约40米,,1,0,117.448609,38.903723,,enterprise,http://api.map.baidu.com/place/detail?uid=5fa29c14d3dc5b19fe0eb0e3&output=html&source=placeapi_v2,,,,,,,,,,,,,,,,,,,,0
b6578b3d4e46329e6c3e1ba6,海林园林绿化,公司企业,农林园艺,天津市,天津市,滨海新区,天津市滨海新区纬二路,,1,0,117.67883,38.899703,,enterprise,http://api.map.baidu.com/place/detail?uid=b6578b3d4e46329e6c3e1ba6&output=html&source=placeapi_v2,,,,,,,,,,,,,,,,,,,,0
c2414c9b62964442b6147f55,宏强远景苗木场,公司企业,农林园艺,天津市,天津市,静海区,天津市静海区津文线与新津涞线交叉路口东北侧,,1,0,116.801255,38.939826,15122096660,enterprise,http://api.map.baidu.com/place/detail?uid=c2414c9b62964442b6147f55&output=html&source=placeapi_v2,,,,,,,,,,,,,,,,,,,,0
558fba5b77ab8260f603b8cb,天津市为民生猪养殖专业合作社,公司企业,农林园艺,天津市,天津市,静海区,天津市静海区新涞路,,1,0,116.78598,38.950458,,enterprise,http://api.map.baidu.com/place/detail?uid=558fba5b77ab8260f603b8cb&output=html&source=placeapi_v2,,,,,,,,,,,,,,,,,,,,0
4701dddafd00ad421188241e,天津市国良茵类种植专业合作社,公司企业,农林园艺,天津市,天津市,静海区,西岳庄学园街王口镇第二小学北250米静海区王口镇西岳庄村村民委员会附近,,1,0,116.767002,38.94603,,enterprise,http://api.map.baidu.com/place/detail?uid=4701dddafd00ad421188241e&output=html&source=placeapi_v2,,,,,,,,,,,,,,,,,,,,0
d695273d0081482733169b55,锦华苗圃,公司企业,农林园艺,天津市,天津市,静海区,天津市静海区津文线与新津涞线交叉路口东北侧,,1,0,116.801281,38.939791,,enterprise,http://api.map.baidu.com/place/detail?uid=d695273d0081482733169b55&output=html&source=placeapi_v2,,,,,,,,,,,,,,,,,,116.80127889645,38.939734396965,0
c2871e9d13cd1716f4eafc42,光发林地散养柴鸡农场,公司企业,农林园艺,天津市,天津市,静海区,新津涞公路东50米,,1,0,116.803625,38.953552,,enterprise,http://api.map.baidu.com/place/detail?uid=c2871e9d13cd1716f4eafc42&output=html&source=placeapi_v2,,,,,,,,,,,,,,,,,,116.80279713877,38.953665673818,0
ee8959ea396457cceb56fa3f,韵绿园林植保公司,公司企业,农林园艺,天津市,天津市,静海区,天津市静海区津文线梁头镇人民政府西南侧约260米,,1,0,116.859318,38.939187,,enterprise,http://api.map.baidu.com/place/detail?uid=ee8959ea396457cceb56fa3f&output=html&source=placeapi_v2,,,,,,,,,,,,,,,,,,,,0
147771879dabfce695f08cd5,鸿强畜牧养殖基地,公司企业,农林园艺,天津市,天津市,静海区,天津市静海区梁台路瑞海天骄源北侧约120米,147771879dabfce695f08cd5,1,0,116.86336,38.949556,,enterprise,http://api.map.baidu.com/place/detail?uid=147771879dabfce695f08cd5&output=html&source=placeapi_v2,,,,,,,,,,,,,,,,,,116.86312932387,38.949183545711,0
1e353f5177ab5815d518b734,天津市殿华生猪专业合作社,公司企业,农林园艺,天津市,天津市,静海区,天津市静海区涞文线与口张路交叉路口往东北约60米,1e353f5177ab5815d518b734,1,0,116.917146,38.943571,"(022)28911908,13072278658,13821920802",enterprise,http://api.map.baidu.com/place/detail?uid=1e353f5177ab5815d518b734&output=html&source=placeapi_v2,,,,,,,,,,,,,,,,,,,,0
a0486ded186121925fbe86e2,静海区艺林绿化工程有限公司,公司企业,农林园艺,天津市,天津市,静海区,天津市静海区静海镇北纬三路东段4排1号,a0486ded186121925fbe86e2,1,1,116.92865,38.949595,,enterprise,http://api.map.baidu.com/place/detail?uid=a0486ded186121925fbe86e2&output=html&source=placeapi_v2,,,,,,,,,,,,,,,,,,116.92864124723,38.949314792732,1
0992060c9b0be04fc909f0b2,天津市盛大养殖场,公司企业,农林园艺,天津市,天津市,静海区,垃圾处理场路北100米,,1,0,116.909649,38.956389,,enterprise,http://api.map.baidu.com/place/detail?uid=0992060c9b0be04fc909f0b2&output=html&source=placeapi_v2,,,,,,,,,,,,,,,,,,,,0
91ec2c288ceb9ee982288a17,天津市大业园艺有限公司,公司企业,农林园艺,天津市,天津市,静海区,天津市静海区东方商业街a5~7号,91ec2c288ceb9ee982288a17,1,0,116.982591,38.946939,,enterprise,http://api.map.baidu.com/place/detail?uid=91ec2c288ceb9ee982288a17&output=html&source=placeapi_v2,,,,,,,,,,,,,,,,,,,,0
ded3a3eaf14ef97f7c29bdc4,天津鲜美园林工程有限公司,公司企业,农林园艺,天津市,天津市,静海区,天津市静海区银海道13号,ded3a3eaf14ef97f7c29bdc4,1,0,117.004478,38.930886,,enterprise,http://api.map.baidu.com/place/detail?uid=ded3a3eaf14ef97f7c29bdc4&output=html&source=placeapi_v2,,,,,,,,,,,,,,,,,,,,0
648ee1525394e32f8b2fb508,天津市新军林木种植专业合作社,公司企业,农林园艺,天津市,天津市,静海区,天津市静海区,,1,1,117.048381,38.939291,,enterprise,http://api.map.baidu.com/place/detail?uid=648ee1525394e32f8b2fb508&output=html&source=placeapi_v2,,,,,,,,,,,,,,,,,,,,1
55151632318f11e17ab55cf9,天津市静海区旭朝家庭农场,公司企业,农林园艺,天津市,天津市,静海区,天津市静海区,55151632318f11e17ab55cf9,1,0,117.036039,38.948643,15902289434,enterprise,http://api.map.baidu.com/place/detail?uid=55151632318f11e17ab55cf9&output=html&source=placeapi_v2,,,,,,,,,,,,,,,,,,,,0
8e026523f3152b5321022067,天津真如水果种植家庭农场,公司企业,农林园艺,天津市,天津市,静海区,团王线西50米,,1,1,117.055099,38.935973,,enterprise,http://api.map.baidu.com/place/detail?uid=8e026523f3152b5321022067&output=html&source=placeapi_v2,,,,,,,,,,,,,,,,,,,,1
1769b579d84cf35b04026f3c,天津园林,公司企业,农林园艺,天津市,天津市,西青区,天津市西青区三经路与三纬路交叉路口往西约180米,,1,0,117.213004,38.948281,,enterprise,http://api.map.baidu.com/place/detail?uid=1769b579d84cf35b04026f3c&output=html&source=placeapi_v2,,,,,,,,,,,,,,,,,,,,0
caf90622db593c4c90114c93,天津市万兴水产养殖专业合作社,公司企业,农林园艺,天津市,天津市,西青区,天津市西青区二经路与二纬路交叉路口往北约160米,,1,0,117.2165,38.950922,,enterprise,http://api.map.baidu.com/place/detail?uid=caf90622db593c4c90114c93&output=html&source=placeapi_v2,,,,,,,,,,,,,,,,,,,,0
db1c7bc58e0e32720a5cb3a9,天津金谷农业发展集团有限公司,公司企业,农林园艺,天津市,天津市,津南区,天津市津南区津港公路8号,,1,0,117.354192,38.944196,,enterprise,http://api.map.baidu.com/place/detail?uid=db1c7bc58e0e32720a5cb3a9&output=html&source=placeapi_v2,,,,,,,,,,,,,,,,,,,,0
35fd0077ed796c16bd484233,滨海观赏鱼科技园,公司企业,农林园艺,天津市,天津市,津南区,天津市津南区泽酩北路与泽酩东路交叉路口往西约240米,35fd0077ed796c16bd484233,1,0,117.36783,38.940284,(022)28559577,enterprise,http://api.map.baidu.com/place/detail?uid=35fd0077ed796c16bd484233&output=html&source=placeapi_v2,,,0,,,,,,,,0,,,,,,,117.36799693681,38.940546023741,0
4e41f0508da8068f2cb9085a,天津金谷鑫农种业有限责任公司,公司企业,农林园艺,天津市,天津市,津南区,天津市津南区联顺东路5号,4e41f0508da8068f2cb9085a,1,1,117.358919,38.943845,(022)28559886,enterprise,http://api.map.baidu.com/place/detail?uid=4e41f0508da8068f2cb9085a&output=html&source=placeapi_v2,,,,,,,,,,,,,,,,,,117.3589383935,38.943887474893,1
061497bcd6e98ba5157643ea,天津市其田农业技术开发有限公司,公司企业,农林园艺,天津市,天津市,津南区,北闸口镇旺明福(上北风情街)101-301号,,1,0,117.415501,38.954171,15601195508,enterprise,http://api.map.baidu.com/place/detail?uid=061497bcd6e98ba5157643ea&output=html&source=placeapi_v2,,,,,,,,,,,,,,,,,,,,0
6473693c6b945d9646e27429,天津市津南区馥香农业种植专业合作社,公司企业,农林园艺,天津市,天津市,津南区,天津市津南区寿昌路,,1,0,117.466218,38.938974,15222256789,enterprise,http://api.map.baidu.com/place/detail?uid=6473693c6b945d9646e27429&output=html&source=placeapi_v2,,07:45-20:00,,,,,,,,,2,,,,,,,,,0
8bdd5488e5d2384e3be4a60d,梦醒农业科技发展有限公司,公司企业,农林园艺,天津市,天津市,津南区,天津市津南区寿昌路昊天园,,1,0,117.45526,38.938709,,enterprise,http://api.map.baidu.com/place/detail?uid=8bdd5488e5d2384e3be4a60d&output=html&source=placeapi_v2,,,,,,,,,,,,,,,,,,,,0
fa835ce21ebbd1b5e812e4d8,北大荒农场,公司企业,农林园艺,天津市,天津市,静海区,天津市静海区,fa835ce21ebbd1b5e812e4d8,1,0,116.743079,38.966954,,enterprise,http://api.map.baidu.com/place/detail?uid=fa835ce21ebbd1b5e812e4d8&output=html&source=placeapi_v2,,,,,,,,,,,,,,,,,,116.74362979989,38.966816703297,0
ab4c4623ee4f35a99fec2b3a,天津市远大园林苗圃,公司企业,农林园艺,天津市,天津市,静海区,天津市静海区静台路和千米路交叉口向南1.2千米,,1,0,116.840146,38.979892,,enterprise,http://api.map.baidu.com/place/detail?uid=ab4c4623ee4f35a99fec2b3a&output=html&source=placeapi_v2,,,,,,,,,,,,,,,,,,116.83995685053,38.979954054403,0
869b11dd33a3ac4fdf1e5288,天津市静海区美源蔬菜种植家庭农场,公司企业,农林园艺,天津市,天津市,静海区,天津市静海区梁头镇谷庄子村委会村西四支北,,1,0,116.870385,38.97481,,enterprise,http://api.map.baidu.com/place/detail?uid=869b11dd33a3ac4fdf1e5288&output=html&source=placeapi_v2,,,5.0,,,,,,,,2,,,,,,,,,0
36ca45fdad9b6f6406026f36,大亮蔬菜种植合作社,公司企业,农林园艺,天津市,天津市,静海区,天津市静海区冯孟路,,1,0,116.88573,38.977805,18222114447,enterprise,http://api.map.baidu.com/place/detail?uid=36ca45fdad9b6f6406026f36&output=html&source=placeapi_v2,,05:00-22:00,,,,,,,,,,,,,,,,,,0
eb93efa663d2bff249fd3f40,天津市静海区思岐养殖农场,公司企业,农林园艺,天津市,天津市,静海区,天津市静海区梁头镇罗塘村村委会东1500米,,1,0,116.883348,38.961981,"(022)68875777,13821985868",enterprise,http://api.map.baidu.com/place/detail?uid=eb93efa663d2bff249fd3f40&output=html&source=placeapi_v2,,08:00-17:00,,,,,,,,,,,,,,,,,,0
7d56bcfe4dd3d71ab42655e2,天津市静海区恒运家禽养殖场,公司企业,农林园艺,天津市,天津市,静海区,天津市静海区,,1,0,116.857749,38.980151,,enterprise,http://api.map.baidu.com/place/detail?uid=7d56bcfe4dd3d71ab42655e2&output=html&source=placeapi_v2,,,,,,,,,,,,,,,,,,,,0
6ea0778776d13bd45fbe869b,天津市静海区泽川苑果树种植中心,公司企业,农林园艺,天津市,天津市,静海区,天津市静海区G104(京福线),,1,0,116.906485,38.974069,13820250766,enterprise,http://api.map.baidu.com/place/detail?uid=6ea0778776d13bd45fbe869b&output=html&source=placeapi_v2,,09:00-17:00,,,,,,,,,,,,,,,,,,0
68a6100e9d1aa572ab0dd8c2,欣兴畜牧养殖场,公司企业,农林园艺,天津市,天津市,静海区,天津市静海区静海镇北五里幸福小区北,,1,0,116.926499,38.970618,,enterprise,http://api.map.baidu.com/place/detail?uid=68a6100e9d1aa572ab0dd8c2&output=html&source=placeapi_v2,,,,,,,,,,,,,,,,,,,,0
caed92dbfe5ff80b6d20b9f7,天津天立赛鸽公棚(小棚),公司企业,农林园艺,天津市,天津市,静海区,天津市静海区冯孟路,,1,0,116.910276,38.983247,,enterprise,http://api.map.baidu.com/place/detail?uid=caed92dbfe5ff80b6d20b9f7&output=html&source=placeapi_v2,,,,,,,,,,,,,,,,,,116.91026811571,38.982846211613,0
81f0353f37bf3d5b21f0173e,天津市广亮果树种植专业合作社,公司企业,农林园艺,天津市,天津市,静海区,天津市静海区京福公路与104国道交叉口西南150米,,1,0,116.899419,38.961314,,enterprise,http://api.map.baidu.com/place/detail?uid=81f0353f37bf3d5b21f0173e&output=html&source=placeapi_v2,,,,,,,,,,,,,,,,,,116.89945588691,38.961426361773,0
0992060c9b0be04fc909f0b2,天津市盛大养殖场,公司企业,农林园艺,天津市,天津市,静海区,垃圾处理场路北100米,,1,0,116.909649,38.956389,,enterprise,http://api.map.baidu.com/place/detail?uid=0992060c9b0be04fc909f0b2&output=html&source=placeapi_v2,,,,,,,,,,,,,,,,,,,,0
a3f8c6cd47c9763625d2bb1d,金来谷物种植合作社,公司企业,农林园艺,天津市,天津市,静海区,天津市静海区十里堡路,,1,0,116.954364,38.987551,18622075191,enterprise,http://api.map.baidu.com/place/detail?uid=a3f8c6cd47c9763625d2bb1d&output=html&source=placeapi_v2,,,,,,,,,,,2,,,,,,,,,0
6ed3083ae73c0bb42b3a9fd8,天津市静海区苗圃场,公司企业,农林园艺,天津市,天津市,静海区,天津市静海区苗圃场(徐良路东300米),,1,0,116.989759,38.991053,,enterprise,http://api.map.baidu.com/place/detail?uid=6ed3083ae73c0bb42b3a9fd8&output=html&source=placeapi_v2,,,,,,,,,,,,,,,,,,,,0
8732621e14b4b4834bcc4a71,天津生宝农业科技发展有限公司,公司企业,农林园艺,天津市,天津市,静海区,天津市静海区良王庄乡徐良路圣水湖南,8732621e14b4b4834bcc4a71,1,1,116.986808,38.988221,,enterprise,http://api.map.baidu.com/place/detail?uid=8732621e14b4b4834bcc4a71&output=html&source=placeapi_v2,,,,,,,,,,,,,,,,,,116.9865324021,38.98819666614,1
3f826ed3bbfc7245d1f49ed8,静海区良种场,公司企业,农林园艺,天津市,天津市,静海区,静海镇,3f826ed3bbfc7245d1f49ed8,1,0,116.997448,38.990895,,enterprise,http://api.map.baidu.com/place/detail?uid=3f826ed3bbfc7245d1f49ed8&output=html&source=placeapi_v2,,,,,,,,,,,,,,,,,,116.99744096518,38.990953762357,0
4de3c08b7c97925f79b55c63,金凤凰无公害蔬菜种植基地,公司企业,农林园艺,天津市,天津市,静海区,十里堡路与徐良路交叉口西南100米,,1,0,116.985929,38.989585,,enterprise,http://api.map.baidu.com/place/detail?uid=4de3c08b7c97925f79b55c63&output=html&source=placeapi_v2,,,,,,,,,,,,,,,,,,116.98613343138,38.989611245251,0
5d92019a3ffffa5df22d83bb,晟远园林景观,公司企业,农林园艺,天津市,天津市,静海区,天津市静海区津文线,,1,0,117.06543,38.982951,,enterprise,http://api.map.baidu.com/place/detail?uid=5d92019a3ffffa5df22d83bb&output=html&source=placeapi_v2,,,,,,,,,,,,,,,,,,117.06561376558,38.982918557105,0
3f9ddb5035169e7329fc4892,农润水产养殖专业合作社,公司企业,农林园艺,天津市,天津市,西青区,天津市西青区建新路,,1,0,117.207553,38.963248,,enterprise,http://api.map.baidu.com/place/detail?uid=3f9ddb5035169e7329fc4892&output=html&source=placeapi_v2,,,,,,,,,,,,,,,,,,117.2072332381,38.9631242008,0
69d7f0a30baa2add2d4733ed,天津市绿生园苗圃种植有限公司,公司企业,农林园艺,天津市,天津市,西青区,天津市西青区津晋高速花漾年华爱情主题公园,,1,0,117.242973,38.967802,,enterprise,http://api.map.baidu.com/place/detail?uid=69d7f0a30baa2add2d4733ed&output=html&source=placeapi_v2,,,,,,,,,,,,,,,,,,117.24317903908,38.967791511442,0
a86426d9de537360b72655d1,花漾年华牧场,公司企业,农林园艺,天津市,天津市,西青区,天津市西青区S50(南引河桥),a86426d9de537360b72655d1,1,0,117.24215,38.969642,(022)27628688,enterprise,http://api.map.baidu.com/place/detail?uid=a86426d9de537360b72655d1&output=html&source=placeapi_v2,,09:00-17:00,0.0,,,,,,,,1,,,,,,,117.24220802741,38.969699571552,0
0a2dea750bd752dac356ac10,大麦农场,公司企业,农林园艺,天津市,天津市,西青区,天津市西青区大寺镇宁静高速南150米,,1,0,117.2855,38.987763,16600221011,enterprise,http://api.map.baidu.com/place/detail?uid=0a2dea750bd752dac356ac10&output=html&source=placeapi_v2,,08:00-17:00,,,,,,,,,1,,,,,,,,,0
669be61823726ae8a1a9349b,天津万禾蔬菜种植农民专业合作社,公司企业,农林园艺,天津市,天津市,津南区,天津市津南区北闸口镇大芦庄村村委会院内,,1,0,117.391495,38.968126,,enterprise,http://api.map.baidu.com/place/detail?uid=669be61823726ae8a1a9349b&output=html&source=placeapi_v2,,,,,,,,,,,,,,,,,,117.39113123845,38.968037232585,0
eb9d11a904d48974f942b2d4,天津市同城艺人孵化器有限公司,公司企业,农林园艺,天津市,天津市,津南区,天津市津南区聚兴道9-7号楼附近,eb9d11a904d48974f942b2d4,1,0,117.422748,38.982467,,enterprise,http://api.map.baidu.com/place/detail?uid=eb9d11a904d48974f942b2d4&output=html&source=placeapi_v2,,,,,,,,,,,,,,,,,,,,0
7f49bde2c7f3d927cae33c02,花卉基地,公司企业,农林园艺,天津市,天津市,津南区,天津市津南区宣惠道宣惠园社区西侧约30米,7f49bde2c7f3d927cae33c02,1,1,117.404689,38.966435,,enterprise,http://api.map.baidu.com/place/detail?uid=7f49bde2c7f3d927cae33c02&output=html&source=placeapi_v2,,,,,,,,,,,,,,,,,,117.4047571227,38.966334273237,1
58cdb68f5973aeab9ff779df,天津市鑫龙盛地果蔬专业合作社,公司企业,农林园艺,天津市,天津市,津南区,天津市津南区宣惠道宣惠园社区西侧约40米,58cdb68f5973aeab9ff779df,1,0,117.405136,38.96675,18202235348,enterprise,http://api.map.baidu.com/place/detail?uid=58cdb68f5973aeab9ff779df&output=html&source=placeapi_v2,,,,,,,,,,,,,,,,,,,,0
464ebeb82e99c9d0f4c59c81,绿航农业,公司企业,农林园艺,天津市,天津市,津南区,天津市津南区,,1,0,117.473541,38.965532,,enterprise,http://api.map.baidu.com/place/detail?uid=464ebeb82e99c9d0f4c59c81&output=html&source=placeapi_v2,,00:00-24:00,0.0,,,,,,,,1,,,,,,,,,0
74cccd65d0df92fbd4851fea,宏大盛源家禽养殖专业合作社,公司企业,农林园艺,天津市,天津市,滨海新区,天津市滨海新区新城村园顺里1排1号,,1,0,117.560804,38.969585,18649038982,enterprise,http://api.map.baidu.com/place/detail?uid=74cccd65d0df92fbd4851fea&output=html&source=placeapi_v2,,09:00-06:00,,,,,,,,,,,,,,,,117.5607241305,38.969578331665,0
03c026ffe7ef728611882462,龙达农业科技生态园,公司企业,农林园艺,天津市,天津市,滨海新区,天津市滨海新区天津大道天津龙达生态园内,,1,0,117.59176,38.97662,,enterprise,http://api.map.baidu.com/place/detail?uid=03c026ffe7ef728611882462&output=html&source=placeapi_v2,,,,,,,,,,,,,,,,,,117.59175975493,38.976619951503,0
3599c34cbe6ab58e8415418a,惠农食用菌种植研发基地,公司企业,农林园艺,天津市,天津市,滨海新区,天津市滨海新区津沽公路,,1,0,117.570908,38.984926,,enterprise,http://api.map.baidu.com/place/detail?uid=3599c34cbe6ab58e8415418a&output=html&source=placeapi_v2,,,,,,,,,,,,,,,,,,,,0
d5fb2a85bba1b7c5b4265560,天津亨源达果木种植专业合作社,公司企业,农林园艺,天津市,天津市,滨海新区,天津市滨海新区港塘路桥金泉里(新东里南)南侧,,1,1,117.580008,38.987292,,enterprise,http://api.map.baidu.com/place/detail?uid=d5fb2a85bba1b7c5b4265560&output=html&source=placeapi_v2,,,,,,,,,,,,,,,,,,117.57999872777,38.987381817218,1
333cfe3d7bddc3642b201af3,金昊林果种植专业合作社,公司企业,农林园艺,天津市,天津市,静海区,姜坝路三堡村附近,,1,0,116.82217,39.003027,,enterprise,http://api.map.baidu.com/place/detail?uid=333cfe3d7bddc3642b201af3&output=html&source=placeapi_v2,,,,,,,,,,,,,,,,,,,,0
842778b124072e45b5f42f0c,天津天立赛鸽公棚(小棚),公司企业,农林园艺,天津市,天津市,静海区,天津市静海区台头镇绿源生态园内,,1,0,116.818753,39.020419,(022)67165678,enterprise,http://api.map.baidu.com/place/detail?uid=842778b124072e45b5f42f0c&output=html&source=placeapi_v2,,,0,,,,,,,,1,,,,,,,,,0
dd15db618e267eaae3110328,天津静海苗圃基地,公司企业,农林园艺,天津市,天津市,静海区,天津市静海区梁头镇静台线6-3公里处,,1,0,116.836198,38.992212,,enterprise,http://api.map.baidu.com/place/detail?uid=dd15db618e267eaae3110328&output=html&source=placeapi_v2,,,,,,,,,,,,,,,,,,116.83622014304,38.992269143961,0
f2f091b0fcf6a5ee3be4a6c2,天津市双双家庭农场,公司企业,农林园艺,天津市,天津市,静海区,天津市静海区苟家村村西大套,,1,0,116.882788,38.999581,,enterprise,http://api.map.baidu.com/place/detail?uid=f2f091b0fcf6a5ee3be4a6c2&output=html&source=placeapi_v2,,,,,,,,,,,,,,,,,,,,0
7fbdbf90c926064ffa0cad82,金铄苗圃,公司企业,农林园艺,天津市,天津市,静海区,天津市静海区,,1,0,116.91255,39.00608,,enterprise,http://api.map.baidu.com/place/detail?uid=7fbdbf90c926064ffa0cad82&output=html&source=placeapi_v2,,,,,,,,,,,,,,,,,,,,0
19cc99c557d74bd0eddfca19,钰忠良养羊场,公司企业,农林园艺,天津市,天津市,静海区,天津市静海区良王庄乡李家楼村火车道北70米,,1,0,116.948867,39.022353,15530440000,enterprise,http://api.map.baidu.com/place/detail?uid=19cc99c557d74bd0eddfca19&output=html&source=placeapi_v2,,,,,,,,,,,,,,,,,,,,0
e922b4aed0c8e6edb04c4940,小刚苗圃,公司企业,农林园艺,天津市,天津市,静海区,天津市静海区普罗路,,1,0,116.971298,39.006026,,enterprise,http://api.map.baidu.com/place/detail?uid=e922b4aed0c8e6edb04c4940&output=html&source=placeapi_v2,,,,,,,,,,,,,,,,,,,,0
6ed3083ae73c0bb42b3a9fd8,天津市静海区苗圃场,公司企业,农林园艺,天津市,天津市,静海区,天津市静海区苗圃场(徐良路东300米),,1,0,116.989759,38.991053,,enterprise,http://api.map.baidu.com/place/detail?uid=6ed3083ae73c0bb42b3a9fd8&output=html&source=placeapi_v2,,,,,,,,,,,,,,,,,,,,0
3f826ed3bbfc7245d1f49ed8,静海区良种场,公司企业,农林园艺,天津市,天津市,静海区,静海镇,3f826ed3bbfc7245d1f49ed8,1,0,116.997448,38.990895,,enterprise,http://api.map.baidu.com/place/detail?uid=3f826ed3bbfc7245d1f49ed8&output=html&source=placeapi_v2,,,,,,,,,,,,,,,,,,116.99744096518,38.990953762357,0
940c029e65cc6679d7851fb3,天津和力奶牛养殖有限公司,公司企业,农林园艺,天津市,天津市,静海区,徐良路西50米,940c029e65cc6679d7851fb3,1,0,116.985005,38.992469,,enterprise,http://api.map.baidu.com/place/detail?uid=940c029e65cc6679d7851fb3&output=html&source=placeapi_v2,,,,,,,,,,,,,,,,,,,,0
52b3e9021685739beaf85379,天津顶盛农业发展有限公司,公司企业,农林园艺,天津市,天津市,静海区,天津市静海区开发区,,1,0,117.025661,38.994757,,enterprise,http://api.map.baidu.com/place/detail?uid=52b3e9021685739beaf85379&output=html&source=placeapi_v2,,,,,,,,,,,,,,,,,,,,0
651851795b872b74deee8b21,天津市栖隅园艺有限公司,公司企业,农林园艺,天津市,天津市,西青区,天津市西青区大寺镇青凝侯村农业园078号,,1,0,117.150983,38.997172,,enterprise,http://api.map.baidu.com/place/detail?uid=651851795b872b74deee8b21&output=html&source=placeapi_v2,,,,,,,,,,,,,,,,,,,,0
568bc107e971effef6c59cd4,传美园艺多肉植物基地,公司企业,农林园艺,天津市,天津市,西青区,天津市西青区赛达大道赛德・金角农业生态园内38号棚,,1,0,117.177312,38.995296,13802128912,enterprise,http://api.map.baidu.com/place/detail?uid=568bc107e971effef6c59cd4&output=html&source=placeapi_v2,,,0,,,,,,,,0,,,,,,,,,0
a1716641480d78152efaa76b,动森农场,公司企业,农林园艺,天津市,天津市,西青区,天津市西青区二站路,,1,0,117.146863,38.998937,18222337818,enterprise,http://api.map.baidu.com/place/detail?uid=a1716641480d78152efaa76b&output=html&source=placeapi_v2,,,5.0,,,,,,,,1,,,,,,,,,0
3d9c3fea671772e429fc48ba,光头草莓有机蔬菜采摘,公司企业,农林园艺,天津市,天津市,西青区,天津市西青区西青郊野公园内,,1,0,117.151958,39.014674,"13332059636,18102118702",enterprise,http://api.map.baidu.com/place/detail?uid=3d9c3fea671772e429fc48ba&output=html&source=placeapi_v2,,08:00-19:30,,,,,,,,,1,,,,,,,117.1518918839,39.014706638598,0
328b66fd5bd88321bea24044,天津青凝侯蔬菜种植专业合作社,公司企业,农林园艺,天津市,天津市,西青区,天津市西青区,,1,0,117.152193,38.993634,,enterprise,http://api.map.baidu.com/place/detail?uid=328b66fd5bd88321bea24044&output=html&source=placeapi_v2,,,5.0,,,,,,,,1,,,,,,,117.15223806928,38.99340658031,0
88fec35cedae2ee36e4760b1,小单仙人球繁殖批发基地,公司企业,农林园艺,天津市,天津市,西青区,天津市西青区大寺镇大寺村,88fec35cedae2ee36e4760b1,1,0,117.201566,39.012496,,enterprise,http://api.map.baidu.com/place/detail?uid=88fec35cedae2ee36e4760b1&output=html&source=placeapi_v2,,,,,,,,,,,,,,,,,,,,0
28d88800191fc5510ab93a12,天津华林伟业生物工程科技发展有限公司,公司企业,农林园艺,天津市,天津市,西青区,天津市西青区微四路5号,28d88800191fc5510ab93a12,1,1,117.248384,39.010164,(022)27837679,enterprise,http://api.map.baidu.com/place/detail?uid=28d88800191fc5510ab93a12&output=html&source=placeapi_v2,,,,,,,,,,,,,,,,,,117.24843412631,39.01024296359,1
d763e850e9cf05d57f29bd15,天津市济地农业科技发展有限公司,公司企业,农林园艺,天津市,天津市,津南区,天津市津南区四里沽路桥金地艺城瑞府东北侧约230米,,1,0,117.424459,39.005558,,enterprise,http://api.map.baidu.com/place/detail?uid=d763e850e9cf05d57f29bd15&output=html&source=placeapi_v2,,,,,,,,,,,,,,,,,,,,0
7cc14c44e923d06ba1a9342e,天津市津南区东环果木种植园,公司企业,农林园艺,天津市,天津市,津南区,天津市津南区西泥沽村路,,1,0,117.452773,39.018663,15900270669,enterprise,http://api.map.baidu.com/place/detail?uid=7cc14c44e923d06ba1a9342e&output=html&source=placeapi_v2,,,,,,,,,,,,,,,,,,,,0
585204a6e4432b3bc9fa5ff4,千岛湖周转养殖基地,公司企业,农林园艺,天津市,天津市,滨海新区,天津市滨海新区胡家园郑田道华大集团院内200米左转,,1,0,117.5603,39.011045,,enterprise,http://api.map.baidu.com/place/detail?uid=585204a6e4432b3bc9fa5ff4&output=html&source=placeapi_v2,,,,,,,,,,,,,,,,,,,,0
6cadd04593e330779122e043,天津市滨海新区联力蔬菜种植专业合作社,公司企业,农林园艺,天津市,天津市,滨海新区,天津市滨海新区南窑,,1,0,117.600911,38.991674,,enterprise,http://api.map.baidu.com/place/detail?uid=6cadd04593e330779122e043&output=html&source=placeapi_v2,,,,,,,,,,,,,,,,,,,,0
627acfdc6a5372ab2fb9081b,环祥蔬菜种植专业合作社,公司企业,农林园艺,天津市,天津市,滨海新区,天津市滨海新区南窑干路东50米,,1,1,117.599452,38.994957,,enterprise,http://api.map.baidu.com/place/detail?uid=627acfdc6a5372ab2fb9081b&output=html&source=placeapi_v2,,,,,,,,,,,,,,,,,,,,1
31fb9465c411b719bd484224,天津市福香顺农场,公司企业,农林园艺,天津市,天津市,滨海新区,天津市滨海新区,,1,0,117.580924,38.99464,,enterprise,http://api.map.baidu.com/place/detail?uid=31fb9465c411b719bd484224&output=html&source=placeapi_v2,,,,,,,,,,,,,,,,,,,,0
63a47a2b21bbe9b9b320a817,天津纽艾格农业科技有限公司,公司企业,农林园艺,天津市,天津市,滨海新区,天津市滨海新区川水路777号,63a47a2b21bbe9b9b320a817,1,0,117.67284,39.006563,,enterprise,http://api.map.baidu.com/place/detail?uid=63a47a2b21bbe9b9b320a817&output=html&source=placeapi_v2,0.0,,0.0,,,,,,,,1,,,,,,,117.67213295271,39.005468692441,0
600193dddd37a1602cb96dee,红宝石花卉园艺中心,公司企业,农林园艺,天津市,天津市,滨海新区,天津市滨海新区兴海园2期底商6号,600193dddd37a1602cb96dee,1,0,117.710508,38.998369,,enterprise,http://api.map.baidu.com/place/detail?uid=600193dddd37a1602cb96dee&output=html&source=placeapi_v2,,,0,,,,,,,,0,,,,,,,,,0
c9e8911af76a80add0ff23e4,台头鲜花基地,公司企业,农林园艺,天津市,天津市,静海区,天津市静海区梁台路,,1,0,116.79422,39.032708,,enterprise,http://api.map.baidu.com/place/detail?uid=c9e8911af76a80add0ff23e4&output=html&source=placeapi_v2,,,,,,,,,,,,,,,,,,,,0
92ed04138554debdaeb22a5b,天津市静海区祖利家庭农场,公司企业,农林园艺,天津市,天津市,静海区,天津市静海区静霸线,92ed04138554debdaeb22a5b,1,0,116.866913,39.037086,,enterprise,http://api.map.baidu.com/place/detail?uid=92ed04138554debdaeb22a5b&output=html&source=placeapi_v2,,,,,,,,,,,,,,,,,,,,0
7020220e6b756ae114c8f6c9,天津市二子蔬菜种植家庭农场,公司企业,农林园艺,天津市,天津市,静海区,天津市静海区G104(京福线),,1,0,116.930283,39.042058,18522910780,enterprise,http://api.map.baidu.com/place/detail?uid=7020220e6b756ae114c8f6c9&output=html&source=placeapi_v2,,08:00-17:00,4.5,,,,,,,,5,,,,,,,,,0
4b3ec74b4e2093b2a6da39ed,天津市静海区宏祥家庭农场,公司企业,农林园艺,天津市,天津市,静海区,天津市静海区G104(京岚线),,1,0,116.89708,39.026312,15022095140,enterprise,http://api.map.baidu.com/place/detail?uid=4b3ec74b4e2093b2a6da39ed&output=html&source=placeapi_v2,,,,,,,,,,,2,,,,,,,,,0
4d0922c03166effb601c6729,生源肉种鸡场,公司企业,农林园艺,天津市,天津市,静海区,天津市静海区静霸线,4d0922c03166effb601c6729,1,0,116.9642,39.029096,,enterprise,http://api.map.baidu.com/place/detail?uid=4d0922c03166effb601c6729&output=html&source=placeapi_v2,,,5.0,,,,,,,,1,,,,,,,,,0
19cc99c557d74bd0eddfca19,钰忠良养羊场,公司企业,农林园艺,天津市,天津市,静海区,天津市静海区良王庄乡李家楼村火车道北70米,,1,0,116.948867,39.022353,15530440000,enterprise,http://api.map.baidu.com/place/detail?uid=19cc99c557d74bd0eddfca19&output=html&source=placeapi_v2,,,,,,,,,,,,,,,,,,,,0
748b77d47f48fbfe30870adc,奈悉索斯园艺,公司企业,农林园艺,天津市,天津市,西青区,天津市西青区兰韵道张家窝镇农业产业园区引导示范区,,1,0,117.032272,39.054082,,enterprise,http://api.map.baidu.com/place/detail?uid=748b77d47f48fbfe30870adc&output=html&source=placeapi_v2,,,0.0,,,,,,,,1,,,,,,,,,0
b061caa7d5d69fc8ab0dd8af,秋山园艺,公司企业,农林园艺,天津市,天津市,西青区,张家窝农业产业园区C4,,1,0,117.033008,39.053322,16622376039,enterprise,http://api.map.baidu.com/place/detail?uid=b061caa7d5d69fc8ab0dd8af&output=html&source=placeapi_v2,,,,,,,,,,,,,,,,,,,,0
d73d585e748d361e932ca333,天津鲁艺红木园,公司企业,农林园艺,天津市,天津市,西青区,天津市西青区秀川路与中兴路交口鲁艺红木园,,1,0,117.156546,39.047598,13820999397,enterprise,http://api.map.baidu.com/place/detail?uid=d73d585e748d361e932ca333&output=html&source=placeapi_v2,,09:00-17:00,,,,,,,,,,,,,,,,117.15596230918,39.04743545236,0
334f7f24df703fc071210b36,小李园艺,公司企业,农林园艺,天津市,天津市,西青区,天津市西青区梨园头花卉市场,334f7f24df703fc071210b36,1,0,117.203348,39.040129,,enterprise,http://api.map.baidu.com/place/detail?uid=334f7f24df703fc071210b36&output=html&source=placeapi_v2,,,,,,,,,,,,,,,,,,,,0
928ea069f7ed27862e47335c,森茂园林公司,公司企业,农林园艺,天津市,天津市,西青区,天津市西青区腾达东路4号,928ea069f7ed27862e47335c,1,0,117.214791,39.038968,18222136288,enterprise,http://api.map.baidu.com/place/detail?uid=928ea069f7ed27862e47335c&output=html&source=placeapi_v2,,,,,,,,,,,,,,,,,,117.21468899057,39.03897103039,0
ec9300492a5bb101abf0cd48,雅轩园艺荣大店,公司企业,农林园艺,天津市,天津市,西青区,天津市西青区荣大花卉厅内,,1,0,117.206795,39.032923,18822358679,enterprise,http://api.map.baidu.com/place/detail?uid=ec9300492a5bb101abf0cd48&output=html&source=placeapi_v2,,,,,,,,,,,,,,,,,,,,0
ae2d7d3ba503acc7250bd0d0,双林农场,公司企业,农林园艺,天津市,天津市,河西区,天津市河西区泗水道西区3号楼,ae2d7d3ba503acc7250bd0d0,1,0,117.243253,39.050131,,enterprise,http://api.map.baidu.com/place/detail?uid=ae2d7d3ba503acc7250bd0d0&output=html&source=placeapi_v2,,,,,,,,,,,,,,,,,,,,0
11955264554e82edf72310fe,天津豪景园林工程有限公司,公司企业,农林园艺,天津市,天津市,河西区,天津市河西区梅林路儒林园西南侧约30米,,1,0,117.26105,39.051928,,enterprise,http://api.map.baidu.com/place/detail?uid=11955264554e82edf72310fe&output=html&source=placeapi_v2,,,,,,,,,,,,,,,,,,117.26086988242,39.051918512864,0
8e0ca864c1c9be0d8f1a890e,天香园酒家(西青店),公司企业,农林园艺,天津市,天津市,西青区,天津市西青区柳杨道龙居花园一区12号楼,8e0ca864c1c9be0d8f1a890e,1,0,117.252102,39.025909,13194635490,cater,http://api.map.baidu.com/place/detail?uid=8e0ca864c1c9be0d8f1a890e&output=html&source=placeapi_v2,47.0,10:00-22:00,3.8,,,,,,,,28,,,,,,,117.25208789504,39.025755365384,0
5e2bb01832e5e1afacee7ae3,港湾园林绿化公司,公司企业,农林园艺,天津市,天津市,津南区,天津市津南区上海街10号西区28号楼1703室,5e2bb01832e5e1afacee7ae3,1,0,117.324844,39.045331,,enterprise,http://api.map.baidu.com/place/detail?uid=5e2bb01832e5e1afacee7ae3&output=html&source=placeapi_v2,,,,,,,,,,,,,,,,,,117.32502202097,39.045314288854,0
add529bbfd2b36ffe5073873,辛庄镇新冠苗临时接种点,公司企业,农林园艺,天津市,天津市,津南区,天津市津南区文苑路汀芳花园,,1,0,117.333933,39.039783,,enterprise,http://api.map.baidu.com/place/detail?uid=add529bbfd2b36ffe5073873&output=html&source=placeapi_v2,,,,,,,,,,,,,,,,,,,,0
66f0e043aadbec83b11e36a8,天津北美海棠盆景园,公司企业,农林园艺,天津市,天津市,津南区,天津市津南区天津大道碧水世纪园北侧约40米,66f0e043aadbec83b11e36a8,1,1,117.370947,39.038998,,enterprise,http://api.map.baidu.com/place/detail?uid=66f0e043aadbec83b11e36a8&output=html&source=placeapi_v2,,,,,,,,,,,,,,,,,,117.37101882576,39.039077564702,1
fd93eb7f6e8d5090bd48427c,天津市丽翔国际赛鸽公棚,公司企业,农林园艺,天津市,天津市,东丽区,天津市东丽区窑上村,,1,0,117.415572,39.046114,,enterprise,http://api.map.baidu.com/place/detail?uid=fd93eb7f6e8d5090bd48427c&output=html&source=placeapi_v2,,,,,,,,,,,,,,,,,,,,0
000b5baa0bb4415b2efaa73b,福林绿化公司,公司企业,农林园艺,天津市,天津市,东丽区,天津市东丽区X438滨辅工业园,,1,0,117.460955,39.042401,,enterprise,http://api.map.baidu.com/place/detail?uid=000b5baa0bb4415b2efaa73b&output=html&source=placeapi_v2,,,0.0,,,,,,,,,,,,,,,,,0
cdcc52a3d8cc616b94ec843b,天津市万利花木种植场,公司企业,农林园艺,天津市,天津市,东丽区,天津市东丽区先锋东路,,1,0,117.444067,39.04321,,enterprise,http://api.map.baidu.com/place/detail?uid=cdcc52a3d8cc616b94ec843b&output=html&source=placeapi_v2,,,,,,,,,,,,,,,,,,,,0
6224ce03c778556ed518b7e6,信泰农业科技观光园,公司企业,农林园艺,天津市,天津市,东丽区,天津市东丽区为民路与无瑕路交叉路口往西约210米,6224ce03c778556ed518b7e6,1,0,117.492001,39.051305,13820488889,enterprise,http://api.map.baidu.com/place/detail?uid=6224ce03c778556ed518b7e6&output=html&source=placeapi_v2,,,3,,,,,,,,1,,,,,,,117.49199820566,39.049977308668,0
ab61e5d56b6543deae0457be,小康园艺绿植基地,公司企业,农林园艺,天津市,天津市,滨海新区,天津市滨海新区津塘公路中国石化加油站(中心庄站)东南侧约160米,ab61e5d56b6543deae0457be,1,0,117.551683,39.038446,,enterprise,http://api.map.baidu.com/place/detail?uid=ab61e5d56b6543deae0457be&output=html&source=placeapi_v2,,,0.0,,,,,,,,1,,,,,,,,,0
bed248bc21558518740269b0,天津市滨海新区塘沽吕连生苗木种植场,公司企业,农林园艺,天津市,天津市,滨海新区,天津市滨海新区胡家园街中西村西顺街88号,,1,0,117.530087,39.046476,,enterprise,http://api.map.baidu.com/place/detail?uid=bed248bc21558518740269b0&output=html&source=placeapi_v2,,,,,,,,,,,,,,,,,,,,0
dba8ba86065f28f3ca1b9526,滨海新区塘沽良种场,公司企业,农林园艺,天津市,天津市,滨海新区,天津市滨海新区胡北家园,,1,0,117.621081,39.043538,,enterprise,http://api.map.baidu.com/place/detail?uid=dba8ba86065f28f3ca1b9526&output=html&source=placeapi_v2,,,,,,,,,,,,,,,,,,,,0
0ff1c7a433ba8d2ff7e73b04,九方古建园林,公司企业,农林园艺,天津市,天津市,滨海新区,天津市滨海新区于庄子路华北陶瓷市场,,1,0,117.613065,39.027714,"(022)25351667,13821938328",enterprise,http://api.map.baidu.com/place/detail?uid=0ff1c7a433ba8d2ff7e73b04&output=html&source=placeapi_v2,,,,,,,,,,,,,,,,,,,,0
d8814ff5f8542d191b11d55b,天津兆仁果木种植合作社,公司企业,农林园艺,天津市,天津市,滨海新区,天津市滨海新区西中环快速,,1,0,117.615668,39.044736,,enterprise,http://api.map.baidu.com/place/detail?uid=d8814ff5f8542d191b11d55b&output=html&source=placeapi_v2,,,,,,,,,,,,,,,,,,,,0
859f018eeaf94e3640d63e4a,浙江森海海蚕养殖基地驻塘沽总代理,公司企业,农林园艺,天津市,天津市,滨海新区,天津市滨海新区津塘公路滨海新区塘沽胡家园农贸批发市场,859f018eeaf94e3640d63e4a,1,0,117.625139,39.043996,15958617989,enterprise,http://api.map.baidu.com/place/detail?uid=859f018eeaf94e3640d63e4a&output=html&source=placeapi_v2,,,,,,,,,,,,,,,,,,,,0
6b90119154f596e72b3a9fb4,顺安市政园林工程有限公司,公司企业,农林园艺,天津市,天津市,滨海新区,天津市滨海新区韶山路贻成东园西南侧,6b90119154f596e72b3a9fb4,1,0,117.673747,39.03607,(022)66265076,enterprise,http://api.map.baidu.com/place/detail?uid=6b90119154f596e72b3a9fb4&output=html&source=placeapi_v2,,,,,,,,,,,,,,,,,,,,0
6cd2f4aeebdd0e15715e80d1,泰达园林建设公司,公司企业,农林园艺,天津市,天津市,滨海新区,天津市滨海新区欣园南街20号,,1,0,117.684463,39.032773,,enterprise,http://api.map.baidu.com/place/detail?uid=6cd2f4aeebdd0e15715e80d1&output=html&source=placeapi_v2,,,,,,,,,,,,,,,,,,117.684601479,39.032679019222,0
05ff8be6b8e77709fe0eb0d7,天津绿发园林工程有限公司,公司企业,农林园艺,天津市,天津市,滨海新区,天津市滨海新区东江路兴园里小区6栋,05ff8be6b8e77709fe0eb0d7,1,0,117.67671,39.031448,(022)65615038,enterprise,http://api.map.baidu.com/place/detail?uid=05ff8be6b8e77709fe0eb0d7&output=html&source=placeapi_v2,,,,,,,,,,,,,,,,,,,,0
cddea4eacf00a9ed0f0e6ba5,天津市森泰园林绿化有限公司,公司企业,农林园艺,天津市,天津市,滨海新区,天津市滨海新区福州道贻成福地广场6号楼17层2门,cddea4eacf00a9ed0f0e6ba5,1,0,117.674462,39.046428,(022)25828898,enterprise,http://api.map.baidu.com/place/detail?uid=cddea4eacf00a9ed0f0e6ba5&output=html&source=placeapi_v2,,09:00-18:30,,,,,,,,,,,,,,,,,,0
72da21fa986c7472a8059dd3,天津市奥凯城建园林工程有限公司,公司企业,农林园艺,天津市,天津市,滨海新区,天津市滨海新区津塘路11号,72da21fa986c7472a8059dd3,1,0,117.659912,39.039443,,enterprise,http://api.map.baidu.com/place/detail?uid=72da21fa986c7472a8059dd3&output=html&source=placeapi_v2,,,0.0,,,,,,,,,,,,,,,117.66009496987,39.039400607216,0
9abf2eaeec605d478f1a899e,绿梦达园林市政工程发展有限公司,公司企业,农林园艺,天津市,天津市,滨海新区,天津市滨海新区洞庭路76号建设大厦公寓504室,9abf2eaeec605d478f1a899e,1,0,117.689242,39.042672,(022)25321530,enterprise,http://api.map.baidu.com/place/detail?uid=9abf2eaeec605d478f1a899e&output=html&source=placeapi_v2,,,,,,,,,,,,,,,,,,,,0
147a1dcd9b99d63196f08c29,绿色阳光园艺,公司企业,农林园艺,天津市,天津市,滨海新区,天津市滨海新区第五大街瑞馨公寓1005号,147a1dcd9b99d63196f08c29,1,0,117.712642,39.049714,"13920520634,18522744565",enterprise,http://api.map.baidu.com/place/detail?uid=147a1dcd9b99d63196f08c29&output=html&source=placeapi_v2,,08:30-20:30,,,,,,,,,,,,,,,,,,0
290d51c2aec636405fbe86bb,天津隆欣源农业科技有限公司,公司企业,农林园艺,天津市,天津市,西青区,天津市西青区G2(京沪高速),,1,0,116.902035,39.082255,,enterprise,http://api.map.baidu.com/place/detail?uid=290d51c2aec636405fbe86bb&output=html&source=placeapi_v2,,,,,,,,,,,,,,,,,,,,0
a8c6d341d28c9cda72455b4b,天津佳信兴农农业科技服务有限公司,公司企业,农林园艺,天津市,天津市,西青区,天津市西青区六埠新桥蓝天幼儿园西北侧约230米,a8c6d341d28c9cda72455b4b,1,0,116.93376,39.07206,,enterprise,http://api.map.baidu.com/place/detail?uid=a8c6d341d28c9cda72455b4b&output=html&source=placeapi_v2,,,,,,,,,,,,,,,,,,,,0
55f16c542d2e9e87ca2915c0,己家农场,公司企业,农林园艺,天津市,天津市,西青区,天津市西青区辛口镇第六埠村河西,,1,0,116.901848,39.082609,,enterprise,http://api.map.baidu.com/place/detail?uid=55f16c542d2e9e87ca2915c0&output=html&source=placeapi_v2,,,,,,,,,,,,,,,,,,,,0
6399de8636fab2aa990050c0,天津市佳钢蔬菜种植专业合作社,公司企业,农林园艺,天津市,天津市,西青区,天津市西青区辛口镇第六埠村六埠商厦西80米,,1,0,116.934847,39.071771,18722183190,enterprise,http://api.map.baidu.com/place/detail?uid=6399de8636fab2aa990050c0&output=html&source=placeapi_v2,,,0.0,,,,,,,,1,,,,,,,,,0
7524cb4fd381943704026fdb,第六埠养殖场,公司企业,农林园艺,天津市,天津市,西青区,天津市西青区辛口镇京沪高速公路第六埠养殖场,,1,0,116.898713,39.083163,,enterprise,http://api.map.baidu.com/place/detail?uid=7524cb4fd381943704026fdb&output=html&source=placeapi_v2,,,,,,,,,,,,,,,,,,,,0
48e357f811b56f4c6fa3ccc7,天津市津鲜农业科技有限公司,公司企业,农林园艺,天津市,天津市,西青区,天津市西青区水高庄工业园,,1,0,116.950019,39.079842,,enterprise,http://api.map.baidu.com/place/detail?uid=48e357f811b56f4c6fa3ccc7&output=html&source=placeapi_v2,,,,,,,,,,,,,,,,,,,,0
525e5ad3af640943f82d61ef,七条1号沙窝萝卜种植基地,公司企业,农林园艺,天津市,天津市,西青区,天津市西青区辛口镇大沙沃,,1,0,116.967609,39.064809,,enterprise,http://api.map.baidu.com/place/detail?uid=525e5ad3af640943f82d61ef&output=html&source=placeapi_v2,,,,,,,,,,,,,,,,,,,,0
a8c6d341d28c9cda72455b4b,天津佳信兴农农业科技服务有限公司,公司企业,农林园艺,天津市,天津市,西青区,天津市西青区六埠新桥蓝天幼儿园西北侧约230米,a8c6d341d28c9cda72455b4b,1,0,116.93376,39.07206,,enterprise,http://api.map.baidu.com/place/detail?uid=a8c6d341d28c9cda72455b4b&output=html&source=placeapi_v2,,,,,,,,,,,,,,,,,,,,0
6399de8636fab2aa990050c0,天津市佳钢蔬菜种植专业合作社,公司企业,农林园艺,天津市,天津市,西青区,天津市西青区辛口镇第六埠村六埠商厦西80米,,1,0,116.934847,39.071771,18722183190,enterprise,http://api.map.baidu.com/place/detail?uid=6399de8636fab2aa990050c0&output=html&source=placeapi_v2,,,0.0,,,,,,,,1,,,,,,,,,0
8941c3cc0368aeb0d72ce265,悠南山有机农场,公司企业,农林园艺,天津市,天津市,西青区,天津市西青区S110(津静线),,1,0,116.94884,39.083595,,enterprise,http://api.map.baidu.com/place/detail?uid=8941c3cc0368aeb0d72ce265&output=html&source=placeapi_v2,,,,,,,,,,,,,,,,,,,,0
7e55c843003eea4936b06c80,鸿源苗木基地,公司企业,农林园艺,天津市,天津市,西青区,天津市西青区天津沐雨林风园林绿化苗木基地,,1,0,116.971163,39.064947,13821809909,enterprise,http://api.map.baidu.com/place/detail?uid=7e55c843003eea4936b06c80&output=html&source=placeapi_v2,,,,,,,,,,,,,,,,,,,,0
7313551138774d571cf74d51,天津绿林沙窝萝卜种植园,公司企业,农林园艺,天津市,天津市,西青区,天津市西青区木大路朝阳双语幼儿园西南侧,,1,0,116.997155,39.073488,13803093022,enterprise,http://api.map.baidu.com/place/detail?uid=7313551138774d571cf74d51&output=html&source=placeapi_v2,,09:00-17:00,0.0,,,,,,,,1,,,,,,,,,0
8e5afec61344ff4036b06c17,天津鲜客缘蔬菜种植专业合作社,公司企业,农林园艺,天津市,天津市,西青区,天津市西青区毕家村,,1,0,116.999648,39.067426,18649001036,enterprise,http://api.map.baidu.com/place/detail?uid=8e5afec61344ff4036b06c17&output=html&source=placeapi_v2,,08:00-23:00,0.0,,,,,,,,1,,,,,,,,,0
4a0b8f670d1358c23de23115,茂顺蔬菜种植农场,公司企业,农林园艺,天津市,天津市,西青区,天津市西青区辛口镇小沙沃村幸福路一号,,1,0,116.99584,39.071614,13920717548,enterprise,http://api.map.baidu.com/place/detail?uid=4a0b8f670d1358c23de23115&output=html&source=placeapi_v2,,,,,,,,,,,,,,,,,,116.99597416972,39.071515245495,0
4154ced7b5ce043821f0172c,彤丞沙窝萝卜蔬菜种植园,公司企业,农林园艺,天津市,天津市,西青区,天津市西青区青沙路沙沃中心小学东南,,1,0,116.992331,39.075341,13820109320,enterprise,http://api.map.baidu.com/place/detail?uid=4154ced7b5ce043821f0172c&output=html&source=placeapi_v2,,08:00-22:00,,,,,,,,,,,,,,,,,,0
09b9519d6b3bbd9881a12e42,俏俏沙窝萝卜种植园,公司企业,农林园艺,天津市,天津市,西青区,天津市西青区木大路朝阳双语幼儿园北侧约180米,,1,0,116.997612,39.075372,13820679373,enterprise,http://api.map.baidu.com/place/detail?uid=09b9519d6b3bbd9881a12e42&output=html&source=placeapi_v2,,,,,,,,,,,,,,,,,,,,0
b8b2d48ca041774d2cb96d87,天津市西青区小杜庄果蔬种植专业合作社,公司企业,农林园艺,天津市,天津市,西青区,天津市西青区,,1,0,116.992008,39.061483,,enterprise,http://api.map.baidu.com/place/detail?uid=b8b2d48ca041774d2cb96d87&output=html&source=placeapi_v2,,,,,,,,,,,,,,,,,,,,0
a2b21342f5e3051e715e8012,天津市西青区一分田果蔬种植农场,公司企业,农林园艺,天津市,天津市,西青区,天津市西青区G104(京福线),,1,0,116.988938,39.076176,,enterprise,http://api.map.baidu.com/place/detail?uid=a2b21342f5e3051e715e8012&output=html&source=placeapi_v2,,,,,,,,,,,,,,,,,,,,0
1f5e6d8508b5627e2cb17ecf,张国红蔬菜种植科技园,公司企业,农林园艺,天津市,天津市,西青区,天津市西青区天津市西青区沙沃中心小学东南侧约160米,,1,0,116.990324,39.075798,13312066587,enterprise,http://api.map.baidu.com/place/detail?uid=1f5e6d8508b5627e2cb17ecf&output=html&source=placeapi_v2,,,,,,,,,,,,,,,,,,,,0
b6525adfa277e07849fd3f25,天津市西青区孙国艳蔬菜种植中心,公司企业,农林园艺,天津市,天津市,西青区,辛口镇大沙窝村,,1,0,116.98507,39.064067,15122636138,enterprise,http://api.map.baidu.com/place/detail?uid=b6525adfa277e07849fd3f25&output=html&source=placeapi_v2,,08:00-22:00,,,,,,,,,,,,,,,,,,0
79181b91c7efe34fbadf8ffb,沙窝萝卜育种基地,公司企业,农林园艺,天津市,天津市,西青区,天津市西青区沙窝萝卜育种基地(青沙路东),,1,0,116.990602,39.075346,,enterprise,http://api.map.baidu.com/place/detail?uid=79181b91c7efe34fbadf8ffb&output=html&source=placeapi_v2,,,5.0,,,,,,,,1,,,,,,,116.9905448202,39.075370556738,0
a247c48b94312d12c27da283,郭绍昌蔬菜种植庄园,公司企业,农林园艺,天津市,天津市,西青区,天津市西青区天津市西青区沙沃中心小学东南侧约200米,,1,0,116.990818,39.075829,13820132379,enterprise,http://api.map.baidu.com/place/detail?uid=a247c48b94312d12c27da283&output=html&source=placeapi_v2,,,,,,,,,,,,,,,,,,,,0
1296b10876257bd1ce04ef4c,青泽沙窝萝卜种植专业合作社,公司企业,农林园艺,天津市,天津市,西青区,天津市西青区青沙路沙沃中心小学西南侧约190米,1296b10876257bd1ce04ef4c,1,0,116.986698,39.074958,13114900987,enterprise,http://api.map.baidu.com/place/detail?uid=1296b10876257bd1ce04ef4c&output=html&source=placeapi_v2,,,,,,,,,,,,,,,,,,,,0
35d77b8db739163ea10464cc,李树发家庭农场,公司企业,农林园艺,天津市,天津市,西青区,天津市西青区辛口镇小沙沃北园街14号,,1,0,116.989965,39.076172,13502002438,enterprise,http://api.map.baidu.com/place/detail?uid=35d77b8db739163ea10464cc&output=html&source=placeapi_v2,,,,,,,,,,,,,,,,,,,,0
e42047ba135deebad1f49eee,郭少强沙窝萝卜种植基地,公司企业,农林园艺,天津市,天津市,西青区,辛口镇104国道小沙窝村大棚,,1,0,116.987078,39.075685,13516111170,enterprise,http://api.map.baidu.com/place/detail?uid=e42047ba135deebad1f49eee&output=html&source=placeapi_v2,,08:00-17:00,0,,,,,,,,0,,,,,,,,,0
a156848a00cd693f9d95de5c,天津市卫青庄园果蔬种植专业合作社,公司企业,农林园艺,天津市,天津市,西青区,天津市西青区,,1,0,116.981368,39.076046,18310681812,enterprise,http://api.map.baidu.com/place/detail?uid=a156848a00cd693f9d95de5c&output=html&source=placeapi_v2,,00:00-24:00,0.0,,,,,,,,,,,,,,,,,0
10fa9cd236a190ce60685843,西青区曙光沙窝萝卜种植基地,公司企业,农林园艺,天津市,天津市,西青区,京福公路西50米,10fa9cd236a190ce60685843,1,0,116.987245,39.081507,,enterprise,http://api.map.baidu.com/place/detail?uid=10fa9cd236a190ce60685843&output=html&source=placeapi_v2,,,,,,,,,,,,,,,,,,,,0
748b77d47f48fbfe30870adc,奈悉索斯园艺,公司企业,农林园艺,天津市,天津市,西青区,天津市西青区兰韵道张家窝镇农业产业园区引导示范区,,1,0,117.032272,39.054082,,enterprise,http://api.map.baidu.com/place/detail?uid=748b77d47f48fbfe30870adc&output=html&source=placeapi_v2,,,0.0,,,,,,,,1,,,,,,,,,0
b061caa7d5d69fc8ab0dd8af,秋山园艺,公司企业,农林园艺,天津市,天津市,西青区,张家窝农业产业园区C4,,1,0,117.033008,39.053322,16622376039,enterprise,http://api.map.baidu.com/place/detail?uid=b061caa7d5d69fc8ab0dd8af&output=html&source=placeapi_v2,,,,,,,,,,,,,,,,,,,,0
1f4714e7cdd253612fb90856,美邦大富农业科技发展有限公司,公司企业,农林园艺,天津市,天津市,西青区,天津市西青区宾水西道延长线学府花园东北侧约130米,,1,0,117.142256,39.078383,13820738383,enterprise,http://api.map.baidu.com/place/detail?uid=1f4714e7cdd253612fb90856&output=html&source=placeapi_v2,,,,,,,,,,,,,,,,,,,,0
b083ddc67ac741fbdf1e5211,园林景观,公司企业,农林园艺,天津市,天津市,西青区,天津市西青区津涞公路邓店建材家居c区14号,b083ddc67ac741fbdf1e5211,1,0,117.16078,39.063249,15222225965,enterprise,http://api.map.baidu.com/place/detail?uid=b083ddc67ac741fbdf1e5211&output=html&source=placeapi_v2,,08:00-17:00,,,,,,,,,,,,,,,,,,0
6cdfe2128735cd3621f017a8,天津宏远园林工程有限公司,公司企业,农林园艺,天津市,天津市,河西区,天津市河西区郁江道92号,6cdfe2128735cd3621f017a8,1,1,117.214624,39.078074,,enterprise,http://api.map.baidu.com/place/detail?uid=6cdfe2128735cd3621f017a8&output=html&source=placeapi_v2,,,,,,,,,,,,,,,,,,117.21455902553,39.078188907232,1
2e714420665e45e1fb2213e9,名五农业科技(天津)有限公司,公司企业,农林园艺,天津市,天津市,东丽区,天津市东丽区海棠道6号b1,2e714420665e45e1fb2213e9,1,0,117.363004,39.083531,,enterprise,http://api.map.baidu.com/place/detail?uid=2e714420665e45e1fb2213e9&output=html&source=placeapi_v2,,,,,,,,,,,,,,,,,,,,0
41977459940d097f4afd3fb2,明乾养殖合作社,公司企业,农林园艺,天津市,天津市,东丽区,天津市东丽区津塘公路二线,41977459940d097f4afd3fb2,1,0,117.402246,39.065252,15302115993,enterprise,http://api.map.baidu.com/place/detail?uid=41977459940d097f4afd3fb2&output=html&source=placeapi_v2,,,,,,,,,,,,,,,,,,117.4021043376,39.065249058236,0
22ceb31d7691c891430245bd,种植养殖基地,公司企业,农林园艺,天津市,天津市,东丽区,S318(先锋东路),22ceb31d7691c891430245bd,1,0,117.402174,39.06544,,enterprise,http://api.map.baidu.com/place/detail?uid=22ceb31d7691c891430245bd&output=html&source=placeapi_v2,,,,,,,,,,,,,,,,,,,,0
58cd701d35d2778b1e1d11f1,盛合园艺,公司企业,农林园艺,天津市,天津市,东丽区,天津市东丽区苗四路军粮城63号,,1,0,117.477513,39.075126,13821807134,enterprise,http://api.map.baidu.com/place/detail?uid=58cd701d35d2778b1e1d11f1&output=html&source=placeapi_v2,,09:00-19:00,,,,,,,,,,,,,,,,,,0
7e902b18b0b09542bda24014,天津市新农人科技发展有限公司,公司企业,农林园艺,天津市,天津市,滨海新区,天津市滨海新区海缘路199号4层199号东4~5号楼,7e902b18b0b09542bda24014,1,0,117.625554,39.069992,,enterprise,http://api.map.baidu.com/place/detail?uid=7e902b18b0b09542bda24014&output=html&source=placeapi_v2,,,,,,,,,,,,,,,,,,,,0
41aa148f7038a490eb56fa22,塘沽养殖场,公司企业,农林园艺,天津市,天津市,滨海新区,天津市滨海新区大港路东150米,,1,0,117.61427,39.057569,,enterprise,http://api.map.baidu.com/place/detail?uid=41aa148f7038a490eb56fa22&output=html&source=placeapi_v2,,,,,,,,,,,,,,,,,,,,0
d82b3bb1ee733e7ea2a9345e,泰达园林建设有限公司花卉基地,公司企业,农林园艺,天津市,天津市,滨海新区,天津市滨海新区洞庭三街9号,d82b3bb1ee733e7ea2a9345e,1,0,117.695545,39.068293,,enterprise,http://api.map.baidu.com/place/detail?uid=d82b3bb1ee733e7ea2a9345e&output=html&source=placeapi_v2,,,0.0,,,,,,,,1,,,,,,,117.69366128622,39.068672458316,0
dd3ec08a3d50a1251fe999cd,泰达园艺有限公司,公司企业,农林园艺,天津市,天津市,滨海新区,天津市滨海新区洞庭路171号,,1,0,117.702321,39.079561,(022)25325710,enterprise,http://api.map.baidu.com/place/detail?uid=dd3ec08a3d50a1251fe999cd&output=html&source=placeapi_v2,,,,,,,,,,,,,,,,,,117.70261223768,39.079484335495,0
94b909354bb11d5a40afe6a8,天津海林园艺股份有限公司,公司企业,农林园艺,天津市,天津市,滨海新区,天津市滨海新区黄海路191号,94b909354bb11d5a40afe6a8,1,1,117.704841,39.066451,,enterprise,http://api.map.baidu.com/place/detail?uid=94b909354bb11d5a40afe6a8&output=html&source=placeapi_v2,,,,,,,,,,,,,,,,,,,,1
d82b3bb1ee733e7ea2a9345e,泰达园林建设有限公司花卉基地,公司企业,农林园艺,天津市,天津市,滨海新区,天津市滨海新区洞庭三街9号,d82b3bb1ee733e7ea2a9345e,1,0,117.695545,39.068293,,enterprise,http://api.map.baidu.com/place/detail?uid=d82b3bb1ee733e7ea2a9345e&output=html&source=placeapi_v2,,,0.0,,,,,,,,1,,,,,,,117.69366128622,39.068672458316,0
c534c46df9239c5131f71d4e,永利无公害蔬菜种植园,公司企业,农林园艺,天津市,天津市,西青区,天津市西青区,,1,0,116.925125,39.090903,13820666556,enterprise,http://api.map.baidu.com/place/detail?uid=c534c46df9239c5131f71d4e&output=html&source=placeapi_v2,,08:00-16:00,,,,,,,,,,,,,,,,,,0
1a26d2a4f1d53cffc056aca6,蔬晴农场,公司企业,农林园艺,天津市,天津市,西青区,天津市西青区辛口镇第六埠村西高架桥北侧300米,,1,0,116.90563,39.087495,18322253998,enterprise,http://api.map.baidu.com/place/detail?uid=1a26d2a4f1d53cffc056aca6&output=html&source=placeapi_v2,,09:00-19:00,0.0,,,,,,,,1,,,,,,,,,0
986e9573aee8c40fff0eb025,天津西青区金农艺苗蔬菜种植园,公司企业,农林园艺,天津市,天津市,西青区,天津市西青区当杨公路水高庄园西北700米,,1,0,116.94788,39.099569,,enterprise,http://api.map.baidu.com/place/detail?uid=986e9573aee8c40fff0eb025&output=html&source=placeapi_v2,,,,,,,,,,,,,,,,,,,,0
d8eeaab70d495acf420245b1,中天益农种业科技公司,公司企业,农林园艺,天津市,天津市,西青区,天津市西青区商业街55号,,1,0,116.955721,39.088643,(022)27915028,enterprise,http://api.map.baidu.com/place/detail?uid=d8eeaab70d495acf420245b1&output=html&source=placeapi_v2,,,,,,,,,,,,,,,,,,,,0
77e3ddde9720f2370c0e6b10,众成园艺,公司企业,农林园艺,天津市,天津市,西青区,天津市西青区S50(津浦铁路桥),,1,0,117.010025,39.097312,,enterprise,http://api.map.baidu.com/place/detail?uid=77e3ddde9720f2370c0e6b10&output=html&source=placeapi_v2,,,5.0,,,,,,,,3,,,,,,,,,0
8b58322390295e543686f43c,孟氏精农种植园,公司企业,农林园艺,天津市,天津市,西青区,天津市西青区S50(津晋高速),,1,0,116.987182,39.106254,18622957170,enterprise,http://api.map.baidu.com/place/detail?uid=8b58322390295e543686f43c&output=html&source=placeapi_v2,,08:00-20:00,,,,,,,,,,,,,,,,,,0
5863caef5ae296190aa8d40d,漂亮花木场,公司企业,农林园艺,天津市,天津市,西青区,天津市西青区,5863caef5ae296190aa8d40d,1,0,117.010571,39.098106,,enterprise,http://api.map.baidu.com/place/detail?uid=5863caef5ae296190aa8d40d&output=html&source=placeapi_v2,,,,,,,,,,,,,,,,,,117.01055441284,39.098011064893,0
386abc34b4ed3dfac61b7539,通海蔬菜种植专业合作社,公司企业,农林园艺,天津市,天津市,西青区,京福公路,,1,0,117.010567,39.102896,13034358818,enterprise,http://api.map.baidu.com/place/detail?uid=386abc34b4ed3dfac61b7539&output=html&source=placeapi_v2,,00:00-24:00,,,,,,,,,,,,,,,,117.01074384301,39.102616772643,0
f51b0cbd7a77974725e0a06a,天津三本农业科技有限公司,公司企业,农林园艺,天津市,天津市,西青区,天津市西青区津静公路29号,,1,0,116.988842,39.105296,13312102368,enterprise,http://api.map.baidu.com/place/detail?uid=f51b0cbd7a77974725e0a06a&output=html&source=placeapi_v2,,,0.0,,,,,,,,,,,,,,,,,0
49e1ddc3f7cc58cf44e27464,天津市天洲观赏鱼养殖专业合作社,公司企业,农林园艺,天津市,天津市,西青区,天津市西青区娄家院路,,1,0,117.002506,39.110426,,enterprise,http://api.map.baidu.com/place/detail?uid=49e1ddc3f7cc58cf44e27464&output=html&source=placeapi_v2,,,,,,,,,,,,,,,,,,117.00232801484,39.110457986028,0
a993b3d63370079861685838,天津德彬园林,公司企业,农林园艺,天津市,天津市,西青区,天津市西青区张家窝镇天安数码城珑园底商,a993b3d63370079861685838,1,0,117.037104,39.107035,18920066277,enterprise,http://api.map.baidu.com/place/detail?uid=a993b3d63370079861685838&output=html&source=placeapi_v2,,,,,,,,,,,,,,,,,,117.0371265701,39.10705825984,0
4e2e8a94949daa6bc9c3db47,天津市西青区祖代种鸡场,公司企业,农林园艺,天津市,天津市,西青区,京福公路与海泰北道交汇处西北角,4e2e8a94949daa6bc9c3db47,1,0,117.069454,39.110963,,enterprise,http://api.map.baidu.com/place/detail?uid=4e2e8a94949daa6bc9c3db47&output=html&source=placeapi_v2,,,,,,,,,,,,,,,,,,117.06945311615,39.110640007288,0
3c54485806e369889a0050e9,利海家园园艺所,公司企业,农林园艺,天津市,天津市,西青区,天津市西青区文洁路天津市园艺所,3c54485806e369889a0050e9,1,0,117.131808,39.106085,,enterprise,http://api.map.baidu.com/place/detail?uid=3c54485806e369889a0050e9&output=html&source=placeapi_v2,,,,,,,,,,,,,,,,,,117.13170710303,39.106076466314,0
f830539503a865b9c51e516d,天津鑫远农业科技发展有限公司,公司企业,农林园艺,天津市,天津市,西青区,天津市西青区工西路天津市红旗农贸综合批发市场,,1,0,117.112032,39.088782,,enterprise,http://api.map.baidu.com/place/detail?uid=f830539503a865b9c51e516d&output=html&source=placeapi_v2,,,,,,,,,,,,,,,,,,,,0
ae0ae898e844efc08c55ec46,河北久恩农业开发有限公司,公司企业,农林园艺,天津市,天津市,西青区,天津市西青区创业基地e座2层206室,ae0ae898e844efc08c55ec46,1,0,117.137916,39.101452,,enterprise,http://api.map.baidu.com/place/detail?uid=ae0ae898e844efc08c55ec46&output=html&source=placeapi_v2,,,,,,,,,,,,,,,,,,,,0
00dad3d53bea7434f50e77c3,景墅园林景观,公司企业,农林园艺,天津市,天津市,西青区,天津市西青区汇成国际(食品)商贸城,,1,0,117.119415,39.089759,,enterprise,http://api.map.baidu.com/place/detail?uid=00dad3d53bea7434f50e77c3&output=html&source=placeapi_v2,,,,,,,,,,,,,,,,,,,,0
4e967187ef8d9b9f33621275,天津农垦康嘉生态养殖有限公司,公司企业,农林园艺,天津市,天津市,西青区,天津市西青区津静路24号,,1,0,117.104809,39.095474,,enterprise,http://api.map.baidu.com/place/detail?uid=4e967187ef8d9b9f33621275&output=html&source=placeapi_v2,,,,,,,,,,,,,,,,,,,,0
8a12d4400e40d9e8c81b95ac,沁蕊园艺,公司企业,农林园艺,天津市,天津市,南开区,天津市南开区松杉路照湖里西南侧,,1,0,117.165589,39.116403,13920488355,enterprise,http://api.map.baidu.com/place/detail?uid=8a12d4400e40d9e8c81b95ac&output=html&source=placeapi_v2,,,,,,,,,,,,,,,,,,,,0
9640bb71da1b19c879dbd2df,天津市花苗木服务中心,公司企业,农林园艺,天津市,天津市,南开区,天津市南开区水上北路33号,9640bb71da1b19c879dbd2df,1,0,117.176793,39.100855,,enterprise,http://api.map.baidu.com/place/detail?uid=9640bb71da1b19c879dbd2df&output=html&source=placeapi_v2,,,,,,,,,,,,,,,,,,,,0
f9e3296146af35d58f55eceb,天津科润农业科技股份有限公司,公司企业,农林园艺,天津市,天津市,南开区,天津市南开区白堤路301号,,1,0,117.162409,39.109285,,enterprise,http://api.map.baidu.com/place/detail?uid=f9e3296146af35d58f55eceb&output=html&source=placeapi_v2,,,,,,,,,,,,,,,,,,,,0
5c8f722df13b5a5949fc8d5b,天津市源景园林工程有限公司,公司企业,农林园艺,天津市,天津市,南开区,天津市南开区水上公园西路水云花园B20,,1,0,117.162784,39.09014,13802030576,enterprise,http://api.map.baidu.com/place/detail?uid=5c8f722df13b5a5949fc8d5b&output=html&source=placeapi_v2,,,0.0,,,,,,,,1,,,,,,,117.16282529501,39.090006040046,0
5ad7bd0955cc0a559d95de07,天津市绿发园林绿化科技有限公司,公司企业,农林园艺,天津市,天津市,南开区,天津市南开区航天道26号农科大厦313、315室,5ad7bd0955cc0a559d95de07,1,0,117.160885,39.108396,,enterprise,http://api.map.baidu.com/place/detail?uid=5ad7bd0955cc0a559d95de07&output=html&source=placeapi_v2,,,,,,,,,,,,,,,,,,,,0
b0b71266be45c34c79b55cd7,天津市捷农农业科技有限公司,公司企业,农林园艺,天津市,天津市,河西区,"天津市河西区去大沽南路857号国华大厦7楼706,",b0b71266be45c34c79b55cd7,1,0,117.230941,39.100556,,enterprise,http://api.map.baidu.com/place/detail?uid=b0b71266be45c34c79b55cd7&output=html&source=placeapi_v2,,,,,,,,,,,,,,,,,,117.23047209801,39.100116298663,0
93dab6288ecf946ca6da393a,北京星河园林景观工程有限公司(天津分公司),公司企业,农林园艺,天津市,天津市,河东区,天津市河东区美岸广场1号楼401室,93dab6288ecf946ca6da393a,1,0,117.252094,39.099101,,enterprise,http://api.map.baidu.com/place/detail?uid=93dab6288ecf946ca6da393a&output=html&source=placeapi_v2,,,,,,,,,,,,,,,,,,,,0
a1c252c208296c1c88fc06ba,天津市尚林绿化工程有限公司,公司企业,农林园艺,天津市,天津市,河东区,天津市河东区大直沽八号路49号办公楼110室,a1c252c208296c1c88fc06ba,1,0,117.245233,39.110626,(022)58918962,enterprise,http://api.map.baidu.com/place/detail?uid=a1c252c208296c1c88fc06ba&output=html&source=placeapi_v2,,,,,,,,,,,,,,,,,,117.24504638088,39.11073994545,0
b0b71266be45c34c79b55cd7,天津市捷农农业科技有限公司,公司企业,农林园艺,天津市,天津市,河西区,"天津市河西区去大沽南路857号国华大厦7楼706,",b0b71266be45c34c79b55cd7,1,0,117.230941,39.100556,,enterprise,http://api.map.baidu.com/place/detail?uid=b0b71266be45c34c79b55cd7&output=html&source=placeapi_v2,,,,,,,,,,,,,,,,,,117.23047209801,39.100116298663,0
c1f80e45e8f917fb09b93aa4,天津市沃林景观工程有限公司,公司企业,农林园艺,天津市,天津市,河西区,天津市河西区大沽南路博轩园8号楼3003号,c1f80e45e8f917fb09b93aa4,1,0,117.230854,39.107906,,enterprise,http://api.map.baidu.com/place/detail?uid=c1f80e45e8f917fb09b93aa4&output=html&source=placeapi_v2,,,,,,,,,,,,,,,,,,,,0
dc8aac8aa2aab19271455bca,壹号写字楼天津山水源态园林工程设计有限公司,公司企业,农林园艺,天津市,天津市,河东区,天津市河东区紫乐广场5楼,dc8aac8aa2aab19271455bca,1,0,117.288937,39.100656,,enterprise,http://api.map.baidu.com/place/detail?uid=dc8aac8aa2aab19271455bca&output=html&source=placeapi_v2,,,,,,,,,,,,,,,,,,117.28863602424,39.100675803739,0
bbe6836117a8878888b988e5,天津苏润园林建设有限公司,公司企业,农林园艺,天津市,天津市,东丽区,双东路22号,bbe6836117a8878888b988e5,1,0,117.314354,39.099697,,enterprise,http://api.map.baidu.com/place/detail?uid=bbe6836117a8878888b988e5&output=html&source=placeapi_v2,,,,,,,,,,,,,,,,,,,,0
bbe6836117a8878888b988e5,天津苏润园林建设有限公司,公司企业,农林园艺,天津市,天津市,东丽区,双东路22号,bbe6836117a8878888b988e5,1,0,117.314354,39.099697,,enterprise,http://api.map.baidu.com/place/detail?uid=bbe6836117a8878888b988e5&output=html&source=placeapi_v2,,,,,,,,,,,,,,,,,,,,0
95a86e4ce683bfd344572648,正午阳光(天津)农业科技有限公司,公司企业,农林园艺,天津市,天津市,东丽区,天津市东丽区津北公路3499号,95a86e4ce683bfd344572648,1,0,117.37562,39.112508,(022)27923226,enterprise,http://api.map.baidu.com/place/detail?uid=95a86e4ce683bfd344572648&output=html&source=placeapi_v2,,,,,,,,,,,,,,,,,,117.37581387996,39.112518817836,0
63ddb6f85898ab0788f15d61,深博养殖场,公司企业,农林园艺,天津市,天津市,东丽区,天津市东丽区民族路,,1,0,117.388693,39.086866,,enterprise,http://api.map.baidu.com/place/detail?uid=63ddb6f85898ab0788f15d61&output=html&source=placeapi_v2,,,,,,,,,,,,,,,,,,,,0
d82d6697b176a5a4d518b739,天津市塘沽农场园艺场,公司企业,农林园艺,天津市,天津市,滨海新区,天津市滨海新区四道桥88号正西方向180米,d82d6697b176a5a4d518b739,1,0,117.587572,39.094906,,enterprise,http://api.map.baidu.com/place/detail?uid=d82d6697b176a5a4d518b739&output=html&source=placeapi_v2,,,5,,,,,,,,1,,,,,,,117.58777558225,39.094410836441,0
6995aef0c1f9a519018972d0,天津中景观工程有限公司,公司企业,农林园艺,天津市,天津市,滨海新区,天津市滨海新区塘黄公路华闽石材城,,1,0,117.582142,39.116626,15222359058,enterprise,http://api.map.baidu.com/place/detail?uid=6995aef0c1f9a519018972d0&output=html&source=placeapi_v2,,,,,,,,,,,,,,,,,,,,0
b0055bbf681e9283f02d831b,大碱农场,公司企业,农林园艺,天津市,天津市,滨海新区,天津市滨海新区,b0055bbf681e9283f02d831b,1,0,117.67997,39.095063,,enterprise,http://api.map.baidu.com/place/detail?uid=b0055bbf681e9283f02d831b&output=html&source=placeapi_v2,,,,,,,,,,,,,,,,,,117.67936924556,39.094942835192,0
6173d48c66f149b99f09f78a,科芯(天津)生态农业科技有限公司,公司企业,农林园艺,天津市,天津市,滨海新区,天津市滨海新区梅州道四区3号楼,6173d48c66f149b99f09f78a,1,0,117.717419,39.11021,,enterprise,http://api.map.baidu.com/place/detail?uid=6173d48c66f149b99f09f78a&output=html&source=placeapi_v2,,,,,,,,,,,,,,,,,,117.717401353,39.110370246094,0
fdcf1a2c18bf135bf7e73b04,天津市清华轩园林景观工程有限公司,公司企业,农林园艺,天津市,天津市,滨海新区,天津市滨海新区经济区北塘融汇商务园二区3号楼,fdcf1a2c18bf135bf7e73b04,1,0,117.714,39.10979,,enterprise,http://api.map.baidu.com/place/detail?uid=fdcf1a2c18bf135bf7e73b04&output=html&source=placeapi_v2,,,,,,,,,,,,,,,,,,117.71404205061,39.109947179927,0
4816dd67b731f8c5593ac81a,天津市伊甸园农业科技有限公司,公司企业,农林园艺,天津市,天津市,西青区,天津市西青区,,1,0,116.950511,39.124419,15502297388,enterprise,http://api.map.baidu.com/place/detail?uid=4816dd67b731f8c5593ac81a&output=html&source=placeapi_v2,,,,,,,,,,,,,,,,,,,,0
9ed688518a2f8547c356ac15,众鑫荣花卉生态园,公司企业,农林园艺,天津市,天津市,西青区,天津市西青区辛口镇当城村西千亩农业园内,9ed688518a2f8547c356ac15,1,0,116.947915,39.119336,,enterprise,http://api.map.baidu.com/place/detail?uid=9ed688518a2f8547c356ac15&output=html&source=placeapi_v2,,,,,,,,,,,,,,,,,,,,0
b9977caede0c606b72455b44,辛口镇农业蔬菜种植基地,公司企业,农林园艺,天津市,天津市,西青区,天津市西青区当城村当杨杨桥北,b9977caede0c606b72455b44,1,0,116.950876,39.124422,18822165650,enterprise,http://api.map.baidu.com/place/detail?uid=b9977caede0c606b72455b44&output=html&source=placeapi_v2,,00:00-24:00,,,,,,,,,,,,,,,,,,0
c79e98271ea1db1f465726ad,天津益利来畜牧水产示范园,公司企业,农林园艺,天津市,天津市,西青区,天津市西青区天津市西青宾馆西侧约220米,,1,0,116.994033,39.14859,,enterprise,http://api.map.baidu.com/place/detail?uid=c79e98271ea1db1f465726ad&output=html&source=placeapi_v2,,,,,,,,,,,,,,,,,,,,0
53aef606692b14ea4c554759,天津市宏宇蔬菜种植专业合作社,公司企业,农林园艺,天津市,天津市,西青区,天津市西青区杨柳青镇西青宾馆西三街农业示范园,,1,0,116.987467,39.141434,"(022)27964991,18622380209",enterprise,http://api.map.baidu.com/place/detail?uid=53aef606692b14ea4c554759&output=html&source=placeapi_v2,,08:00-18:00,3,,,,,,,,1,,,,,,,,,0
a874179726657f152cb17e4d,金港莲花农业旅游有限公司,公司企业,农林园艺,天津市,天津市,西青区,杨柳青火车站往西800米胜利路北子牙河旁,a874179726657f152cb17e4d,1,0,116.995158,39.145665,,enterprise,http://api.map.baidu.com/place/detail?uid=a874179726657f152cb17e4d&output=html&source=placeapi_v2,,,5,,,,,,,,1,,,,,,,,,0
415b16f6d898c898f942b242,四川益生园艺工程有限公司,公司企业,农林园艺,天津市,天津市,西青区,天津市西青区中北镇京福支线大方汽贸旁,415b16f6d898c898f942b242,1,0,117.049172,39.125661,,enterprise,http://api.map.baidu.com/place/detail?uid=415b16f6d898c898f942b242&output=html&source=placeapi_v2,,,,,,,,,,,,,,,,,,117.04913421393,39.125619958348,0
7238c1e830327858f4b9161d,天津市德仁农业发展有限公司,公司企业,农林园艺,天津市,天津市,西青区,天津市西青区杨柳青镇锦绣花园10栋6-101号,7238c1e830327858f4b9161d,1,0,117.03408,39.143666,,enterprise,http://api.map.baidu.com/place/detail?uid=7238c1e830327858f4b9161d&output=html&source=placeapi_v2,,,,,,,,,,,,,,,,,,,,0
5d21eb7b2bc5104543e1929f,天津市沐雨林风园林景观工程有限公司,公司企业,农林园艺,天津市,天津市,西青区,天津市西青区柳口路38号,5d21eb7b2bc5104543e1929f,1,0,117.021226,39.124821,13810286508,enterprise,http://api.map.baidu.com/place/detail?uid=5d21eb7b2bc5104543e1929f&output=html&source=placeapi_v2,,,0.0,,,,,,,,,,,,,,,,,0
05955d787b3eb74e9c09f762,天津市乐道庄园农业发展有限公司,公司企业,农林园艺,天津市,天津市,西青区,天津市西青区曹庄欣苑,,1,0,117.092143,39.146179,,enterprise,http://api.map.baidu.com/place/detail?uid=05955d787b3eb74e9c09f762&output=html&source=placeapi_v2,,,,,,,,,,,,,,,,,,,,0
37a2b3cbd17522bbfa0cade5,众鑫荣园,公司企业,农林园艺,天津市,天津市,西青区,天津市西青区建安道与建民道交叉路口往南约210米,37a2b3cbd17522bbfa0cade5,1,0,117.067845,39.122413,,life,http://api.map.baidu.com/place/detail?uid=37a2b3cbd17522bbfa0cade5&output=html&source=placeapi_v2,,,,,,,,,,,0,,,,,,,117.06808600835,39.122254713456,0
6a345f87d1d2be605a3ac8d7,天津市浦津生态园艺有限公司,公司企业,农林园艺,天津市,天津市,南开区,天津市南开区瑞湾花园24号楼底商,6a345f87d1d2be605a3ac8d7,1,0,117.138368,39.137569,,enterprise,http://api.map.baidu.com/place/detail?uid=6a345f87d1d2be605a3ac8d7&output=html&source=placeapi_v2,,,,,,,,,,,,,,,,,,117.1383051523,39.137519092538,0
fd304ab7f4a074da8b2fb560,天津市景源绿化工程有限公司,公司企业,农林园艺,天津市,天津市,西青区,天津市西青区密云一支路景园里小区16号楼旁,fd304ab7f4a074da8b2fb560,1,0,117.120926,39.134538,,enterprise,http://api.map.baidu.com/place/detail?uid=fd304ab7f4a074da8b2fb560&output=html&source=placeapi_v2,,,,,,,,,,,,,,,,,,,,0
c0198d57366e02a9a8175a68,天津市绿鑫源园林机械,公司企业,农林园艺,天津市,天津市,南开区,天津市南开区长江道116号,c0198d57366e02a9a8175a68,1,0,117.135021,39.137093,(022)27416306,enterprise,http://api.map.baidu.com/place/detail?uid=c0198d57366e02a9a8175a68&output=html&source=placeapi_v2,,,,,,,,,,,,,,,,,,117.13501966188,39.136963637208,0
0468fe523a1bf04ac1f1cf89,天津市恒盛园林科技服务有限公司,公司企业,农林园艺,天津市,天津市,西青区,天津市西青区闵行路与外环线辅路交口,,1,0,117.1091,39.127553,13821091791,enterprise,http://api.map.baidu.com/place/detail?uid=0468fe523a1bf04ac1f1cf89&output=html&source=placeapi_v2,,,,,,,,,,,,,,,,,,,,0
8a12d4400e40d9e8c81b95ac,沁蕊园艺,公司企业,农林园艺,天津市,天津市,南开区,天津市南开区松杉路照湖里西南侧,,1,0,117.165589,39.116403,13920488355,enterprise,http://api.map.baidu.com/place/detail?uid=8a12d4400e40d9e8c81b95ac&output=html&source=placeapi_v2,,,,,,,,,,,,,,,,,,,,0
60ddfbf7981980d685420ed2,天津绿鑫源园林机械有限公司,公司企业,农林园艺,天津市,天津市,南开区,天津市南开区灵隐道109号,60ddfbf7981980d685420ed2,1,0,117.160496,39.133527,"(022)27416306,13920357422",enterprise,http://api.map.baidu.com/place/detail?uid=60ddfbf7981980d685420ed2&output=html&source=placeapi_v2,,,,,,,,,,,,,,,,,,,,0
d6ff924070fffa958733046e,天津市园林花卉管理中心,公司企业,农林园艺,天津市,天津市,南开区,天津市南开区红旗路220号慧谷大厦10层,d6ff924070fffa958733046e,1,0,117.154947,39.122937,,enterprise,http://api.map.baidu.com/place/detail?uid=d6ff924070fffa958733046e&output=html&source=placeapi_v2,,,,,,,,,,,,,,,,,,117.15507446534,39.122935779674,0
71f29948985138216f4760cd,天津市创世园艺有限公司,公司企业,农林园艺,天津市,天津市,南开区,天津市南开区红旗路192号赢寰大厦4层401室,71f29948985138216f4760cd,1,0,117.155238,39.140612,,enterprise,http://api.map.baidu.com/place/detail?uid=71f29948985138216f4760cd&output=html&source=placeapi_v2,,,5,,,,,,,,3,,,,,,,,,0
c6b9b6560b31f7b5bea24082,天津参芝雠┮悼萍加邢薰司,公司企业,农林园艺,天津市,天津市,南开区,天津市南开区南开三纬路37号,c6b9b6560b31f7b5bea24082,1,0,117.1835,39.13313,,enterprise,http://api.map.baidu.com/place/detail?uid=c6b9b6560b31f7b5bea24082&output=html&source=placeapi_v2,,,,,,,,,,,,,,,,,,,,0
c43e0534a896aac9c37da2a0,天津中环恒业科技发展有限公司,公司企业,农林园艺,天津市,天津市,南开区,天津市南开区鞍山西道259号,c43e0534a896aac9c37da2a0,1,0,117.170017,39.119721,(022)83586615,enterprise,http://api.map.baidu.com/place/detail?uid=c43e0534a896aac9c37da2a0&output=html&source=placeapi_v2,,,,,,,,,,,,,,,,,,117.16969312,39.119726339743,0
862898aa1ecb617182288ab2,天津万象创意景观园林工程有限公司,公司企业,农林园艺,天津市,天津市,南开区,南马路平祥大厦,862898aa1ecb617182288ab2,1,0,117.185418,39.143837,,enterprise,http://api.map.baidu.com/place/detail?uid=862898aa1ecb617182288ab2&output=html&source=placeapi_v2,,,,,,,,,,,,,,,,,,117.1853332172,39.143838418674,0
2534ddf52a2c279a1d5800c7,海华宇泰(天津)生态农业旅游有限公司,公司企业,农林园艺,天津市,天津市,和平区,天津市和平区解放北路139号,2534ddf52a2c279a1d5800c7,1,0,117.218521,39.13151,,enterprise,http://api.map.baidu.com/place/detail?uid=2534ddf52a2c279a1d5800c7&output=html&source=placeapi_v2,,,0.0,,,,,,,,1,,,,,,,117.21841059934,39.131460184773,0
087ed1f2c7902b8897031945,北方园林市政工程公司,公司企业,农林园艺,天津市,天津市,河东区,天津市河东区卫国道163号,087ed1f2c7902b8897031945,1,0,117.25017,39.149554,,enterprise,http://api.map.baidu.com/place/detail?uid=087ed1f2c7902b8897031945&output=html&source=placeapi_v2,,,,,,,,,,,,,,,,,,117.25027274299,39.149520575329,0
0a5231ed18f36e8badb22ac4,天津双盈泰园林工程有限公司,公司企业,农林园艺,天津市,天津市,东丽区,天津市东丽区成林道与沧浪路交汇处东南200米康体会议中心3层,0a5231ed18f36e8badb22ac4,1,0,117.283873,39.135006,(022)84756088,enterprise,http://api.map.baidu.com/place/detail?uid=0a5231ed18f36e8badb22ac4&output=html&source=placeapi_v2,,,,,,,,,,,,,,,,,,,,0
0bf3a526d67f33e845e27467,龙华獒园,公司企业,农林园艺,天津市,天津市,东丽区,天津市东丽区张贵庄龙华獒园(津滨大道南),0bf3a526d67f33e845e27467,1,0,117.307478,39.121061,,enterprise,http://api.map.baidu.com/place/detail?uid=0bf3a526d67f33e845e27467&output=html&source=placeapi_v2,,,,,,,,,,,,,,,,,,,,0
7c82f3355284e9c24c3a59ee,天津傲绿神农科技有限公司,公司企业,农林园艺,天津市,天津市,东丽区,天津市东丽区成林道香邑广场1302号,7c82f3355284e9c24c3a59ee,1,0,117.312327,39.142987,(022)24717777,enterprise,http://api.map.baidu.com/place/detail?uid=7c82f3355284e9c24c3a59ee&output=html&source=placeapi_v2,,,,,,,,,,,,,,,,,,,,0
ef86c692f4f9ee8707026f13,天津市花苗木服务中心程林苗圃,公司企业,农林园艺,天津市,天津市,东丽区,天津市东丽区津滨大道1号,ef86c692f4f9ee8707026f13,1,2,117.321106,39.122302,,enterprise,http://api.map.baidu.com/place/detail?uid=ef86c692f4f9ee8707026f13&output=html&source=placeapi_v2,,,,,,,,,,,,,,,,,,117.32273412577,39.122055585848,2
00c9413e0e8be4855bf6be05,东方花市苗圃,公司企业,农林园艺,天津市,天津市,东丽区,天津市东丽区津滨大道泽美家具厂东北侧约100米,00c9413e0e8be4855bf6be05,1,0,117.319618,39.123635,,enterprise,http://api.map.baidu.com/place/detail?uid=00c9413e0e8be4855bf6be05&output=html&source=placeapi_v2,,,,,,,,,,,,,,,,,,117.31917070052,39.123601095195,0
6995aef0c1f9a519018972d0,天津中景观工程有限公司,公司企业,农林园艺,天津市,天津市,滨海新区,天津市滨海新区塘黄公路华闽石材城,,1,0,117.582142,39.116626,15222359058,enterprise,http://api.map.baidu.com/place/detail?uid=6995aef0c1f9a519018972d0&output=html&source=placeapi_v2,,,,,,,,,,,,,,,,,,,,0
fec24dd341876dbb0b1cc7e1,滨海黄港精品农业观光园,公司企业,农林园艺,天津市,天津市,滨海新区,滨海一号温泉度假酒店对面,fec24dd341876dbb0b1cc7e1,1,3,117.639997,39.123373,,enterprise,http://api.map.baidu.com/place/detail?uid=fec24dd341876dbb0b1cc7e1&output=html&source=placeapi_v2,,,,,,,,,,,0,,,,,,,117.63997321031,39.124023001176,3
31f9101bab11a0b827e0a09a,阳光园艺,公司企业,农林园艺,天津市,天津市,西青区,大柳滩北路与津同公路交叉口北50米,,1,0,116.969692,39.170389,,enterprise,http://api.map.baidu.com/place/detail?uid=31f9101bab11a0b827e0a09a&output=html&source=placeapi_v2,,,,,,,,,,,,,,,,,,,,0
bd0d1502296810e7764ff1ac,天津市西青区奋发农业技术服务有限公司,公司企业,农林园艺,天津市,天津市,西青区,天津市西青区果园路,,1,0,116.962774,39.154795,(022)27397082,enterprise,http://api.map.baidu.com/place/detail?uid=bd0d1502296810e7764ff1ac&output=html&source=placeapi_v2,,,,,,,,,,,,,,,,,,116.96271369586,39.154781201992,0
189e0f5330eb6837fe0eb013,天津市静春园土鸡养殖中心,公司企业,农林园艺,天津市,天津市,北辰区,天津市北辰区津同公路23号,,1,0,116.957068,39.173759,,enterprise,http://api.map.baidu.com/place/detail?uid=189e0f5330eb6837fe0eb013&output=html&source=placeapi_v2,,,0.0,,,,,,,,1,,,,,,,,,0
bf5c2b3051c26280d22dd6f3,天津亿美水族景观工程有限公司,公司企业,农林园艺,天津市,天津市,北辰区,天津市北辰区京环线,bf5c2b3051c26280d22dd6f3,1,0,116.951657,39.179673,"15222396777,15332116685,18698122111",enterprise,http://api.map.baidu.com/place/detail?uid=bf5c2b3051c26280d22dd6f3&output=html&source=placeapi_v2,,,,,,,,,,,,,,,,,,116.95152859931,39.179594578336,0
7c5e480b1f277ecaadb22ae4,杨柳青园艺科技博览园,公司企业,农林园艺,天津市,天津市,西青区,天津市西青区杨柳青镇北津同公路南侧,7c5e480b1f277ecaadb22ae4,1,0,117.001443,39.163867,(022)27391063,enterprise,http://api.map.baidu.com/place/detail?uid=7c5e480b1f277ecaadb22ae4&output=html&source=placeapi_v2,,,0,,,,,,,,0,,,,,,,117.00153083698,39.163886589033,0
07f1fa154442a23eb72655e7,天津市西青区希溪熏衣苗木种植场,公司企业,农林园艺,天津市,天津市,西青区,天津市西青区杨柳青镇柳叶岛路6号,,1,0,116.997634,39.160472,(022)83742505,enterprise,http://api.map.baidu.com/place/detail?uid=07f1fa154442a23eb72655e7&output=html&source=placeapi_v2,,07:30-17:30,0.0,,,,,,,,,,,,,,,116.99773697121,39.160486248426,0
e006abf86d0a6630cd04ef48,天津市德仁农业发展有限公司养殖场,公司企业,农林园艺,天津市,天津市,西青区,天津市西青区,,1,0,116.998184,39.175143,,enterprise,http://api.map.baidu.com/place/detail?uid=e006abf86d0a6630cd04ef48&output=html&source=placeapi_v2,,,0.0,,,,,,,,1,,,,,,,,,0
62344fa96610a3caede4a50e,大成孵化场,公司企业,农林园艺,天津市,天津市,西青区,天津市西青区G112(京环线),62344fa96610a3caede4a50e,1,0,116.981936,39.170343,,enterprise,http://api.map.baidu.com/place/detail?uid=62344fa96610a3caede4a50e&output=html&source=placeapi_v2,,,,,,,,,,,,,,,,,,,,0
0a15c7ec56876bfded74f837,廊坊市杨柳青林场,公司企业,农林园艺,天津市,天津市,西青区,天津市西青区京环线与果园路交叉路口往西南约260米,,1,0,116.987959,39.160945,,enterprise,http://api.map.baidu.com/place/detail?uid=0a15c7ec56876bfded74f837&output=html&source=placeapi_v2,,,,,,,,,,,,,,,,,,,,0
26d3de8b9fe5aa5fd5851f4b,大成种鸡场,公司企业,农林园艺,天津市,天津市,西青区,天津市西青区G112(京环线)天津农学院西校区后门附近,26d3de8b9fe5aa5fd5851f4b,1,0,116.98665,39.169513,,enterprise,http://api.map.baidu.com/place/detail?uid=26d3de8b9fe5aa5fd5851f4b&output=html&source=placeapi_v2,,,5.0,,,,,,,,1,,,,,,,,,0
c79e98271ea1db1f465726ad,天津益利来畜牧水产示范园,公司企业,农林园艺,天津市,天津市,西青区,天津市西青区天津市西青宾馆西侧约220米,,1,0,116.994033,39.14859,,enterprise,http://api.map.baidu.com/place/detail?uid=c79e98271ea1db1f465726ad&output=html&source=placeapi_v2,,,,,,,,,,,,,,,,,,,,0
b90901d4e50547d5631809ae,天津市西青区陶巨鹏畜牧养殖中心,公司企业,农林园艺,天津市,天津市,西青区,杨柳青镇,b90901d4e50547d5631809ae,1,0,117.056042,39.162857,,enterprise,http://api.map.baidu.com/place/detail?uid=b90901d4e50547d5631809ae&output=html&source=placeapi_v2,,,,,,,,,,,,,,,,,,,,0
1baaa7d678dc32569cec2bca,鑫淼农业苗圃基地,公司企业,农林园艺,天津市,天津市,西青区,天津市西青区外环西路与大明道交叉口西,1baaa7d678dc32569cec2bca,1,0,117.083095,39.165434,"(022)87276999,(022)87766999",enterprise,http://api.map.baidu.com/place/detail?uid=1baaa7d678dc32569cec2bca&output=html&source=placeapi_v2,,07:00-22:00,5,,,,,,,,1,,,,,,,117.083075174,39.165554322908,0
dd4d327e4c6d9b084c3a593a,天津市园林花圃,公司企业,农林园艺,天津市,天津市,西青区,天津市西青区柳青路8号,dd4d327e4c6d9b084c3a593a,1,1,117.096692,39.175967,15620729683,enterprise,http://api.map.baidu.com/place/detail?uid=dd4d327e4c6d9b084c3a593a&output=html&source=placeapi_v2,,08:30-21:00,5,,,,,,,,1,,,,,,,117.09666953093,39.175962253608,1
9f2f866c434bab412911d14b,杨柳青农场花卉试范中心,公司企业,农林园艺,天津市,天津市,西青区,天津市西青区全境杨柳青农场花卉试范中心,9f2f866c434bab412911d14b,1,0,117.104103,39.167979,,enterprise,http://api.map.baidu.com/place/detail?uid=9f2f866c434bab412911d14b&output=html&source=placeapi_v2,,,,,,,,,,,,,,,,,,117.10423512551,39.167988008758,0
