uid,name,cat_L1,cat_L2,province,city,area,address,street_id,detail,child_num,loc_lng,loc_lat,telephone,type,detail_url,price,shop_hours,overall_rating,taste_rating,service_rating,environment_rating,facility_rating,hygiene_rating,technology_rating,image_num,comment_num,groupon_num,discount_num,favorite_num,checkin_num,brand,content_tag,naviloc_lng,naviloc_lat,child_num
34aeeb3cefafe3eb601c679c,窦庄子小学,教育培训,小学,天津市,天津市,滨海新区,天津市滨海新区北环东路,,1,0,117.3508,38.59086,(022)63189384,education,http://api.map.baidu.com/place/detail?uid=34aeeb3cefafe3eb601c679c&output=html&source=placeapi_v2,,,0.0,,,,,,,,,,,,,,,117.35037837831,38.59064366644,0
ef75d177de7d8cde79dbd260,大港窦庄子联校,教育培训,小学,天津市,天津市,滨海新区,天津市滨海新区北环东路窦庄子小学,,1,0,117.350617,38.590758,(022)63189384,education,http://api.map.baidu.com/place/detail?uid=ef75d177de7d8cde79dbd260&output=html&source=placeapi_v2,,,0.0,,,,,,,,0,,,,,,,,,0
9ccbb5375240fb1c08ccddcf,静海区中旺镇罗庄子小学,教育培训,小学,天津市,天津市,静海区,静海区中青路,,1,0,117.091448,38.636763,,education,http://api.map.baidu.com/place/detail?uid=9ccbb5375240fb1c08ccddcf&output=html&source=placeapi_v2,,,0.0,,,,,,,,0,,,,,,,117.09140129879,38.637148259546,0
251374c9b33edd3ca11de9d9,静海区韩庄子中心校,教育培训,小学,天津市,天津市,静海区,天津市静海区中青路,,1,0,117.139132,38.621261,(022)68534808,education,http://api.map.baidu.com/place/detail?uid=251374c9b33edd3ca11de9d9&output=html&source=placeapi_v2,,,0.0,,,,,,,,,,,,,,,117.13906629015,38.620819805792,0
89fd4ea309f77744e4e9659b,太平镇第一小学,教育培训,小学,天津市,天津市,滨海新区,天津市滨海新区太沙路与远太路交叉路口往东南约130米,89fd4ea309f77744e4e9659b,1,1,117.338083,38.624984,(022)63141380,education,http://api.map.baidu.com/place/detail?uid=89fd4ea309f77744e4e9659b&output=html&source=placeapi_v2,,,0.0,,,,,,,,0,,,,,,,117.33794411878,38.624918570701,1
75036835cc66f2ae5e0d0223,太平镇第二小学,教育培训,小学,天津市,天津市,滨海新区,天津市滨海新区太沙路,75036835cc66f2ae5e0d0223,1,1,117.344557,38.628891,(022)63148795,education,http://api.map.baidu.com/place/detail?uid=75036835cc66f2ae5e0d0223&output=html&source=placeapi_v2,,,0.0,,,,,,,,,,,,,,,117.34434040256,38.628731674531,1
97f784e653a3c23b25e0a05f,姚庄子真维斯希望小学,教育培训,小学,天津市,天津市,静海区,天津市静海区中旺镇姚庄子,,1,0,117.086435,38.651433,(022)68539050,education,http://api.map.baidu.com/place/detail?uid=97f784e653a3c23b25e0a05f&output=html&source=placeapi_v2,,,0.0,,,,,,,,0,,,,,,,117.0862232179,38.651390857226,0
f60a15edc111b2edbb17e7c1,大曲河中心小学,教育培训,小学,天津市,天津市,静海区,天津市静海区大曲河小学(蔡中路西220米),,1,0,117.133516,38.661521,(022)68530571,education,http://api.map.baidu.com/place/detail?uid=f60a15edc111b2edbb17e7c1&output=html&source=placeapi_v2,,,0.0,,,,,,,,0,,,,,,,117.13312763105,38.661447284313,0
4d25caa86a9e12482efaa765,天津市静海区中旺镇李高庄小学,教育培训,小学,天津市,天津市,静海区,中旺镇天津市静海区中旺镇张班路北50米区中旺镇,,1,0,117.151051,38.667407,,education,http://api.map.baidu.com/place/detail?uid=4d25caa86a9e12482efaa765&output=html&source=placeapi_v2,,,0.0,,,,,,,,0,,,,,,,,,0
9bec3d1158c392d5cae33c7a,大港向阳小学第二分校,教育培训,小学,天津市,天津市,滨海新区,天津市滨海新区向阳大道与徐陈路交叉路口往南约140米,,1,0,117.199054,38.640208,(022)63100588,education,http://api.map.baidu.com/place/detail?uid=9bec3d1158c392d5cae33c7a&output=html&source=placeapi_v2,,,,,,,,,,,,,,,,,,,,0
0b53245eb154155330169bed,天津市滨海新区大港欣苑小学,教育培训,小学,天津市,天津市,滨海新区,天津市滨海新区太平镇昌德路26号,0b53245eb154155330169bed,1,0,117.244314,38.64642,,education,http://api.map.baidu.com/place/detail?uid=0b53245eb154155330169bed&output=html&source=placeapi_v2,,,0.0,,,,,,,,,,,,,,,117.24463256117,38.646344326406,0
213b7166d6017e13213bf265,大港太平镇第三小学,教育培训,小学,天津市,天津市,滨海新区,天津市滨海新区太平镇第三小学(建业街南),213b7166d6017e13213bf265,1,0,117.250291,38.640833,(022)63105648,education,http://api.map.baidu.com/place/detail?uid=213b7166d6017e13213bf265&output=html&source=placeapi_v2,,,0.0,,,,,,,,,,,,,,,117.25043502817,38.640553061611,0
eb36750358f4ec1a00ec0123,天津大港大苏庄小学,教育培训,小学,天津市,天津市,滨海新区,天津市滨海新区大港油田北港南强制隔离戒毒所大港大苏庄,,1,0,117.298433,38.672167,,education,http://api.map.baidu.com/place/detail?uid=eb36750358f4ec1a00ec0123&output=html&source=placeapi_v2,,,0.0,,,,,,,,0,,,,,,,117.2984441442,38.6719081423,0
79cceb3644c267881e580023,太平镇第一小学(远景二分校),教育培训,小学,天津市,天津市,滨海新区,天津市滨海新区远太路龙和园小区东南侧约70米,79cceb3644c267881e580023,1,0,117.359764,38.660806,,education,http://api.map.baidu.com/place/detail?uid=79cceb3644c267881e580023&output=html&source=placeapi_v2,,,0.0,,,,,,,,,,,,,,,117.36002594683,38.660640216053,0
7a110d2959f205ba3010af1e,育英小学(团瓢),教育培训,小学,天津市,天津市,静海区,中旺镇李姚路,,1,0,117.089731,38.688531,,education,http://api.map.baidu.com/place/detail?uid=7a110d2959f205ba3010af1e&output=html&source=placeapi_v2,,,0.0,,,,,,,,0,,,,,,,,,0
5e53af1a948ffa5e4151c0fc,赵齐庄中心小学(团瓢分校),教育培训,小学,天津市,天津市,静海区,天津市静海区赵齐庄中心小学团瓢分校(李姚路西),,1,0,117.089527,38.688447,,education,http://api.map.baidu.com/place/detail?uid=5e53af1a948ffa5e4151c0fc&output=html&source=placeapi_v2,,,0.0,,,,,,,,,,,,,,,117.08995539522,38.688344516221,0
b0d056f27072fc7fcac3dbfc,大庄子中心小学,教育培训,小学,天津市,天津市,静海区,天津市静海区大庄子路13号,,1,0,117.135005,38.697028,(022)68523604,education,http://api.map.baidu.com/place/detail?uid=b0d056f27072fc7fcac3dbfc&output=html&source=placeapi_v2,,,0.0,,,,,,,,0,,,,,,,117.13515479128,38.697010181644,0
a8b5444a61c3804e5fd4fe9d,大港向阳小学(第一分校),教育培训,小学,天津市,天津市,滨海新区,天津市滨海新区迎宾街122号,,1,0,117.18256,38.684683,(022)59719256,education,http://api.map.baidu.com/place/detail?uid=a8b5444a61c3804e5fd4fe9d&output=html&source=placeapi_v2,,,0.0,,,,,,,,,,,,,,,,,0
593850fb82f0135ede1e5292,向阳小学,教育培训,小学,天津市,天津市,滨海新区,天津市滨海新区小王庄镇向阳小区,,1,0,117.209349,38.685855,(022)63169106,education,http://api.map.baidu.com/place/detail?uid=593850fb82f0135ede1e5292&output=html&source=placeapi_v2,,,0.0,,,,,,,,0,,,,,,,117.20959774618,38.686000185397,0
eb36750358f4ec1a00ec0123,天津大港大苏庄小学,教育培训,小学,天津市,天津市,滨海新区,天津市滨海新区大港油田北港南强制隔离戒毒所大港大苏庄,,1,0,117.298433,38.672167,,education,http://api.map.baidu.com/place/detail?uid=eb36750358f4ec1a00ec0123&output=html&source=placeapi_v2,,,0.0,,,,,,,,0,,,,,,,117.2984441442,38.6719081423,0
31e01069aa1897d6dbeced74,联盟小学,教育培训,小学,天津市,天津市,滨海新区,天津市滨海新区光明路天津市远景中学(联盟分校),,1,0,117.449214,38.687166,,education,http://api.map.baidu.com/place/detail?uid=31e01069aa1897d6dbeced74&output=html&source=placeapi_v2,,,,,,,,,,,,,,,,,,,,0
e2c734e444d71a5c15a190c1,唐官屯镇小学,教育培训,小学,天津市,天津市,静海区,唐官屯镇三街村,e2c734e444d71a5c15a190c1,1,1,116.933107,38.717496,(022)28877070,education,http://api.map.baidu.com/place/detail?uid=e2c734e444d71a5c15a190c1&output=html&source=placeapi_v2,,,0.0,,,,,,,,1,,,,,,,116.93240972509,38.717478875455,1
a9acc13e729dc0d9bbbd6314,赵官屯中心小学,教育培训,小学,天津市,天津市,静海区,天津市静海区唐官屯赵官屯中心学校附近,,1,0,116.900836,38.716634,(022)59592157,education,http://api.map.baidu.com/place/detail?uid=a9acc13e729dc0d9bbbd6314&output=html&source=placeapi_v2,,,,,,,,,,,,,,,,,,116.90080786006,38.716640390648,0
850815e157812a9a43e192c1,靳官屯中心小学,教育培训,小学,天津市,天津市,静海区,天津市静海区大张屯乡靳官屯村,850815e157812a9a43e192c1,1,0,116.899203,38.706111,(022)68757900,education,http://api.map.baidu.com/place/detail?uid=850815e157812a9a43e192c1&output=html&source=placeapi_v2,,,5.0,,,,,,,,1,,,,,,,116.89934244889,38.705838345792,0
cde9e2c7f63b8ab5e81e97c1,赵官屯中心学校,教育培训,小学,天津市,天津市,静海区,唐官屯,,1,0,116.900809,38.716734,,education,http://api.map.baidu.com/place/detail?uid=cde9e2c7f63b8ab5e81e97c1&output=html&source=placeapi_v2,,,0.0,,,,,,,,,,,,,,,116.90057175034,38.716636660598,0
d4034eb3e69a5b8bc0364436,满意庄中心小学,教育培训,小学,天津市,天津市,静海区,天津市静海区唐官屯镇庄村子南部,,1,0,116.962243,38.724425,(022)28878344,education,http://api.map.baidu.com/place/detail?uid=d4034eb3e69a5b8bc0364436&output=html&source=placeapi_v2,,,0.0,,,,,,,,,,,,,,,116.96165907531,38.724585956399,0
e2c734e444d71a5c15a190c1,唐官屯镇小学,教育培训,小学,天津市,天津市,静海区,唐官屯镇三街村,e2c734e444d71a5c15a190c1,1,1,116.933107,38.717496,(022)28877070,education,http://api.map.baidu.com/place/detail?uid=e2c734e444d71a5c15a190c1&output=html&source=placeapi_v2,,,0.0,,,,,,,,1,,,,,,,116.93240972509,38.717478875455,1
15e1e85e9bf8b1a3581093c1,大十八户小学,教育培训,小学,天津市,天津市,静海区,天津市静海区唐官屯镇东环路,,1,0,116.999481,38.711461,,education,http://api.map.baidu.com/place/detail?uid=15e1e85e9bf8b1a3581093c1&output=html&source=placeapi_v2,,,0.0,,,,,,,,0,,,,,,,,,0
31f9101be9af62c426e0a028,静海区唐官屯镇郑家庄小学,教育培训,小学,天津市,天津市,静海区,天津市静海区唐官屯镇东环路区唐官屯镇,,1,0,117.029949,38.72544,,education,http://api.map.baidu.com/place/detail?uid=31f9101be9af62c426e0a028&output=html&source=placeapi_v2,,,0.0,,,,,,,,0,,,,,,,117.02988880223,38.725445928479,0
16e180901ef9d6154e3a593e,中旺镇清河村小学,教育培训,小学,天津市,天津市,静海区,天津市静海区清西路清河村幼儿园南侧,16e180901ef9d6154e3a593e,1,0,117.143545,38.719539,,education,http://api.map.baidu.com/place/detail?uid=16e180901ef9d6154e3a593e&output=html&source=placeapi_v2,,,0.0,,,,,,,,0,,,,,,,117.14332224337,38.719587516091,0
606ab0d0d116f92b0e3ddafc,西湾河小学,教育培训,小学,天津市,天津市,静海区,天津市静海区山深线,,1,0,117.162053,38.716847,(022)68522033,education,http://api.map.baidu.com/place/detail?uid=606ab0d0d116f92b0e3ddafc&output=html&source=placeapi_v2,,,0.0,,,,,,,,,,,,,,,117.1623707093,38.716812823806,0
16e180901ef9d6154e3a593e,中旺镇清河村小学,教育培训,小学,天津市,天津市,静海区,天津市静海区清西路清河村幼儿园南侧,16e180901ef9d6154e3a593e,1,0,117.143545,38.719539,,education,http://api.map.baidu.com/place/detail?uid=16e180901ef9d6154e3a593e&output=html&source=placeapi_v2,,,0.0,,,,,,,,0,,,,,,,117.14332224337,38.719587516091,0
50fb64ffdeee0a5ee8f85392,田苑小学,教育培训,小学,天津市,天津市,滨海新区,天津市滨海新区战备路366号,,1,0,117.18915,38.723257,,education,http://api.map.baidu.com/place/detail?uid=50fb64ffdeee0a5ee8f85392&output=html&source=placeapi_v2,,,0.0,,,,,,,,0,,,,,,,117.1891760496,38.72311576995,0
50fb64ffdeee0a5ee8f85392,田苑小学,教育培训,小学,天津市,天津市,滨海新区,天津市滨海新区战备路366号,,1,0,117.18915,38.723257,,education,http://api.map.baidu.com/place/detail?uid=50fb64ffdeee0a5ee8f85392&output=html&source=placeapi_v2,,,0.0,,,,,,,,0,,,,,,,117.1891760496,38.72311576995,0
e784ea571c0b6144ab0dd89b,桃李园小学,教育培训,小学,天津市,天津市,滨海新区,天津市滨海新区海滨街新盛小区,,1,0,117.468576,38.708937,"(022)25961340,(022)25963139",education,http://api.map.baidu.com/place/detail?uid=e784ea571c0b6144ab0dd89b&output=html&source=placeapi_v2,,,4.5,,,,,,,,2,,,,,,,117.46882440013,38.707905574654,0
7aea43b73b988ffb7d29bd8d,花园里小学,教育培训,小学,天津市,天津市,滨海新区,天津市滨海新区大港油田花园南里61号楼3单元501近,7aea43b73b988ffb7d29bd8d,1,0,117.515718,38.72436,(022)25923434,education,http://api.map.baidu.com/place/detail?uid=7aea43b73b988ffb7d29bd8d&output=html&source=placeapi_v2,,,4.0,,,,,,,,1,,,,,,,117.51516805235,38.725144949571,0
32f7f3c425e6885a32f71db1,西港小学,教育培训,小学,天津市,天津市,静海区,天津市静海区沿庄镇西港村,32f7f3c425e6885a32f71db1,1,0,116.786224,38.760608,(022)68779017,education,http://api.map.baidu.com/place/detail?uid=32f7f3c425e6885a32f71db1&output=html&source=placeapi_v2,,,0.0,,,,,,,,,,,,,,,116.78630983976,38.759770792811,0
923ffd00cbe9f9cad92f2824,鲁辛庄小学,教育培训,小学,天津市,天津市,静海区,天津市静海区唐官屯镇鲁辛庄中心小学,,1,0,116.921905,38.744007,(022)68879582,education,http://api.map.baidu.com/place/detail?uid=923ffd00cbe9f9cad92f2824&output=html&source=placeapi_v2,,,0.0,,,,,,,,0,,,,,,,116.9218679644,38.744223606879,0
0adce3e2f07d0a6080a00cc0,赵家洼村小学,教育培训,小学,天津市,天津市,静海区,天津市静海区,,1,0,116.914795,38.761099,,education,http://api.map.baidu.com/place/detail?uid=0adce3e2f07d0a6080a00cc0&output=html&source=placeapi_v2,,,0.0,,,,,,,,0,,,,,,,116.91495668747,38.760921484584,0
50e61262f246d6320d3ddaca,明德小学,教育培训,小学,天津市,天津市,静海区,天津市静海区惠民环村路与学苑路交叉路口往西约210米,,1,0,116.926562,38.762943,(022)68641466,education,http://api.map.baidu.com/place/detail?uid=50e61262f246d6320d3ddaca&output=html&source=placeapi_v2,,,0.0,,,,,,,,,,,,,,,,,0
7f9afe4686b9d0357069d311,大郝庄小学,教育培训,小学,天津市,天津市,静海区,天津市静海区大郝庄村,,1,0,116.994957,38.746566,(022)68353061,education,http://api.map.baidu.com/place/detail?uid=7f9afe4686b9d0357069d311&output=html&source=placeapi_v2,,,0.0,,,,,,,,,,,,,,,116.99496824362,38.746475638808,0
af1ae56b8507b3134207c1fc,唐官屯镇亚庄子中心小学,教育培训,小学,天津市,天津市,静海区,天津市静海区唐官屯镇亚庄子村,,1,0,117.060875,38.746248,,education,http://api.map.baidu.com/place/detail?uid=af1ae56b8507b3134207c1fc&output=html&source=placeapi_v2,,,0,,,,,,,,0,,,,,,,117.06005326076,38.746119959855,0
e56bf5e3d34ab0450782c2fc,刘祥庄中心小学,教育培训,小学,天津市,天津市,静海区,天津市静海区蔡大路与刘祥庄路交叉路口往西约120米,e56bf5e3d34ab0450782c2fc,1,0,117.083493,38.754724,(022)68519567,education,http://api.map.baidu.com/place/detail?uid=e56bf5e3d34ab0450782c2fc&output=html&source=placeapi_v2,,,5.0,,,,,,,,1,,,,,,,117.08343337024,38.754502271189,0
3da907f31151c252b320a8fc,土河中心小学,教育培训,小学,天津市,天津市,静海区,天津市静海区土河小学(蔡中路西200米),3da907f31151c252b320a8fc,1,0,117.091754,38.761052,(022)68518072,education,http://api.map.baidu.com/place/detail?uid=3da907f31151c252b320a8fc&output=html&source=placeapi_v2,,,0.0,,,,,,,,0,,,,,,,117.09190584196,38.760833355949,0
af1ae56b8507b3134207c1fc,唐官屯镇亚庄子中心小学,教育培训,小学,天津市,天津市,静海区,天津市静海区唐官屯镇亚庄子村,,1,0,117.060875,38.746248,,education,http://api.map.baidu.com/place/detail?uid=af1ae56b8507b3134207c1fc&output=html&source=placeapi_v2,,,0,,,,,,,,0,,,,,,,117.06005326076,38.746119959855,0
07f3c8b5150b41626240a9fc,四党口中心小学,教育培训,小学,天津市,天津市,静海区,天津市静海区蔡公庄镇四党口文明路西四党口,07f3c8b5150b41626240a9fc,1,0,117.127488,38.764236,(022)68517215,education,http://api.map.baidu.com/place/detail?uid=07f3c8b5150b41626240a9fc&output=html&source=placeapi_v2,,,5,,,,,,,,3,,,,,,,117.12806024385,38.764404469177,0
c974d5cc938e4d1e09b93a80,天津市滨海新区大港小王庄第一小学,教育培训,小学,天津市,天津市,滨海新区,天津市滨海新区大港小王庄镇小王庄村,,1,0,117.163876,38.752586,(022)63129125,education,http://api.map.baidu.com/place/detail?uid=c974d5cc938e4d1e09b93a80&output=html&source=placeapi_v2,,,,,,,,,,,,,,,,,,117.163876449,38.752586232814,0
6816b5f583c73f734251c02c,小王庄第二小学,教育培训,小学,天津市,天津市,滨海新区,天津市滨海新区华纳街96号,6816b5f583c73f734251c02c,1,1,117.171072,38.757886,,education,http://api.map.baidu.com/place/detail?uid=6816b5f583c73f734251c02c&output=html&source=placeapi_v2,,,,,,,,,,,,,,,,,,117.17079353976,38.75785946351,1
749506bfae2f1b64f21937a8,甜水井小学,教育培训,小学,天津市,天津市,滨海新区,天津市滨海新区甜水井村,,1,0,117.263403,38.757081,,education,http://api.map.baidu.com/place/detail?uid=749506bfae2f1b64f21937a8&output=html&source=placeapi_v2,,,0.0,,,,,,,,0,,,,,,,117.26360500531,38.757106921203,0
06d2dffdb285a3f588f15dda,西苑小学,教育培训,小学,天津市,天津市,滨海新区,天津市滨海新区西苑小区内,06d2dffdb285a3f588f15dda,1,1,117.494202,38.739328,(022)25973221,education,http://api.map.baidu.com/place/detail?uid=06d2dffdb285a3f588f15dda&output=html&source=placeapi_v2,,,0,,,,,,,,2,,,,,,,117.49435905405,38.73936302646,1
5d7c126dfe9cf6c7d13ce3e7,滨海新区大港三号院小学,教育培训,小学,天津市,天津市,滨海新区,天津市滨海新区光明大道西侧高层下,,1,1,117.502951,38.740489,(022)25924299,education,http://api.map.baidu.com/place/detail?uid=5d7c126dfe9cf6c7d13ce3e7&output=html&source=placeapi_v2,,,5,,,,,,,,2,,,,,,,117.502200865,38.740727625476,1
4bb049d958d85f46990050c0,大黄洼中心小学,教育培训,小学,天津市,天津市,静海区,天津市静海区大黄洼中心小学(永丰街北140米),4bb049d958d85f46990050c0,1,0,116.81696,38.773757,(022)68779049,education,http://api.map.baidu.com/place/detail?uid=4bb049d958d85f46990050c0&output=html&source=placeapi_v2,,,0.0,,,,,,,,,,,,,,,116.81678385976,38.773575549754,0
3c820fff0be44b2f0482c274,静海区沿庄镇东滩头中心校,教育培训,小学,天津市,天津市,静海区,天津市静海区东张路静海区沿庄镇东滩头中心幼儿园,,1,0,116.832357,38.798327,,education,http://api.map.baidu.com/place/detail?uid=3c820fff0be44b2f0482c274&output=html&source=placeapi_v2,,,0,,,,,,,,0,,,,,,,,,0
00586108d18463d846e2740a,胡辛庄小学,教育培训,小学,天津市,天津市,静海区,天津市静海区,,1,0,116.913361,38.77605,,education,http://api.map.baidu.com/place/detail?uid=00586108d18463d846e2740a&output=html&source=placeapi_v2,,,0.0,,,,,,,,0,,,,,,,116.91337647555,38.775902132949,0
7a93e08d33a709e3be484270,纪家庄小学,教育培训,小学,天津市,天津市,静海区,天津市静海区纪家庄小学(富康路西390米),,1,0,116.912877,38.791442,(022)68761883,education,http://api.map.baidu.com/place/detail?uid=7a93e08d33a709e3be484270&output=html&source=placeapi_v2,,,0.0,,,,,,,,,,,,,,,116.91291366047,38.79117160271,0
0a46dc0f353cec5f306212c0,高官屯小学,教育培训,小学,天津市,天津市,静海区,天津市静海区陈官屯镇富康路(高官屯健身广场西北侧约50米),,1,0,116.930676,38.791321,(022)68752233,education,http://api.map.baidu.com/place/detail?uid=0a46dc0f353cec5f306212c0&output=html&source=placeapi_v2,,,0.0,,,,,,,,0,,,,,,,116.93070777031,38.791075983561,0
25998430b2ceea35e812e4bd,天津市静海区西翟庄镇矫庄子小学,教育培训,小学,天津市,天津市,静海区,天津市静海区胡庄子路,,1,0,116.961793,38.768349,(022)68367301,education,http://api.map.baidu.com/place/detail?uid=25998430b2ceea35e812e4bd&output=html&source=placeapi_v2,,,0.0,,,,,,,,,,,,,,,116.96184771946,38.768407787507,0
b2bb6197edad8cb671210b6a,西翟庄小学,教育培训,小学,天津市,天津市,静海区,天津市静海区崔唐线西翟庄中学西北侧,,1,0,117.014578,38.776708,(022)68371454,education,http://api.map.baidu.com/place/detail?uid=b2bb6197edad8cb671210b6a&output=html&source=placeapi_v2,,,,,,,,,,,,,,,,,,117.01518011759,38.777107016903,0
7afab1bd0f4c55ab2dfaa743,杨小庄小学,教育培训,小学,天津市,天津市,静海区,天津市静海区西翟庄镇杨小庄村,,1,0,117.043671,38.796701,(022)68728469,education,http://api.map.baidu.com/place/detail?uid=7afab1bd0f4c55ab2dfaa743&output=html&source=placeapi_v2,,,5.0,,,,,,,,,,,,,,,117.0429974736,38.796554225849,0
4edf9fbf3b16da95cc06a4fc,蔡公庄中心小学,教育培训,小学,天津市,天津市,静海区,天津市静海区蔡公庄村,,1,0,117.088765,38.792226,,education,http://api.map.baidu.com/place/detail?uid=4edf9fbf3b16da95cc06a4fc&output=html&source=placeapi_v2,,,0.0,,,,,,,,,,,,,,,117.08872911747,38.792577191684,0
435d7aea335464485abbbcf9,五美城中心小学,教育培训,小学,天津市,天津市,静海区,天津市静海区王新路,435d7aea335464485abbbcf9,1,0,117.166192,38.785277,(022)68557373,education,http://api.map.baidu.com/place/detail?uid=435d7aea335464485abbbcf9&output=html&source=placeapi_v2,,,0.0,,,,,,,,0,,,,,,,117.1660684941,38.785080956748,0
7aea43b7876a2b857c29bdf9,天津台商希望小学,教育培训,小学,天津市,天津市,静海区,天津市静海区五美城中心小学(205国道东),,1,0,117.166192,38.785277,(022)68557373,education,http://api.map.baidu.com/place/detail?uid=7aea43b7876a2b857c29bdf9&output=html&source=placeapi_v2,,,0.0,,,,,,,,0,,,,,,,,,0
56e88cba48504664a4c756c0,流庄中心小学,教育培训,小学,天津市,天津市,静海区,天津市静海区,,1,0,116.77591,38.814231,(022)68856882,education,http://api.map.baidu.com/place/detail?uid=56e88cba48504664a4c756c0&output=html&source=placeapi_v2,,,0.0,,,,,,,,,,,,,,,116.77605119083,38.813973680537,0
2a1dc0ae21f97ea95e17c388,沿庄镇西滩头小学,教育培训,小学,天津市,天津市,静海区,天津市静海区津滩路南200米,,1,0,116.798463,38.803901,,education,http://api.map.baidu.com/place/detail?uid=2a1dc0ae21f97ea95e17c388&output=html&source=placeapi_v2,,,0.0,,,,,,,,0,,,,,,,,,0
2bb4bf89eea95b3efe0eb054,静海区沿庄镇东滩头中心(校分校),教育培训,小学,天津市,天津市,静海区,天津市静海区津滩路南150米,,1,0,116.798459,38.80395,,education,http://api.map.baidu.com/place/detail?uid=2bb4bf89eea95b3efe0eb054&output=html&source=placeapi_v2,,,,,,,,,,,,,,,,,,,,0
1a3968887ed3990c6ca3cc9b,东滩头小学,教育培训,小学,天津市,天津市,静海区,天津市静海区市东滩头桥东,,1,0,116.823343,38.801351,(022)68771127,education,http://api.map.baidu.com/place/detail?uid=1a3968887ed3990c6ca3cc9b&output=html&source=placeapi_v2,,,0.0,,,,,,,,,,,,,,,116.82334502841,38.80116529494,0
b1c556e8885a440db42655c0,静海区沿庄镇三禅房中心小学,教育培训,小学,天津市,天津市,静海区,S313(陈大线),b1c556e8885a440db42655c0,1,1,116.815235,38.823997,,education,http://api.map.baidu.com/place/detail?uid=b1c556e8885a440db42655c0&output=html&source=placeapi_v2,,,0,,,,,,,,0,,,,,,,116.81516144186,38.82343840143,1
3c820fff0be44b2f0482c274,静海区沿庄镇东滩头中心校,教育培训,小学,天津市,天津市,静海区,天津市静海区东张路静海区沿庄镇东滩头中心幼儿园,,1,0,116.832357,38.798327,,education,http://api.map.baidu.com/place/detail?uid=3c820fff0be44b2f0482c274&output=html&source=placeapi_v2,,,0,,,,,,,,0,,,,,,,,,0
895a8728c61b8226fbdc855d,元蒙口中心小学,教育培训,小学,天津市,天津市,静海区,天津市静海区沿庄镇团大线元蒙口中心小学,895a8728c61b8226fbdc855d,1,0,116.859082,38.824278,(022)68772299,education,http://api.map.baidu.com/place/detail?uid=895a8728c61b8226fbdc855d&output=html&source=placeapi_v2,,,0.0,,,,,,,,0,,,,,,,116.85915083746,38.823998534504,0
dc0f0adcdd02c220f82213c0,陈官屯小学,教育培训,小学,天津市,天津市,静海区,天津市静海区陈大公路80号附近,dc0f0adcdd02c220f82213c0,1,0,116.92343,38.826427,,education,http://api.map.baidu.com/place/detail?uid=dc0f0adcdd02c220f82213c0&output=html&source=placeapi_v2,,,3.0,,,,,,,,1,,,,,,,116.92328353219,38.826626556904,0
f882c20ae3516ebec27da23d,西钓台小学,教育培训,小学,天津市,天津市,静海区,天津市静海区育才路30号,,1,0,116.914591,38.80699,(022)68763135,education,http://api.map.baidu.com/place/detail?uid=f882c20ae3516ebec27da23d&output=html&source=placeapi_v2,,,,,,,,,,,,,,,,,,116.91394899799,38.806830663864,0
a2a1d974db287efa09a8d4bb,东钓台小学,教育培训,小学,天津市,天津市,静海区,天津市静海区东钓台村,,1,0,116.925425,38.802508,,education,http://api.map.baidu.com/place/detail?uid=a2a1d974db287efa09a8d4bb&output=html&source=placeapi_v2,,,,,,,,,,,,,,,,,,116.92516092243,38.802495333585,0
00f1c7fbd959fb1ec056acfc,育德小学,教育培训,小学,天津市,天津市,静海区,天津市静海区满井子路,00f1c7fbd959fb1ec056acfc,1,0,117.122546,38.825551,(022)68565369,education,http://api.map.baidu.com/place/detail?uid=00f1c7fbd959fb1ec056acfc&output=html&source=placeapi_v2,,,0.0,,,,,,,,,,,,,,,117.12292964649,38.826139781405,0
75d0881a1670b1303a04b105,胡连庄中心小学,教育培训,小学,天津市,天津市,静海区,天津市静海区团泊镇胡连庄,75d0881a1670b1303a04b105,1,0,117.18211,38.805185,(022)68557290,education,http://api.map.baidu.com/place/detail?uid=75d0881a1670b1303a04b105&output=html&source=placeapi_v2,,,0.0,,,,,,,,0,,,,,,,117.1819146033,38.805011872964,0
d1469ee7d06ba7618533048f,仁合小学,教育培训,小学,天津市,天津市,滨海新区,天津市滨海新区中塘镇主城区外常流庄,d1469ee7d06ba7618533048f,1,0,117.241671,38.810103,(022)63139446,education,http://api.map.baidu.com/place/detail?uid=d1469ee7d06ba7618533048f&output=html&source=placeapi_v2,,,0.0,,,,,,,,0,,,,,,,117.24262905512,38.81020567704,0
3e2497a6495e2fcaab175ae2,刘塘庄小学,教育培训,小学,天津市,天津市,滨海新区,天津市滨海新区,3e2497a6495e2fcaab175ae2,1,0,117.265805,38.823355,,education,http://api.map.baidu.com/place/detail?uid=3e2497a6495e2fcaab175ae2&output=html&source=placeapi_v2,,,0.0,,,,,,,,0,,,,,,,117.26593507595,38.823196993828,0
2a7a25ec2f3ed9626c3e1b22,栖凤小学,教育培训,小学,天津市,天津市,滨海新区,天津市滨海新区中塘镇栖凤北里,2a7a25ec2f3ed9626c3e1b22,1,0,117.294228,38.829429,(022)63132486,education,http://api.map.baidu.com/place/detail?uid=2a7a25ec2f3ed9626c3e1b22&output=html&source=placeapi_v2,,,0.0,,,,,,,,,,,,,,,117.29406675805,38.82932501737,0
53acf292b290503ac03644b8,王二庄中心小学,教育培训,小学,天津市,天津市,静海区,天津市静海区王二庄西新村11排4号,53acf292b290503ac03644b8,1,0,116.780079,38.833865,(022)68856378,education,http://api.map.baidu.com/place/detail?uid=53acf292b290503ac03644b8&output=html&source=placeapi_v2,,,3.0,,,,,,,,1,,,,,,,116.7800482003,38.833256516701,0
4b448be79ef16f4a6b49f3ce,静海区子牙镇潘庄子小学,教育培训,小学,天津市,天津市,静海区,静海区天津市静海区黄许路靠近区子牙镇,,1,0,116.832253,38.840584,,education,http://api.map.baidu.com/place/detail?uid=4b448be79ef16f4a6b49f3ce&output=html&source=placeapi_v2,,,0.0,,,,,,,,0,,,,,,,,,0
c61bd30514ff3669c27da2c0,小集中心小学,教育培训,小学,天津市,天津市,静海区,天津市静海区陈官屯镇小集,c61bd30514ff3669c27da2c0,1,0,116.912622,38.842675,(022)68762458,education,http://api.map.baidu.com/place/detail?uid=c61bd30514ff3669c27da2c0&output=html&source=placeapi_v2,,,0.0,,,,,,,,0,,,,,,,116.91290491766,38.842659264366,0
39d43f82a2330787a8059dc0,杨家园中心小学,教育培训,小学,天津市,天津市,静海区,天津市静海区崔杨公路,39d43f82a2330787a8059dc0,1,0,116.92368,38.86024,(022)68866541,education,http://api.map.baidu.com/place/detail?uid=39d43f82a2330787a8059dc0&output=html&source=placeapi_v2,,,0.0,,,,,,,,0,,,,,,,116.92378774928,38.860086753022,0
8fde79ccd9d07abe95ca07fe,岳家庄中心小学,教育培训,小学,天津市,天津市,静海区,大邱庄镇岳家庄村,8fde79ccd9d07abe95ca07fe,1,0,117.010621,38.856345,,education,http://api.map.baidu.com/place/detail?uid=8fde79ccd9d07abe95ca07fe&output=html&source=placeapi_v2,,,0.0,,,,,,,,0,,,,,,,117.00998850283,38.856443239289,0
d0b8923f4596cd9fb5f42f05,巨家庄中心小学,教育培训,小学,天津市,天津市,静海区,天津市静海区巨家庄中心小学(巨庞路南410米),d0b8923f4596cd9fb5f42f05,1,0,117.004229,38.839832,(022)68669347,education,http://api.map.baidu.com/place/detail?uid=d0b8923f4596cd9fb5f42f05&output=html&source=placeapi_v2,,,1.0,,,,,,,,1,,,,,,,117.00380756983,38.840023239375,0
bd6f3f34e4a067e4c4f50d2d,庞家庄中心小学,教育培训,小学,天津市,天津市,静海区,天津市静海区巨庞路,bd6f3f34e4a067e4c4f50d2d,1,0,117.030032,38.843448,(022)68599336,education,http://api.map.baidu.com/place/detail?uid=bd6f3f34e4a067e4c4f50d2d&output=html&source=placeapi_v2,,,0.0,,,,,,,,0,,,,,,,117.03012792128,38.842896745549,0
09defa74c85cf8b22bd7ab5d,津海小学,教育培训,小学,天津市,天津市,静海区,天津市静海区珠江道,,1,0,117.078958,38.842814,(022)28899702,education,http://api.map.baidu.com/place/detail?uid=09defa74c85cf8b22bd7ab5d&output=html&source=placeapi_v2,,,5,,,,,,,,2,,,,,,,117.07909455462,38.842974026496,0
c7fb04bd28473214fa0cadfc,尧舜小学,教育培训,小学,天津市,天津市,静海区,天津市静海区大邱庄镇渤海路3号,,1,1,117.072741,38.834087,(022)60730122,education,http://api.map.baidu.com/place/detail?uid=c7fb04bd28473214fa0cadfc&output=html&source=placeapi_v2,,,0.0,,,,,,,,0,,,,,,,117.07278834844,38.834141771331,1
2a27171d3982c0e30d3dda5d,津美小学,教育培训,小学,天津市,天津市,静海区,天津市静海区黄河道1号,,1,1,117.074739,38.83395,(022)28899706,education,http://api.map.baidu.com/place/detail?uid=2a27171d3982c0e30d3dda5d&output=html&source=placeapi_v2,,,0.0,,,,,,,,,,,,,,,117.07491270263,38.833893133717,1
f4a33da9dd17c7083010affc,万全小学,教育培训,小学,天津市,天津市,静海区,天津市静海区大邱庄镇长江道2号,f4a33da9dd17c7083010affc,1,1,117.073141,38.834127,(022)28898811,education,http://api.map.baidu.com/place/detail?uid=f4a33da9dd17c7083010affc&output=html&source=placeapi_v2,,,0.0,,,,,,,,,,,,,,,117.07298008726,38.833931663265,1
4bb049d958d25f46990050fa,东兰坨中心小学,教育培训,小学,天津市,天津市,西青区,天津市西青区东兰坨学校路,4bb049d958d25f46990050fa,1,0,117.307524,38.859622,(022)23994331,education,http://api.map.baidu.com/place/detail?uid=4bb049d958d25f46990050fa&output=html&source=placeapi_v2,,,0.0,,,,,,,,0,,,,,,,117.30669822169,38.859826276441,0
2a7a25ec2f3ed9626c3e1b22,栖凤小学,教育培训,小学,天津市,天津市,滨海新区,天津市滨海新区中塘镇栖凤北里,2a7a25ec2f3ed9626c3e1b22,1,0,117.294228,38.829429,(022)63132486,education,http://api.map.baidu.com/place/detail?uid=2a7a25ec2f3ed9626c3e1b22&output=html&source=placeapi_v2,,,0.0,,,,,,,,,,,,,,,117.29406675805,38.82932501737,0
9fbfeef269391647ece4a592,大港第七小学,教育培训,小学,天津市,天津市,滨海新区,天津市滨海新区大港第七小学(鹏翎路南200米),9fbfeef269391647ece4a592,1,0,117.382753,38.858285,(022)63266521,education,http://api.map.baidu.com/place/detail?uid=9fbfeef269391647ece4a592&output=html&source=placeapi_v2,,,0.0,,,,,,,,,,,,,,,117.38183658363,38.858046087667,0
0adce3e2f0580a6080a00cdf,滨海新区大港第五小学,教育培训,小学,天津市,天津市,滨海新区,天津市滨海新区第五小学(中港路北),0adce3e2f0580a6080a00cdf,1,2,117.408875,38.861003,(022)63278155,education,http://api.map.baidu.com/place/detail?uid=0adce3e2f0580a6080a00cdf&output=html&source=placeapi_v2,,,5.0,,,,,,,,3,,,,,,,117.40875621354,38.860900874042,2
a2e601f90323b3cb82288aa7,滨海新区大港第九小学,教育培训,小学,天津市,天津市,滨海新区,天津市滨海新区迎新街19号,a2e601f90323b3cb82288aa7,1,1,117.457897,38.849028,(022)63389100,education,http://api.map.baidu.com/place/detail?uid=a2e601f90323b3cb82288aa7&output=html&source=placeapi_v2,,,3,,,,,,,,5,,,,,,,117.45711050167,38.848771924647,1
dc0f0adcdd27c220f82213df,大港英语实验小学,教育培训,小学,天津市,天津市,滨海新区,天津市滨海新区喜荣街与兴华路交叉路口往南约50米,dc0f0adcdd27c220f82213df,1,2,117.452947,38.840288,(022)63389160,education,http://api.map.baidu.com/place/detail?uid=dc0f0adcdd27c220f82213df&output=html&source=placeapi_v2,,,0,,,,,,,,1,,,,,,,117.45317319897,38.840385595723,2
3f9337d64b83d3b2f72310df,大港第一小学,教育培训,小学,天津市,天津市,滨海新区,天津市滨海新区迎宾街122号,3f9337d64b83d3b2f72310df,1,1,117.46714,38.840511,(022)59719258,education,http://api.map.baidu.com/place/detail?uid=3f9337d64b83d3b2f72310df&output=html&source=placeapi_v2,,,5,,,,,,,,1,,,,,,,117.46809582226,38.841026962687,1
3be122e16be2e12f1ef74dfa,天津市滨海新区大港第十一小学,教育培训,小学,天津市,天津市,滨海新区,天津市滨海新区建安里院内(近迎宾超市),3be122e16be2e12f1ef74dfa,1,1,117.456442,38.853686,(022)63862133,education,http://api.map.baidu.com/place/detail?uid=3be122e16be2e12f1ef74dfa&output=html&source=placeapi_v2,,,4.0,,,,,,,,3,,,,,,,117.45703378548,38.853479132358,1
af1ae56b8521b3134207c122,天津市滨海新区大港第六小学,教育培训,小学,天津市,天津市,滨海新区,天津市滨海新区育秀街366号,af1ae56b8521b3134207c122,1,2,117.473231,38.838094,(022)63109580,education,http://api.map.baidu.com/place/detail?uid=af1ae56b8521b3134207c122&output=html&source=placeapi_v2,,,0,,,,,,,,1,,,,,,,117.47400221063,38.838083388858,2
ae2105be70716a63950319bf,滨海新区大港第二小学,教育培训,小学,天津市,天津市,滨海新区,天津市滨海新区旭日路与育秀街交叉路口往东南约120米,ae2105be70716a63950319bf,1,1,117.473598,38.855477,(022)63100298,education,http://api.map.baidu.com/place/detail?uid=ae2105be70716a63950319bf&output=html&source=placeapi_v2,,,0,,,,,,,,3,,,,,,,117.47268922304,38.855359335126,1
b74ba48656ff7ba1354aae99,天津市滨海新区大港第十二小学,教育培训,小学,天津市,天津市,滨海新区,天津市滨海新区滨海大道城建・阳光美域东侧约70米,b74ba48656ff7ba1354aae99,1,1,117.476449,38.859858,,education,http://api.map.baidu.com/place/detail?uid=b74ba48656ff7ba1354aae99&output=html&source=placeapi_v2,,,,,,,,,,,,,,,,,,117.47635021628,38.860086072813,1
4b10b57c9aff003f5fbe8660,滨海新区大港实验小学建安里校区,教育培训,小学,天津市,天津市,滨海新区,天津市滨海新区大港街道建安里院内近迎宾超市大港实验小学建安里,4b10b57c9aff003f5fbe8660,1,0,117.456859,38.853362,,education,http://api.map.baidu.com/place/detail?uid=4b10b57c9aff003f5fbe8660&output=html&source=placeapi_v2,,,,,,,,,,,,,,,,,,117.45707689247,38.853372554033,0
c8ebd0977858dbb1ae31e5fe,大港第三小学,教育培训,小学,天津市,天津市,滨海新区,天津市滨海新区永明路凯旋苑65号,c8ebd0977858dbb1ae31e5fe,1,1,117.48534,38.849554,(022)63104801,education,http://api.map.baidu.com/place/detail?uid=c8ebd0977858dbb1ae31e5fe&output=html&source=placeapi_v2,,,5,,,,,,,,2,,,,,,,117.48462559405,38.849177302776,1
d6df91c17c56386bf7b916df,滨海新区大港实验小学,教育培训,小学,天津市,天津市,滨海新区,天津市滨海新区迎宾街36-1号,d6df91c17c56386bf7b916df,1,1,117.465766,38.859474,(022)63305086,education,http://api.map.baidu.com/place/detail?uid=d6df91c17c56386bf7b916df&output=html&source=placeapi_v2,,,0,,,,,,,,1,,,,,,,117.46515792936,38.859824424741,1
a95f2a305bb49e292902e11e,大港福源小学,教育培训,小学,天津市,天津市,滨海新区,天津市滨海新区港东新城海景九路436号,a95f2a305bb49e292902e11e,1,1,117.499778,38.859671,(022)63858368,education,http://api.map.baidu.com/place/detail?uid=a95f2a305bb49e292902e11e&output=html&source=placeapi_v2,,,1.0,,,,,,,,2,,,,,,,117.49911563023,38.859509030152,1
79cceb365fc27e8b1e580022,上古林小学,教育培训,小学,天津市,天津市,滨海新区,天津市滨海新区古林街古林里,79cceb365fc27e8b1e580022,1,3,117.490597,38.839686,(022)63226388,education,http://api.map.baidu.com/place/detail?uid=79cceb365fc27e8b1e580022&output=html&source=placeapi_v2,,,5,,,,,,,,2,,,,,,,117.49046627137,38.840591229607,3
c8ebd0977858dbb1ae31e5fe,大港第三小学,教育培训,小学,天津市,天津市,滨海新区,天津市滨海新区永明路凯旋苑65号,c8ebd0977858dbb1ae31e5fe,1,1,117.48534,38.849554,(022)63104801,education,http://api.map.baidu.com/place/detail?uid=c8ebd0977858dbb1ae31e5fe&output=html&source=placeapi_v2,,,5,,,,,,,,2,,,,,,,117.48462559405,38.849177302776,1
49cd6ec7112dbe42ab0dd8ae,天津市静海区子牙镇西高庄中心校,教育培训,小学,天津市,天津市,静海区,天津市静海区子牙镇西高庄村,,1,0,116.741235,38.865002,,education,http://api.map.baidu.com/place/detail?uid=49cd6ec7112dbe42ab0dd8ae&output=html&source=placeapi_v2,,,,,,,,,,,,,,,,,,116.74143797577,38.86501283708,0
f5e3bcaed118f5c05e17c3c0,子牙第四小学,教育培训,小学,天津市,天津市,静海区,天津市静海区子牙镇子牙第四小学,,1,0,116.776896,38.869383,,education,http://api.map.baidu.com/place/detail?uid=f5e3bcaed118f5c05e17c3c0&output=html&source=placeapi_v2,,,0.0,,,,,,,,0,,,,,,,,,0
f1f8ef5551ba593432f71dd6,子牙新城第一小学,教育培训,小学,天津市,天津市,静海区,天津市静海区子牙新城新城四号路,,1,0,116.838474,38.864328,,education,http://api.map.baidu.com/place/detail?uid=f1f8ef5551ba593432f71dd6&output=html&source=placeapi_v2,,,,,,,,,,,,,,,,,,116.83799226266,38.864249658536,0
47dff4fb156925747069d301,西双塘中心小学,教育培训,小学,天津市,天津市,静海区,天津市静海区西兴路176号,47dff4fb156925747069d301,1,1,116.911526,38.877763,(022)68865020,education,http://api.map.baidu.com/place/detail?uid=47dff4fb156925747069d301&output=html&source=placeapi_v2,,,0.0,,,,,,,,,,,,,,,116.91157215258,38.877425157294,1
f22de4b4ad433cdcd72ce2c7,董莫院小学,教育培训,小学,天津市,天津市,静海区,天津市静海区义唐路双塘中学北侧约170米,,1,0,116.914965,38.880796,,education,http://api.map.baidu.com/place/detail?uid=f22de4b4ad433cdcd72ce2c7&output=html&source=placeapi_v2,,,,,,,,,,,,,,,,,,116.91474650913,38.880840895655,0
381243a55b9f468a11882487,杨学士中心学校,教育培训,小学,天津市,天津市,静海区,天津市静海区东双塘,381243a55b9f468a11882487,1,0,116.95882,38.881336,(022)68868765,education,http://api.map.baidu.com/place/detail?uid=381243a55b9f468a11882487&output=html&source=placeapi_v2,,,2.0,,,,,,,,1,,,,,,,116.95868568407,38.881147487738,0
e3a7fd138e14115328b97cfe,高家庄中心小学,教育培训,小学,天津市,天津市,静海区,天津市静海区丰崔路,,1,0,117.022613,38.876218,(022)68663304,education,http://api.map.baidu.com/place/detail?uid=e3a7fd138e14115328b97cfe&output=html&source=placeapi_v2,,,0.0,,,,,,,,0,,,,,,,117.02263626622,38.875955707848,0
c5bfdc1058de916edc1e5279,王稳庄镇中心小学,教育培训,小学,天津市,天津市,西青区,天津市西青区锦汇道与稳泰路交叉路口往西南约80米,c5bfdc1058de916edc1e5279,1,0,117.262891,38.888744,(022)23990203,education,http://api.map.baidu.com/place/detail?uid=c5bfdc1058de916edc1e5279&output=html&source=placeapi_v2,,,5,,,,,,,,1,,,,,,,117.26269167384,38.888766651381,0
287c67247d7f01dfc9fa5f84,南义小学,教育培训,小学,天津市,天津市,津南区,天津市津南区双顺路,287c67247d7f01dfc9fa5f84,1,0,117.382286,38.890609,(022)88528744,education,http://api.map.baidu.com/place/detail?uid=287c67247d7f01dfc9fa5f84&output=html&source=placeapi_v2,,,0.0,,,,,,,,0,,,,,,,117.3824843706,38.890458306041,0
91c13f93751305fb21f017df,大港区第四小学,教育培训,小学,天津市,天津市,滨海新区,天津市滨海新区中塘镇中港路12号,91c13f93751305fb21f017df,1,0,117.393099,38.871323,(022)63278443,education,http://api.map.baidu.com/place/detail?uid=91c13f93751305fb21f017df&output=html&source=placeapi_v2,,,5.0,,,,,,,,2,,,,,,,117.39284572009,38.872081844951,0
f0b04bc6395d2aa5b21e360e,八里台第四小学,教育培训,小学,天津市,天津市,津南区,天津市津南区八里台第四小学,f0b04bc6395d2aa5b21e360e,1,1,117.392833,38.881971,,education,http://api.map.baidu.com/place/detail?uid=f0b04bc6395d2aa5b21e360e&output=html&source=placeapi_v2,,,0.0,,,,,,,,,,,,,,,117.39235626407,38.881362788344,1
6dd5fca6f4df039c077ce8ef,天津市津南区双闸中心小学,教育培训,小学,天津市,天津市,津南区,天津市津南区八里台镇葛万线双闸中心小学公交站,6dd5fca6f4df039c077ce8ef,1,0,117.390356,38.878068,(022)88529342,education,http://api.map.baidu.com/place/detail?uid=6dd5fca6f4df039c077ce8ef&output=html&source=placeapi_v2,,,,,,,,,,,,,,,,,,,,0
e176d2fba6d00e9290114c36,大安小学,教育培训,小学,天津市,天津市,滨海新区,天津市滨海新区兴安花园大港第五小学(安港南路),e176d2fba6d00e9290114c36,1,0,117.424107,38.8781,,education,http://api.map.baidu.com/place/detail?uid=e176d2fba6d00e9290114c36&output=html&source=placeapi_v2,,,0.0,,,,,,,,,,,,,,,117.42401692129,38.878001680284,0
a6567392f986f4beb6147fa1,天津市滨海新区大港东城小学,教育培训,小学,天津市,天津市,滨海新区,经纬城市绿洲海通园东南中铁十八局,a6567392f986f4beb6147fa1,1,0,117.512536,38.868458,,education,http://api.map.baidu.com/place/detail?uid=a6567392f986f4beb6147fa1&output=html&source=placeapi_v2,,,,,,,,,,,,,,,,,,117.51275133565,38.868417057929,0
a15f923f11a42ae9cac3dbe6,王口镇第三小学,教育培训,小学,天津市,天津市,静海区,天津市静海区王口镇政府津文线旧北王口镇,,1,0,116.77468,38.912965,(022)28836627,education,http://api.map.baidu.com/place/detail?uid=a15f923f11a42ae9cac3dbe6&output=html&source=placeapi_v2,,,,,,,,,,,,,,,,,,116.77399566571,38.91255874769,0
bcaebff8979dac55c9e33cc0,静海区梁头镇西柳木中心小学,教育培训,小学,天津市,天津市,静海区,天津市静海区港西路,,1,0,116.838295,38.916958,(022)68969093,education,http://api.map.baidu.com/place/detail?uid=bcaebff8979dac55c9e33cc0&output=html&source=placeapi_v2,,,0.0,,,,,,,,0,,,,,,,116.83839716309,38.916688536126,0
751e4d279baa709d2afc4813,天津市静海区第十二小学,教育培训,小学,天津市,天津市,静海区,天津市静海区杨高路静海镇高家楼小学,,1,0,116.929347,38.907642,,education,http://api.map.baidu.com/place/detail?uid=751e4d279baa709d2afc4813&output=html&source=placeapi_v2,,,,,,,,,,,,,,,,,,,,0
3f826ed3c3da5a47d1f49ec0,静海镇高家楼小学,教育培训,小学,天津市,天津市,静海区,天津市静海区静海南环线与杨高路交叉路口往南约80米,3f826ed3c3da5a47d1f49ec0,1,0,116.929218,38.907561,(022)28910040,education,http://api.map.baidu.com/place/detail?uid=3f826ed3c3da5a47d1f49ec0&output=html&source=placeapi_v2,,,0.0,,,,,,,,0,,,,,,,116.92943394795,38.907567329842,0
55fa2c0b1e25d62c1ce999c0,静海区双塘镇八里庄中心小学,教育培训,小学,天津市,天津市,静海区,天津市静海区全境双塘镇八里庄村北双塘镇,55fa2c0b1e25d62c1ce999c0,1,0,116.92621,38.900886,,education,http://api.map.baidu.com/place/detail?uid=55fa2c0b1e25d62c1ce999c0&output=html&source=placeapi_v2,,,0.0,,,,,,,,0,,,,,,,116.9262690236,38.900638951051,0
85026648a842c586f7eafc86,史家庄小学,教育培训,小学,天津市,天津市,静海区,天津市静海区团静路史家庄幼儿园西侧,85026648a842c586f7eafc86,1,0,116.999951,38.911256,,education,http://api.map.baidu.com/place/detail?uid=85026648a842c586f7eafc86&output=html&source=placeapi_v2,,,,,,,,,,,,,,,,,,,,0
6835e3a7d3f5ac4fe31103fe,后明庄中心小学,教育培训,小学,天津市,天津市,静海区,天津市静海区明庄村后,6835e3a7d3f5ac4fe31103fe,1,0,117.011436,38.920025,(022)68663344,education,http://api.map.baidu.com/place/detail?uid=6835e3a7d3f5ac4fe31103fe&output=html&source=placeapi_v2,,,0.0,,,,,,,,0,,,,,,,117.01128363839,38.920196915194,0
7159d2af6e530037d3ff238f,天津市静海区梅厂明德小学,教育培训,小学,天津市,天津市,静海区,天津市静海区团王线,,1,0,117.042226,38.916095,,education,http://api.map.baidu.com/place/detail?uid=7159d2af6e530037d3ff238f&output=html&source=placeapi_v2,,,0.0,,,,,,,,1,,,,,,,117.04209335067,38.915812284634,0
58a611d710517b95eedfca1f,大丰堆小学,教育培训,小学,天津市,天津市,静海区,天津市静海区S311(团静路),,1,0,117.023566,38.900171,,education,http://api.map.baidu.com/place/detail?uid=58a611d710517b95eedfca1f&output=html&source=placeapi_v2,,,,,,,,,,,,,,,,,,,,0
e96b4420e98e555a82288ada,双窑小学,教育培训,小学,天津市,天津市,静海区,天津市静海区杨成庄乡双窑中心小学,e96b4420e98e555a82288ada,1,0,117.074356,38.920982,(022)68641341,education,http://api.map.baidu.com/place/detail?uid=e96b4420e98e555a82288ada&output=html&source=placeapi_v2,,,,,,,,,,,,,,,,,,,,0
6354a37a6d3261248bb9886c,团泊小学,教育培训,小学,天津市,天津市,静海区,天津市静海区团泊镇团泊政府北侧,6354a37a6d3261248bb9886c,1,1,117.172011,38.909612,(022)68504081,education,http://api.map.baidu.com/place/detail?uid=6354a37a6d3261248bb9886c&output=html&source=placeapi_v2,,,0,,,,,,,,2,,,,,,,117.17045855984,38.909892795839,1
0dc3d82d857e7a6d75e5b6fb,大侯庄小学,教育培训,小学,天津市,天津市,西青区,天津市西青区津淄路与大侯庄路交叉路口往西南约200米,0dc3d82d857e7a6d75e5b6fb,1,0,117.251045,38.919408,,education,http://api.map.baidu.com/place/detail?uid=0dc3d82d857e7a6d75e5b6fb&output=html&source=placeapi_v2,,,0.0,,,,,,,,0,,,,,,,117.25130584913,38.919224554022,0
ffd6d403bb8ea58e16b54ba6,大孙庄小学,教育培训,小学,天津市,天津市,津南区,天津市津南区白万路,ffd6d403bb8ea58e16b54ba6,1,0,117.31413,38.916127,(022)88520217,education,http://api.map.baidu.com/place/detail?uid=ffd6d403bb8ea58e16b54ba6&output=html&source=placeapi_v2,,,0.0,,,,,,,,,,,,,,,117.31391132119,38.916126762735,0
ffd6d403bb8ea58e16b54ba6,大孙庄小学,教育培训,小学,天津市,天津市,津南区,天津市津南区白万路,ffd6d403bb8ea58e16b54ba6,1,0,117.31413,38.916127,(022)88520217,education,http://api.map.baidu.com/place/detail?uid=ffd6d403bb8ea58e16b54ba6&output=html&source=placeapi_v2,,,0.0,,,,,,,,,,,,,,,117.31391132119,38.916126762735,0
a4919f5ae2e6c307f4eafcc1,八里台实验小学,教育培训,小学,天津市,天津市,津南区,天津市津南区,,1,0,117.35142,38.920856,,education,http://api.map.baidu.com/place/detail?uid=a4919f5ae2e6c307f4eafcc1&output=html&source=placeapi_v2,,,,,,,,,,,,,,,,,,117.35153070845,38.920531832587,0
ad149e27fd5aab2293114cc9,小站第四小学,教育培训,小学,天津市,天津市,津南区,天津市津南区工业六号路115号,ad149e27fd5aab2293114cc9,1,0,117.42987,38.907237,(022)88615077,education,http://api.map.baidu.com/place/detail?uid=ad149e27fd5aab2293114cc9&output=html&source=placeapi_v2,,,5,,,,,,,,1,,,,,,,117.42974218971,38.907119082463,0
6edc97a8417d91e5fb22133d,天津市小站镇第五小学,教育培训,小学,天津市,天津市,津南区,天津市津南区小站经济开发管理中心,,1,0,117.426259,38.917641,,education,http://api.map.baidu.com/place/detail?uid=6edc97a8417d91e5fb22133d&output=html&source=placeapi_v2,,,0.0,,,,,,,,0,,,,,,,,,0
f44609183e68fd6bb01e36a6,天津市津南区小站镇第一小学,教育培训,小学,天津市,天津市,津南区,天津市津南区津歧路辅路S106,f44609183e68fd6bb01e36a6,1,1,117.438345,38.921306,(022)88615073,education,http://api.map.baidu.com/place/detail?uid=f44609183e68fd6bb01e36a6&output=html&source=placeapi_v2,,,5,,,,,,,,3,,,,,,,117.43703014681,38.920752953936,1
06d812f6f4ee6dd47069d33a,王口第一小学,教育培训,小学,天津市,天津市,静海区,天津市静海区关帝庙大街与富强街交叉口北200米,06d812f6f4ee6dd47069d33a,1,0,116.749789,38.945498,(022)28836063,education,http://api.map.baidu.com/place/detail?uid=06d812f6f4ee6dd47069d33a&output=html&source=placeapi_v2,,,0.0,,,,,,,,0,,,,,,,116.7497071906,38.945183836607,0
d219bb1d1a058f8af50e77c3,王口镇第二小学,教育培训,小学,天津市,天津市,静海区,天津市静海区校园街,,1,0,116.767337,38.944269,(022)68276580,education,http://api.map.baidu.com/place/detail?uid=d219bb1d1a058f8af50e77c3&output=html&source=placeapi_v2,,,0.0,,,,,,,,1,,,,,,,116.76697211765,38.943446179909,0
0058610877f0dda446e274c3,梁头中心小学,教育培训,小学,天津市,天津市,静海区,天津市静海区梁头镇梁台路42号,0058610877f0dda446e274c3,1,1,116.865663,38.946527,(022)68965388,education,http://api.map.baidu.com/place/detail?uid=0058610877f0dda446e274c3&output=html&source=placeapi_v2,,,0.0,,,,,,,,,,,,,,,116.86526158764,38.946551082486,1
15e1e85e39920fdf5810932b,静海区梁头镇张庄子小学,教育培训,小学,天津市,天津市,静海区,天津市静海区全境北张庄路与口张路交叉口西100米区梁头镇,15e1e85e39920fdf5810932b,1,0,116.87614,38.953114,,education,http://api.map.baidu.com/place/detail?uid=15e1e85e39920fdf5810932b&output=html&source=placeapi_v2,,,0.0,,,,,,,,0,,,,,,,116.87608649242,38.952908149309,0
d26bfb737c4cc3c58505bfdd,鹏运钉线,,,天津市,天津市,静海区,天津市静海区口张路静海区梁头镇张庄子小学西侧约40米,,1,0,116.875189,38.953136,,life,http://api.map.baidu.com/place/detail?uid=d26bfb737c4cc3c58505bfdd&output=html&source=placeapi_v2,,,,,,,,,,,,,,,,,,116.87517209377,38.953063135295,0
352b60ece6c23f649ee32110,静海区运河小学,教育培训,小学,天津市,天津市,静海区,天津市静海区涞文线与口张路交叉路口西北侧,352b60ece6c23f649ee32110,1,1,116.916599,38.943348,(022)28910847,education,http://api.map.baidu.com/place/detail?uid=352b60ece6c23f649ee32110&output=html&source=placeapi_v2,,,,,,,,,,,,,,,,,,116.91670743191,38.943376544347,1
d5464cf8fbad4756fda778fd,天津静海实验小学,教育培训,小学,天津市,天津市,静海区,天津市静海区工农大街152号,d5464cf8fbad4756fda778fd,1,1,116.925091,38.942583,(022)28942563,education,http://api.map.baidu.com/place/detail?uid=d5464cf8fbad4756fda778fd&output=html&source=placeapi_v2,,,4.5,,,,,,,,4,,,,,,,116.92554672848,38.942239149177,1
95d4e5b5b6278ef3cac3db73,静海区第十一小学,教育培训,小学,天津市,天津市,静海区,天津市静海区义唐路静海区静海镇花园中心小学,95d4e5b5b6278ef3cac3db73,1,0,116.918543,38.930431,,education,http://api.map.baidu.com/place/detail?uid=95d4e5b5b6278ef3cac3db73&output=html&source=placeapi_v2,,,,,,,,,,,,,,,,,,,,0
d24e48eb27bb6eb5afee7afd,天津市静海区第四小学,教育培训,小学,天津市,天津市,静海区,天津市静海区北纬二路6号,d24e48eb27bb6eb5afee7afd,1,2,116.92659,38.948783,(022)28942198,education,http://api.map.baidu.com/place/detail?uid=d24e48eb27bb6eb5afee7afd&output=html&source=placeapi_v2,,,0.0,,,,,,,,,,,,,,,116.92696603592,38.949282467047,2
48eb005847eb5dac2fe67bfd,静海镇第三小学,教育培训,小学,天津市,天津市,静海区,天津市静海区胜利南路51号,48eb005847eb5dac2fe67bfd,1,1,116.929214,38.932371,(022)28942680,education,http://api.map.baidu.com/place/detail?uid=48eb005847eb5dac2fe67bfd&output=html&source=placeapi_v2,,,0.0,,,,,,,,,,,,,,,116.92962550082,38.931770043707,1
6a26145c9f075d3204fef579,静海镇第七小学,教育培训,小学,天津市,天津市,静海区,天津市静海区胜利南路74号,6a26145c9f075d3204fef579,1,0,116.929145,38.932237,(022)28910659,education,http://api.map.baidu.com/place/detail?uid=6a26145c9f075d3204fef579&output=html&source=placeapi_v2,,,,,,,,,,,,,,,,,,,,0
fec334964735126f0969d932,静海区静海镇花园中心小学,教育培训,小学,天津市,天津市,静海区,天津市静海区静海镇花园,fec334964735126f0969d932,1,1,116.918285,38.929793,(022)28916754,education,http://api.map.baidu.com/place/detail?uid=fec334964735126f0969d932&output=html&source=placeapi_v2,,,0.0,,,,,,,,0,,,,,,,116.91879215915,38.929587401461,1
ae0179530859f7ce9f95de4c,静海区第六小学,教育培训,小学,天津市,天津市,静海区,天津市静海区静海镇东五里,ae0179530859f7ce9f95de4c,1,2,116.958288,38.93416,(022)68685627,education,http://api.map.baidu.com/place/detail?uid=ae0179530859f7ce9f95de4c&output=html&source=placeapi_v2,,,0,,,,,,,,1,,,,,,,116.95906935844,38.934429892047,2
4cf8d24e60080fe59cf779fd,静海镇第五小学,教育培训,小学,天津市,天津市,静海区,天津市静海区东方红路与东平道交叉口西北方向180米,4cf8d24e60080fe59cf779fd,1,1,116.946281,38.938572,(022)28942298,education,http://api.map.baidu.com/place/detail?uid=4cf8d24e60080fe59cf779fd&output=html&source=placeapi_v2,,,0,,,,,,,,1,,,,,,,116.94627077314,38.938070781189,1
663dac72297cb73f3904b1e3,静海区模范小学,教育培训,小学,天津市,天津市,静海区,天津市静海区地纬路20号,663dac72297cb73f3904b1e3,1,1,116.976509,38.944283,(022)68603083,education,http://api.map.baidu.com/place/detail?uid=663dac72297cb73f3904b1e3&output=html&source=placeapi_v2,,,5,,,,,,,,2,,,,,,,116.97698416461,38.944862107271,1
234eaf05051fb0a6430245a4,天津市静海区第九小学,教育培训,小学,天津市,天津市,静海区,天津市静海区静海镇瑞和道同兴小学东南门,234eaf05051fb0a6430245a4,1,1,116.966193,38.950813,(022)68686400,education,http://api.map.baidu.com/place/detail?uid=234eaf05051fb0a6430245a4&output=html&source=placeapi_v2,,,0.0,,,,,,,,0,,,,,,,116.96631776484,38.95081127497,1
1eeed546661bddf3b5147ffd,同兴小学,教育培训,小学,天津市,天津市,静海区,天津市静海区静海镇西边庄,1eeed546661bddf3b5147ffd,1,1,116.966231,38.951234,(022)68686400,education,http://api.map.baidu.com/place/detail?uid=1eeed546661bddf3b5147ffd&output=html&source=placeapi_v2,,,0.0,,,,,,,,,,,,,,,116.96632363578,38.950760587755,1
1659db20775243abadb22a05,广海道小学,教育培训,小学,天津市,天津市,静海区,天津市静海区东方红路11号,1659db20775243abadb22a05,1,0,117.007881,38.940907,,education,http://api.map.baidu.com/place/detail?uid=1659db20775243abadb22a05&output=html&source=placeapi_v2,,,,,,,,,,,,,,,,,,117.00794348159,38.940792102815,0
19aa51c6f7c311df9ee321df,瀛海小学(东校区),教育培训,小学,天津市,天津市,静海区,天津市静海区东方红路华夏科技园南侧约200米,19aa51c6f7c311df9ee321df,1,0,117.008549,38.941513,,education,http://api.map.baidu.com/place/detail?uid=19aa51c6f7c311df9ee321df&output=html&source=placeapi_v2,,,,,,,,,,,,,,,,,,,,0
c879fa01fdbcfd36c909f016,徐庄子中心小学,教育培训,小学,天津市,天津市,静海区,天津市静海区津文路19号,c879fa01fdbcfd36c909f016,1,1,116.989879,38.959511,,education,http://api.map.baidu.com/place/detail?uid=c879fa01fdbcfd36c909f016&output=html&source=placeapi_v2,,,0.0,,,,,,,,,,,,,,,116.99048546826,38.959145227937,1
2d1769d0035724be2bb97c37,天津市静海区第八小学,教育培训,小学,天津市,天津市,静海区,天津市静海区全境静海镇徐庄子村北,2d1769d0035724be2bb97c37,1,1,116.990561,38.959182,,education,http://api.map.baidu.com/place/detail?uid=2d1769d0035724be2bb97c37&output=html&source=placeapi_v2,,,,,,,,,,,,,,,,,,116.99056906457,38.959115585404,1
663dac72297cb73f3904b1e3,静海区模范小学,教育培训,小学,天津市,天津市,静海区,天津市静海区地纬路20号,663dac72297cb73f3904b1e3,1,1,116.976509,38.944283,(022)68603083,education,http://api.map.baidu.com/place/detail?uid=663dac72297cb73f3904b1e3&output=html&source=placeapi_v2,,,5,,,,,,,,2,,,,,,,116.97698416461,38.944862107271,1
72e57fd797f766aef8dc85fe,宫家屯小学,教育培训,小学,天津市,天津市,静海区,天津市静海区宫家屯路北50米,,1,0,117.042587,38.943523,(022)68650217,education,http://api.map.baidu.com/place/detail?uid=72e57fd797f766aef8dc85fe&output=html&source=placeapi_v2,,,0.0,,,,,,,,0,,,,,,,,,0
7fd72311daf50a9e5cbe86fe,董庄窠中心小学,教育培训,小学,天津市,天津市,静海区,天津市静海区毕杨公路靠近,7fd72311daf50a9e5cbe86fe,1,0,117.09366,38.953105,(022)68651004,education,http://api.map.baidu.com/place/detail?uid=7fd72311daf50a9e5cbe86fe&output=html&source=placeapi_v2,,,0.0,,,,,,,,0,,,,,,,117.0935453124,38.952899524392,0
30f17d8678ed025fe215f910,建新小学,教育培训,小学,天津市,天津市,西青区,天津市西青区王稳庄镇建新村,30f17d8678ed025fe215f910,1,0,117.178431,38.956522,13821894959,education,http://api.map.baidu.com/place/detail?uid=30f17d8678ed025fe215f910&output=html&source=placeapi_v2,,,0.0,,,,,,,,,,,,,,,117.17888731373,38.956752033878,0
8fa14fc326fc8213f7eafcfa,小孙庄小学,教育培训,小学,天津市,天津市,西青区,天津市西青区二经路与三纬路交叉路口往西南约100米,,1,0,117.216211,38.947497,,education,http://api.map.baidu.com/place/detail?uid=8fa14fc326fc8213f7eafcfa&output=html&source=placeapi_v2,,,0.0,,,,,,,,,,,,,,,117.21616133307,38.946744597178,0
2e00c5dd8537591dd6851fa1,大韩庄小学,教育培训,小学,天津市,天津市,津南区,天津市津南区地区八里台镇新建,2e00c5dd8537591dd6851fa1,1,0,117.304531,38.950569,(022)88521382,education,http://api.map.baidu.com/place/detail?uid=2e00c5dd8537591dd6851fa1&output=html&source=placeapi_v2,,,0.0,,,,,,,,0,,,,,,,,,0
c5ddcc08019f3ac7d91318a1,八里台第一小学,教育培训,小学,天津市,天津市,津南区,天津市津南区北闸口镇,c5ddcc08019f3ac7d91318a1,1,2,117.336619,38.952838,(022)88521515,education,http://api.map.baidu.com/place/detail?uid=c5ddcc08019f3ac7d91318a1&output=html&source=placeapi_v2,,,0,,,,,,,,1,,,,,,,117.33633360163,38.951807436557,2
f14bafe94e108b406dc02c14,北义小学,教育培训,小学,天津市,天津市,津南区,天津市津南区津港公路,f14bafe94e108b406dc02c14,1,0,117.370186,38.943724,,education,http://api.map.baidu.com/place/detail?uid=f14bafe94e108b406dc02c14&output=html&source=placeapi_v2,,,,,,,,,,,,,,,,,,117.37016950665,38.943610366896,0
f303a486447744d0ab059d37,天津市津南区西右营联合小学,教育培训,小学,天津市,天津市,津南区,天津市津南区西右营联合小学(津港高速公路南),f303a486447744d0ab059d37,1,0,117.38,38.950751,,education,http://api.map.baidu.com/place/detail?uid=f303a486447744d0ab059d37&output=html&source=placeapi_v2,,,0.0,,,,,,,,0,,,,,,,,,0
fd13a3f235acc5fbb0077da2,小站第六小学,教育培训,小学,天津市,天津市,津南区,天津市津南区天山路15号,fd13a3f235acc5fbb0077da2,1,1,117.439114,38.939607,,education,http://api.map.baidu.com/place/detail?uid=fd13a3f235acc5fbb0077da2&output=html&source=placeapi_v2,,,5,,,,,,,,1,,,,,,,117.43979431461,38.940313402357,1
588938dc9739817888f15d76,北闸口第二小学,教育培训,小学,天津市,天津市,津南区,天津市津南区北营路与福惠道交叉路口往东约100米(尚智园西南侧约100米),,1,1,117.417861,38.9522,(022)66222685,education,http://api.map.baidu.com/place/detail?uid=588938dc9739817888f15d76&output=html&source=placeapi_v2,,,5,,,,,,,,2,,,,,,,117.41734194452,38.952880928035,1
88fe7e072cfb03fc0f0a70fd,天津市小站实验中学,教育培训,小学,天津市,天津市,津南区,天津市津南区小站镇北马路19号,88fe7e072cfb03fc0f0a70fd,1,0,117.435842,38.937946,,education,http://api.map.baidu.com/place/detail?uid=88fe7e072cfb03fc0f0a70fd&output=html&source=placeapi_v2,,,,,,,,,,,,,,,,,,,,0
b2bd0144cdbd2eee00ec01f8,天津市津南区后营小学,教育培训,小学,天津市,天津市,津南区,天津市津南区北闸口镇后营村,,1,0,117.431104,38.940514,,education,http://api.map.baidu.com/place/detail?uid=b2bd0144cdbd2eee00ec01f8&output=html&source=placeapi_v2,,,0.0,,,,,,,,0,,,,,,,,,0
38e48037ab167d34373a71f4,小站第三小学,教育培训,小学,天津市,天津市,津南区,天津市津南区前营路与寿昌路交叉路口往东约150米,38e48037ab167d34373a71f4,1,1,117.460131,38.933408,(022)88615076,education,http://api.map.baidu.com/place/detail?uid=38e48037ab167d34373a71f4&output=html&source=placeapi_v2,,,5,,,,,,,,1,,,,,,,117.45926643849,38.933952422056,1
d24e48eb261a71b5aeee7aa2,东大站小学,教育培训,小学,天津市,天津市,津南区,天津市津南区葛万路与新开路交叉路口往西南约220米,,1,1,117.485917,38.953171,(022)88615091,education,http://api.map.baidu.com/place/detail?uid=d24e48eb261a71b5aeee7aa2&output=html&source=placeapi_v2,,,4.5,,,,,,,,2,,,,,,,117.48620400397,38.952663486938,1
4cf8d24e600a0fe59cf779c3,王口镇第四小学,教育培训,小学,天津市,天津市,静海区,天津市静海区王口镇第四小学,,1,1,116.77703,38.982914,(022)68168162,education,http://api.map.baidu.com/place/detail?uid=4cf8d24e600a0fe59cf779c3&output=html&source=placeapi_v2,,,0.0,,,,,,,,0,,,,,,,116.77719232,38.982923067377,1
f73f2ed670b2826f0bf5eb20,静海区梁头乡谷庄子村小学,教育培训,小学,天津市,天津市,静海区,静海区静台路,,1,0,116.877807,38.971072,,education,http://api.map.baidu.com/place/detail?uid=f73f2ed670b2826f0bf5eb20&output=html&source=placeapi_v2,,,0.0,,,,,,,,0,,,,,,,,,0
48eb005847e95dac2fe67bc3,罗塘中心小学,教育培训,小学,天津市,天津市,静海区,天津市静海区梁头镇罗塘小学(梁台路北),48eb005847e95dac2fe67bc3,1,0,116.872897,38.962423,(022)68959753,education,http://api.map.baidu.com/place/detail?uid=48eb005847e95dac2fe67bc3&output=html&source=placeapi_v2,,,0,,,,,,,,,,,,,,,116.87307129405,38.962334062697,0
02727e30d63b0560a6da39ca,天津佳能希望小学,教育培训,小学,天津市,天津市,静海区,天津市静海区冯孟路,,1,0,116.889191,38.980982,,education,http://api.map.baidu.com/place/detail?uid=02727e30d63b0560a6da39ca&output=html&source=placeapi_v2,,,0.0,,,,,,,,,,,,,,,116.88829028808,38.981126842142,0
dab788fbfac77593fda778ab,静海镇北五里中心小学,教育培训,小学,天津市,天津市,静海区,天津市静海区全境静海镇北五里村委会北五里,,1,0,116.92629,38.966437,(022)28917213,education,http://api.map.baidu.com/place/detail?uid=dab788fbfac77593fda778ab&output=html&source=placeapi_v2,,,,,,,,,,,,,,,,,,,,0
06889459c5d50a01ad31e507,天津市静海区第十三小学,教育培训,小学,天津市,天津市,静海区,天津市静海区静海镇北五里村正东方向10米,,1,0,116.9261,38.966552,(022)28917213,education,http://api.map.baidu.com/place/detail?uid=06889459c5d50a01ad31e507&output=html&source=placeapi_v2,,,,,,,,,,,,,,,,,,116.92611333738,38.96666093579,0
2ad32cc3214447f29d95de33,良王庄乡府君庙小学,教育培训,小学,天津市,天津市,静海区,天津市静海区良王庄乡府君庙村,,1,0,116.927762,38.987493,,education,http://api.map.baidu.com/place/detail?uid=2ad32cc3214447f29d95de33&output=html&source=placeapi_v2,,,5.0,,,,,,,,1,,,,,,,116.92782632426,38.987621771331,0
c879fa01fdbcfd36c909f016,徐庄子中心小学,教育培训,小学,天津市,天津市,静海区,天津市静海区津文路19号,c879fa01fdbcfd36c909f016,1,1,116.989879,38.959511,,education,http://api.map.baidu.com/place/detail?uid=c879fa01fdbcfd36c909f016&output=html&source=placeapi_v2,,,0.0,,,,,,,,,,,,,,,116.99048546826,38.959145227937,1
2d1769d0035724be2bb97c37,天津市静海区第八小学,教育培训,小学,天津市,天津市,静海区,天津市静海区全境静海镇徐庄子村北,2d1769d0035724be2bb97c37,1,1,116.990561,38.959182,,education,http://api.map.baidu.com/place/detail?uid=2d1769d0035724be2bb97c37&output=html&source=placeapi_v2,,,,,,,,,,,,,,,,,,116.99056906457,38.959115585404,1
e96b4420c1a07d5882288afe,杨成庄砖垛小学,教育培训,小学,天津市,天津市,静海区,天津市静海区杨成庄乡杨成庄,,1,0,117.059438,38.982764,(022)68645437,education,http://api.map.baidu.com/place/detail?uid=e96b4420c1a07d5882288afe&output=html&source=placeapi_v2,,,4.5,,,,,,,,2,,,,,,,117.05972352066,38.982038437849,0
23116913b7c5aefc734b87fe,东寨中心小学,教育培训,小学,天津市,天津市,静海区,天津市静海区东寨小学(团王线西450米),,1,0,117.054392,38.961289,(022)68651142,education,http://api.map.baidu.com/place/detail?uid=23116913b7c5aefc734b87fe&output=html&source=placeapi_v2,,,0.0,,,,,,,,,,,,,,,117.05485011984,38.960653701645,0
4ce10ce603c7cda0441a32fa,青凝侯小学,教育培训,小学,天津市,天津市,西青区,天津市西青区大寺镇青凝侯村,,1,0,117.166323,38.986658,(022)23752961,education,http://api.map.baidu.com/place/detail?uid=4ce10ce603c7cda0441a32fa&output=html&source=placeapi_v2,,,0.0,,,,,,,,,,,,,,,117.16631291944,38.986016576488,0
61085211f15baba0c41b75a2,北闸口第三小学,教育培训,小学,天津市,天津市,津南区,天津市津南区津歧公路与三道沟路交叉路口往西南约150米,61085211f15baba0c41b75a2,1,0,117.387308,38.978595,(022)28510061,education,http://api.map.baidu.com/place/detail?uid=61085211f15baba0c41b75a2&output=html&source=placeapi_v2,,,0.0,,,,,,,,,,,,,,,117.38712546691,38.978661651404,0
05affb7ab7cf076ffbf0cb82,三道沟小学,教育培训,小学,天津市,天津市,津南区,天津市津南区三道沟路北闸口第三小学,,1,0,117.387613,38.978697,(022)28510061,education,http://api.map.baidu.com/place/detail?uid=05affb7ab7cf076ffbf0cb82&output=html&source=placeapi_v2,,,,,,,,,,,,,,,,,,117.38751377923,38.978834080074,0
ef5c7dae5590d0672efaa78f,咸水沽第六小学,教育培训,小学,天津市,天津市,津南区,天津市津南区同声路与雅润路交叉路口往东南约150米,ef5c7dae5590d0672efaa78f,1,2,117.375512,38.992335,,education,http://api.map.baidu.com/place/detail?uid=ef5c7dae5590d0672efaa78f&output=html&source=placeapi_v2,,,0.0,,,,,,,,,,,,,,,117.37616429457,38.992998063295,2
d219bb1d19a6908af40e77a2,北闸口小学,教育培训,小学,天津市,天津市,津南区,天津市津南区人安里6号楼5号,d219bb1d19a6908af40e77a2,1,1,117.410694,38.960515,,education,http://api.map.baidu.com/place/detail?uid=d219bb1d19a6908af40e77a2&output=html&source=placeapi_v2,,,0.0,,,,,,,,,,,,,,,117.41135179635,38.959749387763,1
5b8fd21877320d24f4b916e0,津南区咸水沽第七小学,教育培训,小学,天津市,天津市,津南区,天津市津南区金茂路15号,5b8fd21877320d24f4b916e0,1,1,117.411159,38.98749,(022)28391777,education,http://api.map.baidu.com/place/detail?uid=5b8fd21877320d24f4b916e0&output=html&source=placeapi_v2,,,4.5,,,,,,,,2,,,,,,,117.41189863713,38.987727945683,1
c350c3a72113f1e9db1318de,葛沽第二小学,教育培训,小学,天津市,天津市,津南区,天津市津南区华景道c区85号楼,,1,1,117.502767,38.989786,(022)89965101,education,http://api.map.baidu.com/place/detail?uid=c350c3a72113f1e9db1318de&output=html&source=placeapi_v2,,,0.0,,,,,,,,1,,,,,,,117.50269597326,38.98867298249,1
08f1f1f56b2270b788db73f4,邓岑子联合小学,教育培训,小学,天津市,天津市,津南区,天津市津南区辛庄子村路与谊华路交叉路口往东北约50米,,1,0,117.488354,38.974699,,education,http://api.map.baidu.com/place/detail?uid=08f1f1f56b2270b788db73f4&output=html&source=placeapi_v2,,,0.0,,,,,,,,0,,,,,,,,,0
57909d2758a7ae7c3f9a5e69,天津市津南区三合联合小学,教育培训,小学,天津市,天津市,津南区,天津市津南区富康路,57909d2758a7ae7c3f9a5e69,1,0,117.536134,38.981915,,education,http://api.map.baidu.com/place/detail?uid=57909d2758a7ae7c3f9a5e69&output=html&source=placeapi_v2,,,0.0,,,,,,,,0,,,,,,,117.53605675551,38.981906038986,0
bdf73ccfdfa6d212455726db,塘沽湾第一小学(上海道分校),教育培训,小学,天津市,天津市,滨海新区,天津市滨海新区津沽公路与海波路交汇处西北角,,1,2,117.586104,38.984228,,education,http://api.map.baidu.com/place/detail?uid=bdf73ccfdfa6d212455726db&output=html&source=placeapi_v2,,,0.0,,,,,,,,,,,,,,,117.58705937135,38.984782183948,2
0a522d34f84aba922bd7aba3,天津师范大学滨海附属小学,教育培训,小学,天津市,天津市,滨海新区,天津市滨海新区东台路605号,0a522d34f84aba922bd7aba3,1,2,117.71009,38.988347,(022)25315317,education,http://api.map.baidu.com/place/detail?uid=0a522d34f84aba922bd7aba3&output=html&source=placeapi_v2,,,,,,,,,,,,,,,,,,117.70951199564,38.988445833898,2
f757e6ee5be2a269270bd0af,渤海石油第二小学,教育培训,小学,天津市,天津市,滨海新区,天津市滨海新区石油新村路299-177号,f757e6ee5be2a269270bd0af,1,2,117.695032,38.980994,"(022)60718241,(022)60718277",education,http://api.map.baidu.com/place/detail?uid=f757e6ee5be2a269270bd0af&output=html&source=placeapi_v2,,,5,,,,,,,,2,,,,,,,117.69503600612,38.980877161322,2
4eb3b5331ea93274430245fc,黄岔小学,教育培训,小学,天津市,天津市,静海区,天津市静海区梁台路,,1,0,116.795516,39.018802,(022)68139144,education,http://api.map.baidu.com/place/detail?uid=4eb3b5331ea93274430245fc&output=html&source=placeapi_v2,,,0.0,,,,,,,,0,,,,,,,116.79554503125,39.018995709564,0
8e650dfdb87be5404c6d4623,台头镇大六分小学,教育培训,小学,天津市,天津市,静海区,天津市静海区台头镇大六分小学(姜坝路南),8e650dfdb87be5404c6d4623,1,0,116.837489,39.00864,,education,http://api.map.baidu.com/place/detail?uid=8e650dfdb87be5404c6d4623&output=html&source=placeapi_v2,,,0.0,,,,,,,,,,,,,,,116.83722579606,39.008448673765,0
c48fe75a7542356ba3acc496,苟家营小学,教育培训,小学,天津市,天津市,静海区,天津市静海区独静路与苟家营路交叉口北150米,,1,0,116.914103,38.999723,,education,http://api.map.baidu.com/place/detail?uid=c48fe75a7542356ba3acc496&output=html&source=placeapi_v2,,,0.0,,,,,,,,0,,,,,,,,,0
1a57a35a1e16ae9593114cb3,陈台子小学,教育培训,小学,天津市,天津市,西青区,精武镇陈台子路与团泊大道交叉口附近,1a57a35a1e16ae9593114cb3,1,0,117.120048,38.996308,,education,http://api.map.baidu.com/place/detail?uid=1a57a35a1e16ae9593114cb3&output=html&source=placeapi_v2,,,,,,,,,,,,,,,,,,,,0
37d60a469ce105611e1d11f6,大寺中心小学,教育培训,小学,天津市,天津市,西青区,天津市西青区龙泉道35号,37d60a469ce105611e1d11f6,1,1,117.224777,39.016859,(022)23970427,education,http://api.map.baidu.com/place/detail?uid=37d60a469ce105611e1d11f6&output=html&source=placeapi_v2,,,1,,,,,,,,3,,,,,,,117.22473255102,39.017550230372,1
d6949df534dc11176d20b912,天易园小学,教育培训,小学,天津市,天津市,西青区,天津市西青区赛达大道628号,d6949df534dc11176d20b912,1,1,117.229862,39.000753,,education,http://api.map.baidu.com/place/detail?uid=d6949df534dc11176d20b912&output=html&source=placeapi_v2,,,,,,,,,,,,,,,,,,117.22975388748,39.001223529931,1
0ce65c2d9cf7b6582d4733fa,大芦北口中心小学,教育培训,小学,天津市,天津市,西青区,天津市西青区大寺镇大芦北口,0ce65c2d9cf7b6582d4733fa,1,0,117.224413,38.993848,(022)23970325,education,http://api.map.baidu.com/place/detail?uid=0ce65c2d9cf7b6582d4733fa&output=html&source=placeapi_v2,,,0.0,,,,,,,,2,,,,,,,117.22432231915,38.994601529593,0
d6949df534dc11176d20b912,天易园小学,教育培训,小学,天津市,天津市,西青区,天津市西青区赛达大道628号,d6949df534dc11176d20b912,1,1,117.229862,39.000753,,education,http://api.map.baidu.com/place/detail?uid=d6949df534dc11176d20b912&output=html&source=placeapi_v2,,,,,,,,,,,,,,,,,,117.22975388748,39.001223529931,1
4642844a7ffeced8c9fa5ff0,南北口雅爱中心小学,教育培训,小学,天津市,天津市,西青区,天津市西青区佳和雅庭旁,4642844a7ffeced8c9fa5ff0,1,1,117.271459,39.002223,,education,http://api.map.baidu.com/place/detail?uid=4642844a7ffeced8c9fa5ff0&output=html&source=placeapi_v2,,,0,,,,,,,,0,,,,,,,117.27182595777,39.002144479653,1
4642844a7ffeced8c9fa5ff0,南北口雅爱中心小学,教育培训,小学,天津市,天津市,西青区,天津市西青区佳和雅庭旁,4642844a7ffeced8c9fa5ff0,1,1,117.271459,39.002223,,education,http://api.map.baidu.com/place/detail?uid=4642844a7ffeced8c9fa5ff0&output=html&source=placeapi_v2,,,0,,,,,,,,0,,,,,,,117.27182595777,39.002144479653,1
858234c2a7bf40afeedfca4d,赛达津衡实验小学,教育培训,小学,天津市,天津市,西青区,天津市西青区泽福路亲和康园东北侧约190米,,1,0,117.27792,39.008587,,education,http://api.map.baidu.com/place/detail?uid=858234c2a7bf40afeedfca4d&output=html&source=placeapi_v2,,,,,,,,,,,,,,,,,,,,0
e416f98fd2037b97ede4a5e2,咸水沽第五小学,教育培训,小学,天津市,天津市,津南区,天津市津南区咸水沽第五小学(雅润路东),e416f98fd2037b97ede4a5e2,1,3,117.377082,39.006604,,education,http://api.map.baidu.com/place/detail?uid=e416f98fd2037b97ede4a5e2&output=html&source=placeapi_v2,,,5,,,,,,,,1,,,,,,,117.3770984245,39.005687059917,3
ef5c7dae5590d0672efaa78f,咸水沽第六小学,教育培训,小学,天津市,天津市,津南区,天津市津南区同声路与雅润路交叉路口往东南约150米,ef5c7dae5590d0672efaa78f,1,2,117.375512,38.992335,,education,http://api.map.baidu.com/place/detail?uid=ef5c7dae5590d0672efaa78f&output=html&source=placeapi_v2,,,0.0,,,,,,,,,,,,,,,117.37616429457,38.992998063295,2
27db820d601f146083a00c6b,天津市津南区实验小学(新城校区),教育培训,小学,天津市,天津市,津南区,天津市津南区尚德路合力园17号楼7单元,27db820d601f146083a00c6b,1,2,117.396423,39.008193,,education,http://api.map.baidu.com/place/detail?uid=27db820d601f146083a00c6b&output=html&source=placeapi_v2,,,5,,,,,,,,4,,,,,,,117.39473063455,39.007458991148,2
5211d219995f28597cc876a2,津南区咸水沽第三小学,教育培训,小学,天津市,天津市,津南区,津南区团结路,5211d219995f28597cc876a2,1,2,117.395523,39.001379,"(022)28391932,(022)28533175",education,http://api.map.baidu.com/place/detail?uid=5211d219995f28597cc876a2&output=html&source=placeapi_v2,,,5,,,,,,,,1,,,,,,,117.39531653186,39.001662277039,2
a3f21eeeff045c452eb17ea2,天津咸水沽第四小学,教育培训,小学,天津市,天津市,津南区,天津市津南区津沽公路268号,a3f21eeeff045c452eb17ea2,1,3,117.39243,38.997755,(022)28392582,education,http://api.map.baidu.com/place/detail?uid=a3f21eeeff045c452eb17ea2&output=html&source=placeapi_v2,,,5,,,,,,,,4,,,,,,,117.39202840311,38.997260808372,3
fa7da3e85e54256342d63e58,双桥河第三小学,教育培训,小学,天津市,天津市,津南区,天津市津南区西泥沽村路,fa7da3e85e54256342d63e58,1,0,117.449606,39.018502,,education,http://api.map.baidu.com/place/detail?uid=fa7da3e85e54256342d63e58&output=html&source=placeapi_v2,,,0.0,,,,,,,,,,,,,,,117.44963127198,39.018032969938,0
4282c4280a2e00fabbbd63ab,葛沽第三小学,教育培训,小学,天津市,天津市,津南区,天津市津南区北园路21号,,1,0,117.497567,39.005112,(022)88628101,education,http://api.map.baidu.com/place/detail?uid=4282c4280a2e00fabbbd63ab&output=html&source=placeapi_v2,,,5,,,,,,,,1,,,,,,,117.49728174851,39.00516402731,0
938f4dfdc8b0288088db73ae,葛沽实验小学,教育培训,小学,天津市,天津市,津南区,天津市津南区津沽附线二(葛沽第一中学东侧),,1,0,117.505109,38.99961,,education,http://api.map.baidu.com/place/detail?uid=938f4dfdc8b0288088db73ae&output=html&source=placeapi_v2,,,,,,,,,,,,,,,,,,,,0
c350c3a72113f1e9db1318de,葛沽第二小学,教育培训,小学,天津市,天津市,津南区,天津市津南区华景道c区85号楼,,1,1,117.502767,38.989786,(022)89965101,education,http://api.map.baidu.com/place/detail?uid=c350c3a72113f1e9db1318de&output=html&source=placeapi_v2,,,0.0,,,,,,,,1,,,,,,,117.50269597326,38.98867298249,1
764672e5cbd633ac95ec84e3,于庄子小学,教育培训,小学,天津市,天津市,滨海新区,天津市滨海新区胡家园街1号,764672e5cbd633ac95ec84e3,1,0,117.553139,39.005154,"(022)66530350,(022)66530385",education,http://api.map.baidu.com/place/detail?uid=764672e5cbd633ac95ec84e3&output=html&source=placeapi_v2,,,5,,,,,,,,1,,,,,,,117.55335494862,39.004292193334,0
fd007c5e1f08346da9f7299d,天津市滨海新区善门口小学,教育培训,小学,天津市,天津市,滨海新区,天津市滨海新区善环路与于庄子路交叉路口往西北约90米,fd007c5e1f08346da9f7299d,1,1,117.586608,39.012912,(022)25359150,education,http://api.map.baidu.com/place/detail?uid=fd007c5e1f08346da9f7299d&output=html&source=placeapi_v2,,,0.0,,,,,,,,0,,,,,,,117.58648427886,39.012304052604,1
1e109b495485b6e4e215f9c9,塘沽区刘庄南窑小学,教育培训,小学,天津市,天津市,滨海新区,天津市滨海新区南窑干路东100米,1e109b495485b6e4e215f9c9,1,1,117.595115,39.002255,(022)25359104,education,http://api.map.baidu.com/place/detail?uid=1e109b495485b6e4e215f9c9&output=html&source=placeapi_v2,,,4,,,,,,,,1,,,,,,,117.59462310375,39.002091191676,1
083a55fae400c678256e9895,塘沽大梁子小学,教育培训,小学,天津市,天津市,滨海新区,天津市滨海新区曙光道5号,083a55fae400c678256e9895,1,2,117.635047,39.018148,(022)25234575,education,http://api.map.baidu.com/place/detail?uid=083a55fae400c678256e9895&output=html&source=placeapi_v2,,,0,,,,,,,,1,,,,,,,117.6350986435,39.017265605594,2
39d43f82a5d81887a9059d95,塘沽盐场小学,教育培训,小学,天津市,天津市,滨海新区,天津市滨海新区万年桥北路1716号,39d43f82a5d81887a9059d95,1,2,117.666744,39.006316,(022)66680257,education,http://api.map.baidu.com/place/detail?uid=39d43f82a5d81887a9059d95&output=html&source=placeapi_v2,,,0,,,,,,,,2,,,,,,,117.66629924084,39.006752718601,2
07e2df09f4e33c0b96f08c90,草场街小学,教育培训,小学,天津市,天津市,滨海新区,天津市滨海新区塘沽草场街204号,07e2df09f4e33c0b96f08c90,1,1,117.669883,39.023299,(022)25862750,education,http://api.map.baidu.com/place/detail?uid=07e2df09f4e33c0b96f08c90&output=html&source=placeapi_v2,,,5,,,,,,,,4,,,,,,,117.66967203219,39.02383070839,1
d305db1ff4df2f3f922ca395,塘沽二中心小学,教育培训,小学,天津市,天津市,滨海新区,天津市滨海新区山东路13号,d305db1ff4df2f3f922ca395,1,3,117.66352,39.021329,(022)25863079,education,http://api.map.baidu.com/place/detail?uid=d305db1ff4df2f3f922ca395&output=html&source=placeapi_v2,,,5,,,,,,,,4,,,,,,,117.66260693032,39.0217582377,3
34e48508aaeaf8e3d9d89195,第一中心小学(新港路),教育培训,小学,天津市,天津市,滨海新区,天津市滨海新区文化街3号,34e48508aaeaf8e3d9d89195,1,1,117.680091,39.019097,(022)25895670,education,http://api.map.baidu.com/place/detail?uid=34e48508aaeaf8e3d9d89195&output=html&source=placeapi_v2,,,0,,,,,,,,2,,,,,,,117.6794872228,39.0194920656,1
4e69b689a16e016c3c9a5eba,小时候第四小学,教育培训,小学,天津市,天津市,滨海新区,天津市滨海新区滨海购物广场(上海道北),4e69b689a16e016c3c9a5eba,1,0,117.671806,39.021912,,education,http://api.map.baidu.com/place/detail?uid=4e69b689a16e016c3c9a5eba&output=html&source=placeapi_v2,,,,,,,,,,,,,,,,,,117.67164723083,39.021653391011,0
3a0fbba83c8acf409fe321e2,新港第一小学,教育培训,小学,天津市,天津市,滨海新区,天津市滨海新区新民街74号,3a0fbba83c8acf409fe321e2,1,2,117.721884,39.006118,(022)25792184,education,http://api.map.baidu.com/place/detail?uid=3a0fbba83c8acf409fe321e2&output=html&source=placeapi_v2,,,5,,,,,,,,10,,,,,,,117.72244085679,39.005711541751,2
d52831f9c110d6a62ffaa795,新港第四小学,教育培训,小学,天津市,天津市,滨海新区,天津市滨海新区新港三号路北仑里11号,d52831f9c110d6a62ffaa795,1,2,117.71721,39.013174,(022)66708306,education,http://api.map.baidu.com/place/detail?uid=d52831f9c110d6a62ffaa795&output=html&source=placeapi_v2,,,1.5,,,,,,,,4,,,,,,,117.71681835901,39.013220896708,2
a8183a4f68b81c31364aae38,紫云小学,教育培训,小学,天津市,天津市,滨海新区,天津市滨海新区紫云环道983号,a8183a4f68b81c31364aae38,1,1,117.708825,39.018135,(022)66783159,education,http://api.map.baidu.com/place/detail?uid=a8183a4f68b81c31364aae38&output=html&source=placeapi_v2,,,5,,,,,,,,6,,,,,,,117.7087433785,39.018457775763,1
55fa2c0b11cec92c1de99995,朝阳小学,教育培训,小学,天津市,天津市,滨海新区,天津市滨海新区春风路431号,55fa2c0b11cec92c1de99995,1,2,117.702878,39.01459,(022)25791650,education,http://api.map.baidu.com/place/detail?uid=55fa2c0b11cec92c1de99995&output=html&source=placeapi_v2,,,4.7,,,,,,,,5,,,,,,,117.70373097299,39.014715136294,2
85e02eb578e32b63ac0457a8,塘沽新港第四小学第二校区,教育培训,小学,天津市,天津市,滨海新区,天津市滨海新区港医路5号塘沽新港第四小学二校区,85e02eb578e32b63ac0457a8,1,1,117.723541,39.012865,,education,http://api.map.baidu.com/place/detail?uid=85e02eb578e32b63ac0457a8&output=html&source=placeapi_v2,,,,,,,,,,,,,,,,,,117.72362612959,39.012855525148,1
bba8738891ff73a1bda822e2,渤海石油第一小学,教育培训,小学,天津市,天津市,滨海新区,天津市滨海新区河滨路28号,bba8738891ff73a1bda822e2,1,1,117.713702,38.996497,(022)25808393,education,http://api.map.baidu.com/place/detail?uid=bba8738891ff73a1bda822e2&output=html&source=placeapi_v2,,,0,,,,,,,,1,,,,,,,117.71352933825,38.996542971533,1
844a750e644947b8636858b7,塘沽区新港第二小学,教育培训,小学,天津市,天津市,滨海新区,天津市滨海新区海滨路164号,844a750e644947b8636858b7,1,1,117.735304,39.006861,(022)25787189,education,http://api.map.baidu.com/place/detail?uid=844a750e644947b8636858b7&output=html&source=placeapi_v2,,,5,,,,,,,,2,,,,,,,117.73488448206,39.007263310246,1
844a750e644947b8636858b7,塘沽区新港第二小学,教育培训,小学,天津市,天津市,滨海新区,天津市滨海新区海滨路164号,844a750e644947b8636858b7,1,1,117.735304,39.006861,(022)25787189,education,http://api.map.baidu.com/place/detail?uid=844a750e644947b8636858b7&output=html&source=placeapi_v2,,,5,,,,,,,,2,,,,,,,117.73488448206,39.007263310246,1
5d037b3ebc0a1ea71e1d1193,台头镇第二小学,教育培训,小学,天津市,天津市,静海区,天津市静海区,,1,0,116.784946,39.035694,,education,http://api.map.baidu.com/place/detail?uid=5d037b3ebc0a1ea71e1d1193&output=html&source=placeapi_v2,,,0.0,,,,,,,,0,,,,,,,116.78525014558,39.035677377996,0
bd10470a8ada7ae2c909f02b,台头镇第一小学,教育培训,小学,天津市,天津市,静海区,天津市静海区台头镇建设村,bd10470a8ada7ae2c909f02b,1,0,116.796834,39.039152,(022)68138211,education,http://api.map.baidu.com/place/detail?uid=bd10470a8ada7ae2c909f02b&output=html&source=placeapi_v2,,,0.0,,,,,,,,0,,,,,,,116.79641311417,39.038855302018,0
4420764660f7cc16dfee8b8e,静海区独流镇李家湾子中心小学,教育培训,小学,天津市,天津市,静海区,天津市静海区李家湾子小学(富民路东130米),4420764660f7cc16dfee8b8e,1,0,116.839669,39.030675,(022)68198363,education,http://api.map.baidu.com/place/detail?uid=4420764660f7cc16dfee8b8e&output=html&source=placeapi_v2,,,0.0,,,,,,,,0,,,,,,,116.83914709279,39.030814568147,0
d219bb1d1a008f8af50e77fc,独流镇育英小学,教育培训,小学,天津市,天津市,静海区,天津市静海区新开路79号,d219bb1d1a008f8af50e77fc,1,1,116.913465,39.030282,(022)68815223,education,http://api.map.baidu.com/place/detail?uid=d219bb1d1a008f8af50e77fc&output=html&source=placeapi_v2,,,0,,,,,,,,1,,,,,,,116.9136488831,39.030968394409,1
3da907f3ff207c2eb320a80b,天津市静海区独流镇第二小学,教育培训,小学,天津市,天津市,静海区,天津市静海区独流镇生产街南新村十排,,1,0,116.912998,39.03506,(022)68815119,education,http://api.map.baidu.com/place/detail?uid=3da907f3ff207c2eb320a80b&output=html&source=placeapi_v2,,,0.0,,,,,,,,,,,,,,,116.9127692372,39.03500843745,0
bb1d38e4a1d3074c0c0a70fc,北肖楼中心小学,教育培训,小学,天津市,天津市,静海区,天津市静海区独流镇中兴大街北肖楼,,1,0,116.924121,39.024711,(022)68815565,education,http://api.map.baidu.com/place/detail?uid=bb1d38e4a1d3074c0c0a70fc&output=html&source=placeapi_v2,,,0.0,,,,,,,,1,,,,,,,116.92458009696,39.023936292935,0
bffeef244d8d360e8b2fb51f,静海区良王庄乡胡家村中心校,教育培训,小学,天津市,天津市,静海区,天津市静海区万花路胡家村安民小区,bffeef244d8d360e8b2fb51f,1,0,116.956494,39.035677,,education,http://api.map.baidu.com/place/detail?uid=bffeef244d8d360e8b2fb51f&output=html&source=placeapi_v2,,,,,,,,,,,,,,,,,,116.95642912086,39.036056596967,0
78b915dda242d891f942b2a6,良王庄明德小学,教育培训,小学,天津市,天津市,静海区,天津市静海区静霸线良王庄乡中学,78b915dda242d891f942b2a6,1,0,116.972897,39.030296,(022)68120028,education,http://api.map.baidu.com/place/detail?uid=78b915dda242d891f942b2a6&output=html&source=placeapi_v2,,,0,,,,,,,,0,,,,,,,116.97291988284,39.030136386362,0
f71598c95db8284cc2f1cfd8,天津市静海区良王庄乡四小屯小学,教育培训,小学,天津市,天津市,静海区,S310(静霸线),,1,0,117.000338,39.028496,,education,http://api.map.baidu.com/place/detail?uid=f71598c95db8284cc2f1cfd8&output=html&source=placeapi_v2,,,0.0,,,,,,,,,,,,,,,117.00025757425,39.029104932765,0
47edfd53e1c0464d88fc06f6,天津市西青区孙庄子中心小学,教育培训,小学,天津市,天津市,西青区,天津市西青区金沙江路天津师大实验卓奥幼儿园,,1,0,117.099258,39.02751,,education,http://api.map.baidu.com/place/detail?uid=47edfd53e1c0464d88fc06f6&output=html&source=placeapi_v2,,,0.0,,,,,,,,0,,,,,,,117.09969173249,39.027978103547,0
92b806d24f14ca8379b55cf6,天津师范大学第三附属小学,教育培训,小学,天津市,天津市,西青区,天津市西青区精武镇京华道70号,92b806d24f14ca8379b55cf6,1,2,117.115768,39.041075,(022)23989001,education,http://api.map.baidu.com/place/detail?uid=92b806d24f14ca8379b55cf6&output=html&source=placeapi_v2,,,4.2,,,,,,,,5,,,,,,,117.11550060613,39.039608229225,2
dc0f0adcdd0cc220f82213f6,蔡台中心小学,教育培训,小学,天津市,天津市,西青区,天津市西青区光明路蔡台中心小学(于泽园东100米),dc0f0adcdd0cc220f82213f6,1,1,117.165291,39.055683,,education,http://api.map.baidu.com/place/detail?uid=dc0f0adcdd0cc220f82213f6&output=html&source=placeapi_v2,,,5,,,,,,,,2,,,,,,,117.16587943942,39.055776575563,1
2a7a25ec2f12d9626c3e1bf6,育英小学,教育培训,小学,天津市,天津市,西青区,大寺镇张道口村北天津市西青区,2a7a25ec2f12d9626c3e1bf6,1,2,117.221932,39.036961,(022)23970738,education,http://api.map.baidu.com/place/detail?uid=2a7a25ec2f12d9626c3e1bf6&output=html&source=placeapi_v2,,,3.8,,,,,,,,5,,,,,,,117.22125901382,39.037093313744,2
7b533ea34d9ab1cbf11937e5,玉带路小学,教育培训,小学,天津市,天津市,西青区,天津市西青区玉带路天津浩宇苑东南侧约60米,,1,0,117.200201,39.048168,,education,http://api.map.baidu.com/place/detail?uid=7b533ea34d9ab1cbf11937e5&output=html&source=placeapi_v2,,,,,,,,,,,,,,,,,,,,0
0a46dc0f3532ec5f306212f6,大任庄小学,教育培训,小学,天津市,天津市,西青区,天津市西青区任宝里15号楼1门201号,0a46dc0f3532ec5f306212f6,1,1,117.248029,39.038428,(022)23971670,education,http://api.map.baidu.com/place/detail?uid=0a46dc0f3532ec5f306212f6&output=html&source=placeapi_v2,,,2.5,,,,,,,,2,,,,,,,117.24755386147,39.038363875597,1
90c07c453b1ef713c7f0251f,河西区梅苑小学,教育培训,小学,天津市,天津市,河西区,天津市河西区内江路1568号,90c07c453b1ef713c7f0251f,1,1,117.250703,39.043102,(022)88385376,education,http://api.map.baidu.com/place/detail?uid=90c07c453b1ef713c7f0251f&output=html&source=placeapi_v2,,,5,,,,,,,,2,,,,,,,117.25098838167,39.043184073976,1
e5f553c239cae0872dfaa7d8,天津小学(梅江校区),教育培训,小学,天津市,天津市,河西区,天津市河西区环岛西路38号,e5f553c239cae0872dfaa7d8,1,1,117.233289,39.040354,(022)60710616,education,http://api.map.baidu.com/place/detail?uid=e5f553c239cae0872dfaa7d8&output=html&source=placeapi_v2,,,0,,,,,,,,1,,,,,,,117.2333154218,39.040116314104,1
75036835cc09f2ae5e0d0236,天津市河西区水晶小学,教育培训,小学,天津市,天津市,河西区,解放南路与浯水道交口,75036835cc09f2ae5e0d0236,1,1,117.238313,39.052543,(022)88150092,education,http://api.map.baidu.com/place/detail?uid=75036835cc09f2ae5e0d0236&output=html&source=placeapi_v2,,,1,,,,,,,,4,,,,,,,117.23802275467,39.051717023733,1
43b7e889c9a80d1758f6bef0,天津师范大学第二附属小学(分校),教育培训,小学,天津市,天津市,河西区,天津市河西区泰山路2号,43b7e889c9a80d1758f6bef0,1,2,117.263119,39.05187,,education,http://api.map.baidu.com/place/detail?uid=43b7e889c9a80d1758f6bef0&output=html&source=placeapi_v2,,,4,,,,,,,,4,,,,,,,117.26379559789,39.051729416464,2
c76db6331a36a0a47dc8764e,双港新家园实验小学,教育培训,小学,天津市,天津市,津南区,天津市津南区领世路9号,c76db6331a36a0a47dc8764e,1,2,117.28787,39.023441,(022)28760328,education,http://api.map.baidu.com/place/detail?uid=c76db6331a36a0a47dc8764e&output=html&source=placeapi_v2,,,0,,,,,,,,1,,,,,,,117.28704329713,39.02353049402,2
80a165da188a5404704b8735,辛庄小学(辛庄镇卫生院西),教育培训,小学,天津市,天津市,津南区,天津市津南区平凡道5号,80a165da188a5404704b8735,1,1,117.352172,39.032802,18526398858,education,http://api.map.baidu.com/place/detail?uid=80a165da188a5404704b8735&output=html&source=placeapi_v2,,,,,,,,,,,,,,,,,,117.35134594408,39.032137219502,1
19caba0540e586f9c8213dc3,白塘口小学,教育培训,小学,天津市,天津市,津南区,天津市津南区津沽公路昕盛里小区东南侧约60米,19caba0540e586f9c8213dc3,1,0,117.357399,39.033558,(022)28589426,education,http://api.map.baidu.com/place/detail?uid=19caba0540e586f9c8213dc3&output=html&source=placeapi_v2,,,,,,,,,,,,,,,,,,117.35718072403,39.033363624883,0
0e1e3b7a1f4756a2626858ce,高庄子小学,教育培训,小学,天津市,天津市,津南区,天津市津南区永胜道6号,0e1e3b7a1f4756a2626858ce,1,2,117.359155,39.03805,,education,http://api.map.baidu.com/place/detail?uid=0e1e3b7a1f4756a2626858ce&output=html&source=placeapi_v2,,,5,,,,,,,,1,,,,,,,117.35953352988,39.038792256227,2
19caba0540e586f9c8213dc3,白塘口小学,教育培训,小学,天津市,天津市,津南区,天津市津南区津沽公路昕盛里小区东南侧约60米,19caba0540e586f9c8213dc3,1,0,117.357399,39.033558,(022)28589426,education,http://api.map.baidu.com/place/detail?uid=19caba0540e586f9c8213dc3&output=html&source=placeapi_v2,,,,,,,,,,,,,,,,,,117.35718072403,39.033363624883,0
bb1d38e4a023184c0d0a708c,赵北中心小学,教育培训,小学,天津市,天津市,东丽区,天津市东丽区新立街道小赵公路赵北小学,bb1d38e4a023184c0d0a708c,1,0,117.413898,39.039343,,education,http://api.map.baidu.com/place/detail?uid=bb1d38e4a023184c0d0a708c&output=html&source=placeapi_v2,,,5.0,,,,,,,,1,,,,,,,117.41390187818,39.03860827102,0
0e5fdcbb7f2dd6d74151c075,务本中心小学,教育培训,小学,天津市,天津市,东丽区,天津市东丽区务本路,,1,0,117.428183,39.043581,,education,http://api.map.baidu.com/place/detail?uid=0e5fdcbb7f2dd6d74151c075&output=html&source=placeapi_v2,,,,,,,,,,,,,,,,,,117.42877584565,39.043324860706,0
442076464b08f316deee8bf3,务本一村小学,教育培训,小学,天津市,天津市,东丽区,天津市东丽区新立街务本一村,442076464b08f316deee8bf3,1,0,117.434973,39.051117,,education,http://api.map.baidu.com/place/detail?uid=442076464b08f316deee8bf3&output=html&source=placeapi_v2,,,0.0,,,,,,,,,,,,,,,117.43480364989,39.051127031229,0
a3f21eeeff525c452eb17e8c,正心小学,教育培训,小学,天津市,天津市,东丽区,天津市东丽区郑源路,a3f21eeeff525c452eb17e8c,1,0,117.455732,39.037817,(022)24360432,education,http://api.map.baidu.com/place/detail?uid=a3f21eeeff525c452eb17e8c&output=html&source=placeapi_v2,,,0,,,,,,,,2,,,,,,,117.45654370952,39.038122836278,0
a3e8341c5c96af944afd3f58,双桥河第二小学,教育培训,小学,天津市,天津市,津南区,天津市津南区双桥河第二小学(汉港线西290米),a3e8341c5c96af944afd3f58,1,0,117.463295,39.026192,(022)88690521,education,http://api.map.baidu.com/place/detail?uid=a3e8341c5c96af944afd3f58&output=html&source=placeapi_v2,,,0,,,,,,,,0,,,,,,,117.46264107135,39.025626210334,0
61085211f10daba0c41b758c,钢管公司小学,教育培训,小学,天津市,天津市,东丽区,天津市东丽区钢管公司生活区津华路2号,,1,1,117.500317,39.052825,(022)24802341,education,http://api.map.baidu.com/place/detail?uid=61085211f10daba0c41b758c&output=html&source=placeapi_v2,,,0,,,,,,,,0,,,,,,,117.49934036022,39.053137309192,1
dcfb328a37431c8bc056acfe,天津市东丽区滨瑕小学,教育培训,小学,天津市,天津市,东丽区,天津市东丽区三号路与银河大道交叉路口往东南约130米,,1,1,117.511211,39.053142,,education,http://api.map.baidu.com/place/detail?uid=dcfb328a37431c8bc056acfe&output=html&source=placeapi_v2,,,0.0,,,,,,,,,,,,,,,117.51232676143,39.052909298028,1
e7e7e6ee28adcd3a0e3dda8a,天津市滨海新区胡家园学校(小学部),教育培训,小学,天津市,天津市,滨海新区,津塘公路3号还迁区内,e7e7e6ee28adcd3a0e3dda8a,1,0,117.587286,39.041168,,education,http://api.map.baidu.com/place/detail?uid=e7e7e6ee28adcd3a0e3dda8a&output=html&source=placeapi_v2,,,0,,,,,,,,1,,,,,,,117.58729535172,39.041311371016,0
5c2dc21de5e6c0056ec02c9d,馨桥园小学,教育培训,小学,天津市,天津市,滨海新区,天津市滨海新区欣美园121栋,5c2dc21de5e6c0056ec02c9d,1,2,117.586163,39.030878,(022)66892420,education,http://api.map.baidu.com/place/detail?uid=5c2dc21de5e6c0056ec02c9d&output=html&source=placeapi_v2,,,5,,,,,,,,2,,,,,,,117.58572964204,39.031337125583,2
891c5f8de918d448dbd891d3,塘沽区远洋城小学,教育培训,小学,天津市,天津市,滨海新区,天津市滨海新区金田路塘沽区实验学校(远洋城校区),,1,0,117.59955,39.04157,(022)25861865,education,http://api.map.baidu.com/place/detail?uid=891c5f8de918d448dbd891d3&output=html&source=placeapi_v2,,,5,,,,,,,,3,,,,,,,117.59989483389,39.042014405432,0
55a636b8577273e94bcc4a74,天津市滨海新区塘沽博才小学,教育培训,小学,天津市,天津市,滨海新区,天津市滨海新区赵新路6号,55a636b8577273e94bcc4a74,1,2,117.64553,39.037015,(022)66309103,education,http://api.map.baidu.com/place/detail?uid=55a636b8577273e94bcc4a74&output=html&source=placeapi_v2,,,0,,,,,,,,3,,,,,,,117.64562341004,39.036436341245,2
c21db9e58bbb828201ff2d9d,胡家园小学,教育培训,小学,天津市,天津市,滨海新区,天津市滨海新区于庄子路8号,c21db9e58bbb828201ff2d9d,1,2,117.616733,39.033747,(022)25352736,education,http://api.map.baidu.com/place/detail?uid=c21db9e58bbb828201ff2d9d&output=html&source=placeapi_v2,,,2,,,,,,,,2,,,,,,,117.61716178795,39.033793424133,2
55fa2c0b97bf4f2c1ce9996a,徐州道小学,教育培训,小学,天津市,天津市,滨海新区,天津市滨海新区塘沽新河街湘江里增三号松柏园旁边,55fa2c0b97bf4f2c1ce9996a,1,2,117.649635,39.046406,(022)66595819,education,http://api.map.baidu.com/place/detail?uid=55fa2c0b97bf4f2c1ce9996a&output=html&source=placeapi_v2,,,2.8,,,,,,,,4,,,,,,,117.64916890558,39.046837505066,2
5b57abfdb8f2331443afe646,天津市滨海新区塘沽三中心小学,教育培训,小学,天津市,天津市,滨海新区,天津市滨海新区江西路996号,5b57abfdb8f2331443afe646,1,2,117.641937,39.043412,(022)65197558,education,http://api.map.baidu.com/place/detail?uid=5b57abfdb8f2331443afe646&output=html&source=placeapi_v2,,,4.5,,,,,,,,4,,,,,,,117.64264615878,39.043458119987,2
373cf7571535b1124354d7c1,向阳第三小学,教育培训,小学,天津市,天津市,滨海新区,天津市滨海新区吉林路6号,373cf7571535b1124354d7c1,1,2,117.666871,39.039305,16622885037,education,http://api.map.baidu.com/place/detail?uid=373cf7571535b1124354d7c1&output=html&source=placeapi_v2,,,5,,,,,,,,3,,,,,,,117.6671163584,39.03877721539,2
eef2d528e3f200a63ae4a695,贻成小学,教育培训,小学,天津市,天津市,滨海新区,天津市滨海新区东江路1655号,eef2d528e3f200a63ae4a695,1,2,117.676916,39.044548,,education,http://api.map.baidu.com/place/detail?uid=eef2d528e3f200a63ae4a695&output=html&source=placeapi_v2,,,5,,,,,,,,4,,,,,,,117.67780089307,39.044746240879,2
31f9101b1610c3b827e0a095,向阳第一小学,教育培训,小学,天津市,天津市,滨海新区,天津市滨海新区向阳南街216号,31f9101b1610c3b827e0a095,1,1,117.671632,39.03152,(022)25306514,education,http://api.map.baidu.com/place/detail?uid=31f9101b1610c3b827e0a095&output=html&source=placeapi_v2,,,0,,,,,,,,2,,,,,,,117.67136534346,39.031049167656,1
d4034eb3533df488c136448c,广州道小学,教育培训,小学,天津市,天津市,滨海新区,天津市滨海新区广州道61号,d4034eb3533df488c136448c,1,1,117.661705,39.045622,,education,http://api.map.baidu.com/place/detail?uid=d4034eb3533df488c136448c&output=html&source=placeapi_v2,,,4,,,,,,,,4,,,,,,,117.66149258593,39.046133810584,1
850815e15655359a42e19295,大庆道小学,教育培训,小学,天津市,天津市,滨海新区,天津市滨海新区福建北路1889号,850815e15655359a42e19295,1,2,117.65859,39.04937,(022)25348877,education,http://api.map.baidu.com/place/detail?uid=850815e15655359a42e19295&output=html&source=placeapi_v2,,,5,,,,,,,,4,,,,,,,117.65931274431,39.049532222647,2
07e2df09f4e33c0b96f08c90,草场街小学,教育培训,小学,天津市,天津市,滨海新区,天津市滨海新区塘沽草场街204号,07e2df09f4e33c0b96f08c90,1,1,117.669883,39.023299,(022)25862750,education,http://api.map.baidu.com/place/detail?uid=07e2df09f4e33c0b96f08c90&output=html&source=placeapi_v2,,,5,,,,,,,,4,,,,,,,117.66967203219,39.02383070839,1
2c0bd6c51f9af1ab42ab9a95,上海道小学,教育培训,小学,天津市,天津市,滨海新区,天津市滨海新区江苏路593号,2c0bd6c51f9af1ab42ab9a95,1,1,117.660532,39.023308,(022)25892926,education,http://api.map.baidu.com/place/detail?uid=2c0bd6c51f9af1ab42ab9a95&output=html&source=placeapi_v2,,,5,,,,,,,,5,,,,,,,117.66029816658,39.023552438298,1
4e69b689a16e016c3c9a5eba,小时候第四小学,教育培训,小学,天津市,天津市,滨海新区,天津市滨海新区滨海购物广场(上海道北),4e69b689a16e016c3c9a5eba,1,0,117.671806,39.021912,,education,http://api.map.baidu.com/place/detail?uid=4e69b689a16e016c3c9a5eba&output=html&source=placeapi_v2,,,,,,,,,,,,,,,,,,117.67164723083,39.021653391011,0
512888a5770d5d61f4b916ec,向阳第三小学-德润楼,教育培训,小学,天津市,天津市,滨海新区,天津市滨海新区吉林路6号,512888a5770d5d61f4b916ec,1,0,117.667049,39.039777,,education,http://api.map.baidu.com/place/detail?uid=512888a5770d5d61f4b916ec&output=html&source=placeapi_v2,,,,,,,,,,,,,,,,,,117.66716353381,39.040077388852,0
c61bd30515142969c37da295,天津经济技术开发区第一小学,教育培训,小学,天津市,天津市,滨海新区,天津市滨海新区第三大街22号,c61bd30515142969c37da295,1,2,117.709335,39.038868,(022)66295955,education,http://api.map.baidu.com/place/detail?uid=c61bd30515142969c37da295&output=html&source=placeapi_v2,,,0,,,,,,,,1,,,,,,,117.70983348032,39.038211057972,2
e56bf5e371330e390782c202,泰达开发区第二小学,教育培训,小学,天津市,天津市,滨海新区,天津市滨海新区第五大街98号,e56bf5e371330e390782c202,1,2,117.725792,39.043726,(022)66223403,education,http://api.map.baidu.com/place/detail?uid=e56bf5e371330e390782c202&output=html&source=placeapi_v2,,,0,,,,,,,,3,,,,,,,117.72608916922,39.044538945267,2
f1789f9d148bf39e22026216,天津市实验小学滨海学校,教育培训,小学,天津市,天津市,滨海新区,天津市滨海新区航运六道与航运西道交口南侧,f1789f9d148bf39e22026216,1,2,117.746623,39.042194,(022)65820886,education,http://api.map.baidu.com/place/detail?uid=f1789f9d148bf39e22026216&output=html&source=placeapi_v2,,,5,,,,,,,,1,,,,,,,117.74714560181,39.041869679905,2
e3a7fd138e1b115328b97cfb,水高庄小学,教育培训,小学,天津市,天津市,西青区,西青区津静线高达公寓南侧约150米,,1,0,116.946942,39.083145,(022)27990264,education,http://api.map.baidu.com/place/detail?uid=e3a7fd138e1b115328b97cfb&output=html&source=placeapi_v2,,,0.0,,,,,,,,,,,,,,,116.94664340374,39.082781332911,0
fd13a3f23207dafbb1077dfb,第六埠小学,教育培训,小学,天津市,天津市,西青区,天津市西青区向阳路23号,fd13a3f23207dafbb1077dfb,1,1,116.937469,39.068747,(022)27990264,education,http://api.map.baidu.com/place/detail?uid=fd13a3f23207dafbb1077dfb&output=html&source=placeapi_v2,,,0.0,,,,,,,,0,,,,,,,116.93685626011,39.068799409187,1
6835e3a7d3faac4fe31103fb,天津市西青区沙沃中心小学,教育培训,小学,天津市,天津市,西青区,天津市西青区青沙路,6835e3a7d3faac4fe31103fb,1,0,116.988176,39.076741,(022)87993022,education,http://api.map.baidu.com/place/detail?uid=6835e3a7d3faac4fe31103fb&output=html&source=placeapi_v2,,,0.0,,,,,,,,0,,,,,,,116.98796586323,39.076255334745,0
631c41571d23ed6230f71dbf,华旭小学,教育培训,小学,天津市,天津市,西青区,天津市西青区辛老路田丽小区人祥南里25号楼,631c41571d23ed6230f71dbf,1,0,117.042475,39.06779,,education,http://api.map.baidu.com/place/detail?uid=631c41571d23ed6230f71dbf&output=html&source=placeapi_v2,,,3,,,,,,,,2,,,,,,,117.04344865653,39.067707236839,0
63e76222ecf40045d92f28a9,田丽小学,教育培训,小学,天津市,天津市,西青区,天津市西青区薛庄家园3号楼-1门401号,63e76222ecf40045d92f28a9,1,2,117.041581,39.076064,(022)87983447,education,http://api.map.baidu.com/place/detail?uid=63e76222ecf40045d92f28a9&output=html&source=placeapi_v2,,,4.5,,,,,,,,2,,,,,,,117.04207514741,39.075304512421,2
9f3f3229383fb2607ab55c35,张家窝镇第二小学,教育培训,小学,天津市,天津市,西青区,天津市西青区枫雅道189号,9f3f3229383fb2607ab55c35,1,0,117.042749,39.057075,,education,http://api.map.baidu.com/place/detail?uid=9f3f3229383fb2607ab55c35&output=html&source=placeapi_v2,,,,,,,,,,,,,,,,,,,,0
79d17a332849500dafee7ad3,逸阳文思国际小学,教育培训,小学,天津市,天津市,西青区,天津市西青区枫雅道189号,79d17a332849500dafee7ad3,1,1,117.042507,39.057215,,education,http://api.map.baidu.com/place/detail?uid=79d17a332849500dafee7ad3&output=html&source=placeapi_v2,,,,,,,,,,,,,,,,,,117.04251519943,39.057306499866,1
ec182cba66e3897696ca07d5,天津工业大学附属小学,教育培训,小学,天津市,天津市,西青区,天津市西青区工西路与潘楼路交叉口西150米,ec182cba66e3897696ca07d5,1,2,117.109965,39.063395,(022)87186855-8309,education,http://api.map.baidu.com/place/detail?uid=ec182cba66e3897696ca07d5&output=html&source=placeapi_v2,,,4.5,,,,,,,,2,,,,,,,117.11013089591,39.062517737546,2
dd201a59396ae03db5147fa9,天津市南开区阳光小学,教育培训,小学,天津市,天津市,南开区,天津市南开区体育中心街道阳光100国际新城南园2号,dd201a59396ae03db5147fa9,1,1,117.16305,39.073202,(022)83957883,education,http://api.map.baidu.com/place/detail?uid=dd201a59396ae03db5147fa9&output=html&source=placeapi_v2,,,5,,,,,,,,4,,,,,,,117.1629600597,39.072797742473,1
0dc3d82d007cf91175e5b6f1,水上小学(仁爱校区),教育培训,小学,天津市,天津市,南开区,天津市南开区凌庄子道129号,0dc3d82d007cf91175e5b6f1,1,2,117.179314,39.072496,(022)23921585,education,http://api.map.baidu.com/place/detail?uid=0dc3d82d007cf91175e5b6f1&output=html&source=placeapi_v2,,,5,,,,,,,,1,,,,,,,117.17952718573,39.072958077067,2
dc0f0adcdd0cc220f82213f6,蔡台中心小学,教育培训,小学,天津市,天津市,西青区,天津市西青区光明路蔡台中心小学(于泽园东100米),dc0f0adcdd0cc220f82213f6,1,1,117.165291,39.055683,,education,http://api.map.baidu.com/place/detail?uid=dc0f0adcdd0cc220f82213f6&output=html&source=placeapi_v2,,,5,,,,,,,,2,,,,,,,117.16587943942,39.055776575563,1
56923ea8f11220e9ae31e53c,天津韩国国际学校小学,教育培训,小学,天津市,天津市,西青区,天津市西青区杨楼村雅乐道与瑶环路交口,56923ea8f11220e9ae31e53c,1,0,117.181235,39.059571,,education,http://api.map.baidu.com/place/detail?uid=56923ea8f11220e9ae31e53c&output=html&source=placeapi_v2,,,,,,,,,,,,,,,,,,117.18125203471,39.059573637537,0
f633606adffa7e4d0a69d9b4,南开区水上小学(温泉校区),教育培训,小学,天津市,天津市,南开区,天津市南开区宾水西道水上温泉小区旁,f633606adffa7e4d0a69d9b4,1,2,117.161868,39.086476,,education,http://api.map.baidu.com/place/detail?uid=f633606adffa7e4d0a69d9b4&output=html&source=placeapi_v2,,,0,,,,,,,,3,,,,,,,117.16225693172,39.086599481208,2
dd43c62d5ee40c06e507387b,天津西青区梅江富力小学,教育培训,小学,天津市,天津市,西青区,天津市西青区江湾二支路与江湾路交叉口西200米,dd43c62d5ee40c06e507387b,1,1,117.209143,39.0684,(022)23384078,education,http://api.map.baidu.com/place/detail?uid=dd43c62d5ee40c06e507387b&output=html&source=placeapi_v2,,,0,,,,,,,,2,,,,,,,117.20921706136,39.068273475956,1
eb367503589bec1a00ec0136,河西区中心小学(梅江校区),教育培训,小学,天津市,天津市,河西区,天津市河西区梅江道121号,eb367503589bec1a00ec0136,1,2,117.216883,39.072558,(022)88364621,education,http://api.map.baidu.com/place/detail?uid=eb367503589bec1a00ec0136&output=html&source=placeapi_v2,,,0,,,,,,,,3,,,,,,,117.21735990977,39.073164946641,2
79cceb3644ad67881e580036,南湖小学,教育培训,小学,天津市,天津市,河西区,天津市河西区富有道1号,79cceb3644ad67881e580036,1,1,117.197825,39.074686,(022)23384357,education,http://api.map.baidu.com/place/detail?uid=79cceb3644ad67881e580036&output=html&source=placeapi_v2,,,0,,,,,,,,3,,,,,,,117.1975465322,39.075037852187,1
e6ee2fd2d981f34b2a11d1b4,河西区中心小学(西园校区),教育培训,小学,天津市,天津市,河西区,天津市河西区西园道18号a座,e6ee2fd2d981f34b2a11d1b4,1,1,117.208207,39.084475,(022)28131556,education,http://api.map.baidu.com/place/detail?uid=e6ee2fd2d981f34b2a11d1b4&output=html&source=placeapi_v2,,,0,,,,,,,,3,,,,,,,117.20850454161,39.084076929405,1
22e1140706b27cc8d5b74e40,河西区中心小学(东湖分校),教育培训,小学,天津市,天津市,河西区,天津市河西区环湖东路20号,22e1140706b27cc8d5b74e40,1,1,117.200743,39.082388,(022)23382087,education,http://api.map.baidu.com/place/detail?uid=22e1140706b27cc8d5b74e40&output=html&source=placeapi_v2,,,0,,,,,,,,3,,,,,,,117.20102169534,39.082725257476,1
4c5ed0c119f4ba36a20464ca,天津市河西区梧桐小学,教育培训,小学,天津市,天津市,河西区,天津市河西区右江道2号,4c5ed0c119f4ba36a20464ca,1,2,117.230836,39.067271,,education,http://api.map.baidu.com/place/detail?uid=4c5ed0c119f4ba36a20464ca&output=html&source=placeapi_v2,,,5,,,,,,,,2,,,,,,,117.23060605962,39.066528054035,2
69fcd6dfd52f302eca2915f6,王兰庄中心小学,教育培训,小学,天津市,天津市,西青区,天津市西青区李七庄街道绥江道与宝带路交叉路口往西南约100米王兰庄花园北侧约50米,69fcd6dfd52f302eca2915f6,1,2,117.195406,39.060367,(022)23912871,education,http://api.map.baidu.com/place/detail?uid=69fcd6dfd52f302eca2915f6&output=html&source=placeapi_v2,,,3.2,,,,,,,,6,,,,,,,117.19545207811,39.059700116592,2
2d6c09023b8cb80c8f1a898d,天津师范大学第二附属小学德贤学校,教育培训,小学,天津市,天津市,河西区,天津市河西区大沽南路与洪泽东路交口南行200米,2d6c09023b8cb80c8f1a898d,1,0,117.251035,39.087935,,education,http://api.map.baidu.com/place/detail?uid=2d6c09023b8cb80c8f1a898d&output=html&source=placeapi_v2,,,0,,,,,,,,3,,,,,,,117.25101912618,39.087745771317,0
db15080654a0d1c2f4eafc19,天津市河西区德贤小学,教育培训,小学,天津市,天津市,河西区,天津市河西区泽庭道天津师范大学第二附属小学德贤学校,db15080654a0d1c2f4eafc19,1,0,117.250817,39.08788,,education,http://api.map.baidu.com/place/detail?uid=db15080654a0d1c2f4eafc19&output=html&source=placeapi_v2,,,,,,,,,,,,,,,,,,,,0
7bfa08fcfa33810225d2bbf0,珠江道小学,教育培训,小学,天津市,天津市,河西区,天津市河西区平江路平江里21号,7bfa08fcfa33810225d2bbf0,1,0,117.260609,39.068057,"(022)28179942,(022)28341175",education,http://api.map.baidu.com/place/detail?uid=7bfa08fcfa33810225d2bbf0&output=html&source=placeapi_v2,,,0,,,,,,,,2,,,,,,,117.26019337842,39.067953841903,0
341c35ded699b8bfe6073830,新会道小学,教育培训,小学,天津市,天津市,河西区,天津市河西区新会道27号,341c35ded699b8bfe6073830,1,2,117.268987,39.074786,(022)28340096,education,http://api.map.baidu.com/place/detail?uid=341c35ded699b8bfe6073830&output=html&source=placeapi_v2,,,0,,,,,,,,2,,,,,,,117.26946278187,39.075210650473,2
79a4babe8629a1df843304d3,三水道小学分校,教育培训,小学,天津市,天津市,河西区,天津市河西区榆林路4号,79a4babe8629a1df843304d3,1,0,117.268946,39.061397,(022)28340319,education,http://api.map.baidu.com/place/detail?uid=79a4babe8629a1df843304d3&output=html&source=placeapi_v2,,,,,,,,,,,,,,,,,,117.26903227165,39.061262877605,0
8ff1cc704150ff453310afe2,复兴小学,教育培训,小学,天津市,天津市,河西区,天津市河西区嘉江道75号,8ff1cc704150ff453310afe2,1,1,117.261461,39.083765,(022)88122198,education,http://api.map.baidu.com/place/detail?uid=8ff1cc704150ff453310afe2&output=html&source=placeapi_v2,,,,,,,,,,,,,,,,,,117.261888012,39.084183154058,1
4c5ed0c119f4ba36a20464ca,天津市河西区梧桐小学,教育培训,小学,天津市,天津市,河西区,天津市河西区右江道2号,4c5ed0c119f4ba36a20464ca,1,2,117.230836,39.067271,,education,http://api.map.baidu.com/place/detail?uid=4c5ed0c119f4ba36a20464ca&output=html&source=placeapi_v2,,,5,,,,,,,,2,,,,,,,117.23060605962,39.066528054035,2
81db9cc381ab0beb2afc487e,天津师范大学第二附属小学,教育培训,小学,天津市,天津市,河西区,天津市河西区泽庭道天津师范大学第二附属小学德贤学校,81db9cc381ab0beb2afc487e,1,0,117.250881,39.08789,,education,http://api.map.baidu.com/place/detail?uid=81db9cc381ab0beb2afc487e&output=html&source=placeapi_v2,,,5,,,,,,,,1,,,,,,,,,0
bf29b7027c48549809b93a30,天津职业技术师范大学附属小学,教育培训,小学,天津市,天津市,河西区,天津市河西区小海地三水道华江里2号楼东侧,bf29b7027c48549809b93a30,1,1,117.265208,39.062897,(022)88120306,education,http://api.map.baidu.com/place/detail?uid=bf29b7027c48549809b93a30&output=html&source=placeapi_v2,,,0,,,,,,,,3,,,,,,,117.26532743426,39.063344349131,1
2f20cbf555a35f7e9cec2b72,财大附小分校,教育培训,小学,天津市,天津市,河西区,天津市河西区榆林路4号,,1,0,117.266352,39.064328,,education,http://api.map.baidu.com/place/detail?uid=2f20cbf555a35f7e9cec2b72&output=html&source=placeapi_v2,,,,,,,,,,,,,,,,,,,,0
62c953270a996648c26c148c,天津市河西区名都小学,教育培训,小学,天津市,天津市,河西区,天津市河西区解放南路442号,62c953270a996648c26c148c,1,0,117.237682,39.0797,16600245906,education,http://api.map.baidu.com/place/detail?uid=62c953270a996648c26c148c&output=html&source=placeapi_v2,,,,,,,,,,,1,,,,,,,,,0
0f8758955c5a46acf33cba4a,国红校泵,教育培训,小学,天津市,天津市,河西区,天津市河西区贺江道OYO五福星宾馆(贺江道解放南路店)西北侧约60米,0f8758955c5a46acf33cba4a,1,0,117.236604,39.0662,"13072232857,13821899756",education,http://api.map.baidu.com/place/detail?uid=0f8758955c5a46acf33cba4a&output=html&source=placeapi_v2,,,,,,,,,,,,,,,,,,,,0
518bffcb2313322128d7aba4,何庄子联合小学,教育培训,小学,天津市,天津市,津南区,天津市津南区吉兆路7-1-20022号楼,518bffcb2313322128d7aba4,1,1,117.302188,39.076161,(022)28347622,education,http://api.map.baidu.com/place/detail?uid=518bffcb2313322128d7aba4&output=html&source=placeapi_v2,,,0,,,,,,,,1,,,,,,,117.30173014756,39.076879996497,1
a74481d6c9e5f73bf503b8f0,天津市海天小学,教育培训,小学,天津市,天津市,津南区,天津市津南区海天路海天馨苑小区内,a74481d6c9e5f73bf503b8f0,1,2,117.297783,39.059834,(022)28214120,education,http://api.map.baidu.com/place/detail?uid=a74481d6c9e5f73bf503b8f0&output=html&source=placeapi_v2,,,1,,,,,,,,2,,,,,,,117.2978582972,39.060360292772,2
99c3786a672478213be4a6d6,东海里小学,教育培训,小学,天津市,天津市,河西区,天津市河西区茂名道1号,1731ecba58f80ca8a2a9348a,1,0,117.278933,39.071451,(022)28124790,education,http://api.map.baidu.com/place/detail?uid=99c3786a672478213be4a6d6&output=html&source=placeapi_v2,,,0,,,,,,,,3,,,,,,,117.27907026351,39.071461291474,0
ce80569e47fc81398836eeb0,天津市河西区灰堆第一小学(职专校区),教育培训,小学,天津市,天津市,河西区,天津市河西区电子计算机职业中等专业学校,ce80569e47fc81398836eeb0,1,0,117.283388,39.071373,(022)28341456,education,http://api.map.baidu.com/place/detail?uid=ce80569e47fc81398836eeb0&output=html&source=placeapi_v2,,,,,,,,,,,,,,,,,,,,0
1bf85b2591f606a5a1a93430,天津科技大学附属小学,教育培训,小学,天津市,天津市,河西区,天津市河西区珠江道34号,1bf85b2591f606a5a1a93430,1,2,117.274531,39.069986,(022)28346627,education,http://api.map.baidu.com/place/detail?uid=1bf85b2591f606a5a1a93430&output=html&source=placeapi_v2,,,0,,,,,,,,3,,,,,,,117.27403869624,39.069437867789,2
1731ecba58f80ca8a2a9348a,东海里小学,教育培训,小学,天津市,天津市,河西区,天津市河西区茂名道1号,1731ecba58f80ca8a2a9348a,1,4,117.278933,39.071451,(022)28124790,education,http://api.map.baidu.com/place/detail?uid=1731ecba58f80ca8a2a9348a&output=html&source=placeapi_v2,,,0,,,,,,,,3,,,,,,,117.27907026351,39.071461291474,4
b36e21fe35a0d5d3260bd069,东海里小学王姨小饭桌,教育培训,小学,天津市,天津市,河西区,天津市河西区学苑路东海里,,1,0,117.277385,39.070764,,education,http://api.map.baidu.com/place/detail?uid=b36e21fe35a0d5d3260bd069&output=html&source=placeapi_v2,,,,,,,,,,,,,,,,,,,,0
9380253c66d9d4e0ab0dd806,河畔小学,教育培训,小学,天津市,天津市,津南区,天津市津南区市双港镇双港桥欣桃园小区后侧,9380253c66d9d4e0ab0dd806,1,0,117.329837,39.058595,,education,http://api.map.baidu.com/place/detail?uid=9380253c66d9d4e0ab0dd806&output=html&source=placeapi_v2,,,,,,,,,,,,,,,,,,117.33007601353,39.057491807874,0
027ebccafa6652a225d2bb88,西杨场小学,教育培训,小学,天津市,天津市,东丽区,天津市东丽区紫英路丽俊花苑南侧约160米,027ebccafa6652a225d2bb88,1,0,117.345686,39.076996,,education,http://api.map.baidu.com/place/detail?uid=027ebccafa6652a225d2bb88&output=html&source=placeapi_v2,,,0.0,,,,,,,,0,,,,,,,117.34601246262,39.076983963228,0
72e57fd714fce5d2f8dc85f3,泥沃小学,教育培训,小学,天津市,天津市,东丽区,天津市东丽区盛源路,,1,1,117.389236,39.065992,(022)24992925,education,http://api.map.baidu.com/place/detail?uid=72e57fd714fce5d2f8dc85f3&output=html&source=placeapi_v2,,,0.0,,,,,,,,,,,,,,,117.38947744094,39.065919644668,1
8ab0dfc40da46217d9eced92,四合庄小学,教育培训,小学,天津市,天津市,东丽区,天津市东丽区丰年村四合庄小学(合兴路东),8ab0dfc40da46217d9eced92,1,2,117.377419,39.085054,(022)24990648,education,http://api.map.baidu.com/place/detail?uid=8ab0dfc40da46217d9eced92&output=html&source=placeapi_v2,,,4.5,,,,,,,,4,,,,,,,117.37649695866,39.085203705417,2
fd13a3f235fac5fbb0077d8c,东丽区中河小学,教育培训,小学,天津市,天津市,东丽区,天津市东丽区津塘公路六号桥北侧中河村内,fd13a3f235fac5fbb0077d8c,1,1,117.390922,39.078155,,education,http://api.map.baidu.com/place/detail?uid=fd13a3f235fac5fbb0077d8c&output=html&source=placeapi_v2,,,0.0,,,,,,,,1,,,,,,,117.39210041488,39.077901270204,1
d5fdb34f93b0695096f08c24,天津市东丽区东羽小学,教育培训,小学,天津市,天津市,东丽区,军粮城2期内,,1,0,117.425202,39.079529,,education,http://api.map.baidu.com/place/detail?uid=d5fdb34f93b0695096f08c24&output=html&source=placeapi_v2,,,5,,,,,,,,2,,,,,,,117.42520328912,39.079534599897,0
9f57ae48ff579ec3128824e9,刘台小学,教育培训,小学,天津市,天津市,东丽区,天津市军粮城大街春竹轩对面,9f57ae48ff579ec3128824e9,1,2,117.453913,39.072028,(022)84968214,education,http://api.map.baidu.com/place/detail?uid=9f57ae48ff579ec3128824e9&output=html&source=placeapi_v2,,,0,,,,,,,,0,,,,,,,117.45324781403,39.071081270509,2
48eb0058441c42ac2ee67b8c,东丽区苗街小学,教育培训,小学,天津市,天津市,东丽区,天津市东丽区军粮城大街苗街九大桥南,48eb0058441c42ac2ee67b8c,1,0,117.468403,39.07947,(022)84871289,education,http://api.map.baidu.com/place/detail?uid=48eb0058441c42ac2ee67b8c&output=html&source=placeapi_v2,,,5,,,,,,,,2,,,,,,,117.4672527266,39.079676261134,0
0833910775fd39b9eb12e497,军粮城小学,教育培训,小学,天津市,天津市,东丽区,天津市东丽区杨台大街军粮城小学(军瑞园东150米),0833910775fd39b9eb12e497,1,0,117.4488,39.061105,(022)58601693,education,http://api.map.baidu.com/place/detail?uid=0833910775fd39b9eb12e497&output=html&source=placeapi_v2,,,5,,,,,,,,30,,,,,,,117.44938689694,39.060792733986,0
27c764410e85fdcfecdfcaa3,东小学,教育培训,小学,天津市,天津市,东丽区,天津市东丽区军粮城镇东村,,1,0,117.469179,39.057312,,education,http://api.map.baidu.com/place/detail?uid=27c764410e85fdcfecdfcaa3&output=html&source=placeapi_v2,,,,,,,,,,,,,,,,,,117.46888513636,39.057317263843,0
61085211f10daba0c41b758c,钢管公司小学,教育培训,小学,天津市,天津市,东丽区,天津市东丽区钢管公司生活区津华路2号,,1,1,117.500317,39.052825,(022)24802341,education,http://api.map.baidu.com/place/detail?uid=61085211f10daba0c41b758c&output=html&source=placeapi_v2,,,0,,,,,,,,0,,,,,,,117.49934036022,39.053137309192,1
dcfb328a37431c8bc056acfe,天津市东丽区滨瑕小学,教育培训,小学,天津市,天津市,东丽区,天津市东丽区三号路与银河大道交叉路口往东南约130米,,1,1,117.511211,39.053142,,education,http://api.map.baidu.com/place/detail?uid=dcfb328a37431c8bc056acfe&output=html&source=placeapi_v2,,,0.0,,,,,,,,,,,,,,,117.51232676143,39.052909298028,1
13cd288723320d40e5e96589,海洋科技园宁海路小学,教育培训,小学,天津市,天津市,滨海新区,天津市滨海新区宁海路苏商大厦东侧约40米,13cd288723320d40e5e96589,1,0,117.64228,39.079481,,education,http://api.map.baidu.com/place/detail?uid=13cd288723320d40e5e96589&output=html&source=placeapi_v2,,,,,,,,,,,1,,,,,,,117.64190423928,39.079466825271,0
1a04ff99f6f51ec02eb96d4f,滨海新区南益小学,教育培训,小学,天津市,天津市,滨海新区,天津市滨海新区福州道3166号,1a04ff99f6f51ec02eb96d4f,1,2,117.641362,39.054195,,education,http://api.map.baidu.com/place/detail?uid=1a04ff99f6f51ec02eb96d4f&output=html&source=placeapi_v2,,,0,,,,,,,,1,,,,,,,117.64127180256,39.0535381197,2
d2a7d4fa473e5aa0b220a8ae,新北第一小学,教育培训,小学,天津市,天津市,滨海新区,天津市滨海新区河北西路144正南方向90米,d2a7d4fa473e5aa0b220a8ae,1,2,117.660566,39.068546,(022)65152196,education,http://api.map.baidu.com/place/detail?uid=d2a7d4fa473e5aa0b220a8ae&output=html&source=placeapi_v2,,,5,,,,,,,,1,,,,,,,117.66064802244,39.068526005885,2
e2c734e44503055c14a19095,塘沽工农村小学,教育培训,小学,天津市,天津市,滨海新区,天津市滨海新区河北路49号,e2c734e44503055c14a19095,1,2,117.662275,39.061738,(022)25214882,education,http://api.map.baidu.com/place/detail?uid=e2c734e44503055c14a19095&output=html&source=placeapi_v2,,,4.2,,,,,,,,8,,,,,,,117.66260638145,39.06118628653,2
ec61d9ef29d92bc2a0d23090,天津市滨海新区新北第二小学,教育培训,小学,天津市,天津市,滨海新区,天津市滨海新区河北西路与宝山道交叉路口往西约50米(首创.国际城东北侧),,1,0,117.666241,39.059301,,education,http://api.map.baidu.com/place/detail?uid=ec61d9ef29d92bc2a0d23090&output=html&source=placeapi_v2,,,0,,,,,,,,2,,,,,,,117.66645800017,39.059319106705,0
75036835cc4ef2ae5e0d02fb,辛口镇中心小学,教育培训,小学,天津市,天津市,西青区,天津市西青区上辛口村,,1,2,116.982918,39.08899,(022)27996834,education,http://api.map.baidu.com/place/detail?uid=75036835cc4ef2ae5e0d02fb&output=html&source=placeapi_v2,,,5,,,,,,,,3,,,,,,,116.98100833255,39.08921020783,2
ea21ab553210321b220220a1,上辛口老小学校,教育培训,小学,天津市,天津市,西青区,天津市西青区辛口镇上辛园小区4号楼上辛口老小学校,,1,0,116.981368,39.093515,,education,http://api.map.baidu.com/place/detail?uid=ea21ab553210321b220220a1&output=html&source=placeapi_v2,,,,,,,,,,,,,,,,,,,,0
46e86fdda2d7026cd03ce3b4,天津模范小学(华苑校区),教育培训,小学,天津市,天津市,南开区,天津市南开区中孚路49号,46e86fdda2d7026cd03ce3b4,1,2,117.136372,39.089075,"(022)23711452,(022)23725716",education,http://api.map.baidu.com/place/detail?uid=46e86fdda2d7026cd03ce3b4&output=html&source=placeapi_v2,,,0,,,,,,,,2,,,,,,,117.13689602266,39.089447316887,2
2e00c5dd6495f861d7851f02,南开大学附属小学,教育培训,小学,天津市,天津市,南开区,天津市南开区复康路21号,2e00c5dd6495f861d7851f02,1,3,117.162638,39.103688,(022)23508552,education,http://api.map.baidu.com/place/detail?uid=2e00c5dd6495f861d7851f02&output=html&source=placeapi_v2,,,0,,,,,,,,2,,,,,,,117.16339145744,39.103742303071,3
6e21c7a87e4721979c09f7b4,南开小学(南区),教育培训,小学,天津市,天津市,南开区,天津市南开区白堤路246号,6e21c7a87e4721979c09f7b4,1,0,117.161236,39.107097,(022)23680035,education,http://api.map.baidu.com/place/detail?uid=6e21c7a87e4721979c09f7b4&output=html&source=placeapi_v2,,,,,,,,,,,,,,,,,,117.16123518017,39.10705131988,0
669775d06837385afc0eb0b7,天津大学附属小学,教育培训,小学,天津市,天津市,南开区,天津市南开区卫津路92号,669775d06837385afc0eb0b7,1,2,117.172592,39.112607,(022)27403256,education,http://api.map.baidu.com/place/detail?uid=669775d06837385afc0eb0b7&output=html&source=placeapi_v2,,,5,,,,,,,,5,,,,,,,117.17316501331,39.113359530335,2
60f28ffa03f14ca9373a711d,南开小学(五六年级),教育培训,小学,天津市,天津市,南开区,天津市南开区白堤路81号,60f28ffa03f14ca9373a711d,1,1,117.161198,39.107027,(022)23680035,education,http://api.map.baidu.com/place/detail?uid=60f28ffa03f14ca9373a711d&output=html&source=placeapi_v2,,,5,,,,,,,,3,,,,,,,117.16170269069,39.106884874234,1
39d43f82a5fe1887a9059db7,天津市南开区华夏小学,教育培训,小学,天津市,天津市,南开区,天津市南开区楚雄道4号,39d43f82a5fe1887a9059db7,1,4,117.15032,39.106729,,education,http://api.map.baidu.com/place/detail?uid=39d43f82a5fe1887a9059db7&output=html&source=placeapi_v2,,,4.2,,,,,,,,7,,,,,,,117.15136350239,39.106351762456,4
4bd7387a17af8f5617c8f64b,南开区新星小学(文苑校区),教育培训,小学,天津市,天津市,南开区,天津市南开区迎水道46号,4bd7387a17af8f5617c8f64b,1,2,117.15036,39.099462,,education,http://api.map.baidu.com/place/detail?uid=4bd7387a17af8f5617c8f64b&output=html&source=placeapi_v2,,,0.0,,,,,,,,,,,,,,,117.15043828545,39.099079074554,2
06d2dffdb52dacf588f15d72,天津市南开区勤敏小学,教育培训,小学,天津市,天津市,南开区,天津市南开区苍穹道28号,06d2dffdb52dacf588f15d72,1,2,117.183344,39.094799,(022)27354568,education,http://api.map.baidu.com/place/detail?uid=06d2dffdb52dacf588f15d72&output=html&source=placeapi_v2,,,0,,,,,,,,3,,,,,,,117.18355839279,39.094915213347,2
6d3f7a88921820a202294fc4,天津市新星小学儒苑校区,教育培训,小学,天津市,天津市,南开区,天津市南开区王顶堤街道苑中路和无名菜市场交叉口五和超市10号门对面路里走,6d3f7a88921820a202294fc4,1,0,117.148771,39.094393,,education,http://api.map.baidu.com/place/detail?uid=6d3f7a88921820a202294fc4&output=html&source=placeapi_v2,,,0,,,,,,,,1,,,,,,,117.14878814314,39.094450649954,0
3a0a78bd67d7c1fb62180980,南开区风湖里小学,教育培训,小学,天津市,天津市,南开区,天津市南开区鞍山西道柳荫路湖泊道16号,3a0a78bd67d7c1fb62180980,1,2,117.167212,39.119172,(022)27382927,education,http://api.map.baidu.com/place/detail?uid=3a0a78bd67d7c1fb62180980&output=html&source=placeapi_v2,,,4,,,,,,,,2,,,,,,,117.16699700513,39.118592015487,2
f633606adffa7e4d0a69d9b4,南开区水上小学(温泉校区),教育培训,小学,天津市,天津市,南开区,天津市南开区宾水西道水上温泉小区旁,f633606adffa7e4d0a69d9b4,1,2,117.161868,39.086476,,education,http://api.map.baidu.com/place/detail?uid=f633606adffa7e4d0a69d9b4&output=html&source=placeapi_v2,,,0,,,,,,,,3,,,,,,,117.16225693172,39.086599481208,2
82021143300b64c60b69d937,天津大学附属小学,教育培训,小学,天津市,天津市,南开区,天津市南开区卫津路92号,,1,0,117.173234,39.113456,(022)27403256,education,http://api.map.baidu.com/place/detail?uid=82021143300b64c60b69d937&output=html&source=placeapi_v2,,,,,,,,,,,,,,,,,,117.17318234521,39.113458608339,0
6fddd7fda764237e3517dc29,天津市河西区同望小学,教育培训,小学,天津市,天津市,河西区,天津市河西区绍兴道298号,6fddd7fda764237e3517dc29,1,2,117.207486,39.105686,(022)23519331,education,http://api.map.baidu.com/place/detail?uid=6fddd7fda764237e3517dc29&output=html&source=placeapi_v2,,,5,,,,,,,,5,,,,,,,117.20749683137,39.105281160554,2
480b24d08cf7dc8c9cec2b9c,河西四号路小学,教育培训,小学,天津市,天津市,河西区,天津市河西区越秀路4号2号,480b24d08cf7dc8c9cec2b9c,1,1,117.216103,39.101778,(022)28134491,education,http://api.map.baidu.com/place/detail?uid=480b24d08cf7dc8c9cec2b9c&output=html&source=placeapi_v2,,,0,,,,,,,,1,,,,,,,117.21622260469,39.102135298331,1
