uid,name,cat_L1,cat_L2,province,city,area,address,street_id,detail,child_num,loc_lng,loc_lat,telephone,type,detail_url,price,shop_hours,overall_rating,taste_rating,service_rating,environment_rating,facility_rating,hygiene_rating,technology_rating,image_num,comment_num,groupon_num,discount_num,favorite_num,checkin_num,brand,content_tag,naviloc_lng,naviloc_lat,child_num
ed502b4ea6ab5272dbeced3d,江津区科技馆,教育培训,科技馆,重庆市,重庆市,江津区,重庆市江津区西江大道与浒溪路交叉口,,1,0,106.269728,29.321478,(023)81220668,scope,http://api.map.baidu.com/place/detail?uid=ed502b4ea6ab5272dbeced3d&output=html&source=placeapi_v2,,,4.7,,,,,,,,10,,,,,,,106.27105903639,29.321374930711,0
f5670992982b6b3efb22137e,重庆市地震科普基地,教育培训,科技馆,重庆市,重庆市,巴南区,重庆市巴南区南泉路重庆市南温泉公园西南侧约120米,f5670992982b6b3efb22137e,1,0,106.583059,29.425102,,education,http://api.map.baidu.com/place/detail?uid=f5670992982b6b3efb22137e&output=html&source=placeapi_v2,,,0,,,,,,,,0,,,,,,,,,0
fd9c77a11e404bd61b94c616,重庆市人民防空宣传教育馆,教育培训,科技馆,重庆市,重庆市,渝中区,重庆市渝中区长和路重庆总部城-E区东北侧约280米,,1,0,106.51162,29.553688,,education,http://api.map.baidu.com/place/detail?uid=fd9c77a11e404bd61b94c616&output=html&source=placeapi_v2,,,,,,,,,,,,,,,,,,106.51137529478,29.553641432965,0
975ad778dc8905c1fda778d3,重庆科技馆,教育培训,科技馆,重庆市,重庆市,江北区,重庆市江北区江北城文星门街7号,975ad778dc8905c1fda778d3,1,9,106.584431,29.578407,(023)61863051,scope,http://api.map.baidu.com/place/detail?uid=975ad778dc8905c1fda778d3&output=html&source=placeapi_v2,,09:30-17:00,4.7,,,,,,,161,200,,,,,,,106.58492997013,29.577651806338,9
369e24e6e17e7c0f2002206d,重庆科技馆-A区,教育培训,科技馆,重庆市,重庆市,江北区,江北城西大街7号重庆科技馆,369e24e6e17e7c0f2002206d,1,0,106.584452,29.577041,(023)61863051,scope,http://api.map.baidu.com/place/detail?uid=369e24e6e17e7c0f2002206d&output=html&source=placeapi_v2,,09:30-17:00,5.0,,,,,,,,2,,,,,,,106.58506780343,29.577310998826,0
dbf8131d589db1c717b54b32,重庆科技馆-B区,教育培训,科技馆,重庆市,重庆市,江北区,重庆市江北区文星门街7号重庆科技馆b馆42号,dbf8131d589db1c717b54b32,1,0,106.584622,29.577826,(023)61863051,scope,http://api.map.baidu.com/place/detail?uid=dbf8131d589db1c717b54b32&output=html&source=placeapi_v2,,,0,,,,,,,,1,,,,,,,106.58494698494,29.577706558075,0
