uid,name,cat_L1,cat_L2,province,city,area,address,street_id,detail,child_num,loc_lng,loc_lat,telephone,type,detail_url,price,shop_hours,overall_rating,taste_rating,service_rating,environment_rating,facility_rating,hygiene_rating,technology_rating,image_num,comment_num,groupon_num,discount_num,favorite_num,checkin_num,brand,content_tag,naviloc_lng,naviloc_lat,child_num
d5d649aa86147d4680a00c25,名剪烫染店,丽人,美发,重庆市,重庆市,江津区,重庆市江津区云鼎未来城123号,d5d649aa86147d4680a00c25,1,0,106.142946,29.063545,,beauty,http://api.map.baidu.com/place/detail?uid=d5d649aa86147d4680a00c25&output=html&source=placeapi_v2,,,,,,,,,,,,,,,,,,,,0
a986bb87771242e4e115f985,发丝缘,丽人,美发,重庆市,重庆市,江津区,重庆市江津区长安西路白沙镇东山社区东北侧约30米,a986bb87771242e4e115f985,1,0,106.134073,29.063403,,beauty,http://api.map.baidu.com/place/detail?uid=a986bb87771242e4e115f985&output=html&source=placeapi_v2,,10:00-21:00,,,,,,,,,,,,,,,,,,0
74b41b47c735af87d3ff23ac,灵感创艺(白沙店),丽人,美发,重庆市,重庆市,江津区,重庆市江津区光华路353号,,1,0,106.123588,29.065231,18166481060,beauty,http://api.map.baidu.com/place/detail?uid=74b41b47c735af87d3ff23ac&output=html&source=placeapi_v2,,10:00-21:00,0.0,,,,,,,,,,,,,,,,,0
5d546db5ead7d900d72ce234,灵感创艺潮店,丽人,美发,重庆市,重庆市,江津区,重庆市江津市江津区光华路97号,,1,0,106.128685,29.066071,,beauty,http://api.map.baidu.com/place/detail?uid=5d546db5ead7d900d72ce234&output=html&source=placeapi_v2,,08:00-20:00,,,,,,,,,,,,,,,,106.12860804563,29.066132842189,0
fffefdc37a49ab5c14c8f6e4,美神烫染艺术空间,丽人,美发,重庆市,重庆市,江津区,重庆市江津区G353,,1,0,106.142802,29.064719,17723533703,beauty,http://api.map.baidu.com/place/detail?uid=fffefdc37a49ab5c14c8f6e4&output=html&source=placeapi_v2,,,,,,,,,,,,,,,,,,,,0
c1fc1fa78f3aed9c9e9d68f5,友友发屋,丽人,美发,重庆市,重庆市,江津区,重庆市江津区光华路新华书店片区综合楼住宅区西侧约100米,,1,0,106.129448,29.066461,18580492931,beauty,http://api.map.baidu.com/place/detail?uid=c1fc1fa78f3aed9c9e9d68f5&output=html&source=placeapi_v2,,,,,,,,,,,,,,,,,,,,0
9abee6d15668914fa9175a67,秘镜SALON,丽人,美发,重庆市,重庆市,江津区,重庆市江津区龙江巷29号,,1,0,106.126522,29.065962,,beauty,http://api.map.baidu.com/place/detail?uid=9abee6d15668914fa9175a67&output=html&source=placeapi_v2,,08:00-20:00,,,,,,,,,,,,,,,,,,0
2da7e911f98c27cab75f1e4b,顾德造型,丽人,美发,重庆市,重庆市,江津区,重庆市江津区G353云鼎・未来城,,1,0,106.14344,29.063369,15111808389,beauty,http://api.map.baidu.com/place/detail?uid=2da7e911f98c27cab75f1e4b&output=html&source=placeapi_v2,,,,,,,,,,,,,,,,,,,,0
ff8d3161bff931ac4afd3fd2,尚艺,丽人,美发,重庆市,重庆市,江津区,重庆市江津区中兴街新华书店片区综合楼住宅区西南侧约200米,,1,0,106.128866,29.065701,15002362553,beauty,http://api.map.baidu.com/place/detail?uid=ff8d3161bff931ac4afd3fd2&output=html&source=placeapi_v2,,,,,,,,,,,,,,,,,,,,0
51798165c68e443332f71d48,名发屋,丽人,美发,重庆市,重庆市,江津区,重庆市江津区槽坊街重庆市江津区第二人民医院北侧约120米,,1,0,106.126471,29.065939,,beauty,http://api.map.baidu.com/place/detail?uid=51798165c68e443332f71d48&output=html&source=placeapi_v2,,10:00-21:00,,,,,,,,,,,,,,,,,,0
d54f7469574a377ce8e582ca,群亮美容美发,丽人,美发,重庆市,重庆市,江津区,重庆市江津区06省道贵福白沙商业中心137号附15号,d54f7469574a377ce8e582ca,1,0,106.143705,29.063398,,beauty,http://api.map.baidu.com/place/detail?uid=d54f7469574a377ce8e582ca&output=html&source=placeapi_v2,,10:00-21:00,,,,,,,,,,,,,,,,,,0
2ad8651c61135e319d95deb5,新异美发,丽人,美发,重庆市,重庆市,江津区,重庆市江津区剧场街1号,,1,0,106.130718,29.066009,,beauty,http://api.map.baidu.com/place/detail?uid=2ad8651c61135e319d95deb5&output=html&source=placeapi_v2,,,,,,,,,,,,,,,,,,,,0
90bbb4f1bba5a75e9b68b412,美奇美容美发店,丽人,美发,重庆市,重庆市,江津区,重庆市江津区教育路双槐树小学校西北侧,,1,0,106.123167,29.064388,18375886468,beauty,http://api.map.baidu.com/place/detail?uid=90bbb4f1bba5a75e9b68b412&output=html&source=placeapi_v2,,,,,,,,,,,,,,,,,,106.12325958583,29.064439628986,0
1e71b908338a611ef4b91604,美容美发,丽人,美发,重庆市,重庆市,江津区,重庆市江津区光华路254号,,1,0,106.125694,29.065395,,beauty,http://api.map.baidu.com/place/detail?uid=1e71b908338a611ef4b91604&output=html&source=placeapi_v2,,,,,,,,,,,,,,,,,,,,0
fdad2f04c9435172ab0dd814,馨艺理发店,丽人,美发,重庆市,重庆市,江津区,重庆市江津区中央大道御景豪阁西北侧,,1,0,106.144973,29.064294,13002394512,beauty,http://api.map.baidu.com/place/detail?uid=fdad2f04c9435172ab0dd814&output=html&source=placeapi_v2,,,,,,,,,,,,,,,,,,,,0
c04056005925155b0b5cb300,山顶名剪,丽人,美发,重庆市,重庆市,江津区,重庆市江津区白沙镇高速转盘处御景豪阁大门正对面,c04056005925155b0b5cb300,1,0,106.146618,29.062762,19936038903,beauty,http://api.map.baidu.com/place/detail?uid=c04056005925155b0b5cb300&output=html&source=placeapi_v2,,,,,,,,,,,,,,,,,,,,0
03b0b79185321734a80dd865,东田造型(重庆分店),丽人,美发,重庆市,重庆市,江津区,白沙镇重庆工商学校C区校门,,1,0,106.144941,29.064291,19823603575,beauty,http://api.map.baidu.com/place/detail?uid=03b0b79185321734a80dd865&output=html&source=placeapi_v2,,10:00-21:00,,,,,,,,,,,,,,,,,,0
fbd266313aa8e358dc1e529b,精益美发,丽人,美发,重庆市,重庆市,綦江区,重庆市綦江区沙溪路26号附1号,fbd266313aa8e358dc1e529b,1,0,106.64505,29.045261,,beauty,http://api.map.baidu.com/place/detail?uid=fbd266313aa8e358dc1e529b&output=html&source=placeapi_v2,,10:00-21:00,,,,,,,,,,,,,,,,106.64493994111,29.045266815357,0
5f2aa67fce9ce2c8c9fa5f80,品艺造型,丽人,美发,重庆市,重庆市,綦江区,重庆市綦江区沙溪路17号附3号,,1,0,106.645939,29.050408,,beauty,http://api.map.baidu.com/place/detail?uid=5f2aa67fce9ce2c8c9fa5f80&output=html&source=placeapi_v2,,09:00-20:30,,,,,,,,,,,,,,,,106.64606406266,29.050194787237,0
a4559388e7443b0947e274a8,简艺匠人,丽人,美发,重庆市,重庆市,綦江区,重庆市綦江区通惠大道千山半岛1110号,a4559388e7443b0947e274a8,1,0,106.671856,29.042416,18223083812,beauty,http://api.map.baidu.com/place/detail?uid=a4559388e7443b0947e274a8&output=html&source=placeapi_v2,,09:30-21:00,,,,,,,,,,,,,,,,106.67188171155,29.042599275116,0
557d443ce6183dd8250bd066,艺度,丽人,美发,重庆市,重庆市,綦江区,千山美郡9栋1-6室,,1,0,106.67713,29.045703,15523973283,beauty,http://api.map.baidu.com/place/detail?uid=557d443ce6183dd8250bd066&output=html&source=placeapi_v2,,09:00-18:00,,,,,,,,,1,,,,,,,,,0
c501c1310c8f5aaa4afd3fb1,九号造型NINE SALON(綦江店),丽人,美发,重庆市,重庆市,綦江区,重庆市綦江区滨河大道18号红星国际广场8幢5-24(德克士对面正宏大厦2楼),,1,0,106.680319,29.041466,15111820827,beauty,http://api.map.baidu.com/place/detail?uid=c501c1310c8f5aaa4afd3fb1&output=html&source=placeapi_v2,,09:30-20:30,5,,,,,,,,3,,,,,,,,,0
1d131538b2929ee97adbd29f,七匠形象管理(爱琴海店),丽人,美发,重庆市,重庆市,綦江区,重庆市綦江区通惠大道18号重庆綦江爱琴海购物公园F1,1d131538b2929ee97adbd29f,1,0,106.67928,29.042458,,beauty,http://api.map.baidu.com/place/detail?uid=1d131538b2929ee97adbd29f&output=html&source=placeapi_v2,,09:30-21:00,4,,,,,,,,1,,,,,,,106.67900887735,29.042830332168,0
8b8f0f358a35ec71b75f1e32,千山发道馆,丽人,美发,重庆市,重庆市,綦江区,重庆市綦江区通惠大道19号附125号,,1,0,106.677747,29.044995,13516567894,beauty,http://api.map.baidu.com/place/detail?uid=8b8f0f358a35ec71b75f1e32&output=html&source=placeapi_v2,,08:30-21:00,,,,,,,,,,,,,,,,,,0
45465f1ca993704002897216,东方名剪(大石路店),丽人,美发,重庆市,重庆市,綦江区,重庆市綦江区大石路37号附6号,,1,0,106.660636,29.041804,,beauty,http://api.map.baidu.com/place/detail?uid=45465f1ca993704002897216&output=html&source=placeapi_v2,,,,,,,,,,,,,,,,,,,,0
94e6ad094b666c8b213bf2c0,米兰造型,丽人,美发,重庆市,重庆市,綦江区,重庆市綦江区红星步行街希岸酒店8-4号,,1,0,106.681365,29.041495,17625642394,beauty,http://api.map.baidu.com/place/detail?uid=94e6ad094b666c8b213bf2c0&output=html&source=placeapi_v2,,09:30-19:00,0,,,,,,,,0,,,,,,,106.6813509233,29.041348848668,0
ca45bd0b9bfdb43ddc1e5213,名洋发型美容连锁(凯旋店),丽人,美发,重庆市,重庆市,綦江区,重庆市綦江区九龙大道凯旋名城绝味鸭脖2楼(电信大厦对面),ca45bd0b9bfdb43ddc1e5213,1,0,106.656429,29.044178,13452953988,beauty,http://api.map.baidu.com/place/detail?uid=ca45bd0b9bfdb43ddc1e5213&output=html&source=placeapi_v2,,10:00-21:00,1.5,,,,,,,,1,,,,,,,106.65647000045,29.044315029415,0
19c089457cea8b5c0bf5eb76,发之国(营盘山店),丽人,美发,重庆市,重庆市,綦江区,重庆市綦江区白营街荣润・凯旋名城东侧约90米,19c089457cea8b5c0bf5eb76,1,0,106.658558,29.042905,"(023)48659653,15320399082",beauty,http://api.map.baidu.com/place/detail?uid=19c089457cea8b5c0bf5eb76&output=html&source=placeapi_v2,85.0,10:00-22:00,3.0,,,,,,,,,,,,,,,106.65862584653,29.042773218098,0
33f3cc6e940b011d31f71da8,视觉秀专业烫染,丽人,美发,重庆市,重庆市,綦江区,重庆市綦江区长石西路141号,,1,0,106.676152,29.042798,19112389534,beauty,http://api.map.baidu.com/place/detail?uid=33f3cc6e940b011d31f71da8&output=html&source=placeapi_v2,,09:30-21:30,,,,,,,,,,,,,,,,106.67615866176,29.042795945393,0
bc5a195980e746b46849f37e,J-POP造型,丽人,美发,重庆市,重庆市,綦江区,重庆市綦江区通惠大道18号重庆綦江爱琴海购物公园F2,,1,0,106.680739,29.042867,15213157753,beauty,http://api.map.baidu.com/place/detail?uid=bc5a195980e746b46849f37e&output=html&source=placeapi_v2,,09:30-21:00,,,,,,,,,,,,,,,,106.67902085176,29.042825300352,0
4b1db885c98b0ddea3a93444,飘逸美发,丽人,美发,重庆市,重庆市,綦江区,重庆市綦江区文龙街25号负2号,4b1db885c98b0ddea3a93444,1,0,106.660228,29.040689,16623062716,beauty,http://api.map.baidu.com/place/detail?uid=4b1db885c98b0ddea3a93444&output=html&source=placeapi_v2,,08:00-20:00,,,,,,,,,,,,,,,,,,0
6b2ff165e9556ad99222e0f9,尤品造型,丽人,美发,重庆市,重庆市,綦江区,重庆市綦江区长生路巨龙广场西南侧约60米,,1,0,106.662559,29.035466,15808074841,beauty,http://api.map.baidu.com/place/detail?uid=6b2ff165e9556ad99222e0f9&output=html&source=placeapi_v2,,09:00-21:00,,,,,,,,,,,,,,,,,,0
1c67c4d56e0d57b63310af1e,名艺造型(大石路店),丽人,美发,重庆市,重庆市,綦江区,重庆市綦江区九龙大道阳光奥韵52号附22号,1c67c4d56e0d57b63310af1e,1,0,106.658548,29.045049,,beauty,http://api.map.baidu.com/place/detail?uid=1c67c4d56e0d57b63310af1e&output=html&source=placeapi_v2,,10:00-21:00,,,,,,,,,,,,,,,,106.65844258502,29.044988338477,0
f9cb545538c14614a8f0cd6a,浪潮工作室,丽人,美发,重庆市,重庆市,綦江区,重庆市綦江区白营街47号,f9cb545538c14614a8f0cd6a,1,0,106.6593,29.043329,18875163058,beauty,http://api.map.baidu.com/place/detail?uid=f9cb545538c14614a8f0cd6a&output=html&source=placeapi_v2,,,,,,,,,,,,,,,,,,106.65938370557,29.043215163841,0
84d80824800749e0f33cbab7,名艺轩烫染会所,丽人,美发,重庆市,重庆市,綦江区,重庆市綦江区长青路30号附6号,84d80824800749e0f33cbab7,1,0,106.66291,29.040906,,beauty,http://api.map.baidu.com/place/detail?uid=84d80824800749e0f33cbab7&output=html&source=placeapi_v2,,10:00-21:00,,,,,,,,,,,,,,,,106.66281605008,29.040872637765,0
66e0491cb26b5b0f41d63e86,发缘点美业,丽人,美发,重庆市,重庆市,綦江区,重庆市綦江区九龙大道42号附2号,66e0491cb26b5b0f41d63e86,1,0,106.658207,29.0427,15178794343,beauty,http://api.map.baidu.com/place/detail?uid=66e0491cb26b5b0f41d63e86&output=html&source=placeapi_v2,,10:00-21:00,,,,,,,,,,,,,,,,106.65799894517,29.042581354536,0
9936185db9b06c2c00ec012d,好再来理发店(文龙街店),丽人,美发,重庆市,重庆市,綦江区,重庆市綦江区文龙街重庆綦江綦瑞假日酒店,9936185db9b06c2c00ec012d,1,0,106.660482,29.04046,,beauty,http://api.map.baidu.com/place/detail?uid=9936185db9b06c2c00ec012d&output=html&source=placeapi_v2,,10:00-21:00,,,,,,,,,,,,,,,,106.66058848328,29.040523883337,0
d4b86b3de7b2c5304251c0e2,发艺轩(大石路店),丽人,美发,重庆市,重庆市,綦江区,重庆市綦江区大石路26号附2号,d4b86b3de7b2c5304251c0e2,1,0,106.66164,29.040817,,beauty,http://api.map.baidu.com/place/detail?uid=d4b86b3de7b2c5304251c0e2&output=html&source=placeapi_v2,,10:00-21:00,,,,,,,,,,,,,,,,,,0
cd5e70f24fb550acf60e7779,一匠造型,丽人,美发,重庆市,重庆市,綦江区,重庆市綦江区通惠大道惠滨一路21号附32号,,1,0,106.684328,29.041247,15123332025,beauty,http://api.map.baidu.com/place/detail?uid=cd5e70f24fb550acf60e7779&output=html&source=placeapi_v2,,09:00-21:00,0,,,,,,,,0,,,,,,,,,0
807b75c9d9629790631c678b,发霸工作室,丽人,美发,重庆市,重庆市,綦江区,重庆市綦江区文龙街道华丰楼对面,807b75c9d9629790631c678b,1,0,106.661433,29.040462,,beauty,http://api.map.baidu.com/place/detail?uid=807b75c9d9629790631c678b&output=html&source=placeapi_v2,,09:00-20:00,,,,,,,,,,,,,,,,106.66150328347,29.040368324225,0
51b56a2b942b33714054d733,艺流发型设计室,丽人,美发,重庆市,重庆市,綦江区,重庆市常乃松綦江区大石路64号,51b56a2b942b33714054d733,1,0,106.661381,29.041122,18620574799,beauty,http://api.map.baidu.com/place/detail?uid=51b56a2b942b33714054d733&output=html&source=placeapi_v2,,10:00-21:00,,,,,,,,,,,,,,,,106.66126153688,29.041134008224,0
b11270c789c44e022902e1dd,发国美容美发(四分店),丽人,美发,重庆市,重庆市,綦江区,重庆市綦江区九龙大道綦江名扬国际广场北侧,b11270c789c44e022902e1dd,1,0,106.660788,29.038168,(023)48609579,beauty,http://api.map.baidu.com/place/detail?uid=b11270c789c44e022902e1dd&output=html&source=placeapi_v2,,09:00-21:00,,,,,,,,,,,,,,,,106.66080609419,29.038153354533,0
7eebd7812ae48767f50e7782,芳芳发艺,丽人,美发,重庆市,重庆市,綦江区,重庆市綦江区九龙大道45号附16号,7eebd7812ae48767f50e7782,1,0,106.657686,29.041878,13308300175,beauty,http://api.map.baidu.com/place/detail?uid=7eebd7812ae48767f50e7782&output=html&source=placeapi_v2,,,,,,,,,,,,,,,,,,106.65773329737,29.041816886323,0
46a40bbdd6a628bf49fc8d7d,发国美容美发(六分店),丽人,美发,重庆市,重庆市,綦江区,重庆市綦江区九龙大道52号附7号,46a40bbdd6a628bf49fc8d7d,1,0,106.655395,29.046367,,beauty,http://api.map.baidu.com/place/detail?uid=46a40bbdd6a628bf49fc8d7d&output=html&source=placeapi_v2,,09:00-21:00,,,,,,,,,,,,,,,,,,0
e57e81d0aba4b5cb10882417,艺剪坊(健康路店),丽人,美发,重庆市,重庆市,綦江区,重庆市綦江区九龙大道29号附43号,e57e81d0aba4b5cb10882417,1,0,106.65511,29.045562,(023)48613649,beauty,http://api.map.baidu.com/place/detail?uid=e57e81d0aba4b5cb10882417&output=html&source=placeapi_v2,,09:00-22:30,0,,,,,,,,1,,,,,,,106.65506662177,29.045637050336,0
3a878e579789580b871541e4,时尚秀专业烫染,丽人,美发,重庆市,重庆市,綦江区,重庆市綦江区文龙街道长青路10号附10号,3a878e579789580b871541e4,1,0,106.663044,29.039306,18375679383,beauty,http://api.map.baidu.com/place/detail?uid=3a878e579789580b871541e4&output=html&source=placeapi_v2,,10:00-21:00,0.0,,,,,,,,,,,,,,,,,0
80afff4f7c825558dc1e52de,康养美容美发,丽人,美发,重庆市,重庆市,綦江区,重庆市綦江区长青路母家湾垃圾站16号附1号,80afff4f7c825558dc1e52de,1,0,106.66279,29.040083,,beauty,http://api.map.baidu.com/place/detail?uid=80afff4f7c825558dc1e52de&output=html&source=placeapi_v2,,,,,,,,,,,,,,,,,,,,0
6735d9debc3c11a917c8f604,创艺剪,丽人,美发,重庆市,重庆市,綦江区,重庆市綦江区阳光雅苑办公楼(重庆市綦江区中医院西北),6735d9debc3c11a917c8f604,1,0,106.65687,29.045722,,beauty,http://api.map.baidu.com/place/detail?uid=6735d9debc3c11a917c8f604&output=html&source=placeapi_v2,,,,,,,,,,,,,,,,,,106.65680012233,29.045695313934,0
946f00a96ddf25b7b23c81ea,发秀私人定制,丽人,美发,重庆市,重庆市,綦江区,重庆市綦江区大田湾街科正花园西侧约120米,946f00a96ddf25b7b23c81ea,1,0,106.659227,29.04194,18723481894,beauty,http://api.map.baidu.com/place/detail?uid=946f00a96ddf25b7b23c81ea&output=html&source=placeapi_v2,,09:00-19:00,,,,,,,,,,,,,,,,106.65914418498,29.042062969339,0
47e6816e6e20e47679dbd23b,发丝缘造型,丽人,美发,重庆市,重庆市,綦江区,重庆市綦江区金兰街8号附9号,47e6816e6e20e47679dbd23b,1,0,106.656297,29.047086,15111986354,beauty,http://api.map.baidu.com/place/detail?uid=47e6816e6e20e47679dbd23b&output=html&source=placeapi_v2,,09:00-20:30,,,,,,,,,,,,,,,,106.65592629475,29.046880036985,0
7431959168e0e79c94ec84ed,发源,丽人,美发,重庆市,重庆市,綦江区,重庆市綦江区通惠大道新都汇,7431959168e0e79c94ec84ed,1,0,106.688321,29.044639,"15759647258,19923807525",beauty,http://api.map.baidu.com/place/detail?uid=7431959168e0e79c94ec84ed&output=html&source=placeapi_v2,,,,,,,,,,,,,,,,,,,,0
2941df337422c17ceb12e434,炫彩美发,丽人,美发,重庆市,重庆市,綦江区,重庆市綦江区九龙大道金兰街天蓝宛华鹏31号,,1,0,106.65584,29.046803,,beauty,http://api.map.baidu.com/place/detail?uid=2941df337422c17ceb12e434&output=html&source=placeapi_v2,,10:00-21:00,,,,,,,,,,,,,,,,106.65593343089,29.046856368834,0
1107b5e86bf8611903ec01f4,美时美刻造型,丽人,美发,重庆市,重庆市,綦江区,重庆市綦江区长青路512号,,1,0,106.66418,29.03802,13062354653,beauty,http://api.map.baidu.com/place/detail?uid=1107b5e86bf8611903ec01f4&output=html&source=placeapi_v2,,08:00-21:00,,,,,,,,,,,,,,,,,,0
da9a6673e9b53778b9df8fe6,程程理发,丽人,美发,重庆市,重庆市,綦江区,重庆市綦江区双龙路金华中西医综合医院北侧约130米,da9a6673e9b53778b9df8fe6,1,0,106.663486,29.034186,,beauty,http://api.map.baidu.com/place/detail?uid=da9a6673e9b53778b9df8fe6&output=html&source=placeapi_v2,,08:30-21:00,,,,,,,,,,,,,,,,106.66335664225,29.034189387094,0
21006512ed39d2a87e29bd76,富康发艺(健康路店),丽人,美发,重庆市,重庆市,綦江区,重庆市綦江区健康路全泰栖苑信达商住楼2号附1号,21006512ed39d2a87e29bd76,1,0,106.655427,29.044074,15922729328,beauty,http://api.map.baidu.com/place/detail?uid=21006512ed39d2a87e29bd76&output=html&source=placeapi_v2,,10:00-21:00,,,,,,,,,,,,,,,,106.65535007758,29.044030702464,0
d001dab057e4dc1aabf0cd61,万义发艺,丽人,美发,重庆市,重庆市,綦江区,重庆市綦江区大石路1号附18号,,1,0,106.662551,29.038093,13628319679,beauty,http://api.map.baidu.com/place/detail?uid=d001dab057e4dc1aabf0cd61&output=html&source=placeapi_v2,,10:00-21:00,,,,,,,,,,,,,,,,,,0
c621f5b7611d32dd9f09f75a,怡美形象管理,丽人,美发,重庆市,重庆市,綦江区,重庆市綦江区滨河大道15号红星国际小区A区4栋2-15室,c621f5b7611d32dd9f09f75a,1,0,106.67975,29.038597,15111977139,beauty,http://api.map.baidu.com/place/detail?uid=c621f5b7611d32dd9f09f75a&output=html&source=placeapi_v2,,09:00-20:30,,,,,,,,,,,,,,,,106.67983191923,29.038812780071,0
0e8b175a8083e896774ff192,艺剪坊(大石路),丽人,美发,重庆市,重庆市,綦江区,重庆市綦江区长生路1号附18号,0e8b175a8083e896774ff192,1,0,106.663062,29.037026,13594193792,beauty,http://api.map.baidu.com/place/detail?uid=0e8b175a8083e896774ff192&output=html&source=placeapi_v2,,09:00-22:30,,,,,,,,,,,,,,,,,,0
29f6f8019a84804fd42ce2c1,彭伟形象设计工作室,丽人,美发,重庆市,重庆市,綦江区,重庆市綦江区团山巷荣润・凯旋名城,,1,0,106.656691,29.042179,18623500417,beauty,http://api.map.baidu.com/place/detail?uid=29f6f8019a84804fd42ce2c1&output=html&source=placeapi_v2,,10:00-21:00,,,,,,,,,,,,,,,,,,0
17ec1922f50527a2f4231038,小刘专业美发,丽人,美发,重庆市,重庆市,綦江区,重庆市綦江区长生路13号附8号,17ec1922f50527a2f4231038,1,0,106.664694,29.037502,17802336890,beauty,http://api.map.baidu.com/place/detail?uid=17ec1922f50527a2f4231038&output=html&source=placeapi_v2,,10:00-21:00,,,,,,,,,,,,,,,,,,0
d84f1d79580a938d343a7133,秀客,丽人,美发,重庆市,重庆市,綦江区,九龙大道62附24号附近,,1,0,106.652001,29.052195,15223349940,beauty,http://api.map.baidu.com/place/detail?uid=d84f1d79580a938d343a7133&output=html&source=placeapi_v2,,,,,,,,,,,,,,,,,,106.65196001991,29.052388066976,0
97ffe17822ca2c45d2f49e85,理发6元,丽人,美发,重庆市,重庆市,綦江区,重庆市綦江区回龙路九龙奥苑,,1,0,106.650215,29.051254,,beauty,http://api.map.baidu.com/place/detail?uid=97ffe17822ca2c45d2f49e85&output=html&source=placeapi_v2,,09:00-20:30,,,,,,,,,,,,,,,,,,0
3aaf545b26ea43a8601c67ca,卡意美发沙龙,丽人,美发,重庆市,重庆市,綦江区,重庆市綦江区九龙大道60号-附33号,3aaf545b26ea43a8601c67ca,1,0,106.651919,29.052218,(023)48225095,beauty,http://api.map.baidu.com/place/detail?uid=3aaf545b26ea43a8601c67ca&output=html&source=placeapi_v2,,10:00-21:00,0.0,,,,,,,,,,,,,,,106.65184192148,29.052316767009,0
1626d30e008d30bdea12e467,永康美容美发(美尚三店),丽人,美发,重庆市,重庆市,綦江区,重庆市綦江区回龙路丽景・九龙城市广场,1626d30e008d30bdea12e467,1,0,106.650543,29.051742,(023)48611529,beauty,http://api.map.baidu.com/place/detail?uid=1626d30e008d30bdea12e467&output=html&source=placeapi_v2,,09:00-20:30,,,,,,,,,,,,,,,,,,0
48764719d0f28de48505bf33,小欧美发,丽人,美发,重庆市,重庆市,綦江区,重庆市綦江区大石支路6号附15号,48764719d0f28de48505bf33,1,0,106.66291,29.037055,17772368157,beauty,http://api.map.baidu.com/place/detail?uid=48764719d0f28de48505bf33&output=html&source=placeapi_v2,,10:00-21:00,,,,,,,,,,,,,,,,106.66286636596,29.037109726069,0
92ceca293b288abd6f3e1bec,首艺造型(滨河大道店),丽人,美发,重庆市,重庆市,綦江区,重庆市綦江区滨河大道a区2号附18号,,1,0,106.670265,29.034104,,beauty,http://api.map.baidu.com/place/detail?uid=92ceca293b288abd6f3e1bec&output=html&source=placeapi_v2,,08:30-20:30,,,,,,,,,,,,,,,,,,0
71bb80681ec6761257bfff16,叶子纹绣,丽人,美发,重庆市,重庆市,綦江区,重庆市綦江区长生路巨龙广场西南侧约80米,71bb80681ec6761257bfff16,1,0,106.662703,29.035048,15703066895,beauty,http://api.map.baidu.com/place/detail?uid=71bb80681ec6761257bfff16&output=html&source=placeapi_v2,,,,,,,,,,,,,,,,,,106.66258531312,29.035018190349,0
d838c17d7a3bd8965bf6be1e,创美时尚造型,丽人,美发,重庆市,重庆市,綦江区,綦江区元屏大道元方新城B区1号附5号,,1,0,106.671864,29.033577,,beauty,http://api.map.baidu.com/place/detail?uid=d838c17d7a3bd8965bf6be1e&output=html&source=placeapi_v2,,08:30-20:30,,,,,,,,,,,,,,,,,,0
30e11886c0676d2a58109313,三三名发轩(电力街分店),丽人,美发,重庆市,重庆市,綦江区,重庆市綦江区电力街33号,30e11886c0676d2a58109313,1,0,106.663592,29.033907,,beauty,http://api.map.baidu.com/place/detail?uid=30e11886c0676d2a58109313&output=html&source=placeapi_v2,,,,,,,,,,,,,,,,,,106.66334856468,29.033912412448,0
68c1ff264de72746b34c49ed,尚品美容美发(綦江二店),丽人,美发,重庆市,重庆市,綦江区,重庆市綦江区龙角路龙门山大酒店西北侧约120米,68c1ff264de72746b34c49ed,1,0,106.661179,29.033635,(023)81714998,beauty,http://api.map.baidu.com/place/detail?uid=68c1ff264de72746b34c49ed&output=html&source=placeapi_v2,,,,,,,,,,,,,,,,,,,,0
338250028326efadd0ff2362,南森造型,丽人,美发,重庆市,重庆市,綦江区,重庆市綦江区通惠大道,338250028326efadd0ff2362,1,0,106.699634,29.050185,,beauty,http://api.map.baidu.com/place/detail?uid=338250028326efadd0ff2362&output=html&source=placeapi_v2,,,,,,,,,,,,,,,,,,,,0
0c88237dfd2ba5207dc876a4,卓美造型,丽人,美发,重庆市,重庆市,江津区,重庆市江津区石滩道重庆农村商业银行(滩盘分理处)西侧约130米,,1,0,106.131315,29.079532,,beauty,http://api.map.baidu.com/place/detail?uid=0c88237dfd2ba5207dc876a4&output=html&source=placeapi_v2,,10:00-21:00,,,,,,,,,,,,,,,,106.13134629102,29.079590577465,0
c8923d3599f4e0cfd5b74ed5,美丝坊专业烫染(溪河街店),丽人,美发,重庆市,重庆市,江津区,重庆市江津区溪河街重庆农村商业银行(滩盘分理处)西侧约70米,,1,0,106.13171,29.079237,18223206304,beauty,http://api.map.baidu.com/place/detail?uid=c8923d3599f4e0cfd5b74ed5&output=html&source=placeapi_v2,,10:00-21:00,,,,,,,,,,,,,,,,,,0
c1fc1fa78f3aed9c9e9d68f5,友友发屋,丽人,美发,重庆市,重庆市,江津区,重庆市江津区光华路新华书店片区综合楼住宅区西侧约100米,,1,0,106.129448,29.066461,18580492931,beauty,http://api.map.baidu.com/place/detail?uid=c1fc1fa78f3aed9c9e9d68f5&output=html&source=placeapi_v2,,,,,,,,,,,,,,,,,,,,0
5d546db5ead7d900d72ce234,灵感创艺潮店,丽人,美发,重庆市,重庆市,江津区,重庆市江津市江津区光华路97号,,1,0,106.128685,29.066071,,beauty,http://api.map.baidu.com/place/detail?uid=5d546db5ead7d900d72ce234&output=html&source=placeapi_v2,,08:00-20:00,,,,,,,,,,,,,,,,106.12860804563,29.066132842189,0
9b18d50d396a4294ad31e518,永宏美容美发,丽人,美发,重庆市,重庆市,江津区,重庆市江津区中滨路45号,9b18d50d396a4294ad31e518,1,0,106.125396,29.066684,13883924989,beauty,http://api.map.baidu.com/place/detail?uid=9b18d50d396a4294ad31e518&output=html&source=placeapi_v2,,10:00-21:00,0,,,,,,,,1,,,,,,,106.12536831489,29.06682089838,0
2ad8651c61135e319d95deb5,新异美发,丽人,美发,重庆市,重庆市,江津区,重庆市江津区剧场街1号,,1,0,106.130718,29.066009,,beauty,http://api.map.baidu.com/place/detail?uid=2ad8651c61135e319d95deb5&output=html&source=placeapi_v2,,,,,,,,,,,,,,,,,,,,0
ff8d3161bff931ac4afd3fd2,尚艺,丽人,美发,重庆市,重庆市,江津区,重庆市江津区中兴街新华书店片区综合楼住宅区西南侧约200米,,1,0,106.128866,29.065701,15002362553,beauty,http://api.map.baidu.com/place/detail?uid=ff8d3161bff931ac4afd3fd2&output=html&source=placeapi_v2,,,,,,,,,,,,,,,,,,,,0
b6014347823e2e622806ce9b,明雨发城剪烫染名店,丽人,美发,重庆市,重庆市,江津区,重庆市江津区橘香路江津李市汽车站东侧约80米,b6014347823e2e622806ce9b,1,0,106.271427,29.080928,13618394785,beauty,http://api.map.baidu.com/place/detail?uid=b6014347823e2e622806ce9b&output=html&source=placeapi_v2,,10:00-21:00,,,,,,,,,,,,,,,,,,0
b4262ee222b8b8845bbbbcfd,巧剪染烫工作室,丽人,美发,重庆市,重庆市,江津区,重庆市江津区水巷子街燕山・树人山水(C区)西侧约190米,,1,0,106.271641,29.083228,,beauty,http://api.map.baidu.com/place/detail?uid=b4262ee222b8b8845bbbbcfd&output=html&source=placeapi_v2,,08:00-21:00,,,,,,,,,,,,,,,,,,0
b0169df3aa05256007fef5db,永宏理发,丽人,美发,重庆市,重庆市,江津区,重庆市江津区八字桥街燕山・树人山水(C区)西侧约130米,,1,0,106.272473,29.082352,,beauty,http://api.map.baidu.com/place/detail?uid=b0169df3aa05256007fef5db&output=html&source=placeapi_v2,,08:00-19:30,,,,,,,,,,,,,,,,106.27240382129,29.082411430098,0
dc1d0f32bb74d3ae21026219,三峡美发,丽人,美发,重庆市,重庆市,江津区,重庆市江津区八字桥街燕山・树人山水(C区)西北侧约80米,,1,0,106.273442,29.083784,18723423963,beauty,http://api.map.baidu.com/place/detail?uid=dc1d0f32bb74d3ae21026219&output=html&source=placeapi_v2,,08:00-19:30,,,,,,,,,,,,,,,,,,0
b960a1e17e0e489c22f0179b,金剪,丽人,美发,重庆市,重庆市,江津区,重庆市江津区水巷子街燕山・树人山水(C区)西侧约140米,,1,0,106.272164,29.082848,,beauty,http://api.map.baidu.com/place/detail?uid=b960a1e17e0e489c22f0179b&output=html&source=placeapi_v2,,10:00-21:00,,,,,,,,,,,,,,,,,,0
b8aeeebd2cc3d9bdc7f50d30,ZY造型,丽人,美发,重庆市,重庆市,江津区,重庆市江津区橘香路新兴幼儿园(胜利路)北侧约80米,,1,0,106.272535,29.080722,18584658015,beauty,http://api.map.baidu.com/place/detail?uid=b8aeeebd2cc3d9bdc7f50d30&output=html&source=placeapi_v2,,,,,,,,,,,,,,,,,,,,0
1e69432d386afe7fc4f50d49,艺之都造型,丽人,美发,重庆市,重庆市,江津区,重庆市江津区葡萄丘街33一35号,,1,0,106.27376,29.081303,15111844114,beauty,http://api.map.baidu.com/place/detail?uid=1e69432d386afe7fc4f50d49&output=html&source=placeapi_v2,,08:00-20:00,,,,,,,,,,,,,,,,,,0
72cf7658602dbf0730169b3f,完美造型发艺(葡萄丘街店),丽人,美发,重庆市,重庆市,江津区,重庆市江津区葡萄丘街燕山・树人山水(B区)南侧约110米,72cf7658602dbf0730169b3f,1,0,106.274282,29.080229,,beauty,http://api.map.baidu.com/place/detail?uid=72cf7658602dbf0730169b3f&output=html&source=placeapi_v2,,,,,,,,,,,,,,,,,,,,0
ee34f9af53806350400245d5,美发丝专业美发烫染(葡萄丘街店),丽人,美发,重庆市,重庆市,江津区,重庆市江津区葡萄丘街燕山・树人山水(B区)南侧约100米,,1,0,106.274199,29.080403,,beauty,http://api.map.baidu.com/place/detail?uid=ee34f9af53806350400245d5&output=html&source=placeapi_v2,,,,,,,,,,,,,,,,,,,,0
322c4498259ab13a3617dcc4,李霞理发店,丽人,美发,重庆市,重庆市,江津区,重庆市江津区G212燕山树人山水A区,322c4498259ab13a3617dcc4,1,0,106.275809,29.080269,13983143703,beauty,http://api.map.baidu.com/place/detail?uid=322c4498259ab13a3617dcc4&output=html&source=placeapi_v2,,,,,,,,,,,,,,,,,,,,0
607c93442d76f5330f0a705a,匠人专业发型,丽人,美发,重庆市,重庆市,綦江区,重庆市綦江区兴隆街隆盛中学南侧约260米,,1,0,106.825828,29.082894,,beauty,http://api.map.baidu.com/place/detail?uid=607c93442d76f5330f0a705a&output=html&source=placeapi_v2,,,,,,,,,,,,,,,,,,106.82573356106,29.083046776908,0
80aa588a0601b59a72455b58,时尚造型,丽人,美发,重庆市,重庆市,綦江区,重庆市綦江区兴隆街隆盛中学南侧约200米,80aa588a0601b59a72455b58,1,0,106.825498,29.08334,15310367482,beauty,http://api.map.baidu.com/place/detail?uid=80aa588a0601b59a72455b58&output=html&source=placeapi_v2,,,,,,,,,,,,,,,,,,,,0
8d433c9a1b630069eee4a51d,理发,丽人,美发,重庆市,重庆市,南川区,重庆市南川区荣华路6附近,,1,0,106.998429,29.080335,,beauty,http://api.map.baidu.com/place/detail?uid=8d433c9a1b630069eee4a51d&output=html&source=placeapi_v2,,,,,,,,,,,,,,,,,,106.99860459263,29.080366471224,0
9495abfe8861f2d0a3acc4cd,封姐理发店,丽人,美发,重庆市,重庆市,南川区,重庆市南川区荣华路森悦家居(南平专卖店)东北侧约210米,,1,0,106.999781,29.088525,17078046991,beauty,http://api.map.baidu.com/place/detail?uid=9495abfe8861f2d0a3acc4cd&output=html&source=placeapi_v2,,,,,,,,,,,,,,,,,,,,0
889ba16d8cf6d16b9d95de30,佳剪尘除美发,丽人,美发,重庆市,重庆市,南川区,正街支路25号,,1,0,106.996828,29.087702,13628269914,beauty,http://api.map.baidu.com/place/detail?uid=889ba16d8cf6d16b9d95de30&output=html&source=placeapi_v2,,,,,,,,,,,,,,,,,,,,0
2ad1064f1dde70749e82ea9d,逾美人造型艺术馆,丽人,美发,重庆市,重庆市,南川区,重庆市南川区正街38号,,1,0,106.995086,29.08679,15330378746,beauty,http://api.map.baidu.com/place/detail?uid=2ad1064f1dde70749e82ea9d&output=html&source=placeapi_v2,,08:30-19:00,,,,,,,,,,,,,,,,106.9951754443,29.086743214879,0
17e10cdb6bfda91ce812e46f,成群发艺,丽人,美发,重庆市,重庆市,南川区,重庆市南川区正街30号4号,,1,0,106.994894,29.086468,13452561055,beauty,http://api.map.baidu.com/place/detail?uid=17e10cdb6bfda91ce812e46f&output=html&source=placeapi_v2,,08:00-21:00,,,,,,,,,,,,,,,,106.9947765688,29.086495094736,0
bd4af8d82bd408a1df1e525f,金鑫美容美发,丽人,美发,重庆市,重庆市,江津区,重庆市江津区金龙街重庆市江津第五中学校东北侧约60米,bd4af8d82bd408a1df1e525f,1,0,106.037043,29.128425,,beauty,http://api.map.baidu.com/place/detail?uid=bd4af8d82bd408a1df1e525f&output=html&source=placeapi_v2,,,,,,,,,,,,,,,,,,106.0371077136,29.128438906169,0
1567b4fff3dea9a0f7b916e6,金美发艺,丽人,美发,重庆市,重庆市,江津区,重庆市江津区金龙街重庆市江津第五中学校东侧,1567b4fff3dea9a0f7b916e6,1,0,106.03755,29.12739,,beauty,http://api.map.baidu.com/place/detail?uid=1567b4fff3dea9a0f7b916e6&output=html&source=placeapi_v2,,,,,,,,,,,,,,,,,,106.03738437553,29.127360859815,0
81614f237e81505d2cb17e90,阳光造型(民兴大道店),丽人,美发,重庆市,重庆市,江津区,重庆市江津区金龙街82号,81614f237e81505d2cb17e90,1,0,106.039043,29.108768,,beauty,http://api.map.baidu.com/place/detail?uid=81614f237e81505d2cb17e90&output=html&source=placeapi_v2,,,,,,,,,,,,,,,,,,,,0
eb71f0f316781b09c9291550,纤丝艺时尚烫染会所,丽人,美发,重庆市,重庆市,江津区,重庆市江津区民兴大道石门镇汽车站南侧约210米,eb71f0f316781b09c9291550,1,0,106.040752,29.10697,,beauty,http://api.map.baidu.com/place/detail?uid=eb71f0f316781b09c9291550&output=html&source=placeapi_v2,,10:00-21:00,,,,,,,,,,,,,,,,,,0
747c0f66fd65d8b63c9a5ed3,创艺烫染吧,丽人,美发,重庆市,重庆市,江津区,重庆市江津区长新路11号,747c0f66fd65d8b63c9a5ed3,1,0,106.458235,29.120089,13883330286,beauty,http://api.map.baidu.com/place/detail?uid=747c0f66fd65d8b63c9a5ed3&output=html&source=placeapi_v2,,,,,,,,,,,,,,,,,,106.45845241978,29.120376577711,0
7d7ce3ef8296c2069cec2bfc,陈二妹发廊,丽人,美发,重庆市,重庆市,江津区,重庆市江津区青江路重庆市江津区青江小学校东侧约80米,,1,0,106.521325,29.117858,13436027542,beauty,http://api.map.baidu.com/place/detail?uid=7d7ce3ef8296c2069cec2bfc&output=html&source=placeapi_v2,,08:00-20:30,,,,,,,,,,,,,,,,,,0
3c81e2d54a5db8e1583ac811,英英美发,丽人,美发,重庆市,重庆市,綦江区,重庆市綦江区新盛新街重庆市农村商业银行(新盛分理处)南侧约60米,,1,0,106.643489,29.107142,,beauty,http://api.map.baidu.com/place/detail?uid=3c81e2d54a5db8e1583ac811&output=html&source=placeapi_v2,,,,,,,,,,,,,,,,,,106.64346737045,29.1072084397,0
ae9a8e4f756113ac077ce8d1,创艺专业美发,丽人,美发,重庆市,重庆市,綦江区,重庆市綦江区新盛新街重庆市农村商业银行(新盛分理处)东南侧约150米,,1,0,106.644701,29.106709,13896162756,beauty,http://api.map.baidu.com/place/detail?uid=ae9a8e4f756113ac077ce8d1&output=html&source=placeapi_v2,,,,,,,,,,,,,,,,,,,,0
ecff77f55b06f595b4265567,容容美发,丽人,美发,重庆市,重庆市,江津区,重庆市江津区G212重庆市(江津)现代农业园区,ecff77f55b06f595b4265567,1,0,106.280981,29.157205,,beauty,http://api.map.baidu.com/place/detail?uid=ecff77f55b06f595b4265567&output=html&source=placeapi_v2,,,,,,,,,,,,,,,,,,,,0
83eeb517c0b7c17bfb2213b5,秀尚美容美发养生会所,丽人,美发,重庆市,重庆市,江津区,重庆市江津区龙凤街31号,,1,0,106.540623,29.152718,,beauty,http://api.map.baidu.com/place/detail?uid=83eeb517c0b7c17bfb2213b5&output=html&source=placeapi_v2,,10:00-21:00,,,,,,,,,,,,,,,,,,0
e86b20d5b4a2182496f08cf3,静静美发,丽人,美发,重庆市,重庆市,巴南区,重庆市巴南区石神路石滩客运站北侧约100米,e86b20d5b4a2182496f08cf3,1,0,106.887251,29.187935,,beauty,http://api.map.baidu.com/place/detail?uid=e86b20d5b4a2182496f08cf3&output=html&source=placeapi_v2,,10:00-21:00,,,,,,,,,,,,,,,,,,0
45cda5685d0c2279f90cadd6,银轩发艺,丽人,美发,重庆市,重庆市,巴南区,重庆市巴南区升平大道石滩镇中心小学校南侧约70米,45cda5685d0c2279f90cadd6,1,0,106.886974,29.189226,15683598318,beauty,http://api.map.baidu.com/place/detail?uid=45cda5685d0c2279f90cadd6&output=html&source=placeapi_v2,,10:00-21:00,0.0,,,,,,,,1,,,,,,,106.88682646089,29.189279100341,0
e6601bac158e238416c905a8,发舞绣(神童分店),丽人,美发,重庆市,重庆市,南川区,重庆市南川区仙女路神童镇人民政府西侧约250米,,1,0,106.930405,29.187426,,beauty,http://api.map.baidu.com/place/detail?uid=e6601bac158e238416c905a8&output=html&source=placeapi_v2,,,,,,,,,,,,,,,,,,,,0
096215a0be30147300ff2dc7,平价发艺,丽人,美发,重庆市,重庆市,南川区,兴星街39号,,1,0,107.013438,29.175482,15826210828,beauty,http://api.map.baidu.com/place/detail?uid=096215a0be30147300ff2dc7&output=html&source=placeapi_v2,,,,,,,,,,,,,,,,,,,,0
916f44ff3da874eb9e95de4f,芭莎专业烫染造型,丽人,美发,重庆市,重庆市,南川区,重庆市南川区兴星街新星幼儿园(人民路)西侧,,1,0,107.012983,29.17537,18996860472,beauty,http://api.map.baidu.com/place/detail?uid=916f44ff3da874eb9e95de4f&output=html&source=placeapi_v2,,,,,,,,,,,,,,,,,,,,0
5c29858da0b2a4d828d7ab0d,世英理发店,丽人,美发,重庆市,重庆市,江津区,重庆市江津区农贸路油溪中学西侧约100米,,1,0,106.152644,29.211416,13251340680,beauty,http://api.map.baidu.com/place/detail?uid=5c29858da0b2a4d828d7ab0d&output=html&source=placeapi_v2,,10:00-21:00,,,,,,,,,,,,,,,,,,0
13f3c485a42e2bbf4c6d46e7,程兰理发店,丽人,美发,重庆市,重庆市,江津区,重庆市江津区农贸路油溪中学西侧约110米,,1,0,106.152311,29.211223,18203079206,beauty,http://api.map.baidu.com/place/detail?uid=13f3c485a42e2bbf4c6d46e7&output=html&source=placeapi_v2,,10:00-21:00,,,,,,,,,,,,,,,,,,0
6cb3b753b2ec7610d8d89153,鑫潮时尚造型,丽人,美发,重庆市,重庆市,江津区,重庆市江津区广场街油溪中学西侧约90米,,1,0,106.15278,29.211893,18623362738,beauty,http://api.map.baidu.com/place/detail?uid=6cb3b753b2ec7610d8d89153&output=html&source=placeapi_v2,,,,,,,,,,,,,,,,,,,,0
3edf9f0c1441af6e4afd3f73,王妃季泉护肤,丽人,美发,重庆市,重庆市,江津区,重庆市江津区农贸路油溪中学西侧约120米,,1,0,106.152534,29.212085,18875015886,beauty,http://api.map.baidu.com/place/detail?uid=3edf9f0c1441af6e4afd3f73&output=html&source=placeapi_v2,,08:00-21:00,,,,,,,,,,,,,,,,,,0
838d1316f1111cd7d23ce37c,魅力美容美发,丽人,美发,重庆市,重庆市,江津区,重庆市江津区龙兴路40号,,1,0,106.219205,29.211698,17784759098,beauty,http://api.map.baidu.com/place/detail?uid=838d1316f1111cd7d23ce37c&output=html&source=placeapi_v2,,09:00-21:00,,,,,,,,,,,,,,,,,,0
125e6f6efb8e07a0ea12e455,友缘发艺,丽人,美发,重庆市,重庆市,江津区,重庆市江津区龙兴路169号,,1,0,106.218586,29.209898,,beauty,http://api.map.baidu.com/place/detail?uid=125e6f6efb8e07a0ea12e455&output=html&source=placeapi_v2,,10:00-21:00,,,,,,,,,,,,,,,,,,0
6c457e1cd3aa4c705e17c3e4,老九美发室,丽人,美发,重庆市,重庆市,江津区,重庆市江津区先锋镇S107西侧20米杨家店加油站,,1,0,106.298016,29.21576,13883890429,beauty,http://api.map.baidu.com/place/detail?uid=6c457e1cd3aa4c705e17c3e4&output=html&source=placeapi_v2,,08:30-20:30,,,,,,,,,,,,,,,,,,0
459949ed936833d47adbd234,菲绣造型,丽人,美发,重庆市,重庆市,江津区,重庆市江津区椒乡大道89号附11号,,1,0,106.308286,29.215776,18983271308,beauty,http://api.map.baidu.com/place/detail?uid=459949ed936833d47adbd234&output=html&source=placeapi_v2,,08:30-20:30,0.0,,,,,,,,0,,,,,,,,,0
f05708d2de4da7956fa3cc11,剪艺,丽人,美发,重庆市,重庆市,江津区,重庆市江津区尚文路177号,,1,0,106.305729,29.213626,17623700663,beauty,http://api.map.baidu.com/place/detail?uid=f05708d2de4da7956fa3cc11&output=html&source=placeapi_v2,,09:00-22:00,,,,,,,,,,,,,,,,106.3057540718,29.213583703877,0
1c31ab0c1853b00d2911d1ed,素迷时尚造型,丽人,美发,重庆市,重庆市,江津区,重庆市江津区康明街16号,,1,0,106.309933,29.215642,,beauty,http://api.map.baidu.com/place/detail?uid=1c31ab0c1853b00d2911d1ed&output=html&source=placeapi_v2,,,,,,,,,,,,,,,,,,,,0
b1485d6155feabdcc2f1cf6f,理发店,丽人,美发,重庆市,重庆市,江津区,重庆市县彭水苗族土家族自治县绍庆街道河堡街立交桥上面三叉路口,b1485d6155feabdcc2f1cf6f,1,0,106.310574,29.216424,,beauty,http://api.map.baidu.com/place/detail?uid=b1485d6155feabdcc2f1cf6f&output=html&source=placeapi_v2,,,,,,,,,,,,,,,,,,,,0
34b17f4d0bca23eba1d230e6,艾斯造型,丽人,美发,重庆市,重庆市,江津区,重庆市江津区G93(成渝环线高速),,1,0,106.307092,29.215053,,beauty,http://api.map.baidu.com/place/detail?uid=34b17f4d0bca23eba1d230e6&output=html&source=placeapi_v2,,09:00-20:00,,,,,,,,,,,,,,,,,,0
384dc9a0b7656890c4f025cc,顶尚名丝发型设计,丽人,美发,重庆市,重庆市,江津区,重庆市江津区康明街重庆市(江津)现代农业园区,,1,0,106.307759,29.215258,15823517911,beauty,http://api.map.baidu.com/place/detail?uid=384dc9a0b7656890c4f025cc&output=html&source=placeapi_v2,,08:30-20:30,,,,,,,,,,,,,,,,,,0
f58152750fbca03bcac3dba1,剪剪发,丽人,美发,重庆市,重庆市,江津区,重庆市江津区先锋镇康明街85号附6号,f58152750fbca03bcac3dba1,1,0,106.308126,29.21519,17783005235,beauty,http://api.map.baidu.com/place/detail?uid=f58152750fbca03bcac3dba1&output=html&source=placeapi_v2,,10:00-21:00,,,,,,,,,,,,,,,,,,0
bc1fe72e5d0bb4d28bb988cc,顺意理发店,丽人,美发,重庆市,重庆市,江津区,重庆市江津区先锋街上洛维广场,bc1fe72e5d0bb4d28bb988cc,1,0,106.308254,29.215937,,beauty,http://api.map.baidu.com/place/detail?uid=bc1fe72e5d0bb4d28bb988cc&output=html&source=placeapi_v2,,10:00-21:00,,,,,,,,,,,,,,,,106.30806205401,29.215938404239,0
dcd02d7a42be481eb05c6afd,发匠烫染造型工作室,丽人,美发,重庆市,重庆市,江津区,重庆市江津区康明街81号,dcd02d7a42be481eb05c6afd,1,0,106.308932,29.215628,17723533885,beauty,http://api.map.baidu.com/place/detail?uid=dcd02d7a42be481eb05c6afd&output=html&source=placeapi_v2,,09:00-21:00,,,,,,,,,,,,,,,,,,0
6bb56f9227f4dd78250bd005,盈丰美发店,丽人,美发,重庆市,重庆市,江津区,康明街好宜家超市旁,,1,0,106.309085,29.215274,17726291846,beauty,http://api.map.baidu.com/place/detail?uid=6bb56f9227f4dd78250bd005&output=html&source=placeapi_v2,,10:00-21:00,,,,,,,,,,,,,,,,,,0
cd8ea2366b7853184e776efc,名剪天下(康明街店),丽人,美发,重庆市,重庆市,江津区,重庆市江津区康明街20号a区,cd8ea2366b7853184e776efc,1,0,106.309894,29.215723,,beauty,http://api.map.baidu.com/place/detail?uid=cd8ea2366b7853184e776efc&output=html&source=placeapi_v2,,10:00-21:00,,,,,,,,,,,,,,,,,,0
aa9ddc745ea18ef525d2bbf8,发丝雨,丽人,美发,重庆市,重庆市,江津区,重庆市江津区平安街重庆市(江津)现代农业园区,,1,0,106.310345,29.215197,13883933068,beauty,http://api.map.baidu.com/place/detail?uid=aa9ddc745ea18ef525d2bbf8&output=html&source=placeapi_v2,,,,,,,,,,,,,,,,,,106.3105104809,29.215199375579,0
b0ed4f9c983d57fe250bd02f,青丝坊(先塘街店),丽人,美发,重庆市,重庆市,江津区,重庆市江津区先塘街重庆市(江津)现代农业园区,,1,0,106.309807,29.213042,,beauty,http://api.map.baidu.com/place/detail?uid=b0ed4f9c983d57fe250bd02f&output=html&source=placeapi_v2,,,,,,,,,,,,,,,,,,,,0
fc039440059fd0853b221cf4,世不低头,丽人,美发,重庆市,重庆市,江津区,重庆市江津区平安街重庆市(江津)现代农业园区,,1,0,106.310479,29.214813,13271884555,beauty,http://api.map.baidu.com/place/detail?uid=fc039440059fd0853b221cf4&output=html&source=placeapi_v2,,,,,,,,,,,,,,,,,,,,0
02824be1c13bdb1dd7851ff2,先锋发艺,丽人,美发,重庆市,重庆市,江津区,重庆市江津区新庄街重庆市(江津)现代农业园区,,1,0,106.3106,29.214088,,beauty,http://api.map.baidu.com/place/detail?uid=02824be1c13bdb1dd7851ff2&output=html&source=placeapi_v2,,10:00-21:00,,,,,,,,,,,,,,,,,,0
68e0a6be806cb7440f0a7034,金苹果美发室,丽人,美发,重庆市,重庆市,江津区,重庆市江津区珞璜镇和平社区,,1,0,106.463554,29.228108,17784460778,beauty,http://api.map.baidu.com/place/detail?uid=68e0a6be806cb7440f0a7034&output=html&source=placeapi_v2,,,,,,,,,,,,,,,,,,106.46376026449,29.228074809983,0
a2cc22dfcc2cfb4ba8175a90,鑫艺理发店,丽人,美发,重庆市,重庆市,巴南区,重庆市巴南区龙岗路安澜镇龙岗小学校南侧约170米,,1,0,106.588364,29.216939,,beauty,http://api.map.baidu.com/place/detail?uid=a2cc22dfcc2cfb4ba8175a90&output=html&source=placeapi_v2,,,,,,,,,,,,,,,,,,106.58838249148,29.216982043004,0
72b382e6b2e03310ae080f9d,百姓理发店,丽人,美发,重庆市,重庆市,巴南区,重庆市巴南区永仁路重庆农村商业银行(巴南支行仁流分理处)西南侧,72b382e6b2e03310ae080f9d,1,0,106.653602,29.218941,,beauty,http://api.map.baidu.com/place/detail?uid=72b382e6b2e03310ae080f9d&output=html&source=placeapi_v2,,,,,,,,,,,,,,,,,,,,0
07433698cf73bb92a1d23036,袁丽美发,丽人,美发,重庆市,重庆市,江津区,重庆市江津区宁康路迎宾小区东北侧约140米,,1,0,106.077222,29.260745,,beauty,http://api.map.baidu.com/place/detail?uid=07433698cf73bb92a1d23036&output=html&source=placeapi_v2,,10:00-21:00,,,,,,,,,,,,,,,,,,0
854e06b17f9f7a2d3a13fde3,兰港美发,丽人,美发,重庆市,重庆市,江津区,重庆市江津区杨林路德感工业园东侧约80米,,1,0,106.223235,29.262996,,beauty,http://api.map.baidu.com/place/detail?uid=854e06b17f9f7a2d3a13fde3&output=html&source=placeapi_v2,,08:00-21:00,,,,,,,,,,,,,,,,106.2233630553,29.262993352079,0
244009e43efd40332bfc486b,三三美容美发,丽人,美发,重庆市,重庆市,江津区,重庆市江津区潍港路东方宝贝幼儿园南侧约30米,,1,0,106.226684,29.260107,18665599859,beauty,http://api.map.baidu.com/place/detail?uid=244009e43efd40332bfc486b&output=html&source=placeapi_v2,,08:30-21:30,,,,,,,,,,,,,,,,106.22670037076,29.260259228216,0
656d53e142b5e85d9f09f769,炫美空间发型设计,丽人,美发,重庆市,重庆市,江津区,重庆市江津区杨林路德感工业园东侧约70米,,1,0,106.223542,29.263612,,beauty,http://api.map.baidu.com/place/detail?uid=656d53e142b5e85d9f09f769&output=html&source=placeapi_v2,,10:00-21:00,,,,,,,,,,,,,,,,106.22337644903,29.263608621487,0
f9b6fea3bc81362343e192b9,天姿美发屋,丽人,美发,重庆市,重庆市,江津区,重庆市江津区东江路德感工业园东北侧约40米,,1,0,106.2231,29.265002,13110140326,beauty,http://api.map.baidu.com/place/detail?uid=f9b6fea3bc81362343e192b9&output=html&source=placeapi_v2,,10:00-21:00,,,,,,,,,,,,,,,,,,0
785c12c57ed3014e89fc0685,皓然造型,丽人,美发,重庆市,重庆市,江津区,重庆市江津区杨林路东方宝贝幼儿园西北侧约150米,,1,0,106.225268,29.261058,,beauty,http://api.map.baidu.com/place/detail?uid=785c12c57ed3014e89fc0685&output=html&source=placeapi_v2,,09:30-22:00,,,,,,,,,,,,,,,,106.22512758962,29.260926840876,0
f5a0420ab4b30e54102935dd,飘丝美发,丽人,美发,重庆市,重庆市,江津区,津坪路142号,f5a0420ab4b30e54102935dd,1,0,106.372641,29.255703,18580476648,beauty,http://api.map.baidu.com/place/detail?uid=f5a0420ab4b30e54102935dd&output=html&source=placeapi_v2,,10:00-21:00,,,,,,,,,,,,,,,,106.37273048914,29.255755542324,0
f2ea7ba28bfc7296df1e52fa,惠宜理发,丽人,美发,重庆市,重庆市,江津区,重庆市江津区静梦家居(支坪店)东,,1,0,106.373188,29.256418,13668016263,beauty,http://api.map.baidu.com/place/detail?uid=f2ea7ba28bfc7296df1e52fa&output=html&source=placeapi_v2,,08:00-20:30,,,,,,,,,,,,,,,,,,0
b826c33ae1c05c4921f017ea,惠祥发源地,丽人,美发,重庆市,重庆市,江津区,重庆市江津区支坪镇津坪路仁沱幼儿园支坪分园,b826c33ae1c05c4921f017ea,1,0,106.370584,29.258263,13508351074,beauty,http://api.map.baidu.com/place/detail?uid=b826c33ae1c05c4921f017ea&output=html&source=placeapi_v2,,10:00-21:00,0.0,,,,,,,,,,,,,,,,,0
edba13984bcdb7c597ec8435,肖富菊理发店,丽人,美发,重庆市,重庆市,巴南区,龙岗路45附3号附近,edba13984bcdb7c597ec8435,1,0,106.594418,29.256966,13752924116,beauty,http://api.map.baidu.com/place/detail?uid=edba13984bcdb7c597ec8435&output=html&source=placeapi_v2,,08:00-21:00,,,,,,,,,,,,,,,,,,0
e2b3719c348cfea8cbfa5f45,魅尚造型(龙峡路店),丽人,美发,重庆市,重庆市,巴南区,重庆市巴南区龙峡路35号,e2b3719c348cfea8cbfa5f45,1,0,106.795875,29.25188,15923230255,beauty,http://api.map.baidu.com/place/detail?uid=e2b3719c348cfea8cbfa5f45&output=html&source=placeapi_v2,,08:00-20:30,5,,,,,,,,1,,,,,,,,,0
4253f115c8bf20679d82ea17,小莉理发,丽人,美发,重庆市,重庆市,巴南区,重庆市巴南区兴正街6号,,1,0,106.797744,29.251233,18983962110,beauty,http://api.map.baidu.com/place/detail?uid=4253f115c8bf20679d82ea17&output=html&source=placeapi_v2,,10:00-21:00,,,,,,,,,,,,,,,,106.7976287922,29.251215722067,0
8052ca655c2291e3081cc708,红梅发廊,丽人,美发,重庆市,重庆市,巴南区,接龙镇中心卫生院西北(龙峡路南),8052ca655c2291e3081cc708,1,0,106.798441,29.251856,13368142685,beauty,http://api.map.baidu.com/place/detail?uid=8052ca655c2291e3081cc708&output=html&source=placeapi_v2,,10:00-21:00,,,,,,,,,,,,,,,,106.7984392605,29.251922799505,0
01c768372adc471321f01757,再回首美容美发,丽人,美发,重庆市,重庆市,巴南区,重庆市巴南区龙峡路重庆市接龙中学校西南侧约240米,,1,0,106.795772,29.251641,,beauty,http://api.map.baidu.com/place/detail?uid=01c768372adc471321f01757&output=html&source=placeapi_v2,,10:00-21:00,,,,,,,,,,,,,,,,,,0
2aef06df0505507df02d835a,渝西发廊,丽人,美发,重庆市,重庆市,巴南区,110乡道与渝道路交叉口邮政银行旁,2aef06df0505507df02d835a,1,0,106.799244,29.252178,,beauty,http://api.map.baidu.com/place/detail?uid=2aef06df0505507df02d835a&output=html&source=placeapi_v2,,10:00-21:00,,,,,,,,,,,,,,,,,,0
949366da3c1d95fc79b55c8e,川田美发造型,丽人,美发,重庆市,重庆市,巴南区,重庆市巴南区龙金路重庆市接龙中学校西南侧约220米,949366da3c1d95fc79b55c8e,1,0,106.796173,29.2514,,beauty,http://api.map.baidu.com/place/detail?uid=949366da3c1d95fc79b55c8e&output=html&source=placeapi_v2,,,,,,,,,,,,,,,,,,,,0
b9379e7fba184141d618b77a,发艺坊,丽人,美发,重庆市,重庆市,南川区,重庆市南川区前进街大观客运站东侧约90米,b9379e7fba184141d618b77a,1,0,106.98838,29.2618,,beauty,http://api.map.baidu.com/place/detail?uid=b9379e7fba184141d618b77a&output=html&source=placeapi_v2,,,,,,,,,,,,,,,,,,,,0
7cb9b6b9462f8b08aecb6608,百姓理发店,丽人,美发,重庆市,重庆市,南川区,重庆市南川区南川市南川区观桥街60号,7cb9b6b9462f8b08aecb6608,1,0,106.987181,29.26165,,beauty,http://api.map.baidu.com/place/detail?uid=7cb9b6b9462f8b08aecb6608&output=html&source=placeapi_v2,,,,,,,,,,,,,,,,,,106.98691558173,29.261655741171,0
d45d709b8df2e88c2afc4801,发艺造型(上南街店),丽人,美发,重庆市,重庆市,南川区,重庆市南川区上南路2号,,1,0,106.985037,29.259114,,beauty,http://api.map.baidu.com/place/detail?uid=d45d709b8df2e88c2afc4801&output=html&source=placeapi_v2,,,,,,,,,,,,,,,,,,,,0
f9a0f7dacb6af0e630169b83,大众理发室,丽人,美发,重庆市,重庆市,南川区,重庆市南川区观桥街大观客运站西侧,,1,0,106.986675,29.262157,,beauty,http://api.map.baidu.com/place/detail?uid=f9a0f7dacb6af0e630169b83&output=html&source=placeapi_v2,,10:00-21:00,,,,,,,,,,,,,,,,,,0
3ce67d05d3bab88ab45f1efd,SK造型(东方红店),丽人,美发,重庆市,重庆市,江津区,重庆市江津区巴山路东方红学校中学部南侧约180米,,1,0,106.209285,29.278541,,beauty,http://api.map.baidu.com/place/detail?uid=3ce67d05d3bab88ab45f1efd&output=html&source=placeapi_v2,,10:00-21:00,,,,,,,,,,,,,,,,,,0
9da3311291d6b49b04026fd4,发艺,丽人,美发,重庆市,重庆市,江津区,重庆市江津区德感街道东方红重齿幼儿园对面,,1,0,106.206979,29.277047,,beauty,http://api.map.baidu.com/place/detail?uid=9da3311291d6b49b04026fd4&output=html&source=placeapi_v2,,10:00-21:00,,,,,,,,,,,,,,,,,,0
d7c7a611c1eb0f3632870abd,城市主流剪烫造型,丽人,美发,重庆市,重庆市,江津区,重庆市江津区巴山路东方红学校中学部南侧约190米,,1,0,106.208384,29.278365,,beauty,http://api.map.baidu.com/place/detail?uid=d7c7a611c1eb0f3632870abd&output=html&source=placeapi_v2,,10:00-21:00,,,,,,,,,,,,,,,,,,0
22741c27ac73ab16f90cade4,顶尚烫染吧(广法宫街店),丽人,美发,重庆市,重庆市,江津区,重庆市江津区广法宫街14号,de93fc6bca1ec525b020a815,1,0,106.256154,29.28224,,beauty,http://api.map.baidu.com/place/detail?uid=22741c27ac73ab16f90cade4&output=html&source=placeapi_v2,,10:00-21:00,,,,,,,,,,,,,,,,106.2562049107,29.282071879618,0
c46e4b9e25f590ac11882490,小凯造型(广法宫街店),丽人,美发,重庆市,重庆市,江津区,重庆市江津区长城路80号,c46e4b9e25f590ac11882490,1,0,106.258726,29.282523,,beauty,http://api.map.baidu.com/place/detail?uid=c46e4b9e25f590ac11882490&output=html&source=placeapi_v2,,10:00-21:00,,,,,,,,,,,,,,,,106.25873142908,29.282456161838,0
cd120a9ce635a7474107c1e2,健红理发屋,丽人,美发,重庆市,重庆市,江津区,长城路286号,,1,0,106.258834,29.282737,13594392115,beauty,http://api.map.baidu.com/place/detail?uid=cd120a9ce635a7474107c1e2&output=html&source=placeapi_v2,,09:00-21:00,,,,,,,,,,,,,,,,106.25899482663,29.282711209415,0
26a29c763c90e365c26c1490,起点造型设计工作室,丽人,美发,重庆市,重庆市,江津区,重庆市江津区几江街道长城路君越酒店斜对面229号,,1,0,106.259168,29.283369,15922693427,beauty,http://api.map.baidu.com/place/detail?uid=26a29c763c90e365c26c1490&output=html&source=placeapi_v2,,08:30-21:30,,,,,,,,,,,,,,,,,,0
2bac88ab75d691220bf5eb4e,动感造型(长城路店),丽人,美发,重庆市,重庆市,江津区,重庆市江津区长城路397号,2bac88ab75d691220bf5eb4e,1,0,106.259326,29.28009,(023)85571755,beauty,http://api.map.baidu.com/place/detail?uid=2bac88ab75d691220bf5eb4e&output=html&source=placeapi_v2,72.0,09:00-21:00,4.7,,,,,,,,3,,,,,,,106.25920123837,29.280046868198,0
e4dc115b49641627ae045773,艺美专业烫染设计,丽人,美发,重庆市,重庆市,江津区,重庆市江津区广法宫街25号,e4dc115b49641627ae045773,1,0,106.259191,29.282395,13648446199,beauty,http://api.map.baidu.com/place/detail?uid=e4dc115b49641627ae045773&output=html&source=placeapi_v2,,10:00-21:00,,,,,,,,,,,,,,,,106.25919193282,29.282471920946,0
0b1ae579b4ed6bbdcafa5f15,渝津发艺,丽人,美发,重庆市,重庆市,江津区,重庆市江津区长城路239号,0b1ae579b4ed6bbdcafa5f15,1,0,106.259086,29.283366,,beauty,http://api.map.baidu.com/place/detail?uid=0b1ae579b4ed6bbdcafa5f15&output=html&source=placeapi_v2,,09:00-20:30,,,,,,,,,,,,,,,,,,0
8029c98ac98d9082a8f7298a,富丽美发工作室,丽人,美发,重庆市,重庆市,江津区,重庆市江津区广法宫街聚英花园,8029c98ac98d9082a8f7298a,1,0,106.254969,29.281729,,beauty,http://api.map.baidu.com/place/detail?uid=8029c98ac98d9082a8f7298a&output=html&source=placeapi_v2,,,,,,,,,,,,,,,,,,,,0
838ebdef89eda966f50e77b9,小李发艺(长城路店),丽人,美发,重庆市,重庆市,江津区,重庆市江津市江津区长城路476号,838ebdef89eda966f50e77b9,1,0,106.259708,29.278698,17749962427,beauty,http://api.map.baidu.com/place/detail?uid=838ebdef89eda966f50e77b9&output=html&source=placeapi_v2,,10:00-21:00,5.0,,,,,,,,1,,,,,,,106.25981003618,29.278740504889,0
f53a777d4bcb3e953686f46d,发觉美造型,丽人,美发,重庆市,重庆市,江津区,重庆市江津区长城路408号附9,f53a777d4bcb3e953686f46d,1,0,106.258933,29.279854,15123291253,beauty,http://api.map.baidu.com/place/detail?uid=f53a777d4bcb3e953686f46d&output=html&source=placeapi_v2,,10:00-21:00,,,,,,,,,,,,,,,,106.25889092951,29.279918683444,0
45628b34f10370622efaa7f7,秀川发型工作室,丽人,美发,重庆市,重庆市,江津区,重庆市江津区西关街37号,,1,0,106.260074,29.280346,15825940411,beauty,http://api.map.baidu.com/place/detail?uid=45628b34f10370622efaa7f7&output=html&source=placeapi_v2,,08:00-21:00,0,,,,,,,,0,,,,,,,,,0
ab933991459204a61d580071,小简造型工作室,丽人,美发,重庆市,重庆市,江津区,重庆市江津区西园路151号检察院家属院149号,ab933991459204a61d580071,1,0,106.261238,29.281986,,beauty,http://api.map.baidu.com/place/detail?uid=ab933991459204a61d580071&output=html&source=placeapi_v2,,10:00-21:00,,,,,,,,,,,,,,,,,,0
ee8ca0ce7c3d69ca2cb96dfd,顺心发艺,丽人,美发,重庆市,重庆市,江津区,重庆市江津区西园路129号,ee8ca0ce7c3d69ca2cb96dfd,1,0,106.261397,29.282604,15823099728,beauty,http://api.map.baidu.com/place/detail?uid=ee8ca0ce7c3d69ca2cb96dfd&output=html&source=placeapi_v2,,,,,,,,,,,,,,,,,,106.26115894072,29.282632194068,0
430d22118af13c4121026255,1987工作室,丽人,美发,重庆市,重庆市,江津区,重庆市江津区得胜街1987号,430d22118af13c4121026255,1,0,106.258849,29.287977,,beauty,http://api.map.baidu.com/place/detail?uid=430d22118af13c4121026255&output=html&source=placeapi_v2,,,,,,,,,,,,,,,,,,,,0
105d77e649a2975bf82213c9,创新理发店,丽人,美发,重庆市,重庆市,江津区,重庆市江津区长城路538号,105d77e649a2975bf82213c9,1,0,106.260106,29.277805,18522905213,beauty,http://api.map.baidu.com/place/detail?uid=105d77e649a2975bf82213c9&output=html&source=placeapi_v2,,10:00-21:00,,,,,,,,,,,,,,,,106.26027403523,29.277795356175,0
941e3250fd77b691430245fa,鑫尚阁美发造型,丽人,美发,重庆市,重庆市,江津区,重庆市江津区思贤巷重庆市江津中学校西南侧,,1,0,106.263664,29.283997,18580462192,beauty,http://api.map.baidu.com/place/detail?uid=941e3250fd77b691430245fa&output=html&source=placeapi_v2,,10:00-21:00,,,,,,,,,,,,,,,,,,0
1e3041141e96c659adcb666b,君好美容美发,丽人,美发,重庆市,重庆市,江津区,重庆市江津区长城路504号,1e3041141e96c659adcb666b,1,0,106.259931,29.278232,,beauty,http://api.map.baidu.com/place/detail?uid=1e3041141e96c659adcb666b&output=html&source=placeapi_v2,,10:00-21:00,3.0,,,,,,,,,,,,,,,106.26004343212,29.278269120224,0
99d07cc2a50f9178dbd89149,秀品热烫烫染工作室,丽人,美发,重庆市,重庆市,江津区,重庆市江津区大有正街102号,99d07cc2a50f9178dbd89149,1,0,106.255041,29.287108,13983466376,beauty,http://api.map.baidu.com/place/detail?uid=99d07cc2a50f9178dbd89149&output=html&source=placeapi_v2,,09:00-21:00,,,,,,,,,,,,,,,,106.25516111473,29.28707783687,0
6f7bc7c62faa59b51811d537,美格美容美发工作室,丽人,美发,重庆市,重庆市,江津区,重庆市江津区长城路32号,6f7bc7c62faa59b51811d537,1,0,106.258849,29.279006,15235000309,beauty,http://api.map.baidu.com/place/detail?uid=6f7bc7c62faa59b51811d537&output=html&source=placeapi_v2,,08:30-21:00,,,,,,,,,,,,,,,,,,0
7f948d4feabc482bd618b76d,平价理发店,丽人,美发,重庆市,重庆市,江津区,重庆市江津区丁香街30号门面,,1,0,106.261974,29.278001,18702302472,beauty,http://api.map.baidu.com/place/detail?uid=7f948d4feabc482bd618b76d&output=html&source=placeapi_v2,,09:00-20:00,,,,,,,,,1,,,,,,,106.26190833951,29.278088419292,0
5b21ffbc2e2d731fb04c496a,维香专业烫染会所,丽人,美发,重庆市,重庆市,江津区,重庆市江津区大同路714号名仕城7-1号,5b21ffbc2e2d731fb04c496a,1,0,106.258268,29.28838,18716658297,beauty,http://api.map.baidu.com/place/detail?uid=5b21ffbc2e2d731fb04c496a&output=html&source=placeapi_v2,,10:00-22:00,3.0,,,,,,,,,,,,,,,106.25837996705,29.28837735937,0
793b4435ac0b1319c1f1cfa0,树人发屋,丽人,美发,重庆市,重庆市,江津区,重庆市江津区树人街125号,793b4435ac0b1319c1f1cfa0,1,0,106.263042,29.286077,,beauty,http://api.map.baidu.com/place/detail?uid=793b4435ac0b1319c1f1cfa0&output=html&source=placeapi_v2,,10:00-21:00,,,,,,,,,,,,,,,,106.26296916646,29.286010445362,0
8360f02cf4d21b60bfa82245,小刘时尚美发,丽人,美发,重庆市,重庆市,江津区,西江街196号,8360f02cf4d21b60bfa82245,1,0,106.257244,29.278013,13452022908,beauty,http://api.map.baidu.com/place/detail?uid=8360f02cf4d21b60bfa82245&output=html&source=placeapi_v2,,10:00-21:00,0.0,,,,,,,,,,,,,,,106.25744634286,29.277931856677,0
bd4fcf75e7614213932ca3a6,发技造型,丽人,美发,重庆市,重庆市,江津区,重庆市江津区树人街86号19号,bd4fcf75e7614213932ca3a6,1,0,106.262029,29.286607,,beauty,http://api.map.baidu.com/place/detail?uid=bd4fcf75e7614213932ca3a6&output=html&source=placeapi_v2,,10:00-21:00,,,,,,,,,,,,,,,,106.26216455331,29.286635368831,0
4bbfae37d844b9cf2a02e1ca,鸿运发艺(树人街店),丽人,美发,重庆市,重庆市,江津区,重庆市江津区树人街城南市场1号楼64号,4bbfae37d844b9cf2a02e1ca,1,0,106.261665,29.28693,13883138889,beauty,http://api.map.baidu.com/place/detail?uid=4bbfae37d844b9cf2a02e1ca&output=html&source=placeapi_v2,,10:00-21:00,,,,,,,,,,,,,,,,106.26161624739,29.287042369524,0
e9faef8039c3a2e5a8f0cd9a,卡诺美发设计,丽人,美发,重庆市,重庆市,江津区,重庆市江津区大同路735号,e9faef8039c3a2e5a8f0cd9a,1,0,106.258494,29.288932,15696296494,beauty,http://api.map.baidu.com/place/detail?uid=e9faef8039c3a2e5a8f0cd9a&output=html&source=placeapi_v2,,10:00-21:00,,,,,,,,,,,,,,,,106.25839682734,29.288934420794,0
6e461638e65b2a9ec9291514,飘逸理发店(沈家地巷店),丽人,美发,重庆市,重庆市,江津区,重庆市江津区沈家地巷小西门,6e461638e65b2a9ec9291514,1,0,106.254833,29.287831,,beauty,http://api.map.baidu.com/place/detail?uid=6e461638e65b2a9ec9291514&output=html&source=placeapi_v2,,10:00-21:00,,,,,,,,,,,,,,,,106.25473689175,29.287939464033,0
7ad20042faf239828f55ecdc,拾光美发工作室,丽人,美发,重庆市,重庆市,江津区,重庆市江津区民生街铜锣路小区西北侧约60米,7ad20042faf239828f55ecdc,1,0,106.261315,29.286442,,beauty,http://api.map.baidu.com/place/detail?uid=7ad20042faf239828f55ecdc&output=html&source=placeapi_v2,,,,,,,,,,,,,,,,,,106.26117717991,29.286471585721,0
d5053a8b714189afadcb66c8,唯美发艺,丽人,美发,重庆市,重庆市,江津区,重庆市江津区长城路鲤鱼石548号,d5053a8b714189afadcb66c8,1,0,106.260342,29.277465,,beauty,http://api.map.baidu.com/place/detail?uid=d5053a8b714189afadcb66c8&output=html&source=placeapi_v2,,10:00-21:00,0.0,,,,,,,,1,,,,,,,,,0
aad132a4eb9070d62b06ce90,金函沙龙,丽人,美发,重庆市,重庆市,江津区,重庆市江津区相府路223号附11号,aad132a4eb9070d62b06ce90,1,0,106.26163,29.289652,13594167542,beauty,http://api.map.baidu.com/place/detail?uid=aad132a4eb9070d62b06ce90&output=html&source=placeapi_v2,,10:00-21:00,3.0,,,,,,,,4,,,,,,,106.26158002233,29.289602588845,0
f5a88c5639c6c471b45f1eb6,重庆市江津区雅秀美发店,丽人,美发,重庆市,重庆市,江津区,民生街黄金花园(民缘街)南侧约210米,f5a88c5639c6c471b45f1eb6,1,0,106.261125,29.286698,"15340539081,15683315696",beauty,http://api.map.baidu.com/place/detail?uid=f5a88c5639c6c471b45f1eb6&output=html&source=placeapi_v2,,,,,,,,,,,,,,,,,,106.26119733699,29.28669150608,0
20b57746f73160118a36ee5d,剪艺发艺坊,丽人,美发,重庆市,重庆市,江津区,重庆市江津区长城路鲤鱼石608号,20b57746f73160118a36ee5d,1,0,106.260071,29.277999,,beauty,http://api.map.baidu.com/place/detail?uid=20b57746f73160118a36ee5d&output=html&source=placeapi_v2,,10:00-21:00,,,,,,,,,,,,,,,,,,0
a1824c4a0380788ef7eafcff,宣扬染烫吧,丽人,美发,重庆市,重庆市,江津区,重庆市江津区得胜街145号,a1824c4a0380788ef7eafcff,1,0,106.257216,29.289334,18108350852,beauty,http://api.map.baidu.com/place/detail?uid=a1824c4a0380788ef7eafcff&output=html&source=placeapi_v2,,10:00-21:00,0.0,,,,,,,,,,,,,,,106.25735618533,29.289398117913,0
0fec0bc2ada3f63058109301,小港发型设计屋,丽人,美发,重庆市,重庆市,江津区,重庆市江津区百货街18号,0fec0bc2ada3f63058109301,1,0,106.262303,29.292395,,beauty,http://api.map.baidu.com/place/detail?uid=0fec0bc2ada3f63058109301&output=html&source=placeapi_v2,,10:00-21:00,4,,,,,,,,1,,,,,,,,,0
34849db4b2cd80900869d94b,剃头匠(小西门店),丽人,美发,重庆市,重庆市,江津区,江津区临江路218号,34849db4b2cd80900869d94b,1,0,106.256066,29.290132,18696644402,beauty,http://api.map.baidu.com/place/detail?uid=34849db4b2cd80900869d94b&output=html&source=placeapi_v2,,,,,,,,,,,,,,,,,,,,0
c7551373d300b94beee4a51b,露露美发,丽人,美发,重庆市,重庆市,江津区,重庆市江津区鲤鱼石路江津市鲤鱼石街商住楼南侧,c7551373d300b94beee4a51b,1,0,106.259885,29.277397,,beauty,http://api.map.baidu.com/place/detail?uid=c7551373d300b94beee4a51b&output=html&source=placeapi_v2,,10:00-21:00,0.0,,,,,,,,,,,,,,,,,0
a4e196fbd31e52e1a1d230b1,真功夫专业烫染名店,丽人,美发,重庆市,重庆市,江津区,重庆市江津区民生街黄金花园(民缘街)南侧约110米,a4e196fbd31e52e1a1d230b1,1,0,106.261226,29.287728,,beauty,http://api.map.baidu.com/place/detail?uid=a4e196fbd31e52e1a1d230b1&output=html&source=placeapi_v2,,10:00-21:00,,,,,,,,,,,,,,,,,,0
7fc7b6a0968bf83030169b68,如意美发(柏树林街),丽人,美发,重庆市,重庆市,江津区,重庆市江津区武城大道迷你星座5号,7fc7b6a0968bf83030169b68,1,0,106.263518,29.289292,18223090644,beauty,http://api.map.baidu.com/place/detail?uid=7fc7b6a0968bf83030169b68&output=html&source=placeapi_v2,,10:00-21:00,0.0,,,,,,,,,,,,,,,106.26322587702,29.289119004003,0
df4d8987ee0da038f4eafc6e,千色烫染工作室,丽人,美发,重庆市,重庆市,江津区,重庆市江津区临江路91号,df4d8987ee0da038f4eafc6e,1,0,106.257009,29.290702,"15178859589,15823492629",beauty,http://api.map.baidu.com/place/detail?uid=df4d8987ee0da038f4eafc6e&output=html&source=placeapi_v2,,08:00-20:30,,,,,,,,,,,,,,,,,,0
a1774b70d7b0d0cd96ca07e7,名都美发沙龙,丽人,美发,重庆市,重庆市,江津区,重庆市江津区鼎山大道371号,a1774b70d7b0d0cd96ca07e7,1,0,106.266432,29.284398,15998907427,beauty,http://api.map.baidu.com/place/detail?uid=a1774b70d7b0d0cd96ca07e7&output=html&source=placeapi_v2,,10:00-21:00,0.0,,,,,,,,,,,,,,,106.26650327191,29.284265047116,0
38fb8d36d4dc77bab11e36be,丽人宫美发沙龙,丽人,美发,重庆市,重庆市,江津区,重庆市江津区红照壁街14号奎星广场a1栋28号,38fb8d36d4dc77bab11e36be,1,0,106.265363,29.293102,13678406237,beauty,http://api.map.baidu.com/place/detail?uid=38fb8d36d4dc77bab11e36be&output=html&source=placeapi_v2,,10:00-21:00,,,,,,,,,,,,,,,,106.26549935442,29.293073771692,0
93fd3b108ee0691df33cbae0,美术烫染潮牌店(小西门店),丽人,美发,重庆市,重庆市,江津区,重庆市江津区临江路169号,,1,0,106.256139,29.289721,18883220353,beauty,http://api.map.baidu.com/place/detail?uid=93fd3b108ee0691df33cbae0&output=html&source=placeapi_v2,,10:00-22:00,,,,,,,,,,,,,,,,106.25610257484,29.289741442205,0
36e3173ec753818daf31e5a3,X造型,丽人,美发,重庆市,重庆市,江津区,几江街道鼎山大道58号金科・世界城26幢2-2-3号,,1,0,106.262732,29.27357,18223469141,beauty,http://api.map.baidu.com/place/detail?uid=36e3173ec753818daf31e5a3&output=html&source=placeapi_v2,,09:00-21:00,,,,,,,,,,,,,,,,,,0
99b609246746a6ad2b06ce5f,发艺美发沙龙,丽人,美发,重庆市,重庆市,江津区,重庆市江津区大同路江津时代广场-B区南侧约130米,99b609246746a6ad2b06ce5f,1,0,106.260665,29.291414,,beauty,http://api.map.baidu.com/place/detail?uid=99b609246746a6ad2b06ce5f&output=html&source=placeapi_v2,,10:00-21:00,,,,,,,,,,,,,,,,,,0
9ffbd947c58f0497715e8062,兴隆美发店(燕窝穴街店),丽人,美发,重庆市,重庆市,江津区,重庆市江津区燕窝穴街69号,9ffbd947c58f0497715e8062,1,0,106.266682,29.288904,13896005013,beauty,http://api.map.baidu.com/place/detail?uid=9ffbd947c58f0497715e8062&output=html&source=placeapi_v2,,10:00-21:00,,,,,,,,,,,,,,,,106.26675545052,29.289071396105,0
f4327a4a7579e650abf0cd1a,漂亮宝贝(临江路店),丽人,美发,重庆市,重庆市,江津区,重庆市江津区通泰街17号江津时代广场A区B1,f4327a4a7579e650abf0cd1a,1,0,106.258861,29.293617,15310295858,beauty,http://api.map.baidu.com/place/detail?uid=f4327a4a7579e650abf0cd1a&output=html&source=placeapi_v2,,10:00-21:00,0.0,,,,,,,,1,,,,,,,106.2587134468,29.293705106431,0
610af002fcb76a174e2fdfe9,发炙美发专业烫染,丽人,美发,重庆市,重庆市,江津区,重庆市江津区德感正街42号,,1,0,106.242156,29.281275,,beauty,http://api.map.baidu.com/place/detail?uid=610af002fcb76a174e2fdfe9&output=html&source=placeapi_v2,,10:00-21:00,,,,,,,,,,,,,,,,106.24226489082,29.281251238699,0
c1056a5374a82a1714c8f685,Ac造型,丽人,美发,重庆市,重庆市,江津区,重庆市江津区北固门街37号,c1056a5374a82a1714c8f685,1,0,106.262773,29.29473,17725195151,beauty,http://api.map.baidu.com/place/detail?uid=c1056a5374a82a1714c8f685&output=html&source=placeapi_v2,,10:00-22:00,5,,,,,,,,2,,,,,,,,,0
dde31a9af7f6cfbc7069d33a,美丝烫染潮牌店,丽人,美发,重庆市,重庆市,江津区,重庆市江津区塔坪路47号,dde31a9af7f6cfbc7069d33a,1,0,106.270207,29.290226,,beauty,http://api.map.baidu.com/place/detail?uid=dde31a9af7f6cfbc7069d33a&output=html&source=placeapi_v2,,,,,,,,,,,,,,,,,,106.26984691144,29.290134845491,0
74abaf57d250bdf60bccddd0,百姓理发,丽人,美发,重庆市,重庆市,江津区,武城大道20号附12号,,1,0,106.26443,29.289502,15123863905,beauty,http://api.map.baidu.com/place/detail?uid=74abaf57d250bdf60bccddd0&output=html&source=placeapi_v2,,09:00-21:00,,,,,,,,,,,,,,,,,,0
e71c91fadb59314b88db738a,方美发屋,丽人,美发,重庆市,重庆市,江津区,重庆市麻沙市江津区麻沙街83号,,1,0,106.258101,29.292265,(023)85561508,beauty,http://api.map.baidu.com/place/detail?uid=e71c91fadb59314b88db738a&output=html&source=placeapi_v2,,10:00-21:00,,,,,,,,,,,,,,,,,,0
e7b343b6c4db6ea371210b10,十元理发店,丽人,美发,重庆市,重庆市,江津区,重庆市江津区临江路43号,e7b343b6c4db6ea371210b10,1,0,106.257929,29.292731,,beauty,http://api.map.baidu.com/place/detail?uid=e7b343b6c4db6ea371210b10&output=html&source=placeapi_v2,,,,,,,,,,,,,,,,,,,,0
06de9cf828a8a4539f09f700,遇见.美美发养发沙龙,丽人,美发,重庆市,重庆市,江津区,重庆市江津区江州大道庭院时光祥瑞时光道步行街21栋2楼1~3号门市,,1,0,106.275467,29.287727,(023)47777732,beauty,http://api.map.baidu.com/place/detail?uid=06de9cf828a8a4539f09f700&output=html&source=placeapi_v2,,09:00-20:00,0,,,,,,,,2,,,,,,,,,0
66294c7902cfc0e3db131832,灵感造艺美容美发,丽人,美发,重庆市,重庆市,江津区,重庆市江津区怡然街111号,,1,0,106.26352,29.295579,(023)47332009,beauty,http://api.map.baidu.com/place/detail?uid=66294c7902cfc0e3db131832&output=html&source=placeapi_v2,,09:00-21:00,0.0,,,,,,,,1,,,,,,,,,0
1eeed546acce8bf1b4147fab,晓杨名发,丽人,美发,重庆市,重庆市,江津区,重庆市江津区怡然街195号,1eeed546acce8bf1b4147fab,1,0,106.261367,29.295261,13527453688,beauty,http://api.map.baidu.com/place/detail?uid=1eeed546acce8bf1b4147fab&output=html&source=placeapi_v2,,10:00-21:00,3,,,,,,,,1,,,,,,,106.26126284502,29.295396185114,0
f1c6e47a824876c0f6c59c38,顺意美发,丽人,美发,重庆市,重庆市,江津区,重庆市江津区南安街奎星广场128号附17号,,1,0,106.266296,29.291904,,beauty,http://api.map.baidu.com/place/detail?uid=f1c6e47a824876c0f6c59c38&output=html&source=placeapi_v2,,,,,,,,,,,,,,,,,,,,0
1da39e7d1d40a510b34c49d1,动感造型(江津港龙购物中心店),丽人,美发,重庆市,重庆市,江津区,鼎山街道江州大道600号江津港龙购物中心F1,,1,0,106.276053,29.286937,(023)85575231,beauty,http://api.map.baidu.com/place/detail?uid=1da39e7d1d40a510b34c49d1&output=html&source=placeapi_v2,,09:00-20:00,5,,,,,,,,1,,,,,,,106.27589079265,29.287034239139,0
8bb5eaf9c5740cfaed74f892,欣艺美发,丽人,美发,重庆市,重庆市,江津区,重庆市江津区燕穴街246号,8bb5eaf9c5740cfaed74f892,1,0,106.269192,29.286035,,beauty,http://api.map.baidu.com/place/detail?uid=8bb5eaf9c5740cfaed74f892&output=html&source=placeapi_v2,,10:00-21:00,,,,,,,,,,,,,,,,,,0
fab4dc96264ddbf929fc4870,慧虹美发,丽人,美发,重庆市,重庆市,江津区,重庆市麻沙市江津区临江路45号,fab4dc96264ddbf929fc4870,1,0,106.257894,29.292709,,beauty,http://api.map.baidu.com/place/detail?uid=fab4dc96264ddbf929fc4870&output=html&source=placeapi_v2,,10:00-21:00,,,,,,,,,,,,,,,,106.25784706078,29.292756578006,0
1bf85b25d9434ebda0a934f7,远霞美容美发,丽人,美发,重庆市,重庆市,江津区,重庆市江津区南安街104~106号,1bf85b25d9434ebda0a934f7,1,0,106.266218,29.292589,"15923904214,18908371145",beauty,http://api.map.baidu.com/place/detail?uid=1bf85b25d9434ebda0a934f7&output=html&source=placeapi_v2,102.0,09:00-21:00,0.0,,,,,,,,,,,,,,,106.26636018082,29.292528997726,0
1357e5aa5e8cf31b6c3e1bf5,风尚,丽人,美发,重庆市,重庆市,江津区,重庆市江津区老米市街41号,1357e5aa5e8cf31b6c3e1bf5,1,0,106.262331,29.293286,,beauty,http://api.map.baidu.com/place/detail?uid=1357e5aa5e8cf31b6c3e1bf5&output=html&source=placeapi_v2,,,,,,,,,,,,,,,,,,106.26242533949,29.293223234964,0
a6f6fa115331cf300aa8d4d1,兰兰美发,丽人,美发,重庆市,重庆市,江津区,重庆市江津区清平巷奎星广场西侧约60米,a6f6fa115331cf300aa8d4d1,1,0,106.263938,29.291997,18883098898,beauty,http://api.map.baidu.com/place/detail?uid=a6f6fa115331cf300aa8d4d1&output=html&source=placeapi_v2,,08:30-20:30,,,,,,,,,,,,,,,,106.2638641689,29.292012587299,0
0b60acf9bac00d565abbbcf5,敏顺美发,丽人,美发,重庆市,重庆市,江津区,重庆市江津区怡然街113号,0b60acf9bac00d565abbbcf5,1,0,106.262384,29.295572,,beauty,http://api.map.baidu.com/place/detail?uid=0b60acf9bac00d565abbbcf5&output=html&source=placeapi_v2,,10:00-21:00,0,,,,,,,,1,,,,,,,,,0
678b318769a71a4df03cbab0,纤艺美发纹绣,丽人,美发,重庆市,重庆市,江津区,重庆市江津区燕窝穴街云辉丽都-D区,678b318769a71a4df03cbab0,1,0,106.268852,29.286086,,beauty,http://api.map.baidu.com/place/detail?uid=678b318769a71a4df03cbab0&output=html&source=placeapi_v2,,,,,,,,,,,,,,,,,,106.26888305568,29.286200650889,0
72bbf212626ff8a0095cb3af,从头做起美发工作室,丽人,美发,重庆市,重庆市,江津区,重庆市江津区奎星广场d-2栋8号门市,72bbf212626ff8a0095cb3af,1,0,106.264844,29.2914,,beauty,http://api.map.baidu.com/place/detail?uid=72bbf212626ff8a0095cb3af&output=html&source=placeapi_v2,,10:00-21:00,,,,,,,,,,,,,,,,,,0
e51e35de6de9dfcede1e52cf,友艺丝,丽人,美发,重庆市,重庆市,江津区,几江街道南安街计监局楼下,e51e35de6de9dfcede1e52cf,1,0,106.266881,29.291294,18225009535,beauty,http://api.map.baidu.com/place/detail?uid=e51e35de6de9dfcede1e52cf&output=html&source=placeapi_v2,,10:00-21:00,,,,,,,,,,,,,,,,106.26692676726,29.291318964984,0
38f4aca26ca551787069d303,来缘美发,丽人,美发,重庆市,重庆市,江津区,重庆市江津区长风路73号,38f4aca26ca551787069d303,1,0,106.270504,29.292151,,beauty,http://api.map.baidu.com/place/detail?uid=38f4aca26ca551787069d303&output=html&source=placeapi_v2,,10:00-21:00,,,,,,,,,,,,,,,,,,0
bbb4f9757f6156e5882fb5bd,代芳美发屋,丽人,美发,重庆市,重庆市,江津区,重庆市江津区斗套20号、22号,,1,0,106.242602,29.281136,13696479261,beauty,http://api.map.baidu.com/place/detail?uid=bbb4f9757f6156e5882fb5bd&output=html&source=placeapi_v2,,10:00-21:00,,,,,,,,,,,,,,,,,,0
60a67eac6a3faf1514c8f67b,创美源专业发型设计(怡然街店),丽人,美发,重庆市,重庆市,江津区,重庆市江津区怡然街142号,60a67eac6a3faf1514c8f67b,1,0,106.261931,29.295478,,beauty,http://api.map.baidu.com/place/detail?uid=60a67eac6a3faf1514c8f67b&output=html&source=placeapi_v2,,10:00-21:00,,,,,,,,,,,,,,,,106.26194599468,29.29541122607,0
d704a266761bd0a782288a08,名流烫染吧(南安街店),丽人,美发,重庆市,重庆市,江津区,重庆市江津区南安街118号,d704a266761bd0a782288a08,1,0,106.266388,29.29235,,beauty,http://api.map.baidu.com/place/detail?uid=d704a266761bd0a782288a08&output=html&source=placeapi_v2,,10:00-21:00,0.0,,,,,,,,,,,,,,,106.26643622149,29.292356719433,0
c3ae7eea1c5f0c000b1cc751,天涯丽人造型设计,丽人,美发,重庆市,重庆市,江津区,重庆市江津区南安街奎星广场东侧约50米,c3ae7eea1c5f0c000b1cc751,1,0,106.267175,29.291554,,beauty,http://api.map.baidu.com/place/detail?uid=c3ae7eea1c5f0c000b1cc751&output=html&source=placeapi_v2,,10:00-21:00,,,,,,,,,,,,,,,,,,0
8d7a21b1df93c66af942b2f4,玉洁美发,丽人,美发,重庆市,重庆市,江津区,重庆市江津区南安街奎星广场东侧约50米,8d7a21b1df93c66af942b2f4,1,0,106.267143,29.291552,13594274032,beauty,http://api.map.baidu.com/place/detail?uid=8d7a21b1df93c66af942b2f4&output=html&source=placeapi_v2,,,,,,,,,,,,,,,,,,,,0
4c7ab6db4deacd24ca291533,发森源,丽人,美发,重庆市,重庆市,江津区,重庆市江津区南安街116号,4c7ab6db4deacd24ca291533,1,0,106.266376,29.292372,13883992082,beauty,http://api.map.baidu.com/place/detail?uid=4c7ab6db4deacd24ca291533&output=html&source=placeapi_v2,88.0,10:00-21:00,0,,,,,,,,0,,,,,,,106.26640522635,29.292430915849,0
73802083a3f2efd89222e0d0,承艺美发馆,丽人,美发,重庆市,重庆市,江津区,重庆市江津区南安街奎星广场东北侧约50米,73802083a3f2efd89222e0d0,1,0,106.266471,29.292681,15923166825,beauty,http://api.map.baidu.com/place/detail?uid=73802083a3f2efd89222e0d0&output=html&source=placeapi_v2,,,,,,,,,,,,,,,,,,106.2664111417,29.292659705401,0
46e07ef7823ce210eedfcaa1,东门理发店,丽人,美发,重庆市,重庆市,江津区,重庆市江津区大同路68号,46e07ef7823ce210eedfcaa1,1,0,106.270051,29.29567,"13452314613,15123270429",beauty,http://api.map.baidu.com/place/detail?uid=46e07ef7823ce210eedfcaa1&output=html&source=placeapi_v2,,10:00-21:00,0.0,,,,,,,,,,,,,,,,,0
4ccd0f7c31ea349922f0174a,出发点美发连锁(怡然街店),丽人,美发,重庆市,重庆市,江津区,重庆市江津区怡然街191号,4ccd0f7c31ea349922f0174a,1,0,106.261438,29.295249,13274004468,beauty,http://api.map.baidu.com/place/detail?uid=4ccd0f7c31ea349922f0174a&output=html&source=placeapi_v2,,10:00-21:00,0.0,,,,,,,,,,,,,,,,,0
5c6a71dd8b52fcc3be4842f7,妙色纯天然植物染发,丽人,美发,重庆市,重庆市,江津区,重庆市江津区东门路山奇小区北侧,5c6a71dd8b52fcc3be4842f7,1,0,106.268129,29.29204,"13883250321,15123054343",beauty,http://api.map.baidu.com/place/detail?uid=5c6a71dd8b52fcc3be4842f7&output=html&source=placeapi_v2,,10:00-21:00,,,,,,,,,,,,,,,,106.26818763337,29.29181202752,0
8e4f7a532a94ab3afa42b272,酷萌儿童理发,丽人,美发,重庆市,重庆市,江津区,重庆市江津区塔坪路园丁大厦东北侧,8e4f7a532a94ab3afa42b272,1,0,106.270746,29.28747,18623669477,beauty,http://api.map.baidu.com/place/detail?uid=8e4f7a532a94ab3afa42b272&output=html&source=placeapi_v2,,09:00-21:00,,,,,,,,,,,,,,,,,,0
c0c3d90af24df3e7fbdc8508,亿美专业烫染纹绣,丽人,美发,重庆市,重庆市,江津区,重庆市江津区鞍子街5号,c0c3d90af24df3e7fbdc8508,1,0,106.26541,29.293341,18375758959,beauty,http://api.map.baidu.com/place/detail?uid=c0c3d90af24df3e7fbdc8508&output=html&source=placeapi_v2,,,,,,,,,,,,,,,,,,106.26536395822,29.293322158851,0
73c320e17bdfb798f942b22c,雅柔美发,丽人,美发,重庆市,重庆市,江津区,上后街8附近,73c320e17bdfb798f942b22c,1,0,106.24184,29.27745,,beauty,http://api.map.baidu.com/place/detail?uid=73c320e17bdfb798f942b22c&output=html&source=placeapi_v2,,10:00-21:00,,,,,,,,,,,,,,,,,,0
d5c33fc7d3a9ed93593ac808,莱客理发店,丽人,美发,重庆市,重庆市,江津区,重庆市江津区怡然街江津区四牌坊小学教师宿舍小区西南侧,d5c33fc7d3a9ed93593ac808,1,0,106.263217,29.295594,,beauty,http://api.map.baidu.com/place/detail?uid=d5c33fc7d3a9ed93593ac808&output=html&source=placeapi_v2,,09:00-21:00,,,,,,,,,,,,,,,,106.26323472174,29.295647459684,0
f3686fa732493d29fa42b260,华港烫染旗舰店,丽人,美发,重庆市,重庆市,江津区,重庆市江津区德感正街30号,f3686fa732493d29fa42b260,1,0,106.242117,29.281408,,beauty,http://api.map.baidu.com/place/detail?uid=f3686fa732493d29fa42b260&output=html&source=placeapi_v2,,10:00-21:00,,,,,,,,,,,,,,,,,,0
af3f068fd568188fd8eced83,温馨美发,丽人,美发,重庆市,重庆市,江津区,重庆市江津区海螺路阳光花园(德感正街)北侧约50米,af3f068fd568188fd8eced83,1,0,106.241656,29.281729,,beauty,http://api.map.baidu.com/place/detail?uid=af3f068fd568188fd8eced83&output=html&source=placeapi_v2,,10:00-21:00,,,,,,,,,,,,,,,,106.241619832,29.281802237792,0
248a4475da02c2ac9d9d6888,新艺美发,丽人,美发,重庆市,重庆市,江津区,重庆市江津区南安街33号,248a4475da02c2ac9d9d6888,1,0,106.265841,29.293897,,beauty,http://api.map.baidu.com/place/detail?uid=248a4475da02c2ac9d9d6888&output=html&source=placeapi_v2,,,,,,,,,,,,,,,,,,106.26578805813,29.29387313737,0
e6bb1e4af2b6f5614251c0c5,蜕变洗剪,丽人,美发,重庆市,重庆市,江津区,重庆市江津区大同路江津区中心医院(东门分院)西北侧,,1,0,106.268613,29.295063,15213075611,beauty,http://api.map.baidu.com/place/detail?uid=e6bb1e4af2b6f5614251c0c5&output=html&source=placeapi_v2,,10:00-21:00,,,,,,,,,,,,,,,,106.26863550514,29.295183906912,0
7647a4f134823872b54f5465,贵丽丝美发工作室,丽人,美发,重庆市,重庆市,江津区,重庆市江津区大同路300号,7647a4f134823872b54f5465,1,0,106.264869,29.294541,15683089093,beauty,http://api.map.baidu.com/place/detail?uid=7647a4f134823872b54f5465&output=html&source=placeapi_v2,87.0,09:00-20:30,,,,,,,,,,,,,,,,,,0
7fd66f36cc07d4555dbe86ee,领秀美发店,丽人,美发,重庆市,重庆市,江津区,重庆市江津区上新路金桂苑东南侧,,1,0,106.245352,29.271892,,beauty,http://api.map.baidu.com/place/detail?uid=7fd66f36cc07d4555dbe86ee&output=html&source=placeapi_v2,,10:00-21:00,,,,,,,,,,,,,,,,,,0
9e2c730d526bc6ee6f3e1b5d,梦容理发室,丽人,美发,重庆市,重庆市,江津区,重庆市江津区下后街141号,9e2c730d526bc6ee6f3e1b5d,1,0,106.241872,29.278184,,beauty,http://api.map.baidu.com/place/detail?uid=9e2c730d526bc6ee6f3e1b5d&output=html&source=placeapi_v2,,10:00-21:30,0.0,,,,,,,,,,,,,,,,,0
98d14b3f4585ec4cb5f42f5f,小小美发,丽人,美发,重庆市,重庆市,江津区,重庆市江津区南华酒厂东(上新路东),,1,0,106.245648,29.271964,,beauty,http://api.map.baidu.com/place/detail?uid=98d14b3f4585ec4cb5f42f5f&output=html&source=placeapi_v2,,10:00-21:00,,,,,,,,,,,,,,,,,,0
719e34d14f6f1f7ff03cbaab,靓群专业美发,丽人,美发,重庆市,重庆市,江津区,重庆市江津区德感正街上新路54号,,1,0,106.245095,29.272249,,beauty,http://api.map.baidu.com/place/detail?uid=719e34d14f6f1f7ff03cbaab&output=html&source=placeapi_v2,,10:00-21:00,,,,,,,,,,,,,,,,,,0
e13374c20859ce696140a9f8,靓点专业美发,丽人,美发,重庆市,重庆市,江津区,重庆市江津区德感正街韵达快递1号,e13374c20859ce696140a9f8,1,0,106.244241,29.272632,,beauty,http://api.map.baidu.com/place/detail?uid=e13374c20859ce696140a9f8&output=html&source=placeapi_v2,,10:00-21:00,,,,,,,,,,,,,,,,106.2442539036,29.272706400174,0
ab78c1c6dcdafef22a02e1f2,诺蔓珊,丽人,美发,重庆市,重庆市,江津区,重庆市江津区江州大道112号御景华庭106号,ab78c1c6dcdafef22a02e1f2,1,0,106.277224,29.286757,(023)47562251,beauty,http://api.map.baidu.com/place/detail?uid=ab78c1c6dcdafef22a02e1f2&output=html&source=placeapi_v2,,08:30-21:00,,,,,,,,,,,,,,,,,,0
8383177e7ff333cf4f6d460f,风尚造型设计,丽人,美发,重庆市,重庆市,江津区,重庆市江津区江州大道悦景城199号,8383177e7ff333cf4f6d460f,1,0,106.27598,29.288296,15179188177,beauty,http://api.map.baidu.com/place/detail?uid=8383177e7ff333cf4f6d460f&output=html&source=placeapi_v2,,09:00-21:00,,,,,,,,,,,,,,,,106.27584331811,29.28813659169,0
ee1a6e04f4cca6261576439f,快乐出发美发,丽人,美发,重庆市,重庆市,江津区,重庆市江津区琅山大道水木年华・湖上,,1,0,106.276908,29.283742,15922814890,beauty,http://api.map.baidu.com/place/detail?uid=ee1a6e04f4cca6261576439f&output=html&source=placeapi_v2,86.0,10:00-21:00,,,,,,,,,,,,,,,,106.27698696163,29.283665147802,0
cc867e5dd83d0305d3ff237e,纤艺坊(体育路店),丽人,美发,重庆市,重庆市,江津区,重庆市江津区长风路796号,cc867e5dd83d0305d3ff237e,1,0,106.288979,29.280144,18716638598,beauty,http://api.map.baidu.com/place/detail?uid=cc867e5dd83d0305d3ff237e&output=html&source=placeapi_v2,,10:00-18:00,5.0,,,,,,,,0,,,,,,,,,0
a1ca1dc9b1965062c8213dbe,动感造型(建宇爱上店),丽人,美发,重庆市,重庆市,江津区,重庆市江津区江州大道364号,a1ca1dc9b1965062c8213dbe,1,0,106.284169,29.2816,(023)85574309,beauty,http://api.map.baidu.com/place/detail?uid=a1ca1dc9b1965062c8213dbe&output=html&source=placeapi_v2,,09:00-20:00,5,,,,,,,,1,,,,,,,,,0
0bb2ab35a2090fcf54bfff17,动感造型(星河奥韵店),丽人,美发,重庆市,重庆市,江津区,重庆市江津区江洲大道88号8号,0bb2ab35a2090fcf54bfff17,1,0,106.287105,29.278647,"(023)47553661,(023)85571432",beauty,http://api.map.baidu.com/place/detail?uid=0bb2ab35a2090fcf54bfff17&output=html&source=placeapi_v2,,09:00-20:00,0,,,,,,,,0,,,,,,,106.28724009226,29.278819132937,0
f6b6c89ef84185b2f219373f,千艺造型(江州大道店),丽人,美发,重庆市,重庆市,江津区,重庆市江津区江州大道649号,f6b6c89ef84185b2f219373f,1,0,106.288119,29.278113,18725828905,beauty,http://api.map.baidu.com/place/detail?uid=f6b6c89ef84185b2f219373f&output=html&source=placeapi_v2,,10:00-21:00,,,,,,,,,,,,,,,,,,0
ed57e198dfb488852bb97c70,雅思发艺,丽人,美发,重庆市,重庆市,江津区,重庆市江津区鼎山街道金江港湾五栋一单元,,1,0,106.293531,29.271795,13635495073,beauty,http://api.map.baidu.com/place/detail?uid=ed57e198dfb488852bb97c70&output=html&source=placeapi_v2,,09:30-21:30,,,,,,,,,,,,,,,,,,0
27f368a08c9d8c12a9059d9d,标榜发型设计(江津区移民局西南),丽人,美发,重庆市,重庆市,江津区,重庆市江津区元帅大道元帅广场79号,,1,0,106.287105,29.283244,17382326462,beauty,http://api.map.baidu.com/place/detail?uid=27f368a08c9d8c12a9059d9d&output=html&source=placeapi_v2,,10:00-21:00,,,,,,,,,,,,,,,,106.28713803957,29.28315885435,0
cb775fa3813d83ca8bf15d59,迷尚造型,丽人,美发,重庆市,重庆市,江津区,重庆市江津区鼎山街道半岛明珠天之味下行50米,cb775fa3813d83ca8bf15d59,1,0,106.285215,29.285072,18102340959,beauty,http://api.map.baidu.com/place/detail?uid=cb775fa3813d83ca8bf15d59&output=html&source=placeapi_v2,,09:00-20:30,,,,,,,,,,,,,,,,106.28533979612,29.284975876196,0
887149e5196f51ef43e1922a,yc造型,丽人,美发,重庆市,重庆市,江津区,重庆市江津区长风路780号,887149e5196f51ef43e1922a,1,0,106.288819,29.280352,,beauty,http://api.map.baidu.com/place/detail?uid=887149e5196f51ef43e1922a&output=html&source=placeapi_v2,,,,,,,,,,,,,,,,,,,,0
a5a225e0a77e26f59322e094,渝鑫发艺,丽人,美发,重庆市,重庆市,江津区,重庆市江津区江州大道490号,a5a225e0a77e26f59322e094,1,0,106.287725,29.277595,13271867804,beauty,http://api.map.baidu.com/place/detail?uid=a5a225e0a77e26f59322e094&output=html&source=placeapi_v2,,10:00-21:00,4,,,,,,,,1,,,,,,,106.28782499964,29.277655027268,0
a2ae962d5c771bbf1ef74d83,领秀发艺,丽人,美发,重庆市,重庆市,江津区,重庆市江津区体育路114号,,1,0,106.287831,29.280004,18996466037,beauty,http://api.map.baidu.com/place/detail?uid=a2ae962d5c771bbf1ef74d83&output=html&source=placeapi_v2,,09:00-21:00,,,,,,,,,,,,,,,,106.2876550061,29.280118916412,0
605b743032236c35a8f7298a,非艺发造型,丽人,美发,重庆市,重庆市,江津区,重庆市江津区琅山大道群兴花园,605b743032236c35a8f7298a,1,0,106.280421,29.28565,13696483885,beauty,http://api.map.baidu.com/place/detail?uid=605b743032236c35a8f7298a&output=html&source=placeapi_v2,,09:00-21:30,,,,,,,,,,,,,,,,,,0
1361c1761f1a58b054bffff4,陈星理发店,丽人,美发,重庆市,重庆市,江津区,重庆市江津区长风路群兴花园,1361c1761f1a58b054bffff4,1,0,106.281926,29.286571,,beauty,http://api.map.baidu.com/place/detail?uid=1361c1761f1a58b054bffff4&output=html&source=placeapi_v2,,,,,,,,,,,,,,,,,,,,0
2ffd82ac14a343f6f7eafcf4,艺剪坊(柳林街店),丽人,美发,重庆市,重庆市,江津区,重庆市江津区柳林街216号,2ffd82ac14a343f6f7eafcf4,1,0,106.282061,29.280516,18983493982,beauty,http://api.map.baidu.com/place/detail?uid=2ffd82ac14a343f6f7eafcf4&output=html&source=placeapi_v2,,09:00-22:30,,,,,,,,,,,,,,,,106.2820885033,29.280663400621,0
e0cf499b8026882bc16c1433,斯特造型(江津店),丽人,美发,重庆市,重庆市,江津区,重庆市江津区文菁路水苑门市73号,e0cf499b8026882bc16c1433,1,0,106.28238,29.282245,18223141022,beauty,http://api.map.baidu.com/place/detail?uid=e0cf499b8026882bc16c1433&output=html&source=placeapi_v2,88.0,09:00-21:00,0,,,,,,,,0,,,,,,,,,0
46ee90e50172df07ed74f8f8,定芳理发店,丽人,美发,重庆市,重庆市,江津区,重庆市江津区柳林街199号,,1,0,106.285856,29.277203,,beauty,http://api.map.baidu.com/place/detail?uid=46ee90e50172df07ed74f8f8&output=html&source=placeapi_v2,,10:00-21:00,0.0,,,,,,,,,,,,,,,,,0
cc4552a2b5919bc549fd3ffa,首艺(恒通津都海岸西),丽人,美发,重庆市,重庆市,江津区,重庆市江津区顺江路恒通・津都海岸,,1,0,106.293417,29.26901,,beauty,http://api.map.baidu.com/place/detail?uid=cc4552a2b5919bc549fd3ffa&output=html&source=placeapi_v2,,10:00-21:00,,,,,,,,,,,,,,,,106.29336071392,29.269186197137,0
7dd49427738f94c69d9d681d,匠人理发馆,丽人,美发,重庆市,重庆市,江津区,重庆市江津区柳林路224号,,1,0,106.282203,29.280311,17783839170,beauty,http://api.map.baidu.com/place/detail?uid=7dd49427738f94c69d9d681d&output=html&source=placeapi_v2,,,,,,,,,,,1,,,,,,,106.28233597479,29.280411722104,0
1fe0dbcdd5ff08f82cb90884,爱尚发艺(文菁路店),丽人,美发,重庆市,重庆市,江津区,重庆市江津区文菁路99号,1fe0dbcdd5ff08f82cb90884,1,0,106.283422,29.283372,15102373821,beauty,http://api.map.baidu.com/place/detail?uid=1fe0dbcdd5ff08f82cb90884&output=html&source=placeapi_v2,,10:00-21:00,0,,,,,,,,1,,,,,,,106.28361605565,29.283274607538,0
bf7c6f82c33bace9c72ba168,动感造型(津南明珠店),丽人,美发,重庆市,重庆市,江津区,重庆市江津区柳林街72号,bf7c6f82c33bace9c72ba168,1,0,106.279211,29.28272,(023)85555334,beauty,http://api.map.baidu.com/place/detail?uid=bf7c6f82c33bace9c72ba168&output=html&source=placeapi_v2,,09:00-20:00,0,,,,,,,,1,,,,,,,106.27930224257,29.282815556301,0
a32ced89cf4900c348cc4a23,名扬发艺(柳林街店),丽人,美发,重庆市,重庆市,江津区,重庆市江津区柳林街156号,a32ced89cf4900c348cc4a23,1,0,106.28087,29.281515,13896087566,beauty,http://api.map.baidu.com/place/detail?uid=a32ced89cf4900c348cc4a23&output=html&source=placeapi_v2,,10:00-21:00,,,,,,,,,,,,,,,,,,0
2688dc19a439ba40f50e77b6,明剪理发馆,丽人,美发,重庆市,重庆市,江津区,重庆市江津区文菁路水苑西南侧,,1,0,106.281578,29.282272,13618352826,beauty,http://api.map.baidu.com/place/detail?uid=2688dc19a439ba40f50e77b6&output=html&source=placeapi_v2,,09:00-21:00,,,,,,,,,,,,,,,,,,0
99b4151a99e4244e0bf5eb7e,罗罗造型,丽人,美发,重庆市,重庆市,江津区,重庆市江津区文菁路水苑西南侧,,1,0,106.281631,29.282226,15923021004,beauty,http://api.map.baidu.com/place/detail?uid=99b4151a99e4244e0bf5eb7e&output=html&source=placeapi_v2,,08:00-21:00,,,,,,,,,,,,,,,,,,0
790d4451b5e6846fc9c3dbc3,乔伊形象管理,丽人,美发,重庆市,重庆市,江津区,重庆市江津区鼎山大道新华佳苑,790d4451b5e6846fc9c3dbc3,1,0,106.282007,29.278112,15823586635,beauty,http://api.map.baidu.com/place/detail?uid=790d4451b5e6846fc9c3dbc3&output=html&source=placeapi_v2,,,,,,,,,,,,,,,,,,,,0
b0ebfc3773da8e8b0bf5ebae,大舟造型,丽人,美发,重庆市,重庆市,江津区,重庆市江津区柳林街凤凰小区1-7号,,1,0,106.281697,29.281556,,beauty,http://api.map.baidu.com/place/detail?uid=b0ebfc3773da8e8b0bf5ebae&output=html&source=placeapi_v2,,09:00-21:00,,,,,,,,,,,,,,,,,,0
19579566f7975de21e1d1125,随意剪发艺,丽人,美发,重庆市,重庆市,江津区,重庆市江津区凤凰路117号,19579566f7975de21e1d1125,1,0,106.280949,29.283099,,beauty,http://api.map.baidu.com/place/detail?uid=19579566f7975de21e1d1125&output=html&source=placeapi_v2,,10:00-21:00,,,,,,,,,,,,,,,,106.28105181832,29.283091045306,0
58335d663418f6a3018972ad,芳造型,丽人,美发,重庆市,重庆市,江津区,重庆市江津区琅山大道164号群兴花园1栋5单元,58335d663418f6a3018972ad,1,0,106.281318,29.286274,,beauty,http://api.map.baidu.com/place/detail?uid=58335d663418f6a3018972ad&output=html&source=placeapi_v2,,10:00-21:00,,,,,,,,,,,,,,,,106.28122270028,29.286367443906,0
80b642b478635e2c4d6d465d,名发园美容美发工作室,丽人,美发,重庆市,重庆市,江津区,重庆市江津区凤凰路42号,80b642b478635e2c4d6d465d,1,0,106.280815,29.282653,,beauty,http://api.map.baidu.com/place/detail?uid=80b642b478635e2c4d6d465d&output=html&source=placeapi_v2,,10:00-21:00,,,,,,,,,,,,,,,,106.28073363042,29.282714315707,0
1810d3af267fed6e3fe231af,美丝烫染潮牌店(仰天湖店),丽人,美发,重庆市,重庆市,江津区,重庆市江津区柳林街1号3栋1-12,,1,0,106.278527,29.283595,17784288738,beauty,http://api.map.baidu.com/place/detail?uid=1810d3af267fed6e3fe231af&output=html&source=placeapi_v2,,09:00-21:00,,,,,,,,,,,,,,,,106.2784327574,29.283516145701,0
c738cee008dbfcb954bffff7,金剪刀,丽人,美发,重庆市,重庆市,江津区,重庆市江津区柳林街53号,,1,0,106.279046,29.28316,13527432491,beauty,http://api.map.baidu.com/place/detail?uid=c738cee008dbfcb954bffff7&output=html&source=placeapi_v2,,10:00-21:00,,,,,,,,,,,,,,,,,,0
00b5157134007d0eca09f030,纯美时尚烫染,丽人,美发,重庆市,重庆市,江津区,重庆市江津区鼎山大道892号,,1,0,106.285597,29.270676,13106435559,beauty,http://api.map.baidu.com/place/detail?uid=00b5157134007d0eca09f030&output=html&source=placeapi_v2,,09:00-21:00,,,,,,,,,,,,,,,,,,0
f6304f8704acd0a6a1d2301b,奕燃美发沙龙,丽人,美发,重庆市,重庆市,江津区,重庆市江津区柳林街25号4栋3号,,1,0,106.278871,29.283283,,beauty,http://api.map.baidu.com/place/detail?uid=f6304f8704acd0a6a1d2301b&output=html&source=placeapi_v2,,09:00-21:00,,,,,,,,,,,,,,,,106.27871571375,29.283318493489,0
83f4b4bc34a9940c91114ce0,佳利美容美发,丽人,美发,重庆市,重庆市,江津区,重庆市江津区鼎山大道四季花都,,1,0,106.283136,29.27307,18323864086,beauty,http://api.map.baidu.com/place/detail?uid=83f4b4bc34a9940c91114ce0&output=html&source=placeapi_v2,,09:00-21:00,,,,,,,,,,,,,,,,,,0
ef2b15eaecc03a8b7adbd288,炫巧发艺,丽人,美发,重庆市,重庆市,九龙坡区,重庆市九龙坡区冬笋街九龙坡区铜罐驿实验学校东南侧约220米,,1,0,106.389504,29.296008,,beauty,http://api.map.baidu.com/place/detail?uid=ef2b15eaecc03a8b7adbd288&output=html&source=placeapi_v2,,10:00-21:00,0.0,,,,,,,,,,,,,,,,,0
62187b6ab2f3925c33169b9b,宏霞发艺,丽人,美发,重庆市,重庆市,九龙坡区,重庆市九龙坡区冬笋街120-7号46-1号48号,,1,0,106.391674,29.297177,,beauty,http://api.map.baidu.com/place/detail?uid=62187b6ab2f3925c33169b9b&output=html&source=placeapi_v2,,10:00-21:00,5.0,,,,,,,,2,,,,,,,,,0
9f9b92d7735567b80c0a703b,传统理发店,丽人,美发,重庆市,重庆市,九龙坡区,重庆市九龙坡区冬笋街童语乐苑幼儿园东北侧约210米,,1,0,106.389276,29.295734,,beauty,http://api.map.baidu.com/place/detail?uid=9f9b92d7735567b80c0a703b&output=html&source=placeapi_v2,,10:00-21:00,,,,,,,,,,,,,,,,106.38920109403,29.295798294637,0
3f80d545ff42f70bb2077d18,琦艺造型,丽人,美发,重庆市,重庆市,九龙坡区,重庆市九龙坡区冬笋街27号,,1,0,106.390466,29.296706,,beauty,http://api.map.baidu.com/place/detail?uid=3f80d545ff42f70bb2077d18&output=html&source=placeapi_v2,,10:00-21:00,,,,,,,,,,,,,,,,,,0
76fa1356789e616feee4a56a,韵菡发艺,丽人,美发,重庆市,重庆市,江津区,重庆市江津区园区大道马宗一期16栋2号,,1,0,106.475466,29.289603,18983819932,beauty,http://api.map.baidu.com/place/detail?uid=76fa1356789e616feee4a56a&output=html&source=placeapi_v2,,08:00-21:00,,,,,,,,,,,,,,,,106.47519423029,29.289744302022,0
476c2b303a99bdf12b11d1c1,恩典造型(邓家沟高铁还房18栋店),丽人,美发,重庆市,重庆市,江津区,重庆市江津区邓家沟高铁还房18栋店,,1,0,106.477347,29.295652,18223560321,beauty,http://api.map.baidu.com/place/detail?uid=476c2b303a99bdf12b11d1c1&output=html&source=placeapi_v2,,09:00-21:00,,,,,,,,,,,,,,,,106.47725540935,29.295512335593,0
00db8678df2830e9ab059d85,佳欣美发,丽人,美发,重庆市,重庆市,江津区,重庆市江津区什字街重庆农村商业银行(马宗分理处)东侧约110米,,1,0,106.484568,29.282193,15998919651,beauty,http://api.map.baidu.com/place/detail?uid=00db8678df2830e9ab059d85&output=html&source=placeapi_v2,,,,,,,,,,,,,,,,,,,,0
284ad13269163672f503b8c7,小杨发廊,丽人,美发,重庆市,重庆市,江津区,重庆市江津区新街重庆农村商业银行(马宗分理处)东南侧约110米,,1,0,106.484334,29.281774,13048333470,beauty,http://api.map.baidu.com/place/detail?uid=284ad13269163672f503b8c7&output=html&source=placeapi_v2,,,,,,,,,,,,,,,,,,106.48469616551,29.281404724971,0
0871d3c493fba3b53010af14,王丽理发店,丽人,美发,重庆市,重庆市,江津区,重庆市江津区什字街重庆农村商业银行(马宗分理处)东侧约80米,,1,0,106.484283,29.282276,13640549529,beauty,http://api.map.baidu.com/place/detail?uid=0871d3c493fba3b53010af14&output=html&source=placeapi_v2,,,,,,,,,,,,,,,,,,,,0
1a87a4d7c8f69465616858c6,丝艺美发烫染店,丽人,美发,重庆市,重庆市,巴南区,重庆市巴南区新街东磊桂苑西侧约130米,1a87a4d7c8f69465616858c6,1,0,106.57184,29.29101,,beauty,http://api.map.baidu.com/place/detail?uid=1a87a4d7c8f69465616858c6&output=html&source=placeapi_v2,,,,,,,,,,,,,,,,,,106.57171319847,29.291072405764,0
dbc4702eeca7e9c39f09f79b,源源造型,丽人,美发,重庆市,重庆市,巴南区,重庆市巴南区民兴路29号附4号,,1,0,106.574678,29.288903,13251444421,beauty,http://api.map.baidu.com/place/detail?uid=dbc4702eeca7e9c39f09f79b&output=html&source=placeapi_v2,,,,,,,,,,,,,,,,,,,,0
56a88db4aa7ed7b1ad045714,缘梦发廊,丽人,美发,重庆市,重庆市,巴南区,重庆市巴南区新街东磊桂苑西南侧约210米,56a88db4aa7ed7b1ad045714,1,0,106.571233,29.290606,,beauty,http://api.map.baidu.com/place/detail?uid=56a88db4aa7ed7b1ad045714&output=html&source=placeapi_v2,,,,,,,,,,,,,,,,,,,,0
ca8bbfe82de84657250bd044,顶剪(农盛巷),丽人,美发,重庆市,重庆市,巴南区,重庆市巴南区一品正街一品中学北侧约40米,ca8bbfe82de84657250bd044,1,0,106.570487,29.288833,13110299258,beauty,http://api.map.baidu.com/place/detail?uid=ca8bbfe82de84657250bd044&output=html&source=placeapi_v2,,10:00-21:00,,,,,,,,,,,,,,,,,,0
fc4336d0daad60def42310c9,银银发型设计中心,丽人,美发,重庆市,重庆市,巴南区,重庆市巴南区民兴路东磊桂苑西南侧约120米,fc4336d0daad60def42310c9,1,0,106.572335,29.290821,,beauty,http://api.map.baidu.com/place/detail?uid=fc4336d0daad60def42310c9&output=html&source=placeapi_v2,,10:00-21:00,,,,,,,,,,,,,,,,106.57242386952,29.290920746712,0
413ea728aff4c56504fef50b,剪艺造型,丽人,美发,重庆市,重庆市,巴南区,重庆市巴南区一品正街32号玉波池昌福小区十社212号,413ea728aff4c56504fef50b,1,0,106.570981,29.288682,,beauty,http://api.map.baidu.com/place/detail?uid=413ea728aff4c56504fef50b&output=html&source=placeapi_v2,,10:00-21:00,,,,,,,,,,,,,,,,,,0
8ba82f296dd8b9942b3a9f0d,新艺美发室,丽人,美发,重庆市,重庆市,巴南区,重庆市巴南区新街重庆农村商业银行(跳石分理处)南侧约120米,8ba82f296dd8b9942b3a9f0d,1,0,106.6542,29.278189,15086860452,beauty,http://api.map.baidu.com/place/detail?uid=8ba82f296dd8b9942b3a9f0d&output=html&source=placeapi_v2,,,,,,,,,,,,,,,,,,,,0
f9a86122265d1bfa7369d331,缘源发屋,丽人,美发,重庆市,重庆市,巴南区,跳石新街44号,f9a86122265d1bfa7369d331,1,0,106.654932,29.277746,13527333610,beauty,http://api.map.baidu.com/place/detail?uid=f9a86122265d1bfa7369d331&output=html&source=placeapi_v2,,,,,,,,,,,,,,,,,,,,0
2f2a8f88dbe9a4e4b04c4957,美亨公社,丽人,美发,重庆市,重庆市,巴南区,重庆市巴南区渝湘高速出口对面,,1,0,106.826303,29.279166,15178880015,beauty,http://api.map.baidu.com/place/detail?uid=2f2a8f88dbe9a4e4b04c4957&output=html&source=placeapi_v2,,,,,,,,,,,,,,,,,,106.82657960675,29.279035895484,0
d9949e63312d7861b5147ff8,锋尚美发沙龙,丽人,美发,重庆市,重庆市,江津区,重庆市江津区西江大道金科中央公园城109号附16号,,1,0,106.266064,29.320969,18702374133,beauty,http://api.map.baidu.com/place/detail?uid=d9949e63312d7861b5147ff8&output=html&source=placeapi_v2,,09:00-21:00,5,,,,,,,,3,,,,,,,106.26596637986,29.32130639829,0
a02939c2a5f9899a8c1a89d7,艺剪造型,丽人,美发,重庆市,重庆市,江津区,重庆市江津区南北大道南段乾和珑湾西北侧,a02939c2a5f9899a8c1a89d7,1,0,106.264537,29.310884,,beauty,http://api.map.baidu.com/place/detail?uid=a02939c2a5f9899a8c1a89d7&output=html&source=placeapi_v2,,,,,,,,,,,,,,,,,,106.26445696519,29.311104614768,0
ffe32fa8dd3aff6fad0457f0,韩艺美发,丽人,美发,重庆市,重庆市,江津区,重庆市江津区西江大道37号附7号3-55室,,1,0,106.26638,29.321061,13667630156,beauty,http://api.map.baidu.com/place/detail?uid=ffe32fa8dd3aff6fad0457f0&output=html&source=placeapi_v2,,10:00-21:00,,,,,,,,,,,,,,,,,,0
bd636e26186755d546572612,领度造型,丽人,美发,重庆市,重庆市,江津区,重庆市江津区浒溪北路213号,,1,0,106.268392,29.3256,,beauty,http://api.map.baidu.com/place/detail?uid=bd636e26186755d546572612&output=html&source=placeapi_v2,,10:00-21:00,,,,,,,,,,,,,,,,106.26867503956,29.325519124695,0
f3e73a0aaea71548203bf24b,GD2造型,丽人,美发,重庆市,重庆市,江津区,重庆市江津区浒溪北路179号,,1,0,106.267892,29.324076,,beauty,http://api.map.baidu.com/place/detail?uid=f3e73a0aaea71548203bf24b&output=html&source=placeapi_v2,,,,,,,,,,,,,,,,,,,,0
99479c03b2176c4147e274d6,精匠造型,丽人,美发,重庆市,重庆市,九龙坡区,重庆市九龙坡区铝城北路逸龙队10号附69号,99479c03b2176c4147e274d6,1,0,106.340189,29.316627,15823182873,beauty,http://api.map.baidu.com/place/detail?uid=99479c03b2176c4147e274d6&output=html&source=placeapi_v2,,10:00-21:00,0,,,,,,,,0,,,,,,,106.34019625667,29.316720546938,0
5a7a1b46dbe1ef366140a929,唯一私人订制,丽人,美发,重庆市,重庆市,九龙坡区,重庆市九龙坡区铝城北路5号星光名都14栋82号,5a7a1b46dbe1ef366140a929,1,0,106.339195,29.316082,15023377232,beauty,http://api.map.baidu.com/place/detail?uid=5a7a1b46dbe1ef366140a929&output=html&source=placeapi_v2,,10:00-22:00,,,,,,,,,1,,,,,,,,,0
eb41976bb5a3f386e9f853a7,CO精剪,丽人,美发,重庆市,重庆市,九龙坡区,重庆市九龙坡区铝城北路10号2幢附7号,eb41976bb5a3f386e9f853a7,1,0,106.339574,29.315079,18983075085,beauty,http://api.map.baidu.com/place/detail?uid=eb41976bb5a3f386e9f853a7&output=html&source=placeapi_v2,,10:00-21:00,0,,,,,,,,0,,,,,,,106.33944864909,29.315080183613,0
236a49f7df5a62a5adcb6678,小小发屋(铝城一路店),丽人,美发,重庆市,重庆市,九龙坡区,重庆市九龙坡区铝城东路1号7幢13号,,1,0,106.341217,29.314279,15123082808,beauty,http://api.map.baidu.com/place/detail?uid=236a49f7df5a62a5adcb6678&output=html&source=placeapi_v2,,10:00-21:00,0,,,,,,,,0,,,,,,,,,0
e1807d5ea46ec8422b3a9fcb,兰炫(西彭二店),丽人,美发,重庆市,重庆市,九龙坡区,重庆市九龙坡区西彭镇铝城北路6号2幢1单元附16.17号,e1807d5ea46ec8422b3a9fcb,1,0,106.339959,29.314109,15823380596,beauty,http://api.map.baidu.com/place/detail?uid=e1807d5ea46ec8422b3a9fcb&output=html&source=placeapi_v2,,10:00-21:00,0,,,,,,,,0,,,,,,,106.3399560911,29.314125491485,0
aa653537622e6cd8f6c59c49,小雯工作室,丽人,美发,重庆市,重庆市,九龙坡区,重庆市九龙坡区铝城北路帝景豪园负18号附14号,,1,0,106.341387,29.31453,13883576886,beauty,http://api.map.baidu.com/place/detail?uid=aa653537622e6cd8f6c59c49&output=html&source=placeapi_v2,,08:00-18:00,,,,,,,,,0,,,,,,,,,0
2afb9b6dc6b9e83879b55c9f,晓莉美发,丽人,美发,重庆市,重庆市,九龙坡区,铝城北路6号,,1,0,106.340218,29.314126,,beauty,http://api.map.baidu.com/place/detail?uid=2afb9b6dc6b9e83879b55c9f&output=html&source=placeapi_v2,,09:00-20:00,,,,,,,,,,,,,,,,106.34023664718,29.314407283729,0
fe13b4a8e47cc52af21937dd,精匠造型(澎湖店),丽人,美发,重庆市,重庆市,九龙坡区,重庆市九龙坡区铝城南路2号,fe13b4a8e47cc52af21937dd,1,0,106.340545,29.309388,18983076187,beauty,http://api.map.baidu.com/place/detail?uid=fe13b4a8e47cc52af21937dd&output=html&source=placeapi_v2,,09:00-20:30,5,,,,,,,,3,,,,,,,106.34064680808,29.309388029705,0
f67e84eff89da65935b06c43,戴森造型,丽人,美发,重庆市,重庆市,九龙坡区,重庆市九龙坡区铝城北路3号2幢1-6号,f67e84eff89da65935b06c43,1,0,106.339455,29.313857,19942267524,beauty,http://api.map.baidu.com/place/detail?uid=f67e84eff89da65935b06c43&output=html&source=placeapi_v2,,08:00-21:00,,,,,,,,,,,,,,,,106.33957520237,29.313895138933,0
51f2e407524de47620026218,杨敬理发店,丽人,美发,重庆市,重庆市,九龙坡区,重庆市九龙坡区24号楼29号,,1,0,106.339449,29.310929,15310933139,beauty,http://api.map.baidu.com/place/detail?uid=51f2e407524de47620026218&output=html&source=placeapi_v2,,10:00-21:00,5,,,,,,,,1,,,,,,,106.33936975721,29.311023528029,0
d4b0802b768245292cb96d82,莉莉美发(铝城西路店),丽人,美发,重庆市,重庆市,九龙坡区,重庆市九龙坡区铝城正街89号附3号,,1,0,106.337043,29.309715,13002370023,beauty,http://api.map.baidu.com/place/detail?uid=d4b0802b768245292cb96d82&output=html&source=placeapi_v2,,08:00-18:00,0,,,,,,,,1,,,,,,,106.33715488436,29.309582615473,0
43376af9cfc33051ca2915eb,审美发艺(怡心小区店),丽人,美发,重庆市,重庆市,九龙坡区,重庆市九龙坡区铝城正街怡心小区22幢8号,,1,0,106.337742,29.312442,17320319563,beauty,http://api.map.baidu.com/place/detail?uid=43376af9cfc33051ca2915eb&output=html&source=placeapi_v2,,10:00-21:00,,,,,,,,,,,,,,,,106.33774216057,29.31231911864,0
f36e9f14cb6b4eb084154195,万伦理发店,丽人,美发,重庆市,重庆市,九龙坡区,重庆市九龙坡区西彭镇渝西交易城五栋20号,,1,0,106.33897,29.311351,,beauty,http://api.map.baidu.com/place/detail?uid=f36e9f14cb6b4eb084154195&output=html&source=placeapi_v2,,08:00-20:00,,,,,,,,,,,,,,,,106.33898203777,29.311235678868,0
8435deb7caddee0babf7298c,名涵造型,丽人,美发,重庆市,重庆市,九龙坡区,重庆市九龙坡区西彭镇东大街彭湖花园23栋,,1,0,106.3389,29.31044,15825922966,beauty,http://api.map.baidu.com/place/detail?uid=8435deb7caddee0babf7298c&output=html&source=placeapi_v2,,10:00-21:00,,,,,,,,,,,,,,,,106.33875212007,29.310352093095,0
8e1a5f671821473a59bbbc43,陈双双美容美发,丽人,美发,重庆市,重庆市,九龙坡区,重庆市九龙坡区铝城正街13号,,1,0,106.335558,29.313692,15086610929,beauty,http://api.map.baidu.com/place/detail?uid=8e1a5f671821473a59bbbc43&output=html&source=placeapi_v2,,10:00-21:00,0,,,,,,,,0,,,,,,,106.33538865583,29.31369990436,0
01dfed2536d22b147bf79600,权威造型,丽人,美发,重庆市,重庆市,九龙坡区,怡心路平价鞋业旁,,1,0,106.337578,29.310146,,beauty,http://api.map.baidu.com/place/detail?uid=01dfed2536d22b147bf79600&output=html&source=placeapi_v2,,10:00-21:00,,,,,,,,,,,,,,,,106.33767278534,29.309924737942,0
e1c24e93ce9eeeb5306212e6,小沈理发店,丽人,美发,重庆市,重庆市,九龙坡区,重庆市九龙坡区铝城西路怡心苑-B区北侧约30米,,1,0,106.33972,29.311485,,beauty,http://api.map.baidu.com/place/detail?uid=e1c24e93ce9eeeb5306212e6&output=html&source=placeapi_v2,,10:00-21:00,,,,,,,,,,,,,,,,106.33967862698,29.311551380939,0
d020eeeb46a6a60fd518b749,蓝卡时尚造型,丽人,美发,重庆市,重庆市,九龙坡区,重庆市九龙坡区东大街3栋350号,d020eeeb46a6a60fd518b749,1,0,106.339599,29.311259,15086769627,beauty,http://api.map.baidu.com/place/detail?uid=d020eeeb46a6a60fd518b749&output=html&source=placeapi_v2,,10:00-21:00,0,,,,,,,,1,,,,,,,106.33964784295,29.311202847095,0
475132c77d7a13462bd7ab0c,真真理发店,丽人,美发,重庆市,重庆市,九龙坡区,重庆市九龙坡区铝城西路怡心苑-B区西北侧约60米,,1,0,106.338852,29.3113,,beauty,http://api.map.baidu.com/place/detail?uid=475132c77d7a13462bd7ab0c&output=html&source=placeapi_v2,,10:00-21:00,,,,,,,,,,,,,,,,106.33891742445,29.311202452629,0
37b1c0a76e7d7ecba11de982,爱尚美发,丽人,美发,重庆市,重庆市,九龙坡区,重庆市九龙坡区铝城南路七星恋城3号附22号,,1,0,106.341324,29.310672,13594011151,beauty,http://api.map.baidu.com/place/detail?uid=37b1c0a76e7d7ecba11de982&output=html&source=placeapi_v2,,09:00-21:00,,,,,,,,,,,,,,,,,,0
0709033a77dead240d3dda71,神剪发型工作室,丽人,美发,重庆市,重庆市,九龙坡区,重庆市九龙坡区铝城南路9号附14号,,1,0,106.340928,29.307771,"13272807408,13424917931",beauty,http://api.map.baidu.com/place/detail?uid=0709033a77dead240d3dda71&output=html&source=placeapi_v2,88.0,10:00-21:00,,,,,,,,,,,,,,,,,,0
74b6ff734d682d103586f4c5,红红美发,丽人,美发,重庆市,重庆市,九龙坡区,重庆市九龙坡区铝城西路怡心苑-B区西北侧约40米,,1,0,106.338896,29.311034,,beauty,http://api.map.baidu.com/place/detail?uid=74b6ff734d682d103586f4c5&output=html&source=placeapi_v2,,,,,,,,,,,,,,,,,,106.33880816535,29.311163764873,0
e179d9fa040dfb76a2046405,王剃头理发店,丽人,美发,重庆市,重庆市,九龙坡区,重庆市九龙坡区铝城正街32号,e179d9fa040dfb76a2046405,1,0,106.335296,29.311903,,beauty,http://api.map.baidu.com/place/detail?uid=e179d9fa040dfb76a2046405&output=html&source=placeapi_v2,,10:00-21:00,0.0,,,,,,,,,,,,,,,,,0
df34419a96a2d36df32d83c8,阿良工作室,丽人,美发,重庆市,重庆市,九龙坡区,西彭镇东大街22号,,1,0,106.33886,29.310433,13098672927,beauty,http://api.map.baidu.com/place/detail?uid=df34419a96a2d36df32d83c8&output=html&source=placeapi_v2,,10:00-21:00,0,,,,,,,,1,,,,,,,106.33874539356,29.310360756224,0
f763d99840d0b2f2c9e33ca8,汤氏理发店,丽人,美发,重庆市,重庆市,九龙坡区,重庆市九龙坡区铝城西路怡心苑-B区,,1,0,106.338886,29.310518,,beauty,http://api.map.baidu.com/place/detail?uid=f763d99840d0b2f2c9e33ca8&output=html&source=placeapi_v2,,10:00-21:00,,,,,,,,,,,,,,,,106.33871805902,29.310614506922,0
35caff2a93205ef3581093c9,英子美发空间,丽人,美发,重庆市,重庆市,九龙坡区,重庆市九龙坡区铝城正街52号,35caff2a93205ef3581093c9,1,0,106.335283,29.311537,,beauty,http://api.map.baidu.com/place/detail?uid=35caff2a93205ef3581093c9&output=html&source=placeapi_v2,,10:00-21:00,,,,,,,,,,,,,,,,106.33540817152,29.311537080767,0
efc4f21223fa53811e580087,白发转黑熏蒸热疗艾炙馆,丽人,美发,重庆市,重庆市,九龙坡区,铝城正街108-附18号附近,,1,0,106.334399,29.310502,13075433146,beauty,http://api.map.baidu.com/place/detail?uid=efc4f21223fa53811e580087&output=html&source=placeapi_v2,,10:00-21:00,,,,,,,,,,,,,,,,,,0
e5ad25eb2f540d99b65f1e5c,托尼剪烫染专业店,丽人,美发,重庆市,重庆市,九龙坡区,重庆市九龙坡区铝城南路6号楼10号,,1,0,106.340323,29.306161,15023379826,beauty,http://api.map.baidu.com/place/detail?uid=e5ad25eb2f540d99b65f1e5c&output=html&source=placeapi_v2,,09:00-21:30,,,,,,,,,,,,,,,,106.34029716602,29.306262551332,0
8a6f182b282bd70843e1928b,黑眼圈美业(西彭店),丽人,美发,重庆市,重庆市,九龙坡区,重庆市九龙坡区铝城南路澎湖花园7~11号,8a6f182b282bd70843e1928b,1,0,106.340478,29.308132,"13452960084,17726688426",beauty,http://api.map.baidu.com/place/detail?uid=8a6f182b282bd70843e1928b&output=html&source=placeapi_v2,103.0,10:00-21:00,0,,,,,,,,0,,,,,,,106.34047271827,29.308014612812,0
6d92de979d854de494031987,韩艺美业(铝城南路店),丽人,美发,重庆市,重庆市,九龙坡区,重庆市九龙坡区铝城南路4号附8号,,1,0,106.338393,29.304784,15002312037,beauty,http://api.map.baidu.com/place/detail?uid=6d92de979d854de494031987&output=html&source=placeapi_v2,,10:00-21:00,5,,,,,,,,1,,,,,,,106.33839292632,29.304812751987,0
5749660ed66a3218b120a8e9,三姐美发美容工作室,丽人,美发,重庆市,重庆市,九龙坡区,重庆市九龙坡区铝城四路南城小区4幢12号,,1,0,106.339842,29.306525,15086624191,beauty,http://api.map.baidu.com/place/detail?uid=5749660ed66a3218b120a8e9&output=html&source=placeapi_v2,,10:00-21:00,3.0,,,,,,,,,,,,,,,106.33987097755,29.306265050999,0
c3b525bfe335c665c13644a5,艾玛形象工作室(铝城正街店),丽人,美发,重庆市,重庆市,九龙坡区,重庆市九龙坡区铝城正街135号,c3b525bfe335c665c13644a5,1,0,106.337403,29.307519,13500331090,beauty,http://api.map.baidu.com/place/detail?uid=c3b525bfe335c665c13644a5&output=html&source=placeapi_v2,,10:00-21:00,,,,,,,,,,,,,,,,106.33741683295,29.307415785605,0
f8e95fd062d188ae7069d36d,新时代美发(西华路店),丽人,美发,重庆市,重庆市,九龙坡区,重庆市九龙坡区西华路22号,,1,0,106.334333,29.30689,15123226935,beauty,http://api.map.baidu.com/place/detail?uid=f8e95fd062d188ae7069d36d&output=html&source=placeapi_v2,,10:00-21:00,,,,,,,,,,,,,,,,106.33440903481,29.306849056639,0
c36e96e3c2d69ddc3f9a5ef9,姐妹美发室,丽人,美发,重庆市,重庆市,九龙坡区,重庆市九龙坡区西华路43号附2号,,1,0,106.332837,29.30434,,beauty,http://api.map.baidu.com/place/detail?uid=c36e96e3c2d69ddc3f9a5ef9&output=html&source=placeapi_v2,,10:00-21:00,,,,,,,,,,,,,,,,,,0
f945580e5a54284e47e2749c,青年发艺时尚魅力,丽人,美发,重庆市,重庆市,九龙坡区,重庆市九龙坡区西华二支路34号,,1,0,106.332241,29.30469,15826021487,beauty,http://api.map.baidu.com/place/detail?uid=f945580e5a54284e47e2749c&output=html&source=placeapi_v2,,10:00-21:00,,,,,,,,,,,,,,,,106.33213858291,29.304599533398,0
cb522582fed8dd954e2fdfba,罗老师发型工作室,丽人,美发,重庆市,重庆市,九龙坡区,重庆市九龙坡区铝城正街160号,,1,0,106.337609,29.307536,15310933596,beauty,http://api.map.baidu.com/place/detail?uid=cb522582fed8dd954e2fdfba&output=html&source=placeapi_v2,,,,,,,,,,,,,,,,,,106.33761087682,29.30741863752,0
a4de5aaf07b68f398605bf8e,新感觉烫染超市,丽人,美发,重庆市,重庆市,九龙坡区,重庆市九龙坡区大同街西彭镇大同街小区,,1,0,106.331815,29.30381,,beauty,http://api.map.baidu.com/place/detail?uid=a4de5aaf07b68f398605bf8e&output=html&source=placeapi_v2,,10:00-21:00,,,,,,,,,,,,,,,,,,0
f5333f5cbb043d4dc909f0cb,燕子理发屋,丽人,美发,重庆市,重庆市,九龙坡区,重庆市九龙坡区大同街西彭镇大同街小区,,1,0,106.331986,29.303914,,beauty,http://api.map.baidu.com/place/detail?uid=f5333f5cbb043d4dc909f0cb&output=html&source=placeapi_v2,,10:00-21:00,,,,,,,,,,,,,,,,106.3319393073,29.30404338257,0
ba68c833177a8842eb1e9700,精典美容美发(西庆路店),丽人,美发,重庆市,重庆市,九龙坡区,重庆市九龙坡区铝城南路4号南城小区15栋19号,,1,0,106.33778,29.305,,beauty,http://api.map.baidu.com/place/detail?uid=ba68c833177a8842eb1e9700&output=html&source=placeapi_v2,,10:00-21:00,0.0,,,,,,,,,,,,,,,106.33787241936,29.304994029411,0
bca5025279251a25c356ac40,假发定制,丽人,美发,重庆市,重庆市,九龙坡区,重庆市九龙坡区铝城四路澎湖花园,,1,0,106.339818,29.306412,15086624191,beauty,http://api.map.baidu.com/place/detail?uid=bca5025279251a25c356ac40&output=html&source=placeapi_v2,,,,,,,,,,,,,,,,,,,,0
5b79848ed2047411102935d5,哈佛专业发型设计,丽人,美发,重庆市,重庆市,九龙坡区,重庆市九龙坡区西华路45号附1号,,1,0,106.33276,29.304221,,beauty,http://api.map.baidu.com/place/detail?uid=5b79848ed2047411102935d5&output=html&source=placeapi_v2,,09:00-21:00,0.0,,,,,,,,,,,,,,,106.33263709396,29.304259647175,0
7d4b359383cf206db05c6a2c,领航潮牌发型工作室,丽人,美发,重庆市,重庆市,九龙坡区,重庆市九龙坡区铝城南路南城小区5幢4号,,1,0,106.340131,29.306495,19946809079,beauty,http://api.map.baidu.com/place/detail?uid=7d4b359383cf206db05c6a2c&output=html&source=placeapi_v2,,09:00-21:00,,,,,,,,,,,,,,,,106.34012641162,29.306264980605,0
736a8fc792ee9b3f018972f7,都来发,丽人,美发,重庆市,重庆市,九龙坡区,重庆市九龙坡区西华二支路35号,,1,0,106.331954,29.304388,,beauty,http://api.map.baidu.com/place/detail?uid=736a8fc792ee9b3f018972f7&output=html&source=placeapi_v2,,10:00-21:00,,,,,,,,,,,,,,,,106.33185245374,29.304401131139,0
08401fa483a51f2f631c67bd,千魅,丽人,美发,重庆市,重庆市,九龙坡区,重庆市九龙坡区铝城南路10号楼31号,,1,0,106.339172,29.305645,17384044389,beauty,http://api.map.baidu.com/place/detail?uid=08401fa483a51f2f631c67bd&output=html&source=placeapi_v2,,09:00-20:30,,,,,,,,,,,,,,,,106.33897171175,29.305644488487,0
2d1d279361edb3723913fd53,英姿发艺(西园路店),丽人,美发,重庆市,重庆市,九龙坡区,重庆市九龙坡区银燕路10号,,1,0,106.335522,29.302505,,beauty,http://api.map.baidu.com/place/detail?uid=2d1d279361edb3723913fd53&output=html&source=placeapi_v2,,10:00-21:00,,,,,,,,,,,,,,,,106.33538870793,29.302630121809,0
a1755c7df65fd7be5abbbc82,发之源形象设计,丽人,美发,重庆市,重庆市,九龙坡区,重庆市九龙坡区西华路三支路4~5号,,1,0,106.332421,29.303913,,beauty,http://api.map.baidu.com/place/detail?uid=a1755c7df65fd7be5abbbc82&output=html&source=placeapi_v2,,10:00-21:00,,,,,,,,,,,,,,,,106.33235182087,29.304025266947,0
2dc08d327fba4b3f4054d7fe,群益美容美发用具,丽人,美发,重庆市,重庆市,九龙坡区,重庆市九龙坡区西华路41号,,1,0,106.332803,29.30433,,beauty,http://api.map.baidu.com/place/detail?uid=2dc08d327fba4b3f4054d7fe&output=html&source=placeapi_v2,,,,,,,,,,,,,,,,,,,,0
b63cc6122264e076364aaed8,回头率,丽人,美发,重庆市,重庆市,九龙坡区,重庆市九龙坡区铝城步行街兴城花园西北侧约90米,,1,0,106.338797,29.304578,,beauty,http://api.map.baidu.com/place/detail?uid=b63cc6122264e076364aaed8&output=html&source=placeapi_v2,,,,,,,,,,,,,,,,,,106.33880130768,29.30480886629,0
89398d54f8591ef3b23c8132,流星雨烫染会所,丽人,美发,重庆市,重庆市,九龙坡区,重庆市九龙坡区西庆路8号,,1,0,106.33435,29.303522,19923409258,beauty,http://api.map.baidu.com/place/detail?uid=89398d54f8591ef3b23c8132&output=html&source=placeapi_v2,,10:00-21:00,,,,,,,,,,,,,,,,106.33432420782,29.303406634264,0
ec908a58474f28ab882fb5d4,金林专业烫染沙龙,丽人,美发,重庆市,重庆市,九龙坡区,重庆市九龙坡区铝城南路8号楼9号,ec908a58474f28ab882fb5d4,1,0,106.339666,29.304931,15683787476,beauty,http://api.map.baidu.com/place/detail?uid=ec908a58474f28ab882fb5d4&output=html&source=placeapi_v2,,10:00-21:00,0.0,,,,,,,,,,,,,,,106.33965325794,29.304887166504,0
30d95f4bb787c0b6f423103f,美姿经典形象设计,丽人,美发,重庆市,重庆市,九龙坡区,大同街90号附1号,,1,0,106.331591,29.303628,,beauty,http://api.map.baidu.com/place/detail?uid=30d95f4bb787c0b6f423103f&output=html&source=placeapi_v2,,10:00-21:00,0,,,,,,,,0,,,,,,,106.33167719792,29.303613798563,0
f21d22b540bf6de4f13cbabf,剪艺空间,丽人,美发,重庆市,重庆市,九龙坡区,重庆市九龙坡区大同街支路14号,,1,0,106.332231,29.306917,,beauty,http://api.map.baidu.com/place/detail?uid=f21d22b540bf6de4f13cbabf&output=html&source=placeapi_v2,,10:00-21:00,,,,,,,,,,,,,,,,,,0
aceb7fab98ea93bebadf8f3b,陈丽烫染,丽人,美发,重庆市,重庆市,九龙坡区,重庆市九龙坡区大同街支路12-2号,,1,0,106.332196,29.306889,,beauty,http://api.map.baidu.com/place/detail?uid=aceb7fab98ea93bebadf8f3b&output=html&source=placeapi_v2,,10:00-21:00,,,,,,,,,,,,,,,,,,0
266b2b90e61783a3c909f047,手艺发屋,丽人,美发,重庆市,重庆市,九龙坡区,重庆市九龙坡区西彭镇南城小区22栋5室,266b2b90e61783a3c909f047,1,0,106.339195,29.304751,15223160551,beauty,http://api.map.baidu.com/place/detail?uid=266b2b90e61783a3c909f047&output=html&source=placeapi_v2,,10:00-21:00,0.0,,,,,,,,,,,,,,,,,0
4535ee0df22f772b8bf15dfa,美加美发型室,丽人,美发,重庆市,重庆市,九龙坡区,重庆市九龙坡区铝城南路南城小区4号附2~2号,,1,0,106.3402,29.304934,13709415735,beauty,http://api.map.baidu.com/place/detail?uid=4535ee0df22f772b8bf15dfa&output=html&source=placeapi_v2,,10:00-21:00,,,,,,,,,,,,,,,,106.34019987863,29.304833036854,0
9a0f8479be0b8f394e776ec6,名典专业发型设计,丽人,美发,重庆市,重庆市,九龙坡区,重庆市九龙坡区西园路2号,,1,0,106.333735,29.305211,,beauty,http://api.map.baidu.com/place/detail?uid=9a0f8479be0b8f394e776ec6&output=html&source=placeapi_v2,,09:00-21:00,,,,,,,,,,,,,,,,,,0
a2ae2625de4dc6bf6f476002,珍颜美发,丽人,美发,重庆市,重庆市,九龙坡区,重庆市九龙坡区西华路西彭开发区农贸市场北侧约90米,a2ae2625de4dc6bf6f476002,1,0,106.332645,29.303827,13594145552,beauty,http://api.map.baidu.com/place/detail?uid=a2ae2625de4dc6bf6f476002&output=html&source=placeapi_v2,,10:00-21:00,0.0,,,,,,,,,,,,,,,106.33254504369,29.303836863493,0
347ed6c538e9828eb21e3673,梅梅形象设计,丽人,美发,重庆市,重庆市,九龙坡区,重庆市九龙坡区西华二支路14号,,1,0,106.332537,29.304687,,beauty,http://api.map.baidu.com/place/detail?uid=347ed6c538e9828eb21e3673&output=html&source=placeapi_v2,,10:00-21:00,,,,,,,,,,,,,,,,106.33248957063,29.304580778341,0
2ab9318a967becb05d0d02a4,花心思烫染吧,丽人,美发,重庆市,重庆市,九龙坡区,重庆市九龙坡区西庆路西城俊秀,2ab9318a967becb05d0d02a4,1,0,106.332051,29.30279,15340576371,beauty,http://api.map.baidu.com/place/detail?uid=2ab9318a967becb05d0d02a4&output=html&source=placeapi_v2,,10:00-21:00,,,,,,,,,,,,,,,,,,0
a8da3b32666f7bce9f09f723,理发店,丽人,美发,重庆市,重庆市,九龙坡区,重庆市九龙坡区西园路西城俊秀东侧,,1,0,106.337009,29.301565,,beauty,http://api.map.baidu.com/place/detail?uid=a8da3b32666f7bce9f09f723&output=html&source=placeapi_v2,,10:00-21:00,,,,,,,,,,,,,,,,,,0
6a55e05d0690d723c9fa5f4e,夏威夷美发美容护理中心,丽人,美发,重庆市,重庆市,九龙坡区,重庆市九龙坡区西庆支路西城俊秀西北侧约70米,,1,0,106.333074,29.303921,,beauty,http://api.map.baidu.com/place/detail?uid=6a55e05d0690d723c9fa5f4e&output=html&source=placeapi_v2,,,,,,,,,,,,,,,,,,,,0
4e3645210317ca04dbecede1,秋秋理发,丽人,美发,重庆市,重庆市,江津区,重庆市江津区郭坝村芋河沟一栋正公路,4e3645210317ca04dbecede1,1,0,106.408491,29.310579,18716628448,beauty,http://api.map.baidu.com/place/detail?uid=4e3645210317ca04dbecede1&output=html&source=placeapi_v2,,08:30-21:00,,,,,,,,,,,,,,,,,,0
edadb760e6a81b8dae31e532,姐妹理发店,丽人,美发,重庆市,重庆市,江津区,重庆市江津区G348珞璜镇顺江小学校西北侧约290米,edadb760e6a81b8dae31e532,1,0,106.408182,29.312708,,beauty,http://api.map.baidu.com/place/detail?uid=edadb760e6a81b8dae31e532&output=html&source=placeapi_v2,,08:00-21:00,,,,,,,,,,,,,,,,106.4079541513,29.312655884029,0
89f545e2e44b431ed4851f6b,名剪,丽人,美发,重庆市,重庆市,江津区,重庆市江津区G348珞璜镇顺江小学校西北侧约210米,89f545e2e44b431ed4851f6b,1,0,106.408345,29.311971,,beauty,http://api.map.baidu.com/place/detail?uid=89f545e2e44b431ed4851f6b&output=html&source=placeapi_v2,,,,,,,,,,,,,,,,,,,,0
141d71b0f51990a139e4a67e,首创潮牌工作室,丽人,美发,重庆市,重庆市,江津区,重庆市江津区龙珠街21号,141d71b0f51990a139e4a67e,1,0,106.470083,29.322595,17783878928,beauty,http://api.map.baidu.com/place/detail?uid=141d71b0f51990a139e4a67e&output=html&source=placeapi_v2,,09:00-20:00,2.3,,,,,,,,3,,,,,,,106.47010883656,29.322548892385,0
101a19bf7443f53bb7147f43,易宣造型,丽人,美发,重庆市,重庆市,江津区,重庆市江津区龙珠街世纪华城北侧约30米,,1,0,106.46989,29.322566,19923400620,beauty,http://api.map.baidu.com/place/detail?uid=101a19bf7443f53bb7147f43&output=html&source=placeapi_v2,,08:30-21:00,,,,,,,,,,,,,,,,106.46994715504,29.32247275621,0
65edf4b5b6d3b6911de999b1,炫造型,丽人,美发,重庆市,重庆市,江津区,重庆市江津区怒江北街66号,65edf4b5b6d3b6911de999b1,1,0,106.468756,29.32298,19923400620,beauty,http://api.map.baidu.com/place/detail?uid=65edf4b5b6d3b6911de999b1&output=html&source=placeapi_v2,,,,,,,,,,,,,,,,,,,,0
56c687540204fe3cb020a8c6,名剪烫染造型店,丽人,美发,重庆市,重庆市,江津区,重庆市江津区园区大道典雅温泉城,,1,0,106.472504,29.314041,13996362155,beauty,http://api.map.baidu.com/place/detail?uid=56c687540204fe3cb020a8c6&output=html&source=placeapi_v2,,09:00-21:30,,,,,,,,,,,,,,,,106.47247535955,29.314168486243,0
19c082e3c6e48cfb79f796bc,1+1发型印象,丽人,美发,重庆市,重庆市,江津区,重庆市江津区芝麻街温泉城b区3栋11号,19c082e3c6e48cfb79f796bc,1,0,106.473073,29.314202,13881766284,beauty,http://api.map.baidu.com/place/detail?uid=19c082e3c6e48cfb79f796bc&output=html&source=placeapi_v2,,09:00-21:00,,,,,,,,,,,,,,,,106.47299606503,29.314335291605,0
0a80054eb5377c17047ce82f,新金苹果美发会所,丽人,美发,重庆市,重庆市,江津区,重庆市江津区园区大道世纪华城北侧约180米,,1,0,106.469132,29.323734,,beauty,http://api.map.baidu.com/place/detail?uid=0a80054eb5377c17047ce82f&output=html&source=placeapi_v2,,10:00-21:00,,,,,,,,,,,,,,,,,,0
