uid,name,cat_L1,cat_L2,province,city,area,address,street_id,detail,child_num,loc_lng,loc_lat,telephone,type,detail_url,price,shop_hours,overall_rating,taste_rating,service_rating,environment_rating,facility_rating,hygiene_rating,technology_rating,image_num,comment_num,groupon_num,discount_num,favorite_num,checkin_num,brand,content_tag,naviloc_lng,naviloc_lat,child_num
984a623992592e1c84330492,正章干洗(龙海家园店),生活服务,洗衣店,广东省,深圳市,南山区,广东省深圳市南山区桂湾三路龙海商业广场b区12栋,984a623992592e1c84330492,1,0,113.911916,22.540978,18938972128,life,http://api.map.baidu.com/place/detail?uid=984a623992592e1c84330492&output=html&source=placeapi_v2,,00:00-24:00,4.0,,,,,,,2,,,,,,,,113.91196126012,22.541104093539,0
c21db9e56f3e3efe00ff2d15,德奈福洗衣(学府路店),生活服务,洗衣店,广东省,深圳市,南山区,广东省深圳市南山区学府路237号阳光棕榈园25栋,c21db9e56f3e3efe00ff2d15,1,0,113.919085,22.533896,(0755)86179776,life,http://api.map.baidu.com/place/detail?uid=c21db9e56f3e3efe00ff2d15&output=html&source=placeapi_v2,63.5,07:30-24:00,0,,,,,,,36,1,,,,,,,113.91906354824,22.533936970458,0
cd02373b89f45679c356ac85,正章干洗(阳光棕榈园店),生活服务,洗衣店,广东省,深圳市,南山区,广东省深圳市南山区前海路81号龙海家园南区12栋1楼,,1,0,113.921401,22.53296,(0755)26446390,life,http://api.map.baidu.com/place/detail?uid=cd02373b89f45679c356ac85&output=html&source=placeapi_v2,66.5,09:00-21:00,3,,,,,,,32,4,,,,,,,,,0
fac4fca5cacc3f2371455b94,洁丰干洗(星海名城店),生活服务,洗衣店,广东省,深圳市,南山区,广东省深圳市南山区前海路3101-28号星海名城二期12栋24号,fac4fca5cacc3f2371455b94,1,0,113.919705,22.543622,"(0755)26499770,18926442141",life,http://api.map.baidu.com/place/detail?uid=fac4fca5cacc3f2371455b94&output=html&source=placeapi_v2,17.5,09:00-21:00,3.7,,,,,,,11,4,,,,,,,113.91962695108,22.543641453214,0
fc9bb05b57daa7b18bdb735d,小白兔专业干洗(前海路店),生活服务,洗衣店,广东省,深圳市,南山区,大新新村156号一楼,fc9bb05b57daa7b18bdb735d,1,0,113.922954,22.53941,15919700747,life,http://api.map.baidu.com/place/detail?uid=fc9bb05b57daa7b18bdb735d&output=html&source=placeapi_v2,,09:00-22:00,5,,,,,,,7,1,,,,,,,113.92234791937,22.539359147639,0
0a144c382f6944ead0ff23c9,嘉盛干洗,生活服务,洗衣店,广东省,深圳市,南山区,广东省深圳市南山区前海路大新新村1楼,0a144c382f6944ead0ff23c9,1,0,113.922883,22.540168,13530068488,life,http://api.map.baidu.com/place/detail?uid=0a144c382f6944ead0ff23c9&output=html&source=placeapi_v2,,09:00-20:00,4.0,,,,,,,11,,,,,,,,113.92227097411,22.540124529368,0
9ccd5414d610508ab5f42fd8,一定好专业干洗(前海花园店),生活服务,洗衣店,广东省,深圳市,南山区,桃园路282号前海花园二24栋期底层一楼,,1,0,113.919199,22.538599,13537546191,life,http://api.map.baidu.com/place/detail?uid=9ccd5414d610508ab5f42fd8&output=html&source=placeapi_v2,,09:30-21:30,,,,,,,,1,,,,,,,,,,0
1797892ca28f12b03a13fdd0,正章干洗(前海路店),生活服务,洗衣店,广东省,深圳市,南山区,广东省深圳市南山区前海路与学府路交汇处西北角人人乐二楼,,1,0,113.921123,22.534878,15989583480,life,http://api.map.baidu.com/place/detail?uid=1797892ca28f12b03a13fdd0&output=html&source=placeapi_v2,,10:00-22:00,,,,,,,,2,3,,,,,,,,,0
d58f5a11d2711a39a3acc49e,皮具维护,生活服务,洗衣店,广东省,深圳市,南山区,广东省深圳市南山区学府路天朗风清10号铺,d58f5a11d2711a39a3acc49e,1,0,113.91856,22.534465,(0755)86225967,life,http://api.map.baidu.com/place/detail?uid=d58f5a11d2711a39a3acc49e&output=html&source=placeapi_v2,,10:00-22:00,,,,,,,,8,,,,,,,,113.91844688756,22.534469955222,0
bc22b062202bdc9014948edd,UCC国际洗衣精品店(前海路店),生活服务,洗衣店,广东省,深圳市,南山区,广东省深圳市南山区前海路2057号阳光棕榈园24栋01铺,,1,0,113.921239,22.533453,18688957689,life,http://api.map.baidu.com/place/detail?uid=bc22b062202bdc9014948edd&output=html&source=placeapi_v2,,09:00-21:00,,,,,,,,12,2,,,,,,,113.92132492906,22.533370278658,0
8584d6e3f49f7c8390114cdf,正章干洗(凯旋城店),生活服务,洗衣店,广东省,深圳市,宝安区,广东省深圳市宝安区新安一路20号宝安中心N8区金泓凯旋城11栋1楼人人乐,,1,0,113.903331,22.55233,"13632591347,15986681000",life,http://api.map.baidu.com/place/detail?uid=8584d6e3f49f7c8390114cdf&output=html&source=placeapi_v2,,10:00-20:00,,,,,,,,,,,,,,,,,,0
545a81829f002ef76f476022,小白兔专业干洗(科技园店),生活服务,洗衣店,广东省,深圳市,南山区,广东省深圳市南山区科兴路10号汇景豪苑海典阁,545a81829f002ef76f476022,1,0,113.948865,22.546135,(0755)26904030,life,http://api.map.baidu.com/place/detail?uid=545a81829f002ef76f476022&output=html&source=placeapi_v2,,09:00-21:00,1,,,,,,,2,1,,,,,,,113.94884077331,22.54681738968,0
ac7683d16ce06fb98bf15d3a,正章干洗(深南花园店),生活服务,洗衣店,广东省,深圳市,南山区,广东省深圳市南山区科兴路11号缤纷年华2楼,ac7683d16ce06fb98bf15d3a,1,0,113.950868,22.546633,13689596321,life,http://api.map.baidu.com/place/detail?uid=ac7683d16ce06fb98bf15d3a&output=html&source=placeapi_v2,66.5,09:30-19:00,1,,,,,,,11,2,,,,,,,113.950951131,22.546154141037,0
6d72f77e107d5cae00ec0149,正章干洗(阳光带店),生活服务,洗衣店,广东省,深圳市,南山区,广东深圳市南山区高新南环路35号阳光带海滨城二期101号,6d72f77e107d5cae00ec0149,1,0,113.954022,22.530296,(0755)86014753,life,http://api.map.baidu.com/place/detail?uid=6d72f77e107d5cae00ec0149&output=html&source=placeapi_v2,66.5,09:00-20:00,3.7,,,,,,,17,8,,,,,,,113.95402976681,22.530050951825,0
a4ec47d05010d54643ab9a93,正章乾洗(南光路桂庙花园店),生活服务,洗衣店,广东省,深圳市,南山区,广东省深圳市南山区滨河大道与南光路交汇处桂庙花园一楼128-7商铺,a4ec47d05010d54643ab9a93,1,0,113.934549,22.529846,13302984560,life,http://api.map.baidu.com/place/detail?uid=a4ec47d05010d54643ab9a93&output=html&source=placeapi_v2,66.5,09:00-21:00,5,,,,,,,9,3,,,,,,,113.93436664792,22.529865127341,0
15a93810171729bd14c8f676,福奈特洗衣(海德三道店),生活服务,洗衣店,广东省,深圳市,南山区,广东省深圳市南山区海德三道滨海之窗花园2栋商铺05号,15a93810171729bd14c8f676,1,0,113.941577,22.525543,(0755)86228898,life,http://api.map.baidu.com/place/detail?uid=15a93810171729bd14c8f676&output=html&source=placeapi_v2,,09:00-21:00,1,,,,,,,24,6,,,,,,,113.94164034621,22.525354319893,0
7a7b920b11b9de0a4151c0a8,大洋干洗(南光路店),生活服务,洗衣店,广东省,深圳市,南山区,广东省深圳市南山区南光路73-2号南海明珠1栋108b,,1,0,113.934258,22.53168,(0755)26065695,life,http://api.map.baidu.com/place/detail?uid=7a7b920b11b9de0a4151c0a8&output=html&source=placeapi_v2,,08:00-23:00,1.5,,,,,,,25,2,,,,,,,113.93424839046,22.531600942011,0
fa2e6dc287f50a8bd8eced54,水漾衣坊24小时自助洗衣店(红花园社区店),生活服务,洗衣店,广东省,深圳市,南山区,广东省深圳市南山区红花路红花园6号1楼a4铺,fa2e6dc287f50a8bd8eced54,1,0,113.928899,22.543747,18122054588,life,http://api.map.baidu.com/place/detail?uid=fa2e6dc287f50a8bd8eced54&output=html&source=placeapi_v2,,00:00-24:00,5,,,,,,,31,18,,,,,,,113.92886950409,22.543682251015,0
93df0dc353da0e28882fb5eb,麒麟青春洗衣部,生活服务,洗衣店,广东省,深圳市,南山区,广东省深圳市南山区正云路23号,93df0dc353da0e28882fb5eb,1,0,113.936287,22.548418,(0755)26978571,life,http://api.map.baidu.com/place/detail?uid=93df0dc353da0e28882fb5eb&output=html&source=placeapi_v2,,10:00-22:00,0,,,,,,,20,1,,,,,,,113.93626210488,22.54845850792,0
819d65381e0a02420b5cb369,泰洁干洗(中兴之家北),生活服务,洗衣店,广东省,深圳市,南山区,广东省深圳市南山区学府路111-33号,819d65381e0a02420b5cb369,1,0,113.929863,22.532878,"(0755)26663367,18665357038",life,http://api.map.baidu.com/place/detail?uid=819d65381e0a02420b5cb369&output=html&source=placeapi_v2,28.5,09:00-22:30,1,,,,,,,31,3,,,,,,,113.92984916114,22.532823375433,0
cb8cd57e618ee62ac9fa5f8f,洁丰干洗(高新南环路店),生活服务,洗衣店,广东省,深圳市,南山区,广东省深圳市南山区高新南环路63号京武浪琴半岛01号铺,cb8cd57e618ee62ac9fa5f8f,1,0,113.954601,22.527935,(0755)86629663,life,http://api.map.baidu.com/place/detail?uid=cb8cd57e618ee62ac9fa5f8f&output=html&source=placeapi_v2,,09:00-21:00,,,,,,,,6,,,,,,,,113.95449074037,22.527928499358,0
7f7257361baf0dd5c9291571,正章干洗(茂业百货海德二道店),生活服务,洗衣店,广东省,深圳市,南山区,深圳市南山区海德二道288号茂业百货F1,,1,0,113.936559,22.525456,13530431850,life,http://api.map.baidu.com/place/detail?uid=7f7257361baf0dd5c9291571&output=html&source=placeapi_v2,,11:00-20:00,3.0,,,,,,,1,2,,,,,,,,,0
8319e12abbb9987bf942b2c4,三色米洗衣(深圳科技园店),生活服务,洗衣店,广东省,深圳市,南山区,广东省深圳市南山区南环路8号,8319e12abbb9987bf942b2c4,1,0,113.959152,22.529405,13826596273,life,http://api.map.baidu.com/place/detail?uid=8319e12abbb9987bf942b2c4&output=html&source=placeapi_v2,,09:30-20:30,,,,,,,,5,,,,,,,,,,0
32b91cb88955edd9d6b74ef9,唯匠・奢侈品养护(南山海岸城店),生活服务,洗衣店,广东省,深圳市,南山区,广东省深圳市南山区粤海街道海珠东社区文心六路4号保利文化广场F2,32b91cb88955edd9d6b74ef9,1,0,113.946102,22.522821,13392159946,life,http://api.map.baidu.com/place/detail?uid=32b91cb88955edd9d6b74ef9&output=html&source=placeapi_v2,,10:00-22:00,0,,,,,,,9,0,,,,,,,113.94470354913,22.521805883722,0
f6dc670b79917576c42ba18b,小懒猫干洗柜,生活服务,洗衣店,广东省,深圳市,南山区,广东省深圳市南山区科兴科学园b4栋1488号,,1,0,113.950714,22.553953,,life,http://api.map.baidu.com/place/detail?uid=f6dc670b79917576c42ba18b&output=html&source=placeapi_v2,,,,,,,,,,,,,,,,,,,,0
741b5c4c9a5c3f9eb020a891,施柏丽干洗连锁皮具护理(义学街店),生活服务,洗衣店,广东省,深圳市,南山区,广东省深圳市南山区东滨路4343-11号,741b5c4c9a5c3f9eb020a891,1,0,113.931742,22.548988,(0755)86134387,life,http://api.map.baidu.com/place/detail?uid=741b5c4c9a5c3f9eb020a891&output=html&source=placeapi_v2,,08:00-22:30,1.7,,,,,,,28,3,,,,,,,113.93167311658,22.548931546345,0
e1714fafb7aab38981a12e97,专业修改衣服(南山岁宝桂庙花园店),生活服务,洗衣店,广东省,深圳市,南山区,深圳市南山区桂庙花园1层1号正章干洗店内,e1714fafb7aab38981a12e97,1,0,113.934516,22.529695,13302984560,life,http://api.map.baidu.com/place/detail?uid=e1714fafb7aab38981a12e97&output=html&source=placeapi_v2,,,,,,,,,,1,,,,,,,,113.9343486854,22.529710118432,0
c2632dcbf96481aa28201a09,福奈特洗衣(华侨城店),生活服务,洗衣店,广东省,深圳市,南山区,广东省深圳市南山区沙河街道中新街社区深南大道商业街1号-1购物中心中旅广场裙楼前1013409F1F0003号,,1,0,113.989863,22.5416,(0755)86569875,life,http://api.map.baidu.com/place/detail?uid=c2632dcbf96481aa28201a09&output=html&source=placeapi_v2,,09:00-22:00,,,,,,,,26,18,,,,,,,,,0
691305234c2f5d08725e8076,伊尔萨洗衣(华・生活馆店),生活服务,洗衣店,广东省,深圳市,南山区,广东省深圳市南山区沙河街道中新街社区商业街1-4号华侨城购物广场F1华・生活馆F1,691305234c2f5d08725e8076,1,0,113.989123,22.542138,(0755)26934962,life,http://api.map.baidu.com/place/detail?uid=691305234c2f5d08725e8076&output=html&source=placeapi_v2,,09:00-21:00,0,,,,,,,16,1,,,,,,,113.98920928803,22.542057560145,0
8b1454142c7298e929fc48cc,正章干洗(世界花园店),生活服务,洗衣店,广东省,深圳市,南山区,深圳市南山区世界花园樱花居2栋6号铺B,8b1454142c7298e929fc48cc,1,0,113.981538,22.544119,13714020090,life,http://api.map.baidu.com/place/detail?uid=8b1454142c7298e929fc48cc&output=html&source=placeapi_v2,66.5,09:30-21:00,0,,,,,,,17,2,,,,,,,113.98137883796,22.544005157344,0
611c63209118175a09ccdd3e,福奈特洗衣(欢乐海岸店),生活服务,洗衣店,广东省,深圳市,南山区,广东省深圳市南山区滨海大道2008号欢乐海岸购物中心LG层022、023商铺,611c63209118175a09ccdd3e,1,0,113.996745,22.531591,(0755)86547981,life,http://api.map.baidu.com/place/detail?uid=611c63209118175a09ccdd3e&output=html&source=placeapi_v2,,10:00-22:30,5,,,,,,,9,2,,,,,,,,,0
65c7a18dc880b5242fb9086c,正章干洗(红树湾店),生活服务,洗衣店,广东省,深圳市,南山区,深圳市南山区白石路2168号南山京基・百纳广场F1天虹商场F1,65c7a18dc880b5242fb9086c,1,0,113.975191,22.537494,"18576768803,18688941857",life,http://api.map.baidu.com/place/detail?uid=65c7a18dc880b5242fb9086c&output=html&source=placeapi_v2,,09:30-22:00,5,,,,,,,5,5,,,,,,,113.97706595283,22.537688958078,0
28e746224ae64b1c5e17c34f,雅洁洗衣(纯水岸店),生活服务,洗衣店,广东省,深圳市,南山区,广东省深圳市南山区香山中街1-50-2号,28e746224ae64b1c5e17c34f,1,0,113.983777,22.552165,(0755)86318066,life,http://api.map.baidu.com/place/detail?uid=28e746224ae64b1c5e17c34f&output=html&source=placeapi_v2,,09:00-20:00,5,,,,,,,27,1,,,,,,,,,0
4cb38fd48c200021c42ba186,赛维干洗(白石洲大楼东),生活服务,洗衣店,广东省,深圳市,南山区,广东省深圳市南山区红树街34号,4cb38fd48c200021c42ba186,1,0,113.9763,22.538447,"(0755)86108303,15914164924",life,http://api.map.baidu.com/place/detail?uid=4cb38fd48c200021c42ba186&output=html&source=placeapi_v2,29.5,10:00-22:00,0,,,,,,,19,2,,,,,,,113.97653542348,22.538270634362,0
2527be1e5d7bbbb34afc8d0c,碧海云天干洗中心,生活服务,洗衣店,广东省,深圳市,福田区,广东省深圳市福田区白石路68号碧海云天2期15栋,2527be1e5d7bbbb34afc8d0c,1,0,114.002196,22.535704,(0755)26768668,life,http://api.map.baidu.com/place/detail?uid=2527be1e5d7bbbb34afc8d0c&output=html&source=placeapi_v2,,10:00-22:00,0,,,,,,,26,3,,,,,,,114.0021721195,22.535844502208,0
99e25893277e81bb30169bdc,华侨城亮点洗衣中心,生活服务,洗衣店,广东省,深圳市,南山区,广东省深圳市南山区香山中街1-43号华侨城1期,,1,0,113.983048,22.552612,"(0755)26003485,13662286191",life,http://api.map.baidu.com/place/detail?uid=99e25893277e81bb30169bdc&output=html&source=placeapi_v2,,09:00-21:00,0,,,,,,,23,0,,,,,,,113.9836315115,22.55267746366,0
ae081cde7ca0ae53ca09f0d3,UCC国际洗衣(石洲中路店),生活服务,洗衣店,广东省,深圳市,南山区,沙河东路世纪村南门附近50米,ae081cde7ca0ae53ca09f0d3,1,0,113.972868,22.537762,13265432111,life,http://api.map.baidu.com/place/detail?uid=ae081cde7ca0ae53ca09f0d3&output=html&source=placeapi_v2,,09:00-21:00,,,,,,,,8,,,,,,,,,,0
1e62b38294efce0fc72ba151,正章乾洗(下沙岁宝店),生活服务,洗衣店,广东省,深圳市,福田区,广东省深圳市福田区滨河大道5号5坊104铺,1e62b38294efce0fc72ba151,1,0,114.031158,22.534088,(0755)83220044,life,http://api.map.baidu.com/place/detail?uid=1e62b38294efce0fc72ba151&output=html&source=placeapi_v2,90,08:00-21:00,5,,,,,,,19,1,,,,,,,114.03107530768,22.534106603897,0
d99d53c0479d9f4c94ec84f5,HANA小花奢侈品(中古店),生活服务,洗衣店,广东省,深圳市,福田区,广东省深圳市福田区绿景neo大厦c栋7a,d99d53c0479d9f4c94ec84f5,1,0,114.037353,22.542168,18165759373,life,http://api.map.baidu.com/place/detail?uid=d99d53c0479d9f4c94ec84f5&output=html&source=placeapi_v2,,10:00-21:00,3,,,,,,,,1,,,,,,,,,0
023e3684a9d6f2855a10931b,卓峰皮具护理专门店(缤纷天地店),生活服务,洗衣店,广东省,深圳市,福田区,深圳市福田区深南大道7888号(东海名尚购物中心)缤纷天地F2,023e3684a9d6f2855a10931b,1,0,114.026403,22.542345,(0755)23609922,life,http://api.map.baidu.com/place/detail?uid=023e3684a9d6f2855a10931b&output=html&source=placeapi_v2,,10:00-22:30,0,,,,,,,3,0,,,,,,,114.02727234748,22.542978932497,0
043830973a0b4943744ff1d0,青春洗衣部,生活服务,洗衣店,广东省,深圳市,福田区,广东省深圳市福田区农坊路10号,043830973a0b4943744ff1d0,1,0,114.032006,22.546203,13392423313,life,http://api.map.baidu.com/place/detail?uid=043830973a0b4943744ff1d0&output=html&source=placeapi_v2,,10:00-22:00,0,,,,,,,20,1,,,,,,,114.03189598163,22.546187582897,0
474f0560fc9167feadcb668c,衣时洁品牌连锁洗衣馆,生活服务,洗衣店,广东省,深圳市,福田区,深圳市福田区泰然四路泰然公寓区,,1,0,114.032986,22.540074,18688960191,life,http://api.map.baidu.com/place/detail?uid=474f0560fc9167feadcb668c&output=html&source=placeapi_v2,,00:00-24:00,1,,,,,,,7,1,,,,,,,,,0
9722d724232d77b00a5cb322,正章乾洗(下沙店),生活服务,洗衣店,广东省,深圳市,福田区,广东深圳市福田区五坊正章干洗下沙店五坊104号,9722d724232d77b00a5cb322,1,0,114.032648,22.529795,(0755)83413796,life,http://api.map.baidu.com/place/detail?uid=9722d724232d77b00a5cb322&output=html&source=placeapi_v2,,09:00-22:00,5,,,,,,,29,3,,,,,,,114.03262636406,22.529766170444,0
3714ad4c348b6d2eab175a99,竹园干洗店,生活服务,洗衣店,广东省,深圳市,福田区,深圳市福田区农林路鑫竹苑,,1,0,114.02416,22.543793,,life,http://api.map.baidu.com/place/detail?uid=3714ad4c348b6d2eab175a99&output=html&source=placeapi_v2,,,,,,,,,,4,,,,,,,,,,0
bc6500087f2e7c7ca2d23021,上海正宗上海干洗(下沙店),生活服务,洗衣店,广东省,深圳市,福田区,深圳市福田区下沙村五坊63号附近,bc6500087f2e7c7ca2d23021,1,0,114.034233,22.530839,13392046281,life,http://api.map.baidu.com/place/detail?uid=bc6500087f2e7c7ca2d23021&output=html&source=placeapi_v2,,10:00-22:00,0.0,,,,,,,30,,,,,,,,114.03425890072,22.530872097652,0
af1e5f678d33d06a43e1920a,正章干洗(农林店),生活服务,洗衣店,广东省,深圳市,福田区,广东省深圳市福田区丰田路13号香荔花园二期34栋,,1,0,114.024007,22.547845,13380319602,life,http://api.map.baidu.com/place/detail?uid=af1e5f678d33d06a43e1920a&output=html&source=placeapi_v2,,09:00-21:00,5.0,,,,,,,2,2,,,,,,,114.0239385426,22.548041665827,0
8904bbadf6a8d5bab04c4974,一定好专业干洗(海景店),生活服务,洗衣店,广东省,深圳市,福田区,广东深圳市福田区天安高尔夫花园富景阁1楼,8904bbadf6a8d5bab04c4974,1,0,114.040752,22.534812,(0755)83841396,life,http://api.map.baidu.com/place/detail?uid=8904bbadf6a8d5bab04c4974&output=html&source=placeapi_v2,,08:00-23:00,0,,,,,,,1,0,,,,,,,,,0
37e18e24d55695d3d4851ff1,人人干洗(丰田路店),生活服务,洗衣店,广东省,深圳市,福田区,广东省深圳市福田区丰田路11-5号,37e18e24d55695d3d4851ff1,1,0,114.025157,22.548498,(0755)83710776,life,http://api.map.baidu.com/place/detail?uid=37e18e24d55695d3d4851ff1&output=html&source=placeapi_v2,,08:00-22:30,0,,,,,,,16,0,,,,,,,114.02518667522,22.54840783423,0
dd1e4f5a427610934207c154,赛维洗衣生活馆(上沙二路店),生活服务,洗衣店,广东省,深圳市,福田区,广东省深圳市福田区下沙村六访1号楼,dd1e4f5a427610934207c154,1,0,114.034122,22.529005,(0755)83413173,life,http://api.map.baidu.com/place/detail?uid=dd1e4f5a427610934207c154&output=html&source=placeapi_v2,,00:00-24:00,,,,,,,,6,,,,,,,,114.03415754231,22.528946769199,0
b94c29059cd3af9facee7a49,能匠专业皮具护理(下沙店),生活服务,洗衣店,广东省,深圳市,福田区,广东省深圳市福田区下沙村五坊5-4号,,1,0,114.032755,22.529813,18320983631,life,http://api.map.baidu.com/place/detail?uid=b94c29059cd3af9facee7a49&output=html&source=placeapi_v2,,10:00-22:00,,,,,,,,7,,,,,,,,114.03268785501,22.529725682282,0
a74a281bd3e349ecc71e51be,小白兔专业干洗(印力中心店),生活服务,洗衣店,广东省,深圳市,福田区,广东省深圳市福田区香蜜湖街道竹园社区农林路69号深圳印力中心F3,a74a281bd3e349ecc71e51be,1,0,114.017519,22.551236,"(0755)23610662,13538032020",life,http://api.map.baidu.com/place/detail?uid=a74a281bd3e349ecc71e51be&output=html&source=placeapi_v2,,10:00-22:00,0,,,,,,,4,0,,,,,,,114.01927800965,22.55212646138,0
642cecc118b3a378ab175aad,小白兔专业干洗(金海湾花园北),生活服务,洗衣店,广东省,深圳市,福田区,广东省深圳市福田区五巷11-2号金地海景花园21栋,642cecc118b3a378ab175aad,1,0,114.03842,22.526639,(0755)83409516,life,http://api.map.baidu.com/place/detail?uid=642cecc118b3a378ab175aad&output=html&source=placeapi_v2,,,0,,,,,,,15,1,,,,,,,114.03836413074,22.526555397974,0
8d7fea83543cb66749fc8d6f,上海干洗中心(上沙东村路店),生活服务,洗衣店,广东省,深圳市,福田区,深圳市福田区上沙东村十七巷1-3号,8d7fea83543cb66749fc8d6f,1,0,114.039262,22.526983,(0755)83406745,life,http://api.map.baidu.com/place/detail?uid=8d7fea83543cb66749fc8d6f&output=html&source=placeapi_v2,,10:30-23:30,0.0,,,,,,,25,,,,,,,,114.03911405684,22.527024655265,0
abd8c9b1dcb6c05d88db7351,福奈特洗衣(卓越世纪中心店),生活服务,洗衣店,广东省,深圳市,福田区,广东省深圳市福田区福田街道福华三路与金田路交叉口东南侧卓越世纪中心2层CD099号,abd8c9b1dcb6c05d88db7351,1,0,114.071585,22.537159,(0755)83214463,life,http://api.map.baidu.com/place/detail?uid=abd8c9b1dcb6c05d88db7351&output=html&source=placeapi_v2,,10:00-22:00,5,,,,,,,58,27,,,,,,,,,0
1b4e2fd62d3d6725260bd08d,正章干洗(彩虹新都店),生活服务,洗衣店,广东省,深圳市,福田区,广东省深圳市福田区彩田路3002号卓越世纪中心彩荟阁4号楼1层122号,1b4e2fd62d3d6725260bd08d,1,0,114.075222,22.541453,(0755)82971402,life,http://api.map.baidu.com/place/detail?uid=1b4e2fd62d3d6725260bd08d&output=html&source=placeapi_v2,66.5,09:00-20:00,1,,,,,,,18,2,,,,,,,114.07543269502,22.54154970109,0
8c5800a2121a52e4cf06a407,易改衣etailor(福田区金中环店),生活服务,洗衣店,广东省,深圳市,福田区,广东省深圳市福田区金田路3037号金中环商务大厦A座A1330,,1,0,114.06904,22.539811,13480899226,life,http://api.map.baidu.com/place/detail?uid=8c5800a2121a52e4cf06a407&output=html&source=placeapi_v2,,10:00-21:00,,,,,,,,17,2,,,,,,,114.06889125586,22.539737778978,0
7752f39a1b83d6b8c056ac00,上海明珠干洗(岗厦东1街店),生活服务,洗衣店,广东省,深圳市,福田区,广东深圳市福田区岗厦村东一坊65栋(岗厦地铁站A口步行330米),7752f39a1b83d6b8c056ac00,1,0,114.077318,22.542137,13068785607,life,http://api.map.baidu.com/place/detail?uid=7752f39a1b83d6b8c056ac00&output=html&source=placeapi_v2,,09:00-20:00,0,,,,,,,18,1,,,,,,,114.07720780151,22.542303441678,0
646761b1d7afdb6806026f56,沪豪干洗,生活服务,洗衣店,广东省,深圳市,福田区,广东省深圳市福田区金田路2010号,646761b1d7afdb6806026f56,1,0,114.071547,22.532071,13715120429,life,http://api.map.baidu.com/place/detail?uid=646761b1d7afdb6806026f56&output=html&source=placeapi_v2,,10:00-21:30,,,,,,,,11,,,,,,,,114.07154499227,22.532124651269,0
e52ac3f12aca3a20c4f0254d,正章干洗(发展兴苑店),生活服务,洗衣店,广东省,深圳市,福田区,广东省深圳市福田区民田路1号发展兴苑小区管理处商铺一楼,e52ac3f12aca3a20c4f0254d,1,0,114.059267,22.53507,(0755)83706876,life,http://api.map.baidu.com/place/detail?uid=e52ac3f12aca3a20c4f0254d&output=html&source=placeapi_v2,,10:00-20:00,0,,,,,,,18,0,,,,,,,114.05926045422,22.535127216755,0
a264fdbf6bfcdc45b0077d87,惠华绿色干洗,生活服务,洗衣店,广东省,深圳市,福田区,广东省深圳市福田区福安街60号,a264fdbf6bfcdc45b0077d87,1,0,114.085956,22.542023,(0755)82500548,life,http://api.map.baidu.com/place/detail?uid=a264fdbf6bfcdc45b0077d87&output=html&source=placeapi_v2,,08:30-23:00,4.3,,,,,,,25,4,,,,,,,114.08600585148,22.542283356381,0
9e4a36b090f6c5a59122e044,上海专业干洗,生活服务,洗衣店,广东省,深圳市,福田区,深圳市福田区皇岗三街皇岗上围-二村,9e4a36b090f6c5a59122e044,1,0,114.066713,22.533366,13699880989,life,http://api.map.baidu.com/place/detail?uid=9e4a36b090f6c5a59122e044&output=html&source=placeapi_v2,,,,,,,,,,7,,,,,,,,,,0
dc28406106441092077ce8b6,洁洁星干洗,生活服务,洗衣店,广东省,深圳市,福田区,广东省深圳市福田区福宁街81号,dc28406106441092077ce8b6,1,0,114.086955,22.53739,(0755)83604626,life,http://api.map.baidu.com/place/detail?uid=dc28406106441092077ce8b6&output=html&source=placeapi_v2,,08:30-23:30,1,,,,,,,11,3,,,,,,,114.08699716934,22.537445311267,0
18d2681babf398402b06cede,正章干洗(博伦花园店),生活服务,洗衣店,广东省,深圳市,福田区,广东省深圳市福田区石厦北三街2号博伦花园2栋首层,18d2681babf398402b06cede,1,0,114.061533,22.52924,(0755)83809491,life,http://api.map.baidu.com/place/detail?uid=18d2681babf398402b06cede&output=html&source=placeapi_v2,66.5,10:00-20:00,0,,,,,,,21,1,,,,,,,114.06159680761,22.529195607939,0
4c41b7315b7d3d7feb12e451,正章干洗(时代广场店),生活服务,洗衣店,广东省,深圳市,福田区,广东省深圳市福田区金田南路1008号时代广场1楼122铺,4c41b7315b7d3d7feb12e451,1,0,114.072924,22.525237,"(0755)83024406,(0755)83863986",life,http://api.map.baidu.com/place/detail?uid=4c41b7315b7d3d7feb12e451&output=html&source=placeapi_v2,,00:00-24:00,0,,,,,,,,0,,,,,,,114.07267737194,22.525183972347,0
b284f2123593bf18157643fa,沁美皮具护理(石厦店),生活服务,洗衣店,广东省,深圳市,福田区,深圳市福田区石厦北一街阳光四季花园1~2栋110铺(福田石厦学校旁边),b284f2123593bf18157643fa,1,0,114.058378,22.531611,"(0755)83498440,13714480085",life,http://api.map.baidu.com/place/detail?uid=b284f2123593bf18157643fa&output=html&source=placeapi_v2,,09:30-21:30,4.9,,,,,,,50,0,,,,,,,114.0584228526,22.531611848874,0
4d41e39b89a4c11f03ec0107,正章干洗(兴业银行大厦店),生活服务,洗衣店,广东省,深圳市,福田区,广东省深圳市福田区深南大道4013号1楼,4d41e39b89a4c11f03ec0107,1,0,114.058973,22.544479,,life,http://api.map.baidu.com/place/detail?uid=4d41e39b89a4c11f03ec0107&output=html&source=placeapi_v2,,,5.0,,,,,,,3,2,,,,,,,114.0589564883,22.544685957799,0
8319a233b7435679b45f1ecf,小力子干洗店,生活服务,洗衣店,广东省,深圳市,福田区,广东省深圳市福田区吉龙楼3号铺,8319a233b7435679b45f1ecf,1,0,114.064305,22.531129,(0755)83565937,life,http://api.map.baidu.com/place/detail?uid=8319a233b7435679b45f1ecf&output=html&source=placeapi_v2,,08:30-23:00,,,,,,,,4,,,,,,,,114.0643555766,22.531391859809,0
36926a73d8936d89970319e0,一定好干洗店,生活服务,洗衣店,广东省,深圳市,福田区,广东省深圳市福田区彩田南路万景花园1楼,36926a73d8936d89970319e0,1,0,114.071352,22.525963,,life,http://api.map.baidu.com/place/detail?uid=36926a73d8936d89970319e0&output=html&source=placeapi_v2,,10:00-21:30,,,,,,,,,,,,,,,,,,0
12986cf808fb9865c4f0251d,正章干洗(福田南路店),生活服务,洗衣店,广东省,深圳市,福田区,广东省深圳市福田区福田南路7-44号福民新村6栋002室,,1,0,114.083102,22.531572,15914541641,life,http://api.map.baidu.com/place/detail?uid=12986cf808fb9865c4f0251d&output=html&source=placeapi_v2,,10:00-21:00,0.0,,,,,,,2,1,,,,,,,,,0
b219513fa20946b40b69d9c3,福奈特洗衣(马成时代广场店),生活服务,洗衣店,广东省,深圳市,福田区,深圳市福田区石厦北路二街马成时代广场三楼322铺,b219513fa20946b40b69d9c3,1,0,114.059902,22.52692,"(0755)23600892,(0755)88607202",life,http://api.map.baidu.com/place/detail?uid=b219513fa20946b40b69d9c3&output=html&source=placeapi_v2,,10:00-22:00,5,,,,,,,32,16,,,,,,,114.05900965271,22.527205628319,0
8171144c6418f085dbd891f3,上海专业乾洗,生活服务,洗衣店,广东省,深圳市,福田区,广东省深圳市福田区福强路1031(福民新村),8171144c6418f085dbd891f3,1,0,114.075387,22.529148,(0755)83831458,life,http://api.map.baidu.com/place/detail?uid=8171144c6418f085dbd891f3&output=html&source=placeapi_v2,,,,,,,,,,5,,,,,,,,114.07539445723,22.528930134957,0
76301e57825931377dc876da,上海共和干洗部,生活服务,洗衣店,广东省,深圳市,福田区,广东省深圳市福田区福民路2004号之2(皇岗村地铁站A口步行60米),76301e57825931377dc876da,1,0,114.065061,22.52838,(0755)83843319,life,http://api.map.baidu.com/place/detail?uid=76301e57825931377dc876da&output=html&source=placeapi_v2,,08:30-22:30,,,,,,,,7,,,,,,,,114.06533118309,22.528464915417,0
ac5f1337af66504459bbbc22,正章干洗(莲花二村店),生活服务,洗衣店,广东省,深圳市,福田区,广东省深圳市福田区莲花二村9栋105b,ac5f1337af66504459bbbc22,1,0,114.077742,22.5564,(0755)83242381,life,http://api.map.baidu.com/place/detail?uid=ac5f1337af66504459bbbc22&output=html&source=placeapi_v2,,08:30-21:00,5.0,,,,,,,12,,,,,,,,114.07770064694,22.556367603523,0
e5cb3aa178bcd1cd35b06c0a,上海干洗(水围五街店),生活服务,洗衣店,广东省,深圳市,福田区,广东省深圳市福田区水围五街30号,e5cb3aa178bcd1cd35b06c0a,1,0,114.070179,22.524746,(0755)83802067,life,http://api.map.baidu.com/place/detail?uid=e5cb3aa178bcd1cd35b06c0a&output=html&source=placeapi_v2,,08:00-23:00,0,,,,,,,11,0,,,,,,,114.07008815543,22.524717116977,0
d7cda7b4985fec8f095cb31a,上海专业干洗,生活服务,洗衣店,广东省,深圳市,福田区,广东省深圳市福田区皇岗吉龙二村69-5号,d7cda7b4985fec8f095cb31a,1,0,114.064383,22.529824,(0755)83831458,life,http://api.map.baidu.com/place/detail?uid=d7cda7b4985fec8f095cb31a&output=html&source=placeapi_v2,,08:00-23:00,,,,,,,,4,,,,,,,,114.06432213987,22.529816297159,0
eaba1a1862ccf8d23ce231d2,上海干洗店,生活服务,洗衣店,广东省,深圳市,福田区,广东深圳市福田区福田南路7号上海干洗店,,1,0,114.083068,22.530561,,life,http://api.map.baidu.com/place/detail?uid=eaba1a1862ccf8d23ce231d2&output=html&source=placeapi_v2,,,,,,,,,,1,,,,,,,,,,0
22933b0312ec3f6cc1f1cf83,妞妞干洗(福中路店),生活服务,洗衣店,广东省,深圳市,福田区,广东省深圳市福田区福中路317号雅逸会2层12,22933b0312ec3f6cc1f1cf83,1,0,114.058848,22.549458,,life,http://api.map.baidu.com/place/detail?uid=22933b0312ec3f6cc1f1cf83&output=html&source=placeapi_v2,,09:00-20:00,3.2,,,,,,,1,,,,,,,,,,0
32d03a4ef4b5b112a3acc42a,和丰皮革护理,生活服务,洗衣店,广东省,深圳市,福田区,广东省深圳市福田区皇岗公园四街皇岗新村,,1,0,114.066882,22.527349,,life,http://api.map.baidu.com/place/detail?uid=32d03a4ef4b5b112a3acc42a&output=html&source=placeapi_v2,,,,,,,,,,5,,,,,,,,114.06690007636,22.527276115382,0
5ef3a5f8f23d64c8b320a848,专业干洗,生活服务,洗衣店,广东省,深圳市,福田区,广东省深圳市福田区水围九街298号,5ef3a5f8f23d64c8b320a848,1,0,114.069224,22.527082,(0755)83816144,life,http://api.map.baidu.com/place/detail?uid=5ef3a5f8f23d64c8b320a848&output=html&source=placeapi_v2,,08:00-23:00,0,,,,,,,7,0,,,,,,,114.06935045167,22.527090850553,0
4cd86936b106189fd813188d,环保洗衣,生活服务,洗衣店,广东省,深圳市,福田区,深圳市福田区田面二街田面新村,,1,0,114.08267,22.549207,13691967896,life,http://api.map.baidu.com/place/detail?uid=4cd86936b106189fd813188d&output=html&source=placeapi_v2,,,,,,,,,,4,,,,,,,,,,0
865fa1f16d5e5c3626d2bb77,洋加尔利洗衣店(黄埔雅苑服务部),生活服务,洗衣店,广东省,深圳市,福田区,广东省深圳市福田区福中路富莲大厦1栋,,1,0,114.058886,22.549652,"(0755)82963201,13316884350",life,http://api.map.baidu.com/place/detail?uid=865fa1f16d5e5c3626d2bb77&output=html&source=placeapi_v2,,09:00-21:00,,,,,,,,1,,,,,,,,114.0588916486,22.549237298832,0
58ae1d3c0a023e037c29bdff,上海干洗(石厦北一街店),生活服务,洗衣店,广东省,深圳市,福田区,广东省深圳市福田区石厦北一街蓝色海云居上海干洗1B商铺,,1,0,114.058079,22.532642,13728855499,life,http://api.map.baidu.com/place/detail?uid=58ae1d3c0a023e037c29bdff&output=html&source=placeapi_v2,,10:00-22:00,,,,,,,,2,,,,,,,,114.05803444866,22.532639345509,0
9644b2405cb1e0e517948ef0,贝尔干洗店,生活服务,洗衣店,广东省,深圳市,福田区,广东省深圳市福田区福中路317号黄埔雅逸会楼上,,1,0,114.058856,22.549692,13316884350,life,http://api.map.baidu.com/place/detail?uid=9644b2405cb1e0e517948ef0&output=html&source=placeapi_v2,,08:00-20:00,,,,,,,,6,2,,,,,,,114.05884810774,22.550170249966,0
ac7f74c120082aea71210bce,港艺专业修鞋皮具护理(天虹商场福民店),生活服务,洗衣店,广东省,深圳市,福田区,广东省深圳市福田区福保街道石厦社区福民路127号星河明居大厦1-5层天虹商场F1,ac7f74c120082aea71210bce,1,0,114.059511,22.527976,13714881118,life,http://api.map.baidu.com/place/detail?uid=ac7f74c120082aea71210bce&output=html&source=placeapi_v2,,09:00-20:00,,,,,,,,6,0,,,,,,,114.05959328,22.528350322735,0
ac2552a88c621afdeedfca1a,正章乾洗(滨河店),生活服务,洗衣店,广东省,深圳市,福田区,广东省深圳市福田区滨河大道赤尾3坊54栋102室,ac2552a88c621afdeedfca1a,1,0,114.091351,22.538174,(0755)83292590,life,http://api.map.baidu.com/place/detail?uid=ac2552a88c621afdeedfca1a&output=html&source=placeapi_v2,,09:00-22:00,,,,,,,,2,,,,,,,,114.09141864754,22.538145008579,0
3153005f6d3647d428d7abb0,洁兴干洗(赤尾四街),生活服务,洗衣店,广东省,深圳市,福田区,深圳市福田区赤尾四街汇港名苑东北侧约40米,,1,0,114.091292,22.536919,(0755)83612548,life,http://api.map.baidu.com/place/detail?uid=3153005f6d3647d428d7abb0&output=html&source=placeapi_v2,,,,,,,,,,1,,,,,,,,,,0
2d086ae27a7c2a5d6140a935,上海荣协干洗中心,生活服务,洗衣店,广东省,深圳市,罗湖区,广东省深圳市罗湖区和平路67号,2d086ae27a7c2a5d6140a935,1,0,114.118914,22.53988,"(0755)25588055,(0755)61314188",life,http://api.map.baidu.com/place/detail?uid=2d086ae27a7c2a5d6140a935&output=html&source=placeapi_v2,,08:00-23:30,0.0,,,,,,,5,2,,,,,,,114.11889670316,22.539969909223,0
5569d267bae8b1604afd3f20,小白兔专业干洗(台湾花园东),生活服务,洗衣店,广东省,深圳市,福田区,广东省深圳市福田区东园路台湾花园园中花园e栋,,1,0,114.109709,22.543381,13808856350,life,http://api.map.baidu.com/place/detail?uid=5569d267bae8b1604afd3f20&output=html&source=placeapi_v2,,09:30-21:00,5,,,,,,,3,1,,,,,,,114.10976045823,22.543384561932,0
6be1fcd68ccf67f6085cb3f0,福奈特洗衣(金丰城店),生活服务,洗衣店,广东省,深圳市,罗湖区,广东省深圳市罗湖区深南东路5015号金丰城大厦b座1楼106室,6be1fcd68ccf67f6085cb3f0,1,0,114.116797,22.547256,(0755)82690089,life,http://api.map.baidu.com/place/detail?uid=6be1fcd68ccf67f6085cb3f0&output=html&source=placeapi_v2,,09:00-21:00,5,,,,,,,6,1,,,,,,,114.11686650217,22.547346732524,0
1de3cf42055a6dabf6e73b54,正章干洗(书城店),生活服务,洗衣店,广东省,深圳市,罗湖区,广东深圳市罗湖区深南东路5045号深业中心一楼F08室,1de3cf42055a6dabf6e73b54,1,0,114.114664,22.546923,(0755)82083318,life,http://api.map.baidu.com/place/detail?uid=1de3cf42055a6dabf6e73b54&output=html&source=placeapi_v2,16,08:30-19:00,5,,,,,,,2,1,,,,,,,,,0
d9c27277866fc2e91b94c6d6,洁丽干洗店,生活服务,洗衣店,广东省,深圳市,福田区,广东省深圳市福田区巴登街27栋103号,d9c27277866fc2e91b94c6d6,1,0,114.108362,22.544194,18820190759,life,http://api.map.baidu.com/place/detail?uid=d9c27277866fc2e91b94c6d6&output=html&source=placeapi_v2,,09:00-23:00,,,,,,,,7,,,,,,,,114.10855717979,22.544178492389,0
df9d8cbe0a12ed9907fef52c,正章乾洗(昆阳店),生活服务,洗衣店,广东省,深圳市,福田区,深圳市福田区东园路滨河新村(滨江东区),df9d8cbe0a12ed9907fef52c,1,0,114.108104,22.54329,18118752669,life,http://api.map.baidu.com/place/detail?uid=df9d8cbe0a12ed9907fef52c&output=html&source=placeapi_v2,66.5,09:00-21:00,2,,,,,,,13,2,,,,,,,114.10819115174,22.543290854267,0
5efd8156b353738031870a02,绿洲源洗衣(南湖路店),生活服务,洗衣店,广东省,深圳市,罗湖区,广东省深圳市罗湖区南湖路置地逸轩A50号铺,5efd8156b353738031870a02,1,0,114.127513,22.543819,13828785818,life,http://api.map.baidu.com/place/detail?uid=5efd8156b353738031870a02&output=html&source=placeapi_v2,,10:00-22:00,3.3,,,,,,,16,5,,,,,,,,,0
4426ad4a3d1cb97b1df74d79,正章干洗(世界金融中心店),生活服务,洗衣店,广东省,深圳市,罗湖区,广东省深圳市罗湖区南虹街25号,,1,0,114.121073,22.548032,13026608780,life,http://api.map.baidu.com/place/detail?uid=4426ad4a3d1cb97b1df74d79&output=html&source=placeapi_v2,66.5,00:00-24:00,0,,,,,,,8,0,,,,,,,114.12127666479,22.548058996142,0
840315eddedad7ae9b68b493,正章干洗(南虹路店),生活服务,洗衣店,广东省,深圳市,罗湖区,广东省深圳市罗湖区南虹街25号,840315eddedad7ae9b68b493,1,0,114.124505,22.548712,(0755)82297003,life,http://api.map.baidu.com/place/detail?uid=840315eddedad7ae9b68b493&output=html&source=placeapi_v2,,00:00-24:00,0,,,,,,,5,0,,,,,,,114.12452707279,22.548644538818,0
2e134043d36e6d9bdb131897,洁兴干洗(南湖路店),生活服务,洗衣店,广东省,深圳市,罗湖区,广东省深圳市罗湖区华丽路1013-5号103室,2e134043d36e6d9bdb131897,1,0,114.127667,22.542283,13632638146,life,http://api.map.baidu.com/place/detail?uid=2e134043d36e6d9bdb131897&output=html&source=placeapi_v2,,09:00-22:00,0,,,,,,,27,2,,,,,,,114.12774242748,22.542137307922,0
7a87f9aa8602f82587154189,小天鹅洗衣店(嘉宾路店),生活服务,洗衣店,广东省,深圳市,罗湖区,广东省深圳市罗湖区向西路向西村西区24-3号,7a87f9aa8602f82587154189,1,0,114.130698,22.548489,(0755)82328288,life,http://api.map.baidu.com/place/detail?uid=7a87f9aa8602f82587154189&output=html&source=placeapi_v2,,09:00-23:00,4,,,,,,,15,1,,,,,,,114.13064388563,22.548478576537,0
4eb5c19d050b225beedfca37,白海豚干洗中心,生活服务,洗衣店,广东省,深圳市,罗湖区,深圳市罗湖区红桂路红桂皇冠名庭1楼,4eb5c19d050b225beedfca37,1,0,114.115603,22.556194,15899878008,life,http://api.map.baidu.com/place/detail?uid=4eb5c19d050b225beedfca37&output=html&source=placeapi_v2,,08:30-23:00,0,,,,,,,10,0,,,,,,,,,0
17f8cb7ded1bcf6309a8d473,美国UCC国际洗衣(桂园店),生活服务,洗衣店,广东省,深圳市,罗湖区,广东省深圳市罗湖区桂园路145-1号,17f8cb7ded1bcf6309a8d473,1,0,114.118829,22.554167,"13316577567,13590275700",life,http://api.map.baidu.com/place/detail?uid=17f8cb7ded1bcf6309a8d473&output=html&source=placeapi_v2,,10:00-22:00,,,,,,,,1,,,,,,,,114.11897652659,22.554179705376,0
faeb1fa0905d0783d8eced89,上海干洗中心(红桂路店),生活服务,洗衣店,广东省,深圳市,罗湖区,广东省深圳市罗湖区红桂路1044号风格名苑一楼,faeb1fa0905d0783d8eced89,1,0,114.116667,22.557237,"(0755)25894158,13316980131",life,http://api.map.baidu.com/place/detail?uid=faeb1fa0905d0783d8eced89&output=html&source=placeapi_v2,,08:00-24:00,5,,,,,,,17,3,,,,,,,114.11670969755,22.557119592237,0
cd08a836cc048b0ff50e7708,正章干洗(建艺大厦店),生活服务,洗衣店,广东省,深圳市,福田区,广东省深圳市福田区甘泉路建艺大厦首层,cd08a836cc048b0ff50e7708,1,0,114.100385,22.55207,(0755)83260556,life,http://api.map.baidu.com/place/detail?uid=cd08a836cc048b0ff50e7708&output=html&source=placeapi_v2,66.5,10:00-19:00,1,,,,,,,28,1,,,,,,,114.10044669465,22.552072144656,0
84c912939b8391f20accdd92,乐家洗24小时自助洗衣,生活服务,洗衣店,广东省,深圳市,罗湖区,深圳市罗湖区春风路高架桥铂金时代公寓,84c912939b8391f20accdd92,1,0,114.128318,22.542011,18680680658,life,http://api.map.baidu.com/place/detail?uid=84c912939b8391f20accdd92&output=html&source=placeapi_v2,,,,,,,,,,1,,,,,,,,114.12869957342,22.54227824902,0
2d8136e97d1141136140a9c4,一定好专业干洗店(振中路店),生活服务,洗衣店,广东省,深圳市,福田区,振中路玮鹏花园2栋一楼,,1,0,114.10143,22.548945,13590315938,life,http://api.map.baidu.com/place/detail?uid=2d8136e97d1141136140a9c4&output=html&source=placeapi_v2,,09:30-18:00,,,,,,,,1,,,,,,,,,,0
58fc57d16851e476d4851f64,一定好专业干洗(国贸店),生活服务,洗衣店,广东省,深圳市,罗湖区,广东省深圳市罗湖区人民南路3004号国贸天虹B区F1层,,1,0,114.12473,22.548839,(0755)82232677,life,http://api.map.baidu.com/place/detail?uid=58fc57d16851e476d4851f64&output=html&source=placeapi_v2,,12:30-22:00,0,,,,,,,,0,,,,,,,114.1244551293,22.548784467391,0
544cd84ddfd23b63100daad8,红苹果干洗,生活服务,洗衣店,广东省,深圳市,罗湖区,深圳市罗湖区煤场路国都花园,544cd84ddfd23b63100daad8,1,0,114.117664,22.554978,(0755)25593581,life,http://api.map.baidu.com/place/detail?uid=544cd84ddfd23b63100daad8&output=html&source=placeapi_v2,,10:30-21:00,0.0,,,,,,,11,1,,,,,,,,,0
c4be9646dfee365b8c55ec0b,小天鹅绿色洗衣(江背路店),生活服务,洗衣店,广东省,深圳市,罗湖区,深圳市罗湖区友谊路22-1号芙蓉小区,c4be9646dfee365b8c55ec0b,1,0,114.129265,22.545426,(0755)82325805,life,http://api.map.baidu.com/place/detail?uid=c4be9646dfee365b8c55ec0b&output=html&source=placeapi_v2,,09:00-22:00,,,,,,,,,,,,,,,,,,0
71a15533d02c90aa2902e152,佳佳干洗,生活服务,洗衣店,广东省,深圳市,罗湖区,广东省深圳市罗湖区深南东路3001号金城大厦6座1楼,,1,0,114.128226,22.548849,(0755)82227870,life,http://api.map.baidu.com/place/detail?uid=71a15533d02c90aa2902e152&output=html&source=placeapi_v2,,09:00-21:00,,,,,,,,2,,,,,,,,,,0
c2429988e780499f8c1a89c3,正章乾洗(红荔路店),生活服务,洗衣店,广东省,深圳市,福田区,深圳市福田区红荔路园岭新村-一期,c2429988e780499f8c1a89c3,1,0,114.108828,22.555567,,life,http://api.map.baidu.com/place/detail?uid=c2429988e780499f8c1a89c3&output=html&source=placeapi_v2,,09:30-21:00,,,,,,,,4,,,,,,,,114.10883061231,22.555422364607,0
f186394ac77353b49c09f79d,欧思卡洗衣,生活服务,洗衣店,广东省,深圳市,宝安区,广东省深圳市宝安区兴业路富通城六期136号,f186394ac77353b49c09f79d,1,0,113.863438,22.57421,15811810818,life,http://api.map.baidu.com/place/detail?uid=f186394ac77353b49c09f79d&output=html&source=placeapi_v2,,10:00-22:00,,,,,,,,2,,,,,,,,113.86335261141,22.574160995031,0
0a8dfc134d5ef8172cb96ddd,美国UCC国际洗衣(富通城店),生活服务,洗衣店,广东省,深圳市,宝安区,广东省深圳市宝安区悦和路富通城三期2栋133号,0a8dfc134d5ef8172cb96ddd,1,0,113.860983,22.573599,15728563525,life,http://api.map.baidu.com/place/detail?uid=0a8dfc134d5ef8172cb96ddd&output=html&source=placeapi_v2,,08:30-21:00,5,,,,,,,17,4,,,,,,,113.86087528244,22.573685503185,0
cb20fa0a1699bda808ccdd0c,正章乾洗(悦和路店),生活服务,洗衣店,广东省,深圳市,宝安区,广东省深圳市宝安区悦和路7-30号,cb20fa0a1699bda808ccdd0c,1,0,113.86341,22.575922,13713896099,life,http://api.map.baidu.com/place/detail?uid=cb20fa0a1699bda808ccdd0c&output=html&source=placeapi_v2,,09:00-21:00,5,,,,,,,12,2,,,,,,,113.86329396644,22.575796438521,0
72ce2a555b2982cefd0eb066,正章干洗(坪洲新村店),生活服务,洗衣店,广东省,深圳市,宝安区,广东省深圳市宝安区海城路218号C09商铺,72ce2a555b2982cefd0eb066,1,0,113.869002,22.566118,14743501965,life,http://api.map.baidu.com/place/detail?uid=72ce2a555b2982cefd0eb066&output=html&source=placeapi_v2,,10:00-20:00,0,,,,,,,11,0,,,,,,,,,0
4717a65abd4f70948bb98814,施柏丽干洗(十七号路店),生活服务,洗衣店,广东省,深圳市,宝安区,广东省深圳市宝安区龙门南五巷3号4栋131室,4717a65abd4f70948bb98814,1,0,113.867629,22.582257,(0755)27911004,life,http://api.map.baidu.com/place/detail?uid=4717a65abd4f70948bb98814&output=html&source=placeapi_v2,60,08:00-22:00,3.5,,,,,,,27,5,,,,,,,,,0
76b3685b4dc3d91c12882409,金马鞍皮具护理中心,生活服务,洗衣店,广东省,深圳市,宝安区,广东省深圳市宝安区悦和路槟城西岸华庭1栋,76b3685b4dc3d91c12882409,1,0,113.864504,22.57697,15013474249,life,http://api.map.baidu.com/place/detail?uid=76b3685b4dc3d91c12882409&output=html&source=placeapi_v2,,,5,,,,,,,10,1,,,,,,,113.86465278826,22.577129924304,0
ace8c5a63e410ebf28201a4b,海尔自助洗衣干衣坊,生活服务,洗衣店,广东省,深圳市,宝安区,深圳市宝安区宝源二街宝源二区,,1,0,113.86835,22.57507,,life,http://api.map.baidu.com/place/detail?uid=ace8c5a63e410ebf28201a4b&output=html&source=placeapi_v2,,,,,,,,,,2,,,,,,,,113.86821752063,22.574855818156,0
fcae7c6e26442ce57602694d,奢侈品养护中心干洗店,生活服务,洗衣店,广东省,深圳市,宝安区,深圳市宝安区海城路广兴源・圣拿威湾美花园,,1,0,113.874013,22.568356,,life,http://api.map.baidu.com/place/detail?uid=fcae7c6e26442ce57602694d&output=html&source=placeapi_v2,,,,,,,,,,3,,,,,,,,113.87391744238,22.568256510004,0
c144fcc62d211a010a5cb32f,正章乾洗(新湖路店),生活服务,洗衣店,广东省,深圳市,宝安区,广东省深圳市宝安区海城路福中福商业城一期d5栋,c144fcc62d211a010a5cb32f,1,0,113.880268,22.571316,13823296635,life,http://api.map.baidu.com/place/detail?uid=c144fcc62d211a010a5cb32f&output=html&source=placeapi_v2,,00:00-24:00,1,,,,,,,11,1,,,,,,,113.88032773792,22.571267822303,0
c263c5dd60fa203501294f55,正章干洗(财富港店),生活服务,洗衣店,广东省,深圳市,宝安区,宝安区宝源路财富港C座1层105室(坪洲地铁站C出口时代城购物中心后面),,1,0,113.874728,22.574314,"13480929491,18218146655",life,http://api.map.baidu.com/place/detail?uid=c263c5dd60fa203501294f55&output=html&source=placeapi_v2,,10:00-22:00,,,,,,,,1,,,,,,,,,,0
ef5bd090f05f8c93a104645b,正章干洗(假日名居店),生活服务,洗衣店,广东省,深圳市,宝安区,广东省深圳市宝安区金科路假日名居商业广场,ef5bd090f05f8c93a104645b,1,0,113.876805,22.56121,15041860918,life,http://api.map.baidu.com/place/detail?uid=ef5bd090f05f8c93a104645b&output=html&source=placeapi_v2,66.5,08:00-20:00,5,,,,,,,8,2,,,,,,,113.87684553296,22.561310901159,0
b7021bf8b4057287f5e73bbf,好邻居干洗(宝安分店),生活服务,洗衣店,广东省,深圳市,宝安区,广东省深圳市宝安区新安街道灶下村二坊二巷12号(24区),b7021bf8b4057287f5e73bbf,1,0,113.90555,22.573377,,life,http://api.map.baidu.com/place/detail?uid=b7021bf8b4057287f5e73bbf&output=html&source=placeapi_v2,,08:00-23:00,5,,,,,,,32,4,,,,,,,113.90497476109,22.573256855076,0
52f956799e5c791bd42ce2fe,丽红干洗(西乡店),生活服务,洗衣店,广东省,深圳市,宝安区,广东省深圳市宝安区裕安二路42号24区109,52f956799e5c791bd42ce2fe,1,0,113.903741,22.575294,18682459510,life,http://api.map.baidu.com/place/detail?uid=52f956799e5c791bd42ce2fe&output=html&source=placeapi_v2,,09:00-22:00,5,,,,,,,10,1,,,,,,,113.90356834683,22.575312916555,0
53535e64c17da9bd0c0a703b,大华干洗(建安一路店),生活服务,洗衣店,广东省,深圳市,宝安区,广东省深圳市宝安区建安一路2241号8区,53535e64c17da9bd0c0a703b,1,0,113.911342,22.569255,(0755)27860563,life,http://api.map.baidu.com/place/detail?uid=53535e64c17da9bd0c0a703b&output=html&source=placeapi_v2,,10:00-22:00,1,,,,,,,21,2,,,,,,,113.91124890475,22.569185906498,0
15a8642ef824bd621b11d524,泰洁干洗(宝新路店),生活服务,洗衣店,广东省,深圳市,宝安区,广东省深圳市宝安区宝新路七号公寓44区7栋1楼,,1,0,113.900774,22.565183,18820215416,life,http://api.map.baidu.com/place/detail?uid=15a8642ef824bd621b11d524&output=html&source=placeapi_v2,28.5,09:30-22:30,2,,,,,,,25,3,,,,,,,113.90069529772,22.565118548581,0
95116f9fe5d079f3b23c8195,正章乾洗(翻身路店),生活服务,洗衣店,广东省,深圳市,宝安区,深圳市宝安区创业一路1018号天虹商场F1,95116f9fe5d079f3b23c8195,1,0,113.90115,22.566344,(0755)29961110,life,http://api.map.baidu.com/place/detail?uid=95116f9fe5d079f3b23c8195&output=html&source=placeapi_v2,,09:30-20:00,0,,,,,,,14,1,,,,,,,113.90121808911,22.566431699185,0
9ad3a13470ca142b9122e0ca,新时代洗衣(建安一路),生活服务,洗衣店,广东省,深圳市,宝安区,广东省深圳市宝安区建安一路新安29区41栋117号,9ad3a13470ca142b9122e0ca,1,0,113.90223,22.57797,"13129588085,13410435351",life,http://api.map.baidu.com/place/detail?uid=9ad3a13470ca142b9122e0ca&output=html&source=placeapi_v2,,09:00-21:30,0,,,,,,,19,1,,,,,,,113.90225741007,22.577992689849,0
8e65548e6bf8aa49c6f50d8a,洁丰干洗(新安湖一巷店),生活服务,洗衣店,广东省,深圳市,宝安区,广东省深圳市宝安区建安一路128-2号,8e65548e6bf8aa49c6f50d8a,1,0,113.91369,22.568535,(0755)27860108,life,http://api.map.baidu.com/place/detail?uid=8e65548e6bf8aa49c6f50d8a&output=html&source=placeapi_v2,,09:00-21:00,0.0,,,,,,,16,,,,,,,,113.91387323692,22.568480925593,0
5db004984e28e4122fb908a1,深圳市中核冰箱洗衣机清洗维修中心,生活服务,洗衣店,广东省,深圳市,宝安区,深圳市宝安区前进一路265号泰华大厦一楼,,1,0,113.905866,22.579234,,life,http://api.map.baidu.com/place/detail?uid=5db004984e28e4122fb908a1&output=html&source=placeapi_v2,,,,,,,,,,,,,,,,,,,,0
5500adcdef15f9b2b64f54fb,宝安达兴干洗中心,生活服务,洗衣店,广东省,深圳市,宝安区,广东省深圳市宝安区灵芝街79号灵芝新村19区49栋,5500adcdef15f9b2b64f54fb,1,0,113.916184,22.573631,13651455881,life,http://api.map.baidu.com/place/detail?uid=5500adcdef15f9b2b64f54fb&output=html&source=placeapi_v2,,09:00-21:00,0,,,,,,,14,2,,,,,,,113.91631552852,22.573735503451,0
055855f04619d3fc49cc4afc,唯匠・奢侈品养护(海雅店),生活服务,洗衣店,广东省,深圳市,宝安区,广东省深圳市宝安区新安街道建安一路99号海雅缤纷城B2,055855f04619d3fc49cc4afc,1,0,113.912132,22.565603,13651420690,life,http://api.map.baidu.com/place/detail?uid=055855f04619d3fc49cc4afc&output=html&source=placeapi_v2,,10:00-22:00,0,,,,,,,3,1,,,,,,,113.91280475731,22.567399331467,0
23e056cb447261064e55478f,青春干洗店,生活服务,洗衣店,广东省,深圳市,宝安区,广东省深圳市宝安区上川路217号岭下花园36区2栋,23e056cb447261064e55478f,1,0,113.907969,22.586079,(0755)29189531,life,http://api.map.baidu.com/place/detail?uid=23e056cb447261064e55478f&output=html&source=placeapi_v2,,08:30-22:30,0.0,,,,,,,22,1,,,,,,,113.90804465798,22.585985148601,0
51f9cc1ee6af10f3ad080f07,正章干洗(新安二路店),生活服务,洗衣店,广东省,深圳市,宝安区,广东省深圳市宝安区洪浪北路20区宝雅花园b栋18号,51f9cc1ee6af10f3ad080f07,1,0,113.920011,22.573632,"(0755)27780233,13682457336",life,http://api.map.baidu.com/place/detail?uid=51f9cc1ee6af10f3ad080f07&output=html&source=placeapi_v2,66.5,09:00-20:00,0,,,,,,,21,0,,,,,,,113.92000610338,22.573789406915,0
34d0e1dbe75fd66615a1906b,小哥帮谊毛附皮革护理干洗,生活服务,洗衣店,广东省,深圳市,宝安区,广东深圳市宝安区海围二街菁英趣庭n4区1栋166号,34d0e1dbe75fd66615a1906b,1,0,113.895235,22.56574,"13530430739,4008185088",life,http://api.map.baidu.com/place/detail?uid=34d0e1dbe75fd66615a1906b&output=html&source=placeapi_v2,,09:30-22:00,,,,,,,,8,,,,,,,,,,0
06527313f6ca9ee4c9fa5fed,上海顺鑫干洗中心,生活服务,洗衣店,广东省,深圳市,宝安区,广东省深圳市宝安区创业一路2108-20号,,1,0,113.895472,22.563239,"(0755)29790177,(0755)29790462",life,http://api.map.baidu.com/place/detail?uid=06527313f6ca9ee4c9fa5fed&output=html&source=placeapi_v2,,09:00-22:00,,,,,,,,9,,,,,,,,113.89539375501,22.563014633234,0
947ab305631582f5213bf234,雅森干洗中心(宝安店),生活服务,洗衣店,广东省,深圳市,宝安区,广东省深圳市宝安区海汇路七巷1号,947ab305631582f5213bf234,1,0,113.891131,22.573695,(0755)27920392,life,http://api.map.baidu.com/place/detail?uid=947ab305631582f5213bf234&output=html&source=placeapi_v2,,09:00-21:00,0,,,,,,,25,2,,,,,,,113.89117690773,22.573647405732,0
9e83ace11083430a6140a95b,卡柏洗衣(创辉路店),生活服务,洗衣店,广东省,深圳市,宝安区,广东省深圳市宝安区创辉路2035号天悦龙庭a区a栋122室,9e83ace11083430a6140a95b,1,0,113.893408,22.563408,"(0755)29639650,13715357610",life,http://api.map.baidu.com/place/detail?uid=9e83ace11083430a6140a95b&output=html&source=placeapi_v2,,09:00-20:00,0.0,,,,,,,14,,,,,,,,,,0
37787eef0bc5f32ea8175a1b,上海干洗店(新乐二街店),生活服务,洗衣店,广东省,深圳市,宝安区,广东省深圳市宝安区安乐2街东2巷156号,37787eef0bc5f32ea8175a1b,1,0,113.913707,22.559921,13510335012,life,http://api.map.baidu.com/place/detail?uid=37787eef0bc5f32ea8175a1b&output=html&source=placeapi_v2,,,0,,,,,,,22,1,,,,,,,113.9136119989,22.559766457638,0
66200b8cbe4c7b9fa8f729d7,皮具维护中心,生活服务,洗衣店,广东省,深圳市,宝安区,深圳市宝安区乐平路四十二区,66200b8cbe4c7b9fa8f729d7,1,0,113.904174,22.561358,,life,http://api.map.baidu.com/place/detail?uid=66200b8cbe4c7b9fa8f729d7&output=html&source=placeapi_v2,,,,,,,,,,3,,,,,,,,113.90422532166,22.561306880371,0
6abd6c817ea0676e3586f474,正章干洗(西城上筑店),生活服务,洗衣店,广东省,深圳市,宝安区,深圳市宝安区创业一路1014号西城上筑华润万家一楼,6abd6c817ea0676e3586f474,1,0,113.897069,22.563028,,life,http://api.map.baidu.com/place/detail?uid=6abd6c817ea0676e3586f474&output=html&source=placeapi_v2,,00:00-23:30,,,,,,,,,,,,,,,,,,0
987e05da29e88b2c2b11d1e9,正章干洗(永旺店),生活服务,洗衣店,广东省,深圳市,宝安区,广东省深圳市宝安区创业一路1004号宏发中心大厦84区1楼,,1,0,113.894841,22.561193,"13392197547,18098977546",life,http://api.map.baidu.com/place/detail?uid=987e05da29e88b2c2b11d1e9&output=html&source=placeapi_v2,,10:00-19:00,,,,,,,,1,,,,,,,,,,0
596eff3a37c6898eb11e3669,奥妮卡洗护生活馆,生活服务,洗衣店,广东省,深圳市,宝安区,广东省深圳市宝安区建安二路50号附近,596eff3a37c6898eb11e3669,1,0,113.895461,22.585169,18123857602,life,http://api.map.baidu.com/place/detail?uid=596eff3a37c6898eb11e3669&output=html&source=placeapi_v2,,,,,,,,,,7,,,,,,,,113.89513837214,22.585466817651,0
bc46be687c142d665cd4fefe,美国UCC国际洗衣(玉竹路店),生活服务,洗衣店,广东省,深圳市,宝安区,广东省深圳市宝安区玉律路裕丰花园82区1栋103号,bc46be687c142d665cd4fefe,1,0,113.886845,22.570104,(0755)29180336,life,http://api.map.baidu.com/place/detail?uid=bc46be687c142d665cd4fefe&output=html&source=placeapi_v2,1160,10:00-21:00,,,,,,,,23,,,,,,,,113.88694617264,22.570111280964,0
6074450944b4d89ea8f0cdf0,新安丽白洗衣店,生活服务,洗衣店,广东省,深圳市,宝安区,广东省深圳市宝安区怡园路4056号,6074450944b4d89ea8f0cdf0,1,0,113.905809,22.58719,13725592162,life,http://api.map.baidu.com/place/detail?uid=6074450944b4d89ea8f0cdf0&output=html&source=placeapi_v2,,08:30-21:30,0,,,,,,,9,0,,,,,,,113.90575309679,22.587174793187,0
5360a4837f7b860063685880,正章干洗(松坪山店),生活服务,洗衣店,广东省,深圳市,南山区,广东省深圳市南山区群芳街144号深南花园1栋7号商铺,5360a4837f7b860063685880,1,0,113.958639,22.564189,13528864639,life,http://api.map.baidu.com/place/detail?uid=5360a4837f7b860063685880&output=html&source=placeapi_v2,66.5,00:00-24:00,0,,,,,,,22,3,,,,,,,113.95863293128,22.564113949538,0
0a15c7ec444579fced74f876,申港洗衣店(群芳街店),生活服务,洗衣店,广东省,深圳市,南山区,广东省深圳市南山区群芳街105号,0a15c7ec444579fced74f876,1,0,113.959165,22.563968,(0755)26612849,life,http://api.map.baidu.com/place/detail?uid=0a15c7ec444579fced74f876&output=html&source=placeapi_v2,,08:00-22:00,2.3,,,,,,,23,4,,,,,,,113.9591591299,22.564131554484,0
99244c04080e8b276d20b992,豪峰干洗(富源楼西北),生活服务,洗衣店,广东省,深圳市,南山区,广东省深圳市南山区文新街4-1号,99244c04080e8b276d20b992,1,0,113.960235,22.58217,13620955282,life,http://api.map.baidu.com/place/detail?uid=99244c04080e8b276d20b992&output=html&source=placeapi_v2,,09:30-22:30,1,,,,,,,13,3,,,,,,,113.9603279709,22.5821038301,0
e9e5f15cfeeac3446240a9fd,满城洗衣店(文光村分店),生活服务,洗衣店,广东省,深圳市,南山区,文光村31-2-2号,e9e5f15cfeeac3446240a9fd,1,0,113.956308,22.575315,13714176336,life,http://api.map.baidu.com/place/detail?uid=e9e5f15cfeeac3446240a9fd&output=html&source=placeapi_v2,,,5,,,,,,,10,1,,,,,,,113.95632985921,22.57534126191,0
62e94987bae6967cfa0cad3a,修鞋缝衣服,生活服务,洗衣店,广东省,深圳市,南山区,广东省深圳市南山区文苑路8-2号,62e94987bae6967cfa0cad3a,1,0,113.95917,22.581095,13049434156,life,http://api.map.baidu.com/place/detail?uid=62e94987bae6967cfa0cad3a&output=html&source=placeapi_v2,,08:30-22:45,,,,,,,,4,,,,,,,,113.9590907437,22.581014735851,0
5cea2e0fb1257d159ce3217e,金利洁餐具清洗中心,生活服务,洗衣店,广东省,深圳市,南山区,深圳市南山区乾丰三路波顿科技园东南侧约240米,5cea2e0fb1257d159ce3217e,1,0,113.949284,22.570523,,life,http://api.map.baidu.com/place/detail?uid=5cea2e0fb1257d159ce3217e&output=html&source=placeapi_v2,,,,,,,,,,2,,,,,,,,113.9492857705,22.570342560065,0
f6dc670b79917576c42ba18b,小懒猫干洗柜,生活服务,洗衣店,广东省,深圳市,南山区,广东省深圳市南山区科兴科学园b4栋1488号,,1,0,113.950714,22.553953,,life,http://api.map.baidu.com/place/detail?uid=f6dc670b79917576c42ba18b&output=html&source=placeapi_v2,,,,,,,,,,,,,,,,,,,,0
245cdfbe70bedbce1088244e,正章乾洗(俊峰丽舍店),生活服务,洗衣店,广东省,深圳市,南山区,深圳市南山区龙珠七路俊峰丽舍4栋9号铺,245cdfbe70bedbce1088244e,1,0,113.989083,22.566393,(0755)86102391,life,http://api.map.baidu.com/place/detail?uid=245cdfbe70bedbce1088244e&output=html&source=placeapi_v2,51,09:00-23:00,1,,,,,,,22,3,,,,,,,113.98899846475,22.566263934324,0
819515309887ddd76ca3cc79,新绅雅干洗(龙光社区东),生活服务,洗衣店,广东省,深圳市,南山区,广东省深圳市南山区龙井路东区41栋101号,819515309887ddd76ca3cc79,1,0,113.982428,22.566631,(0755)26785826,life,http://api.map.baidu.com/place/detail?uid=819515309887ddd76ca3cc79&output=html&source=placeapi_v2,,08:30-22:00,1,,,,,,,11,2,,,,,,,113.98230119021,22.566565692553,0
108b1ceaf4c7ebac3586f476,洁丰干洗,生活服务,洗衣店,广东省,深圳市,南山区,广东省深圳市南山区高新南坏路二期69栋,108b1ceaf4c7ebac3586f476,1,0,113.984408,22.565362,(0755)26797187,life,http://api.map.baidu.com/place/detail?uid=108b1ceaf4c7ebac3586f476&output=html&source=placeapi_v2,,09:00-21:00,0,,,,,,,14,1,,,,,,,113.98441130715,22.565276427475,0
70e943937928ccceb65f1e50,正章干洗(香瑞园店),生活服务,洗衣店,广东省,深圳市,南山区,广东省深圳市南山区深云路15号,70e943937928ccceb65f1e50,1,0,113.996828,22.564775,15218736906,life,http://api.map.baidu.com/place/detail?uid=70e943937928ccceb65f1e50&output=html&source=placeapi_v2,,09:30-20:30,,,,,,,,3,2,,,,,,,113.99677285154,22.56478422941,0
c3a1700de2c5dbda4207c1e1,一定好干洗,生活服务,洗衣店,广东省,深圳市,南山区,广东省深圳市南山区龙珠大道94栋103号,,1,0,113.987765,22.564685,(0755)26970385,life,http://api.map.baidu.com/place/detail?uid=c3a1700de2c5dbda4207c1e1&output=html&source=placeapi_v2,,09:00-21:00,,,,,,,,10,,,,,,,,113.98778964643,22.564810268205,0
594e6cf7ad1edcae9868b466,深圳市汤米之家干洗清洁服务有限公司,生活服务,洗衣店,广东省,深圳市,南山区,广东省深圳市南山区侨北三街华侨城香山里一期1栋103铺,594e6cf7ad1edcae9868b466,1,0,113.982369,22.559187,(0755)22670383,life,http://api.map.baidu.com/place/detail?uid=594e6cf7ad1edcae9868b466&output=html&source=placeapi_v2,,09:00-21:30,,,,,,,,7,,,,,,,,113.98241722792,22.559037878701,0
cf05386269d8459fc356ac6d,紫罗兰干洗店,生活服务,洗衣店,广东省,深圳市,南山区,广东省深圳市南山区龙珠六路桃源村(龙井村东150米),cf05386269d8459fc356ac6d,1,0,113.983846,22.565388,,life,http://api.map.baidu.com/place/detail?uid=cf05386269d8459fc356ac6d&output=html&source=placeapi_v2,,,5,,,,,,,15,2,,,,,,,113.98383233661,22.565512535048,0
f4c45ff7b40254e6f2193704,正章干洗,生活服务,洗衣店,广东省,深圳市,南山区,广东省深圳市南山区深云路15号,f4c45ff7b40254e6f2193704,1,0,113.992209,22.558457,,life,http://api.map.baidu.com/place/detail?uid=f4c45ff7b40254e6f2193704&output=html&source=placeapi_v2,,,,,,,,,,,,,,,,,,113.99247205132,22.558657979997,0
2bbe24854901e9727ec8765d,奢侈品皮具维修护理,生活服务,洗衣店,广东省,深圳市,南山区,深圳市南山区南山新屋村一路新屋村工业大厦北侧约70米,,1,0,113.974757,22.574188,13410049185,life,http://api.map.baidu.com/place/detail?uid=2bbe24854901e9727ec8765d&output=html&source=placeapi_v2,,,,,,,,,,10,,,,,,,,113.97492927658,22.574121740703,0
5c1bf10f6c76057e16764337,白阿姨干洗店(深云村店),生活服务,洗衣店,广东省,深圳市,南山区,广东省深圳市南山区深安路深云村,,1,0,113.999761,22.560829,4009628885,life,http://api.map.baidu.com/place/detail?uid=5c1bf10f6c76057e16764337&output=html&source=placeapi_v2,,00:00-24:00,,,,,,,,1,,,,,,,,113.99948930135,22.560937556344,0
08742ff2185c04cf48cc4a60,正章干洗(梅林一村店),生活服务,洗衣店,广东省,深圳市,福田区,广东省深圳市福田区梅丽路梅林一村七区1号铺,08742ff2185c04cf48cc4a60,1,0,114.044941,22.572851,13352901630,life,http://api.map.baidu.com/place/detail?uid=08742ff2185c04cf48cc4a60&output=html&source=placeapi_v2,66.5,09:00-23:00,5,,,,,,,11,5,,,,,,,114.04501625369,22.572904368769,0
1745c57b237ca22b38221c2a,正章乾洗(梅山街店),生活服务,洗衣店,广东省,深圳市,福田区,广东省深圳市福田区景田东路梅山苑七区3栋,1745c57b237ca22b38221c2a,1,0,114.039688,22.571201,(0755)83539368,life,http://api.map.baidu.com/place/detail?uid=1745c57b237ca22b38221c2a&output=html&source=placeapi_v2,54,07:00-21:00,0,,,,,,,18,3,,,,,,,114.0397614764,22.571380411534,0
56c852c16f3671d275e5b6c7,正章乾洗(景密店),生活服务,洗衣店,广东省,深圳市,福田区,广东省深圳市福田区景田西路赛格景苑首层3号,56c852c16f3671d275e5b6c7,1,0,114.044106,22.560208,(0755)83933060,life,http://api.map.baidu.com/place/detail?uid=56c852c16f3671d275e5b6c7&output=html&source=placeapi_v2,66.5,09:00-21:00,2.5,,,,,,,24,6,,,,,,,114.04413239206,22.560237013094,0
a672e7aa6298630c3904b192,正章干洗(侨香村店),生活服务,洗衣店,广东省,深圳市,福田区,广东省深圳市福田区侨香路2008侨香村小区内1栋A座首层住房公积金背后,a672e7aa6298630c3904b192,1,0,114.020454,22.558292,13691843177,life,http://api.map.baidu.com/place/detail?uid=a672e7aa6298630c3904b192&output=html&source=placeapi_v2,,10:00-20:00,5,,,,,,,4,2,,,,,,,114.02030462552,22.558323598357,0
a451212c1f6d3ea0eee4a536,正章干洗(嘉园店),生活服务,洗衣店,广东省,深圳市,福田区,侨香路四号路嘉园小区3号门门口,,1,0,114.029793,22.560893,13713997613,life,http://api.map.baidu.com/place/detail?uid=a451212c1f6d3ea0eee4a536&output=html&source=placeapi_v2,,10:00-22:03,,,,,,,,,,,,,,,,114.02995193173,22.560773452089,0
a96381b059772104abf729ff,正章干洗(侨香路店),生活服务,洗衣店,广东省,深圳市,福田区,广东省深圳市福田区侨香路1025号梅山苑一期27栋1楼,a96381b059772104abf729ff,1,0,114.032258,22.558138,,life,http://api.map.baidu.com/place/detail?uid=a96381b059772104abf729ff&output=html&source=placeapi_v2,,09:00-19:00,1.0,,,,,,,1,3,,,,,,,,,0
494cea9773b502aa42d63e93,天鹅湖洗衣(梅山店),生活服务,洗衣店,广东省,深圳市,福田区,广东省深圳市福田区下梅林一街梅山苑一期2栋,494cea9773b502aa42d63e93,1,0,114.038736,22.57058,,life,http://api.map.baidu.com/place/detail?uid=494cea9773b502aa42d63e93&output=html&source=placeapi_v2,,,,,,,,,,7,,,,,,,,114.03875429896,22.570371485141,0
d69c0ef77cb12910f942b29f,米思特专业干洗西服定制,生活服务,洗衣店,广东省,深圳市,福田区,广东省深圳市福田区景田北一街宏浩花园c座1楼39号,d69c0ef77cb12910f942b29f,1,0,114.044058,22.558941,15889782380,life,http://api.map.baidu.com/place/detail?uid=d69c0ef77cb12910f942b29f&output=html&source=placeapi_v2,,09:00-21:00,0,,,,,,,20,1,,,,,,,114.04405479733,22.559034416556,0
5f8aa3b3ce28cb8307026f79,灰姑娘洗衣店,生活服务,洗衣店,广东省,深圳市,福田区,广东省深圳市福田区安托山七路华润万家超市1楼,,1,0,114.02031,22.557583,(0755)88999511,life,http://api.map.baidu.com/place/detail?uid=5f8aa3b3ce28cb8307026f79&output=html&source=placeapi_v2,,08:00-22:00,0,,,,,,,,0,,,,,,,,,0
723fc76dc114ff8402294ff8,正章乾洗(广夏路店),生活服务,洗衣店,广东省,深圳市,福田区,广东深圳市福田区上梅林安得街b19铺,723fc76dc114ff8402294ff8,1,0,114.067367,22.572527,13312967230,life,http://api.map.baidu.com/place/detail?uid=723fc76dc114ff8402294ff8&output=html&source=placeapi_v2,66.5,09:30-20:30,0,,,,,,,14,2,,,,,,,114.06752555571,22.572527718803,0
1751c596366564b5bda24046,正章干洗(艺丰店),生活服务,洗衣店,广东省,深圳市,福田区,广东省深圳市福田区梅林路14号搪瓷宿舍北区103铺,1751c596366564b5bda24046,1,0,114.076999,22.575742,(0755)83106136,life,http://api.map.baidu.com/place/detail?uid=1751c596366564b5bda24046&output=html&source=placeapi_v2,,08:30-22:00,,,,,,,,6,,,,,,,,114.07700329148,22.575664816674,0
13470ff2d94311bf71210b8c,正章干洗(笋岗西路店),生活服务,洗衣店,广东省,深圳市,福田区,广东省深圳市福田区笋岗西路莲花一村18栋1楼8号,13470ff2d94311bf71210b8c,1,0,114.076595,22.559961,"(0755)83252393,13380382059",life,http://api.map.baidu.com/place/detail?uid=13470ff2d94311bf71210b8c&output=html&source=placeapi_v2,27,09:00-21:00,0,,,,,,,17,1,,,,,,,,,0
bbe6641cccfa6fad873304cf,正章干洗(莲花北店),生活服务,洗衣店,广东省,深圳市,福田区,广东省深圳市福田区莲花路30栋114室,bbe6641cccfa6fad873304cf,1,0,114.057843,22.565837,(0755)83062335,life,http://api.map.baidu.com/place/detail?uid=bbe6641cccfa6fad873304cf&output=html&source=placeapi_v2,,08:30-20:30,0,,,,,,,16,2,,,,,,,114.05792851583,22.565824444873,0
c97921bdab075f7c2fb17ef9,雅君明珠干洗,生活服务,洗衣店,广东省,深圳市,福田区,深圳市福田区梅华路新世界百货(梅华路店)西侧,c97921bdab075f7c2fb17ef9,1,0,114.059296,22.570777,(0755)83120260,life,http://api.map.baidu.com/place/detail?uid=c97921bdab075f7c2fb17ef9&output=html&source=placeapi_v2,,09:30-23:00,,,,,,,,5,,,,,,,,114.05935255209,22.57086401653,0
fe629004af8e3c385af6be46,正宗干洗,生活服务,洗衣店,广东省,深圳市,福田区,广东省深圳市福田区安得街77-1号附近,,1,0,114.0674,22.572509,,life,http://api.map.baidu.com/place/detail?uid=fe629004af8e3c385af6be46&output=html&source=placeapi_v2,,,,,,,,,,,,,,,,,,114.067399916,22.572427952459,0
a85957ef8951d60b3fe23126,白阿姨干洗店,生活服务,洗衣店,广东省,深圳市,福田区,广东省深圳市福田区北环大道4013号莲丰大厦,,1,0,114.061383,22.567025,4009628885,life,http://api.map.baidu.com/place/detail?uid=a85957ef8951d60b3fe23126&output=html&source=placeapi_v2,,00:00-24:00,,,,,,,,2,,,,,,,,114.06154460888,22.566889844103,0
ac5f1337af66504459bbbc22,正章干洗(莲花二村店),生活服务,洗衣店,广东省,深圳市,福田区,广东省深圳市福田区莲花二村9栋105b,ac5f1337af66504459bbbc22,1,0,114.077742,22.5564,(0755)83242381,life,http://api.map.baidu.com/place/detail?uid=ac5f1337af66504459bbbc22&output=html&source=placeapi_v2,,08:30-21:00,5.0,,,,,,,12,,,,,,,,114.07770064694,22.556367603523,0
fbc749d8e100e5beb13c810f,浣衣纱洗衣坊(罗湖店),生活服务,洗衣店,广东省,深圳市,罗湖区,深圳市罗湖区宝岗路嘉宝田花园1-22号商铺,fbc749d8e100e5beb13c810f,1,0,114.118272,22.564311,,life,http://api.map.baidu.com/place/detail?uid=fbc749d8e100e5beb13c810f&output=html&source=placeapi_v2,,08:30-21:30,5,,,,,,,3,1,,,,,,,114.11851699212,22.564346961853,0
6e06aa024964c53f3c9a5ec0,深圳市巨牛冰箱洗衣机清洗维修中心,生活服务,洗衣店,广东省,深圳市,罗湖区,深圳市罗湖区坭岗东路1126号鹿岭大厦7层,6e06aa024964c53f3c9a5ec0,1,0,114.111184,22.575525,,life,http://api.map.baidu.com/place/detail?uid=6e06aa024964c53f3c9a5ec0&output=html&source=placeapi_v2,,,,,,,,,,,,,,,,,,,,0
421703d53c3fa22b0869d9f0,正章乾洗(平安店),生活服务,洗衣店,广东省,深圳市,福田区,福田区八卦五街12号,421703d53c3fa22b0869d9f0,1,0,114.102677,22.567551,(0755)22623181,life,http://api.map.baidu.com/place/detail?uid=421703d53c3fa22b0869d9f0&output=html&source=placeapi_v2,66.5,09:15-21:15,3.3,,,,,,,12,5,,,,,,,114.10269238117,22.567422478603,0
0dbc4162c08754cd4354d763,正章乾洗(世纪华源店),生活服务,洗衣店,广东省,深圳市,福田区,广东省深圳市福田区八卦一路世纪华源酒店1楼,0dbc4162c08754cd4354d763,1,0,114.105784,22.563138,(0755)83318000,life,http://api.map.baidu.com/place/detail?uid=0dbc4162c08754cd4354d763&output=html&source=placeapi_v2,,09:00-19:00,,,,,,,,4,,,,,,,,114.10576313106,22.563207037239,0
31371174b2d236f49ee32124,欧瑟干洗,生活服务,洗衣店,广东省,深圳市,福田区,广东省深圳市福田区八卦一路131号,31371174b2d236f49ee32124,1,0,114.102633,22.564131,(0755)22277160,life,http://api.map.baidu.com/place/detail?uid=31371174b2d236f49ee32124&output=html&source=placeapi_v2,,08:30-21:30,3,,,,,,,17,1,,,,,,,114.10268107151,22.564152623196,0
faeb1fa0905d0783d8eced89,上海干洗中心(红桂路店),生活服务,洗衣店,广东省,深圳市,罗湖区,广东省深圳市罗湖区红桂路1044号风格名苑一楼,faeb1fa0905d0783d8eced89,1,0,114.116667,22.557237,"(0755)25894158,13316980131",life,http://api.map.baidu.com/place/detail?uid=faeb1fa0905d0783d8eced89&output=html&source=placeapi_v2,,08:00-24:00,5,,,,,,,17,3,,,,,,,114.11670969755,22.557119592237,0
4eb5c19d050b225beedfca37,白海豚干洗中心,生活服务,洗衣店,广东省,深圳市,罗湖区,深圳市罗湖区红桂路红桂皇冠名庭1楼,4eb5c19d050b225beedfca37,1,0,114.115603,22.556194,15899878008,life,http://api.map.baidu.com/place/detail?uid=4eb5c19d050b225beedfca37&output=html&source=placeapi_v2,,08:30-23:00,0,,,,,,,10,0,,,,,,,,,0
908396c66cba35656f3e1b78,皮具维护,生活服务,洗衣店,广东省,深圳市,福田区,深圳市福田区红岭中路商业裙楼,908396c66cba35656f3e1b78,1,0,114.110708,22.558306,(0755)22653856,life,http://api.map.baidu.com/place/detail?uid=908396c66cba35656f3e1b78&output=html&source=placeapi_v2,,09:00-21:30,,,,,,,,3,,,,,,,,114.11089100086,22.558282585063,0
6a96da2297341e7230169b12,老人头干洗连锁罗湖洪湖加盟店(罗湖洪湖店),生活服务,洗衣店,广东省,深圳市,罗湖区,广东省深圳市罗湖区洪湖一街16-1号,6a96da2297341e7230169b12,1,0,114.129163,22.563697,,life,http://api.map.baidu.com/place/detail?uid=6a96da2297341e7230169b12&output=html&source=placeapi_v2,,,,,,,,,,10,,,,,,,,,,0
18038f926d2278cfbda2400d,正章干洗(百花店),生活服务,洗衣店,广东省,深圳市,福田区,广东省深圳市福田区百花二路百花园商业街B136号,18038f926d2278cfbda2400d,1,0,114.101055,22.55863,(0755)83012004,life,http://api.map.baidu.com/place/detail?uid=18038f926d2278cfbda2400d&output=html&source=placeapi_v2,66.5,09:00-22:00,0,,,,,,,12,1,,,,,,,114.1008935711,22.558777153587,0
c7a24ab3864ea25a9d82ea67,小白兔专业干洗(洪湖四街店),生活服务,洗衣店,广东省,深圳市,罗湖区,广东省深圳市罗湖区洪湖路32号粤海花园1楼1号,c7a24ab3864ea25a9d82ea67,1,0,114.12684,22.564443,(0755)25602348,life,http://api.map.baidu.com/place/detail?uid=c7a24ab3864ea25a9d82ea67&output=html&source=placeapi_v2,,09:00-21:00,,,,,,,,5,,,,,,,,114.12686997663,22.564328913055,0
541090247ca246d18bdb739f,上海洁美干洗(红桂路店),生活服务,洗衣店,广东省,深圳市,罗湖区,清庆新村12-2号,,1,0,114.117319,22.557663,(0755)25894158,life,http://api.map.baidu.com/place/detail?uid=541090247ca246d18bdb739f&output=html&source=placeapi_v2,,08:00-20:00,,,,,,,,,,,,,,,,114.11716814777,22.557198072043,0
2bb21a4035f69ea0ca291504,正乾干洗(水贝一路店),生活服务,洗衣店,广东省,深圳市,罗湖区,广东省深圳市罗湖区文锦北路2088-18号洪湖东岸1栋,2bb21a4035f69ea0ca291504,1,0,114.130006,22.574704,(0755)25506431,life,http://api.map.baidu.com/place/detail?uid=2bb21a4035f69ea0ca291504&output=html&source=placeapi_v2,,08:30-22:00,0,,,,,,,2,0,,,,,,,114.13013242362,22.574698137383,0
544cd84ddfd23b63100daad8,红苹果干洗,生活服务,洗衣店,广东省,深圳市,罗湖区,深圳市罗湖区煤场路国都花园,544cd84ddfd23b63100daad8,1,0,114.117664,22.554978,(0755)25593581,life,http://api.map.baidu.com/place/detail?uid=544cd84ddfd23b63100daad8&output=html&source=placeapi_v2,,10:30-21:00,0.0,,,,,,,11,1,,,,,,,,,0
c2429988e780499f8c1a89c3,正章乾洗(红荔路店),生活服务,洗衣店,广东省,深圳市,福田区,深圳市福田区红荔路园岭新村-一期,c2429988e780499f8c1a89c3,1,0,114.108828,22.555567,,life,http://api.map.baidu.com/place/detail?uid=c2429988e780499f8c1a89c3&output=html&source=placeapi_v2,,09:30-21:00,,,,,,,,4,,,,,,,,114.10883061231,22.555422364607,0
c21a9baaf209edabcf06a405,四季净干洗,生活服务,洗衣店,广东省,深圳市,罗湖区,深圳市罗湖区水库新村四街水库新村,,1,0,114.146014,22.572319,(0755)25996175,life,http://api.map.baidu.com/place/detail?uid=c21a9baaf209edabcf06a405&output=html&source=placeapi_v2,,08:00-22:00,0,,,,,,,7,0,,,,,,,114.14609926244,22.572367188058,0
2e956fb7fe25417d7adbd295,正章乾洗(太安路店),生活服务,洗衣店,广东省,深圳市,罗湖区,广东深圳市罗湖区太安路127号,2e956fb7fe25417d7adbd295,1,0,114.145622,22.576736,(0755)25003007,life,http://api.map.baidu.com/place/detail?uid=2e956fb7fe25417d7adbd295&output=html&source=placeapi_v2,90,08:00-23:00,5,,,,,,,24,3,,,,,,,114.14569101226,22.57671027624,0
86ac63a5dfd3fa39ce04ef87,文明干洗,生活服务,洗衣店,广东省,深圳市,罗湖区,深圳市罗湖区水库新村280-2号,86ac63a5dfd3fa39ce04ef87,1,0,114.144931,22.571343,,life,http://api.map.baidu.com/place/detail?uid=86ac63a5dfd3fa39ce04ef87&output=html&source=placeapi_v2,,,4,,,,,,,11,1,,,,,,,,,0
b63ec0bc94abd770c51e5110,企鹅干洗,生活服务,洗衣店,广东省,深圳市,罗湖区,广东省深圳市罗湖区东湖路112-5号泰和花园5栋103室,b63ec0bc94abd770c51e5110,1,0,114.1479,22.587553,,life,http://api.map.baidu.com/place/detail?uid=b63ec0bc94abd770c51e5110&output=html&source=placeapi_v2,,,,,,,,,,9,,,,,,,,114.14778459949,22.587525056371,0
0431dcc0ace7fdeb50e5c50e,正宗干洗(东湖路店),生活服务,洗衣店,广东省,深圳市,罗湖区,广东省深圳市罗湖区东湖路6~7号彩世界家园5号铺,0431dcc0ace7fdeb50e5c50e,1,0,114.149335,22.58455,(0755)25431245,life,http://api.map.baidu.com/place/detail?uid=0431dcc0ace7fdeb50e5c50e&output=html&source=placeapi_v2,,08:30-22:10,,,,,,,,8,,,,,,,,114.14925311806,22.584645890307,0
2072b35ca910f7dd4e776e25,上海干洗店,生活服务,洗衣店,广东省,深圳市,罗湖区,广东深圳市罗湖区黄贝岭路47号文华花园文华楼4栋,2072b35ca910f7dd4e776e25,1,0,114.147651,22.557204,"18818700050,18818700060",life,http://api.map.baidu.com/place/detail?uid=2072b35ca910f7dd4e776e25&output=html&source=placeapi_v2,,08:00-22:00,,,,,,,,7,,,,,,,,114.1476516341,22.55724612511,0
5f21daa9b207b5c74107c116,上海大洋干洗(莲塘村六巷),生活服务,洗衣店,广东省,深圳市,罗湖区,广东省深圳市罗湖区六巷7-2号,5f21daa9b207b5c74107c116,1,0,114.179384,22.56703,(0755)25735471,life,http://api.map.baidu.com/place/detail?uid=5f21daa9b207b5c74107c116&output=html&source=placeapi_v2,,08:00-23:00,4,,,,,,,9,2,,,,,,,114.17937340045,22.566989107971,0
7ff52bdee22994c6e9f8537d,ucc国际洗衣(壹海城店),生活服务,洗衣店,广东省,深圳市,盐田区,广东深圳市盐田区海涛路诗宁大厦2楼,7ff52bdee22994c6e9f8537d,1,0,114.245026,22.560731,,life,http://api.map.baidu.com/place/detail?uid=7ff52bdee22994c6e9f8537d&output=html&source=placeapi_v2,,09:00-20:00,,,,,,,,,,,,,,,,,,0
b54eea668dff8eb23f9a5e17,小白兔专业干洗(壹海城店),生活服务,洗衣店,广东省,深圳市,盐田区,深圳市盐田区海山街道鹏湾社区沙头角中心深盐路与海山路交汇处壹海城F2,b54eea668dff8eb23f9a5e17,1,0,114.244666,22.559795,"(0755)25357797,15889476726",life,http://api.map.baidu.com/place/detail?uid=b54eea668dff8eb23f9a5e17&output=html&source=placeapi_v2,,10:00-22:00,0,,,,,,,6,0,,,,,,,114.24636862022,22.561429020195,0
4a67340369968a4bfe0eb0a1,正章干洗(盐田区委店),生活服务,洗衣店,广东省,深圳市,盐田区,广东省深圳市盐田区香径东街26号一楼,4a67340369968a4bfe0eb0a1,1,0,114.242786,22.564079,"(0755)25363378,13554835167",life,http://api.map.baidu.com/place/detail?uid=4a67340369968a4bfe0eb0a1&output=html&source=placeapi_v2,66.5,08:30-21:00,0,,,,,,,9,1,,,,,,,114.24289055825,22.563926858742,0
3702bcc81ac9096deedfca01,无尘洗护(总店),生活服务,洗衣店,广东省,深圳市,盐田区,广东省深圳市盐田区海景二路君临海域一期B106(盐田外国语小学操场正对面，精茂城),,1,0,114.249898,22.562267,(0755)25169757,life,http://api.map.baidu.com/place/detail?uid=3702bcc81ac9096deedfca01&output=html&source=placeapi_v2,,08:00-23:00,0,,,,,,,13,0,,,,,,,114.24980067278,22.562151056211,0
a89afae82d4b0834fa42b244,正章干洗(鹏湾二村店),生活服务,洗衣店,广东省,深圳市,盐田区,广东省深圳市盐田区海涛路108号,a89afae82d4b0834fa42b244,1,0,114.241309,22.556172,"(0755)25254655,13530372476",life,http://api.map.baidu.com/place/detail?uid=a89afae82d4b0834fa42b244&output=html&source=placeapi_v2,,09:00-21:00,3.7,,,,,,,3,3,,,,,,,,,0
375f1c2acea44f26343a715f,渝洁干洗店,生活服务,洗衣店,广东省,深圳市,龙岗区,深圳市龙岗区水头路曼湾禾田居度假酒店西侧约180米,375f1c2acea44f26343a715f,1,0,114.500943,22.570183,13352929470,life,http://api.map.baidu.com/place/detail?uid=375f1c2acea44f26343a715f&output=html&source=placeapi_v2,,08:00-20:00,,,,,,,,,,,,,,,,114.5009347573,22.570269112042,0
2691390c5324614840e1922d,深圳腾原洗衣厂,生活服务,洗衣店,广东省,深圳市,龙岗区,水头第一工业区13号,2691390c5324614840e1922d,1,0,114.500554,22.569017,(0755)84314893,life,http://api.map.baidu.com/place/detail?uid=2691390c5324614840e1922d&output=html&source=placeapi_v2,,,,,,,,,,2,,,,,,,,114.50058942082,22.568838157055,0
d833caa560825d62ebe58215,美国卡露丝健康干洗(固戍店),生活服务,洗衣店,广东省,深圳市,宝安区,固戍一路886东山股份公司大楼附近,,1,0,113.852247,22.59717,"13544022800,18944961967",life,http://api.map.baidu.com/place/detail?uid=d833caa560825d62ebe58215&output=html&source=placeapi_v2,,10:00-20:30,1,,,,,,,13,1,,,,,,,113.85210625313,22.597109611854,0
517b0aa2073b81fdaeb22af2,美国UCC国际洗衣(招商果岭店),生活服务,洗衣店,广东省,深圳市,宝安区,广东省深圳市宝安区宝安大道西乡街道招商果岭89号铺,517b0aa2073b81fdaeb22af2,1,0,113.866052,22.589916,13602623760,life,http://api.map.baidu.com/place/detail?uid=517b0aa2073b81fdaeb22af2&output=html&source=placeapi_v2,,10:00-20:00,5,,,,,,,10,3,,,,,,,113.86602170435,22.58997603681,0
0319b9f032abdc7efaf0cbab,美迪洗衣连锁(桃源居店),生活服务,洗衣店,广东省,深圳市,宝安区,深圳市宝安区桃源居7区13栋111号商铺,0319b9f032abdc7efaf0cbab,1,0,113.865769,22.619764,(0755)29086077,life,http://api.map.baidu.com/place/detail?uid=0319b9f032abdc7efaf0cbab&output=html&source=placeapi_v2,57,09:00-21:00,4.5,,,,,,,24,2,,,,,,,,,0
b83a8981777e3fd530169ba4,铅华无人洗衣房(南昌店),生活服务,洗衣店,广东省,深圳市,宝安区,广东省深圳市宝安区7巷7号,,1,0,113.847818,22.606292,18820876354,life,http://api.map.baidu.com/place/detail?uid=b83a8981777e3fd530169ba4&output=html&source=placeapi_v2,,00:00-24:00,0,,,,,,,13,1,,,,,,,113.8477869514,22.606356578288,0
17ac8e565aafa2e03b221c28,干洗衣服,生活服务,洗衣店,广东省,深圳市,宝安区,广东省深圳市宝安区广深公路辅路茂兴五金店东20米,,1,0,113.873872,22.60771,13723461358,life,http://api.map.baidu.com/place/detail?uid=17ac8e565aafa2e03b221c28&output=html&source=placeapi_v2,,,,,,,,,,4,,,,,,,,113.87392793009,22.607695247333,0
95f4423e23fc67c9b426559a,满鸟士多洗衣店,生活服务,洗衣店,广东省,深圳市,宝安区,广东省深圳市宝安区东区八巷11号,,1,0,113.848228,22.606709,,life,http://api.map.baidu.com/place/detail?uid=95f4423e23fc67c9b426559a&output=html&source=placeapi_v2,,,,,,,,,,11,,,,,,,,113.84820593573,22.606753696979,0
aa8d9b98bbfb63240869d9ef,衣管家自助洗衣(运昌路店),生活服务,洗衣店,广东省,深圳市,宝安区,深圳市宝安区运昌路南昌社区南昌第二新村,,1,0,113.847314,22.606521,,life,http://api.map.baidu.com/place/detail?uid=aa8d9b98bbfb63240869d9ef&output=html&source=placeapi_v2,,,,,,,,,,5,,,,,,,,113.84728066911,22.606587779312,0
269b525869c3f2d23010af9c,洗脸猫(黑金店),生活服务,洗衣店,广东省,深圳市,宝安区,航城街道钟屋社区宝东路领航城领尚华府半地下122号,269b525869c3f2d23010af9c,1,0,113.86394,22.61818,18948358659,life,http://api.map.baidu.com/place/detail?uid=269b525869c3f2d23010af9c&output=html&source=placeapi_v2,,10:00-21:30,,,,,,,,4,,,,,,,,,,0
de39a47655acfada725e8081,大众补衣店(固戍一路店),生活服务,洗衣店,广东省,深圳市,宝安区,广东省深圳市宝安区固戍一路478号,,1,0,113.849986,22.595976,13686836319,life,http://api.map.baidu.com/place/detail?uid=de39a47655acfada725e8081&output=html&source=placeapi_v2,,08:00-23:00,,,,,,,,11,,,,,,,,113.85008554453,22.595931761283,0
28b744552dbefa8057bffffe,铅华洗涤便利店(南昌二店),生活服务,洗衣店,广东省,深圳市,宝安区,广东省深圳市宝安区7巷7号,,1,0,113.846335,22.606302,"18926430050,4000755717",life,http://api.map.baidu.com/place/detail?uid=28b744552dbefa8057bffffe&output=html&source=placeapi_v2,,00:00-24:00,,,,,,,,4,,,,,,,,113.84628994773,22.60639218088,0
6074450944b4d89ea8f0cdf0,新安丽白洗衣店,生活服务,洗衣店,广东省,深圳市,宝安区,广东省深圳市宝安区怡园路4056号,6074450944b4d89ea8f0cdf0,1,0,113.905809,22.58719,13725592162,life,http://api.map.baidu.com/place/detail?uid=6074450944b4d89ea8f0cdf0&output=html&source=placeapi_v2,,08:30-21:30,0,,,,,,,9,0,,,,,,,113.90575309679,22.587174793187,0
23e056cb447261064e55478f,青春干洗店,生活服务,洗衣店,广东省,深圳市,宝安区,广东省深圳市宝安区上川路217号岭下花园36区2栋,23e056cb447261064e55478f,1,0,113.907969,22.586079,(0755)29189531,life,http://api.map.baidu.com/place/detail?uid=23e056cb447261064e55478f&output=html&source=placeapi_v2,,08:30-22:30,0.0,,,,,,,22,1,,,,,,,113.90804465798,22.585985148601,0
9c401bc85786163a1811d554,正章干洗(香缤山花园店),生活服务,洗衣店,广东省,深圳市,宝安区,广东省深圳市宝安区宝东路中熙香缤山花园3栋109室,9c401bc85786163a1811d554,1,0,113.88783,22.601778,"15819633647,15915331531",life,http://api.map.baidu.com/place/detail?uid=9c401bc85786163a1811d554&output=html&source=placeapi_v2,66.5,10:00-21:00,5,,,,,,,12,3,,,,,,,113.88781225054,22.60183350456,0
b34aa2bad51240a44107c140,上海干洗店(流塘路西区四巷店),生活服务,洗衣店,广东省,深圳市,宝安区,深圳市宝安区西乡大道59号;宝安76区丽景城4栋57号,b34aa2bad51240a44107c140,1,0,113.896075,22.594168,(0755)36842324,life,http://api.map.baidu.com/place/detail?uid=b34aa2bad51240a44107c140&output=html&source=placeapi_v2,,09:00-21:00,0.0,,,,,,,19,,,,,,,,113.8961653671,22.594212190937,0
09e68c0ad65334f77dc87631,正章干洗(上合店),生活服务,洗衣店,广东省,深圳市,宝安区,广东省深圳市宝安区六巷15号,09e68c0ad65334f77dc87631,1,0,113.902549,22.589344,13560739798,life,http://api.map.baidu.com/place/detail?uid=09e68c0ad65334f77dc87631&output=html&source=placeapi_v2,,09:00-21:00,5,,,,,,,13,1,,,,,,,113.90252254764,22.589326128927,0
17c45dba587ab487d6b74e5b,上海洁丽洗衣店(流塘北二巷店),生活服务,洗衣店,广东省,深圳市,宝安区,广东省深圳市宝安区流塘北二巷17号宝安新村74区18栋,17c45dba587ab487d6b74e5b,1,0,113.900611,22.593171,13724373556,life,http://api.map.baidu.com/place/detail?uid=17c45dba587ab487d6b74e5b&output=html&source=placeapi_v2,,,0,,,,,,,19,1,,,,,,,113.9007066509,22.593208538291,0
adc93a7220895d41c6effb90,紫罗兰干洗(官龙路店),生活服务,洗衣店,广东省,深圳市,南山区,深圳市南山区官龙路10-14号,adc93a7220895d41c6effb90,1,0,113.952284,22.592247,(0755)86165122,life,http://api.map.baidu.com/place/detail?uid=adc93a7220895d41c6effb90&output=html&source=placeapi_v2,,,0.0,,,,,,,15,1,,,,,,,113.9523559014,22.592237070661,0
7b8dc757c5a144362cb96d34,洁丽雅干洗店(同乐路),生活服务,洗衣店,广东省,深圳市,南山区,广东深圳市南山区商业街18栋1楼,,1,0,113.937551,22.591505,15019255411,life,http://api.map.baidu.com/place/detail?uid=7b8dc757c5a144362cb96d34&output=html&source=placeapi_v2,,"09:30-12:00,13:00-22:00",,,,,,,,,,,,,,,,,,0
5ea083a8804e9d180ab93a75,艾莱妮洗衣馆,生活服务,洗衣店,广东省,深圳市,南山区,深圳市南山区桃源街道留仙大道4088号博林天瑞(一期)2号楼108室,5ea083a8804e9d180ab93a75,1,0,113.97829,22.590132,15013502309,life,http://api.map.baidu.com/place/detail?uid=5ea083a8804e9d180ab93a75&output=html&source=placeapi_v2,,09:30-21:00,5,,,,,,,12,2,,,,,,,113.97816376571,22.590140338552,0
e9fa0b613db8e9e1f7eafc8e,正章干洗(圣莫丽斯店),生活服务,洗衣店,广东省,深圳市,龙华区,广东省深圳市龙华区玉龙路1号b20栋20-3a,,1,0,114.034647,22.606194,13691930785,life,http://api.map.baidu.com/place/detail?uid=e9fa0b613db8e9e1f7eafc8e&output=html&source=placeapi_v2,60,10:00-22:00,0,,,,,,,3,1,,,,,,,114.03450270702,22.60636721677,0
97f08cc4043ccea9f6c59c65,白阿姨干洗店,生活服务,洗衣店,广东省,深圳市,龙华区,广东省深圳市龙华区中航阳光新苑3B栋架空层,,1,0,114.046983,22.607139,4009628885,life,http://api.map.baidu.com/place/detail?uid=97f08cc4043ccea9f6c59c65&output=html&source=placeapi_v2,,,,,,,,,,1,,,,,,,,,,0
8a79701427ed40ffc72ba166,正章干洗(圣莫里斯店),生活服务,洗衣店,广东省,深圳市,龙华区,广东省深圳市龙华区致远南路12号龙悦居四期10b栋4p17铺,8a79701427ed40ffc72ba166,1,0,114.039345,22.609488,18138840575,life,http://api.map.baidu.com/place/detail?uid=8a79701427ed40ffc72ba166&output=html&source=placeapi_v2,,09:00-20:00,1,,,,,,,16,,,,,,,,,,0
73facad01b5c015554bfff40,蒙福缝纫店,生活服务,洗衣店,广东省,深圳市,龙华区,广东省深圳市龙华区民治街道白石龙一区97栋隔壁,,1,0,114.045951,22.610468,13662698073,life,http://api.map.baidu.com/place/detail?uid=73facad01b5c015554bfff40&output=html&source=placeapi_v2,,,,,,,,,,6,,,,,,,,,,0
941e89211dc1d5aaf5c59cee,湘中洗衣店,生活服务,洗衣店,广东省,深圳市,龙华区,深圳市龙华区民塘路白石龙幼儿园东南侧约100米,,1,0,114.044074,22.610439,,life,http://api.map.baidu.com/place/detail?uid=941e89211dc1d5aaf5c59cee&output=html&source=placeapi_v2,,,,,,,,,,4,,,,,,,,114.04410994223,22.610726610507,0
44d2ccecf6e8ad22f7b916f6,福奈特洗衣(星河WORLD・COCOPark店),生活服务,洗衣店,广东省,深圳市,龙岗区,广东省深圳市龙岗区坂田街道南坑社区雅宝路1号星河WORLDCOCOPark商场L1C-023商铺(10号线雅宝C出口),44d2ccecf6e8ad22f7b916f6,1,0,114.066112,22.609208,(0755)84873412,life,http://api.map.baidu.com/place/detail?uid=44d2ccecf6e8ad22f7b916f6&output=html&source=placeapi_v2,,10:00-22:30,5,,,,,,,6,1,,,,,,,114.0668156563,22.609113785891,0
484ace2c698b5d4b901fc973,正章乾洗(丰泽湖店),生活服务,洗衣店,广东省,深圳市,龙华区,广东省深圳市龙华区梅观高速公路民乐新村81栋1楼,484ace2c698b5d4b901fc973,1,0,114.062774,22.604846,13692110024,life,http://api.map.baidu.com/place/detail?uid=484ace2c698b5d4b901fc973&output=html&source=placeapi_v2,66.5,09:00-21:00,0,,,,,,,8,0,,,,,,,114.0622344941,22.604740123853,0
917c033e96d1e44cab0dd8a7,家家洗衣店,生活服务,洗衣店,广东省,深圳市,龙华区,广东省深圳市龙华区民治街道民乐一区商住楼6栋,917c033e96d1e44cab0dd8a7,1,0,114.059401,22.602117,,life,http://api.map.baidu.com/place/detail?uid=917c033e96d1e44cab0dd8a7&output=html&source=placeapi_v2,,,,,,,,,,6,,,,,,,,114.05939566627,22.602051292382,0
81cc3d70c28eaafed1f49ef6,24小时自助洗衣吧,生活服务,洗衣店,广东省,深圳市,龙华区,深圳市龙华区民治民乐街民乐老村,,1,0,114.057635,22.604309,,life,http://api.map.baidu.com/place/detail?uid=81cc3d70c28eaafed1f49ef6&output=html&source=placeapi_v2,,,,,,,,,,1,,,,,,,,114.05763567132,22.604194016291,0
f63b5a2d75dcf7e4461a32cd,修衣服,生活服务,洗衣店,广东省,深圳市,龙华区,深圳市龙华区民治民乐街民乐一区,,1,0,114.060272,22.604133,,life,http://api.map.baidu.com/place/detail?uid=f63b5a2d75dcf7e4461a32cd&output=html&source=placeapi_v2,,,,,,,,,,2,,,,,,,,,,0
3165884b3c8bcccc1c38940b,上海专业干洗(民乐分店),生活服务,洗衣店,广东省,深圳市,龙华区,深圳市龙华区民治民乐街民乐一区,3165884b3c8bcccc1c38940b,1,0,114.059662,22.604679,"(0755)28185358,13691788480",life,http://api.map.baidu.com/place/detail?uid=3165884b3c8bcccc1c38940b&output=html&source=placeapi_v2,,09:00-22:30,,,,,,,,7,1,,,,,,,,,0
bc5caab87205c505c16c14c9,春茧干洗改衣,生活服务,洗衣店,广东省,深圳市,龙岗区,广东省深圳市龙岗区坂园路56号万科第五园8期5栋117室,,1,0,114.075194,22.617799,13714125209,life,http://api.map.baidu.com/place/detail?uid=bc5caab87205c505c16c14c9&output=html&source=placeapi_v2,,09:00-21:30,,,,,,,,8,,,,,,,,,,0
3ddc5ec90414136fcc06a4f5,洗脸猫(龙华上河坊店),生活服务,洗衣店,广东省,深圳市,龙华区,广东省深圳市龙华区民乐站书香门第上河坊一楼1096商铺,,1,0,114.053678,22.603771,13632544098,life,http://api.map.baidu.com/place/detail?uid=3ddc5ec90414136fcc06a4f5&output=html&source=placeapi_v2,,11:00-22:00,,,,,,,,10,,,,,,,,,,0
15b596b206660b14ed74f8fd,胖皮匠维修清洁(星河COCO City民治店),生活服务,洗衣店,广东省,深圳市,龙华区,广东省深圳市龙华区民治街道民泰社区龙华大道2号星河COCO CityF1,,1,0,114.054348,22.606839,,life,http://api.map.baidu.com/place/detail?uid=15b596b206660b14ed74f8fd&output=html&source=placeapi_v2,,10:00-22:30,,,,,,,,5,,,,,,,,,,0
e59fbb63080520d0b2077dc2,正章干洗(德福花园店),生活服务,洗衣店,广东省,深圳市,龙岗区,广东省深圳市龙岗区布吉西环路142号德福花园德盛苑5座24号,e59fbb63080520d0b2077dc2,1,0,114.113144,22.601842,13715043196,life,http://api.map.baidu.com/place/detail?uid=e59fbb63080520d0b2077dc2&output=html&source=placeapi_v2,66.5,00:00-24:00,0,,,,,,,13,0,,,,,,,114.11314360703,22.601842363777,0
bac2bd8a235cc0f74c6d460c,ucc干洗,生活服务,洗衣店,广东省,深圳市,龙岗区,广东省深圳市龙岗区布吉街李屋东区19号1楼,bac2bd8a235cc0f74c6d460c,1,0,114.121331,22.605946,18475428934,life,http://api.map.baidu.com/place/detail?uid=bac2bd8a235cc0f74c6d460c&output=html&source=placeapi_v2,,08:00-23:00,,,,,,,,9,,,,,,,,,,0
47caafdd509a1dab7069d3d2,正章乾洗(龙岭山庄店),生活服务,洗衣店,广东省,深圳市,龙岗区,广东省深圳市龙岗区龙岭东路龙岭山庄1栋6铺,47caafdd509a1dab7069d3d2,1,0,114.118474,22.612356,13048903833,life,http://api.map.baidu.com/place/detail?uid=47caafdd509a1dab7069d3d2&output=html&source=placeapi_v2,,10:00-22:00,0,,,,,,,21,2,,,,,,,114.1185460352,22.612250587587,0
72a4267e4e6802bbb2077d95,大洋干洗,生活服务,洗衣店,广东省,深圳市,龙岗区,广东省深圳市龙岗区沙龙路3号,72a4267e4e6802bbb2077d95,1,0,114.120845,22.602598,"(0755)28271219,13570831836",life,http://api.map.baidu.com/place/detail?uid=72a4267e4e6802bbb2077d95&output=html&source=placeapi_v2,,10:00-22:00,3.2,,,,,,,16,,,,,,,,,,0
d6c644b3662758233c9a5e9a,上海专业干洗(长龙路店),生活服务,洗衣店,广东省,深圳市,龙岗区,布吉街道西门街12号,d6c644b3662758233c9a5e9a,1,0,114.122312,22.608359,"13728751935,18974639639",life,http://api.map.baidu.com/place/detail?uid=d6c644b3662758233c9a5e9a&output=html&source=placeapi_v2,,08:00-23:00,,,,,,,,10,,,,,,,,,,0
bfeb2a9e8af713465fbe8648,正章干洗(荣超花园店),生活服务,洗衣店,广东省,深圳市,龙岗区,布吉荣华路308号永丰百货一楼3号铺,bfeb2a9e8af713465fbe8648,1,0,114.125334,22.600435,"18820216505,18825291702",life,http://api.map.baidu.com/place/detail?uid=bfeb2a9e8af713465fbe8648&output=html&source=placeapi_v2,66.5,09:00-21:00,4,,,,,,,3,3,,,,,,,114.12507285986,22.600479871774,0
1e8b159872336e6afa42b239,上海专业干洗(莲花路店),生活服务,洗衣店,广东省,深圳市,龙岗区,广东省深圳市龙岗区百花一街13号,1e8b159872336e6afa42b239,1,0,114.118882,22.603276,13310878220,life,http://api.map.baidu.com/place/detail?uid=1e8b159872336e6afa42b239&output=html&source=placeapi_v2,,,0,,,,,,,17,1,,,,,,,114.11895146207,22.603291509824,0
c4071e7b541b191da5da3976,上海专业干洗(长龙路店),生活服务,洗衣店,广东省,深圳市,龙岗区,广东省深圳市龙岗区布吉街道长龙路13号,c4071e7b541b191da5da3976,1,0,114.123316,22.615284,(0755)32957780,life,http://api.map.baidu.com/place/detail?uid=c4071e7b541b191da5da3976&output=html&source=placeapi_v2,,08:00-23:00,3.7,,,,,,,27,3,,,,,,,114.12329417093,22.615355036354,0
893f3467898aeea7354aaee2,冠群缝纫店,生活服务,洗衣店,广东省,深圳市,龙岗区,广东省深圳市龙岗区南一巷2号,893f3467898aeea7354aaee2,1,0,114.1097,22.612656,13530153591,life,http://api.map.baidu.com/place/detail?uid=893f3467898aeea7354aaee2&output=html&source=placeapi_v2,,,,,,,,,,5,,,,,,,,,,0
4aea34cc8ef2e86017948e24,上海绿色洗衣中心,生活服务,洗衣店,广东省,深圳市,龙岗区,广东省深圳市龙岗区长盛路33号,4aea34cc8ef2e86017948e24,1,0,114.124511,22.614993,13751022511,life,http://api.map.baidu.com/place/detail?uid=4aea34cc8ef2e86017948e24&output=html&source=placeapi_v2,,08:00-22:00,5,,,,,,,13,1,,,,,,,,,0
c231dd4829cdc2d05ebe864f,正章干洗(万科红生活广场南区店),生活服务,洗衣店,广东省,深圳市,龙岗区,广东省深圳市龙岗区布吉锦龙路万科红生活广场一楼60号(麦当劳与必胜客餐厅中间巷子直走20米),c231dd4829cdc2d05ebe864f,1,0,114.132966,22.604449,"13417424690,15989340334",life,http://api.map.baidu.com/place/detail?uid=c231dd4829cdc2d05ebe864f&output=html&source=placeapi_v2,66.5,10:00-21:00,5,,,,,,,50,15,,,,,,,114.132569,22.604238000896,0
0c361719267dd3b8cd04ef4e,正章干洗(百鸽路店),生活服务,洗衣店,广东省,深圳市,龙岗区,广东省深圳市龙岗区宝龙路荣超花园18栋,0c361719267dd3b8cd04ef4e,1,0,114.130876,22.59921,13310836360,life,http://api.map.baidu.com/place/detail?uid=0c361719267dd3b8cd04ef4e&output=html&source=placeapi_v2,,,5.0,,,,,,,6,4,,,,,,,,,0
071ad93a5806b97547e274a5,康洁干洗,生活服务,洗衣店,广东省,深圳市,龙岗区,深圳市龙岗区荣华路中加名园,,1,0,114.127703,22.599891,,life,http://api.map.baidu.com/place/detail?uid=071ad93a5806b97547e274a5&output=html&source=placeapi_v2,,,,,,,,,,3,,,,,,,,,,0
77ae1b21c782236217948e33,依丽洁洗衣国际连锁(深圳草铺店),生活服务,洗衣店,广东省,深圳市,罗湖区,广东省深圳市罗湖区厂九线吓围新村48栋101室,77ae1b21c782236217948e33,1,0,114.120242,22.591564,13480113447,life,http://api.map.baidu.com/place/detail?uid=77ae1b21c782236217948e33&output=html&source=placeapi_v2,,,,,,,,,,9,,,,,,,,114.12030580575,22.591482530626,0
5ffe16c76d27c9ebafb22a1a,白羊专业干洗店,生活服务,洗衣店,广东省,深圳市,龙岗区,广东省深圳市龙岗区湖南路55号附近,5ffe16c76d27c9ebafb22a1a,1,0,114.127435,22.604269,13691803023,life,http://api.map.baidu.com/place/detail?uid=5ffe16c76d27c9ebafb22a1a&output=html&source=placeapi_v2,,,,,,,,,,5,,,,,,,,114.12744315663,22.604351004029,0
3ee17309de182de2d81318d2,上海洁兴干洗中心(华龙路店),生活服务,洗衣店,广东省,深圳市,龙岗区,广东省深圳市龙岗区布吉街道西环路华龙路39-105号,3ee17309de182de2d81318d2,1,0,114.108183,22.617834,13714620028,life,http://api.map.baidu.com/place/detail?uid=3ee17309de182de2d81318d2&output=html&source=placeapi_v2,,08:00-22:00,,,,,,,,4,,,,,,,,114.10836141926,22.617972086649,0
0834f4478d2fbe0f4e776e0d,格利特洗衣(深圳罗湖店),生活服务,洗衣店,广东省,深圳市,罗湖区,广东深圳市罗湖区清水河商业街35号,0834f4478d2fbe0f4e776e0d,1,0,114.120695,22.591495,"13316944892,13392860042",life,http://api.map.baidu.com/place/detail?uid=0834f4478d2fbe0f4e776e0d&output=html&source=placeapi_v2,,09:30-22:00,,,,,,,,20,,,,,,,,,,0
4edfa9a91b054dd97c29bd23,正章乾洗(金稻田店),生活服务,洗衣店,广东省,深圳市,罗湖区,广东省深圳市罗湖区金稻田路1164号金稻田公寓C栋102室,4edfa9a91b054dd97c29bd23,1,0,114.127302,22.592217,(0755)25671801,life,http://api.map.baidu.com/place/detail?uid=4edfa9a91b054dd97c29bd23&output=html&source=placeapi_v2,12,09:00-22:00,0,,,,,,,19,1,,,,,,,114.12732465486,22.592157215645,0
ee1c749600153ed8c1f1cfcc,小哥帮上海正宗干洗,生活服务,洗衣店,广东省,深圳市,龙岗区,广东省深圳市龙岗区东一巷7号,,1,0,114.115534,22.621176,13928410695,life,http://api.map.baidu.com/place/detail?uid=ee1c749600153ed8c1f1cfcc&output=html&source=placeapi_v2,,,,,,,,,,4,,,,,,,,114.11554039033,22.621081225672,0
e602838931016b6332870a56,正章干洗(中兴路店),生活服务,洗衣店,广东省,深圳市,龙岗区,深圳市龙岗区中兴路金运家园,,1,0,114.128728,22.613889,,life,http://api.map.baidu.com/place/detail?uid=e602838931016b6332870a56&output=html&source=placeapi_v2,,,,,,,,,,,,,,,,,,114.12882185616,22.613658352012,0
945c2a882067abb5fa0cade0,皇家圣雪洗衣(玉岭店),生活服务,洗衣店,广东省,深圳市,龙岗区,广东省深圳市龙岗区布沙路玉岭花园b11栋,945c2a882067abb5fa0cade0,1,0,114.1584,22.611445,(0755)28440802,life,http://api.map.baidu.com/place/detail?uid=945c2a882067abb5fa0cade0&output=html&source=placeapi_v2,,10:00-22:00,,,,,,,,5,,,,,,,,114.1584776411,22.611343498417,0
029aed5d86038551b9df8f5f,正章乾洗(可园分店),生活服务,洗衣店,广东省,深圳市,龙岗区,深圳市龙岗区兴龙路13号,029aed5d86038551b9df8f5f,1,0,114.143292,22.606979,(0755)83258581,life,http://api.map.baidu.com/place/detail?uid=029aed5d86038551b9df8f5f&output=html&source=placeapi_v2,66.5,10:00-22:00,0,,,,,,,21,1,,,,,,,114.14334761615,22.607222960681,0
75556e9f92c151b24f55478e,洁丰干洗(南岭分店),生活服务,洗衣店,广东省,深圳市,龙岗区,广东省深圳市龙岗区中心围十巷荔枝花园c4栋,b72024cf7d67573702294f65,1,0,114.153148,22.61935,15915338685,life,http://api.map.baidu.com/place/detail?uid=75556e9f92c151b24f55478e&output=html&source=placeapi_v2,,09:00-21:00,0.0,,,,,,,14,,,,,,,,114.15337414113,22.619162938896,0
07e50b477102f4317bf796a6,能匠世家生活洗护馆,生活服务,洗衣店,广东省,深圳市,龙岗区,广东省深圳市龙岗区布沙路荔景尚园1楼2号铺,07e50b477102f4317bf796a6,1,0,114.16277,22.610819,"13632505323,15823309115",life,http://api.map.baidu.com/place/detail?uid=07e50b477102f4317bf796a6&output=html&source=placeapi_v2,,08:30-21:30,,,,,,,,9,,,,,,,,114.16273570085,22.610885721743,0
3a05c678bd78b1968adb7342,UCC干洗店(英郡年华店),生活服务,洗衣店,广东省,深圳市,龙岗区,广东省深圳市龙岗区办岭背路振业城二期5-,3a05c678bd78b1968adb7342,1,0,114.157175,22.621762,13798580315,life,http://api.map.baidu.com/place/detail?uid=3a05c678bd78b1968adb7342&output=html&source=placeapi_v2,,08:00-20:00,1,,,,,,,2,5,,,,,,,,,0
38cd0186ef0dec4df4e73bdc,国际干洗店,生活服务,洗衣店,广东省,深圳市,龙岗区,深圳市龙岗区布沙路南威中心花园,,1,0,114.15099,22.611909,18688742168,life,http://api.map.baidu.com/place/detail?uid=38cd0186ef0dec4df4e73bdc&output=html&source=placeapi_v2,,,,,,,,,,9,,,,,,,,,,0
c78f588cbf36fe37354aae9b,正章干洗(淘金山店),生活服务,洗衣店,广东省,深圳市,罗湖区,深圳市罗湖区翠荫路266号,c78f588cbf36fe37354aae9b,1,0,114.150765,22.591372,13510910717,life,http://api.map.baidu.com/place/detail?uid=c78f588cbf36fe37354aae9b&output=html&source=placeapi_v2,,10:00-22:00,3,,,,,,,5,1,,,,,,,,,0
05d16d7a8c4a2576276e983d,特丽洁洗衣中心(深圳可园店),生活服务,洗衣店,广东省,深圳市,龙岗区,广东省深圳市龙岗区兴龙路66号3栋25号,05d16d7a8c4a2576276e983d,1,0,114.14166,22.607743,(0755)84418905,life,http://api.map.baidu.com/place/detail?uid=05d16d7a8c4a2576276e983d&output=html&source=placeapi_v2,,08:00-22:00,,,,,,,,13,,,,,,,,114.14165699979,22.607677000927,0
0e2de9baabeeb6dc1d1d1187,正章乾洗(东晓北路店),生活服务,洗衣店,广东省,深圳市,罗湖区,广东省深圳市罗湖区东晓北路布心花园二区6栋001号,,1,0,114.14462,22.589094,19875596601,life,http://api.map.baidu.com/place/detail?uid=0e2de9baabeeb6dc1d1d1187&output=html&source=placeapi_v2,66.5,09:30-12:00,0,,,,,,,9,1,,,,,,,114.14449173757,22.589034817768,0
b63ec0bc94abd770c51e5110,企鹅干洗,生活服务,洗衣店,广东省,深圳市,罗湖区,广东省深圳市罗湖区东湖路112-5号泰和花园5栋103室,b63ec0bc94abd770c51e5110,1,0,114.1479,22.587553,,life,http://api.map.baidu.com/place/detail?uid=b63ec0bc94abd770c51e5110&output=html&source=placeapi_v2,,,,,,,,,,9,,,,,,,,114.14778459949,22.587525056371,0
ea097c8426714304eb56fa92,优洁洗衣,生活服务,洗衣店,广东省,深圳市,龙岗区,广东省深圳市龙岗区黄金南路荔枝花园b4栋17号铺,,1,0,114.152626,22.618847,19924482716,life,http://api.map.baidu.com/place/detail?uid=ea097c8426714304eb56fa92&output=html&source=placeapi_v2,,,,,,,,,,2,,,,,,,,114.1524847001,22.619114604259,0
727bfc0340bf04dabfa82235,上海正宗干洗,生活服务,洗衣店,广东省,深圳市,龙岗区,深圳市龙岗区中翠路佳兆业桂芳园-八期南侧,727bfc0340bf04dabfa82235,1,0,114.145905,22.61383,(0755)89962373,life,http://api.map.baidu.com/place/detail?uid=727bfc0340bf04dabfa82235&output=html&source=placeapi_v2,,,,,,,,,,8,,,,,,,,114.14605580963,22.613801140096,0
b652d57271d1a7d27f29bd31,洁丽雅干洗店,生活服务,洗衣店,广东省,深圳市,龙岗区,广东省深圳市龙岗区南岭西路荔枝花园b5栋,b652d57271d1a7d27f29bd31,1,0,114.151984,22.619089,18682133372,life,http://api.map.baidu.com/place/detail?uid=b652d57271d1a7d27f29bd31&output=html&source=placeapi_v2,,09:00-22:00,,,,,,,,8,,,,,,,,,,0
e8898814aee065c714c8f6d8,正章干洗(第260分店),生活服务,洗衣店,广东省,深圳市,龙岗区,广东省深圳市龙岗区龙岗大道星都里1-30B号,,1,0,114.144442,22.618105,13682426358,life,http://api.map.baidu.com/place/detail?uid=e8898814aee065c714c8f6d8&output=html&source=placeapi_v2,,"10:00-12:00,14:00-20:00",,,,,,,,4,,,,,,,,114.1443692747,22.618056832442,0
7fb6ab051004dbf2fb2213b4,上海干洗店,生活服务,洗衣店,广东省,深圳市,罗湖区,广东省深圳市罗湖区大望新田公园对面,,1,0,114.183329,22.607176,,life,http://api.map.baidu.com/place/detail?uid=7fb6ab051004dbf2fb2213b4&output=html&source=placeapi_v2,,09:00-21:30,,,,,,,,2,,,,,,,,114.18334515136,22.607231721958,0
05c81c2af8e51ba63b04b1ff,罗湖大望村681-6赛维干洗店,生活服务,洗衣店,广东省,深圳市,罗湖区,广东深圳市罗湖区望桐路1287号681-06号,,1,0,114.180198,22.609536,,life,http://api.map.baidu.com/place/detail?uid=05c81c2af8e51ba63b04b1ff&output=html&source=placeapi_v2,,,,,,,,,,9,1,,,,,,,,,0
8e9984add7d7a252f942b2c0,衣尚干洗,生活服务,洗衣店,广东省,深圳市,盐田区,广东省深圳市盐田区永安路28号,8e9984add7d7a252f942b2c0,1,0,114.255984,22.597784,,life,http://api.map.baidu.com/place/detail?uid=8e9984add7d7a252f942b2c0&output=html&source=placeapi_v2,,,,,,,,,,8,,,,,,,,114.25605989399,22.597903954573,0
1da92e480c4a549d1894c62c,小白兔专业干洗(盐田海桐居分店),生活服务,洗衣店,广东省,深圳市,盐田区,深圳市盐田区中青一路海桐居,1da92e480c4a549d1894c62c,1,0,114.249813,22.590282,(0755)25205112,life,http://api.map.baidu.com/place/detail?uid=1da92e480c4a549d1894c62c&output=html&source=placeapi_v2,,,,,,,,,,8,,,,,,,,,,0
3617874b17d99657b1077d5b,小白兔专业干洗(东海道店),生活服务,洗衣店,广东省,深圳市,盐田区,广东深圳市盐田区东海大道天利明园120号,3617874b17d99657b1077d5b,1,0,114.265086,22.595471,"(0755)25280232,13692155745",life,http://api.map.baidu.com/place/detail?uid=3617874b17d99657b1077d5b&output=html&source=placeapi_v2,,08:30-20:30,0,,,,,,,9,1,,,,,,,,,0
783ba1b48337c48697ec841a,吉和顺干洗,生活服务,洗衣店,广东省,深圳市,龙岗区,广东省深圳市龙岗区鹏新东路深圳财海大酒店东南侧约60米,783ba1b48337c48697ec841a,1,0,114.484683,22.60003,19924921183,life,http://api.map.baidu.com/place/detail?uid=783ba1b48337c48697ec841a&output=html&source=placeapi_v2,,,0,,,,,,,3,0,,,,,,,,,0
0196a42efadff53840ab9a59,深洁净家居清洗服务有限公司,生活服务,洗衣店,广东省,深圳市,龙岗区,广东省深圳市龙岗区中山路20号,0196a42efadff53840ab9a59,1,0,114.48554,22.602614,"(0755)82923789,13717080878",life,http://api.map.baidu.com/place/detail?uid=0196a42efadff53840ab9a59&output=html&source=placeapi_v2,,10:00-22:00,,,,,,,,2,,,,,,,,114.48558885876,22.60287562447,0
d54e8a19ce011c8b601c6724,洗衣店(鹏新东路店),生活服务,洗衣店,广东省,深圳市,龙岗区,深圳市龙岗区鹏新东路深圳财海大酒店南侧约40米,,1,0,114.483712,22.599715,,life,http://api.map.baidu.com/place/detail?uid=d54e8a19ce011c8b601c6724&output=html&source=placeapi_v2,,,,,,,,,,1,,,,,,,,114.48365168897,22.599638629168,0
0ed58fc114493c719cf779d5,好搭档干洗总店,生活服务,洗衣店,广东省,深圳市,宝安区,深圳市宝安区鹤洲路鹤洲旧村,,1,0,113.866592,22.630904,13713977919,life,http://api.map.baidu.com/place/detail?uid=0ed58fc114493c719cf779d5&output=html&source=placeapi_v2,,08:00-22:30,,,,,,,,4,,,,,,,,113.86676404336,22.630815657302,0
dc50d2fd8ef5fe6cc5effb31,羽洁洗衣,生活服务,洗衣店,广东省,深圳市,宝安区,广东省深圳市宝安区黄田路19号,,1,0,113.852258,22.631988,,life,http://api.map.baidu.com/place/detail?uid=dc50d2fd8ef5fe6cc5effb31&output=html&source=placeapi_v2,,09:00-20:00,5,,,,,,,20,2,,,,,,,113.85223917,22.631897405048,0
a373cf810f356ea9306212a5,爱沃洗洗衣生活馆,生活服务,洗衣店,广东省,深圳市,宝安区,深圳市宝安区沈海高速富源工业城西侧,,1,0,113.868618,22.642437,13809275684,life,http://api.map.baidu.com/place/detail?uid=a373cf810f356ea9306212a5&output=html&source=placeapi_v2,,00:00-24:00,,,,,,,,10,,,,,,,,,,0
0319b9f032abdc7efaf0cbab,美迪洗衣连锁(桃源居店),生活服务,洗衣店,广东省,深圳市,宝安区,深圳市宝安区桃源居7区13栋111号商铺,0319b9f032abdc7efaf0cbab,1,0,113.865769,22.619764,(0755)29086077,life,http://api.map.baidu.com/place/detail?uid=0319b9f032abdc7efaf0cbab&output=html&source=placeapi_v2,57,09:00-21:00,4.5,,,,,,,24,2,,,,,,,,,0
0a1ae41ff421ad90a2a93451,桃苑服装干洗,生活服务,洗衣店,广东省,深圳市,宝安区,广东省深圳市宝安区桃源四路桃源居12区11栋9号,,1,0,113.871591,22.62243,(0755)27454114,life,http://api.map.baidu.com/place/detail?uid=0a1ae41ff421ad90a2a93451&output=html&source=placeapi_v2,,,,,,,,,,3,,,,,,,,113.87174650026,22.622479222849,0
79a97844cdae2865f423107d,诺澜生活洗衣店,生活服务,洗衣店,广东省,深圳市,宝安区,广东省深圳市宝安区桃源居12区129号店铺,,1,0,113.871134,22.621538,13543311640,life,http://api.map.baidu.com/place/detail?uid=79a97844cdae2865f423107d&output=html&source=placeapi_v2,,10:00-22:00,,,,,,,,3,,,,,,,,113.87109225628,22.621746009614,0
269b525869c3f2d23010af9c,洗脸猫(黑金店),生活服务,洗衣店,广东省,深圳市,宝安区,航城街道钟屋社区宝东路领航城领尚华府半地下122号,269b525869c3f2d23010af9c,1,0,113.86394,22.61818,18948358659,life,http://api.map.baidu.com/place/detail?uid=269b525869c3f2d23010af9c&output=html&source=placeapi_v2,,10:00-21:30,,,,,,,,4,,,,,,,,,,0
e77d23e1d1b1ea72c03644d6,艾依娜干洗,生活服务,洗衣店,广东省,深圳市,南山区,深圳市南山区白芒村幼儿园东侧约110米,,1,0,113.950013,22.627936,,life,http://api.map.baidu.com/place/detail?uid=e77d23e1d1b1ea72c03644d6&output=html&source=placeapi_v2,,,,,,,,,,12,,,,,,,,,,0
be8ad99746f73cfa16c905e1,改服装干洗,生活服务,洗衣店,广东省,深圳市,南山区,深圳市南山区大|商业街大|一村,be8ad99746f73cfa16c905e1,1,0,113.982607,22.627472,,life,http://api.map.baidu.com/place/detail?uid=be8ad99746f73cfa16c905e1&output=html&source=placeapi_v2,,,,,,,,,,3,,,,,,,,,,0
e5788e44b21de62ac336445c,正章乾洗(金地上塘道店),生活服务,洗衣店,广东省,深圳市,龙华区,广东省深圳市龙华区上塘路8号正章干洗店二期121铺,e5788e44b21de62ac336445c,1,0,114.026483,22.639615,13249890451,life,http://api.map.baidu.com/place/detail?uid=e5788e44b21de62ac336445c&output=html&source=placeapi_v2,66.5,08:30-22:00,2.7,,,,,,,10,6,,,,,,,,,0
cbcfd5f1cb2c6725fbf0cb95,圣廷干洗,生活服务,洗衣店,广东省,深圳市,龙华区,深圳市龙华区龙华人民路松仔园村,cbcfd5f1cb2c6725fbf0cb95,1,0,114.031307,22.639424,13751036736,life,http://api.map.baidu.com/place/detail?uid=cbcfd5f1cb2c6725fbf0cb95&output=html&source=placeapi_v2,,00:00-24:00,,,,,,,,4,,,,,,,,,,0
fd02f7d15e5da50f6849f388,小白兔专业干洗(龙华人民路店),生活服务,洗衣店,广东省,深圳市,龙华区,广东省深圳市龙华区布龙路锦绣江南b1栋143室,fd02f7d15e5da50f6849f388,1,0,114.033641,22.642181,13622329647,life,http://api.map.baidu.com/place/detail?uid=fd02f7d15e5da50f6849f388&output=html&source=placeapi_v2,,09:00-21:00,5,,,,,,,4,1,,,,,,,114.03361314831,22.642245151603,0
f95099d02f754beb7adbd2d8,正章干洗(汇龙湾分店),生活服务,洗衣店,广东省,深圳市,龙华区,广东省深圳市龙华区民治街道民塘路1866北区一楼商铺,f95099d02f754beb7adbd2d8,1,0,114.034486,22.628629,(0755)28199001,life,http://api.map.baidu.com/place/detail?uid=f95099d02f754beb7adbd2d8&output=html&source=placeapi_v2,66.5,09:00-22:00,,,,,,,,6,,,,,,,,114.03445835139,22.628827681801,0
17ce9939ade74c0aa8059d67,韩式良家洗衣(金地梅龙镇店),生活服务,洗衣店,广东省,深圳市,龙华区,龙华区金地梅陇镇小区8栋E53号商铺,17ce9939ade74c0aa8059d67,1,0,114.037585,22.636027,(0755)29555435,life,http://api.map.baidu.com/place/detail?uid=17ce9939ade74c0aa8059d67&output=html&source=placeapi_v2,,08:30-22:00,5,,,,,,,8,2,,,,,,,,,0
ab8f0b999947296d3a13fd80,福奈特洗衣(红山盒马店),生活服务,洗衣店,广东省,深圳市,龙华区,广东省深圳市龙华区腾龙路红山六九七九商业中心二期7栋B135-6-2号(盒马鲜生超市内),ab8f0b999947296d3a13fd80,1,0,114.032075,22.628471,(0755)21074174,life,http://api.map.baidu.com/place/detail?uid=ab8f0b999947296d3a13fd80&output=html&source=placeapi_v2,,09:00-21:00,,,,,,,,49,26,,,,,,,114.03207603439,22.628239337639,0
7f67091a6f885a1dd42ce202,洗脸吧・洗脸猫(龙光玖钻店),生活服务,洗衣店,广东省,深圳市,龙华区,广东省深圳市龙华区腾龙路龙光玖钻商务中心北丙期商业2C33a铺,,1,0,114.028252,22.629285,17722688527,life,http://api.map.baidu.com/place/detail?uid=7f67091a6f885a1dd42ce202&output=html&source=placeapi_v2,,10:30-22:00,,,,,,,,1,,,,,,,,114.02856684524,22.62947537018,0
68f5fe53d8ee57816b49f311,世纪洗衣,生活服务,洗衣店,广东省,深圳市,龙华区,广东省深圳市龙华区民安路世纪春城4期36号,68f5fe53d8ee57816b49f311,1,0,114.03862,22.634098,"(0755)29176676,13692118247",life,http://api.map.baidu.com/place/detail?uid=68f5fe53d8ee57816b49f311&output=html&source=placeapi_v2,,08:00-22:00,,,,,,,,3,,,,,,,,114.03860093126,22.634155953943,0
95ba769ec04eab91ab0dd838,锦衣卫干洗专家,生活服务,洗衣店,广东省,深圳市,龙华区,龙华区中海锦城1栋2楼131钱大妈楼上,95ba769ec04eab91ab0dd838,1,0,114.021798,22.643366,18576726648,life,http://api.map.baidu.com/place/detail?uid=95ba769ec04eab91ab0dd838&output=html&source=placeapi_v2,,09:30-22:30,5.0,,,,,,,18,2,,,,,,,,,0
b51691c79c1181b29e82eaa2,俊威专业干洗,生活服务,洗衣店,广东省,深圳市,龙华区,深圳市龙华区龙华人民路锦绣江南,,1,0,114.033719,22.642282,(0755)81476864,life,http://api.map.baidu.com/place/detail?uid=b51691c79c1181b29e82eaa2&output=html&source=placeapi_v2,,09:00-21:00,,,,,,,,3,,,,,,,,114.03369194769,22.642217268566,0
501482b7ea3d36f109a8d48e,泰洁干洗(团结路店),生活服务,洗衣店,广东省,深圳市,龙华区,广东省深圳市龙华区梅龙大道一区12栋102室,501482b7ea3d36f109a8d48e,1,0,114.044626,22.629086,13530394193,life,http://api.map.baidu.com/place/detail?uid=501482b7ea3d36f109a8d48e&output=html&source=placeapi_v2,,10:00-24:00,4,,,,,,,20,4,,,,,,,114.04471411944,22.629107526396,0
b71633774239fc5cd6b74ece,万众专业改衣(龙华分部),生活服务,洗衣店,广东省,深圳市,龙华区,深圳市龙华区万众街万众生活村,b71633774239fc5cd6b74ece,1,0,114.04515,22.639463,13530031840,life,http://api.map.baidu.com/place/detail?uid=b71633774239fc5cd6b74ece&output=html&source=placeapi_v2,,10:00-22:00,,,,,,,,8,,,,,,,,114.04518787678,22.639407938086,0
9d64a49f168fdfccc4f025ca,配匙补衣,生活服务,洗衣店,广东省,深圳市,龙华区,深圳市龙华区东龙一路东龙新村,9d64a49f168fdfccc4f025ca,1,0,114.028649,22.644047,,life,http://api.map.baidu.com/place/detail?uid=9d64a49f168fdfccc4f025ca&output=html&source=placeapi_v2,,,,,,,,,,9,,,,,,,,114.0286688213,22.644117378963,0
401743ecd6c693230aa8d4de,靓壹点,生活服务,洗衣店,广东省,深圳市,龙华区,广东省深圳市龙华区青龙东街御龙华庭,401743ecd6c693230aa8d4de,1,0,114.02326,22.644443,,life,http://api.map.baidu.com/place/detail?uid=401743ecd6c693230aa8d4de&output=html&source=placeapi_v2,,,,,,,,,,4,,,,,,,,114.02321150981,22.644510519003,0
4d19549c4d527a53d518b756,只爱洗衣,生活服务,洗衣店,广东省,深圳市,龙华区,深圳市龙华区民治大道水尾新村,,1,0,114.044862,22.630707,,life,http://api.map.baidu.com/place/detail?uid=4d19549c4d527a53d518b756&output=html&source=placeapi_v2,,,,,,,,,,1,,,,,,,,,,0
9045e47dc38bf8ab230220b1,奈尔洗衣,生活服务,洗衣店,广东省,深圳市,龙华区,广东省深圳市龙华区华侨新村43栋,9045e47dc38bf8ab230220b1,1,0,114.043877,22.62677,"13480683325,13691943561",life,http://api.map.baidu.com/place/detail?uid=9045e47dc38bf8ab230220b1&output=html&source=placeapi_v2,,08:30-22:00,3.7,,,,,,,18,7,,,,,,,114.04420728157,22.62686179262,0
d661a7c952a9aaeaf5c59c5d,博洁干洗店(樟坑店),生活服务,洗衣店,广东省,深圳市,龙华区,广东省深圳市龙华区民治向南二区41栋,d661a7c952a9aaeaf5c59c5d,1,0,114.045238,22.625703,13798543913,life,http://api.map.baidu.com/place/detail?uid=d661a7c952a9aaeaf5c59c5d&output=html&source=placeapi_v2,,09:00-22:30,5,,,,,,,12,1,,,,,,,,,0
b639e49597a7908f8c1a89d4,福奈特洗衣(深圳金茂府店),生活服务,洗衣店,广东省,深圳市,龙华区,广东省深圳市龙华区建设东路金茂府1栋AB101号铺,b639e49597a7908f8c1a89d4,1,0,114.019074,22.645738,(0755)21075127,life,http://api.map.baidu.com/place/detail?uid=b639e49597a7908f8c1a89d4&output=html&source=placeapi_v2,,10:00-20:00,5,,,,,,,9,1,,,,,,,,,0
91f309cf327b512bf4b9167d,赛维洗衣馆(布龙路店),生活服务,洗衣店,广东省,深圳市,龙华区,广东省深圳市龙华区白玉街特发和平里一期61号,91f309cf327b512bf4b9167d,1,0,114.02018,22.64869,13691792106,life,http://api.map.baidu.com/place/detail?uid=91f309cf327b512bf4b9167d&output=html&source=placeapi_v2,,09:00-21:00,,,,,,,,7,,,,,,,,114.02013305815,22.648603487969,0
886a4658f0653672eedfca41,一定好专业干洗(民德路店),生活服务,洗衣店,广东省,深圳市,龙华区,广东省深圳市龙华区民德路南景新村内,886a4658f0653672eedfca41,1,0,114.044006,22.623249,18218413820,life,http://api.map.baidu.com/place/detail?uid=886a4658f0653672eedfca41&output=html&source=placeapi_v2,,09:00-21:00,,,,,,,,4,,,,,,,,114.04406994097,22.623098784058,0
f7f62ff3935b592232f71db7,匠兴干洗,生活服务,洗衣店,广东省,深圳市,龙岗区,广东省深圳市龙岗区发达路扬马小区3铺,f7f62ff3935b592232f71db7,1,0,114.077656,22.637096,15914082184,life,http://api.map.baidu.com/place/detail?uid=f7f62ff3935b592232f71db7&output=html&source=placeapi_v2,,09:00-22:00,,,,,,,,15,,,,,,,,114.07766696228,22.637013084236,0
5f85757f04a8572c2cb96d67,大发干洗,生活服务,洗衣店,广东省,深圳市,龙岗区,广东省深圳市龙岗区长发西路45号,5f85757f04a8572c2cb96d67,1,0,114.06079,22.636163,"15112269289,18218088963",life,http://api.map.baidu.com/place/detail?uid=5f85757f04a8572c2cb96d67&output=html&source=placeapi_v2,,08:30-22:30,5,,,,,,,24,3,,,,,,,114.06083685014,22.636239189278,0
4c8151242c6ee76bd8131834,莱园园干洗店,生活服务,洗衣店,广东省,深圳市,龙岗区,深圳市龙岗区五和大道信义嘉御豪园,,1,0,114.066509,22.642336,,life,http://api.map.baidu.com/place/detail?uid=4c8151242c6ee76bd8131834&output=html&source=placeapi_v2,,,,,,,,,,3,,,,,,,,114.0668205871,22.642358565433,0
e187c1239793ae0630169b96,一定好专业干洗(五和大道店),生活服务,洗衣店,广东省,深圳市,龙岗区,深圳市龙岗区春华北道万科四季花城,,1,0,114.065435,22.630252,,life,http://api.map.baidu.com/place/detail?uid=e187c1239793ae0630169b96&output=html&source=placeapi_v2,,09:00-21:00,,,,,,,,3,,,,,,,,114.06538670447,22.629935555675,0
6dbe91c9fc5c3dd40c0a703f,美国UCC国际洗衣(坂田店),生活服务,洗衣店,广东省,深圳市,龙岗区,广东省深圳市龙岗l区永香路诺德公馆一期1-108号,6dbe91c9fc5c3dd40c0a703f,1,0,114.082287,22.626375,,life,http://api.map.baidu.com/place/detail?uid=6dbe91c9fc5c3dd40c0a703f&output=html&source=placeapi_v2,,09:30-20:00,5,,,,,,,8,1,,,,,,,,,0
b08ef17fa75de91fd3ff234e,荔园洗衣,生活服务,洗衣店,广东省,深圳市,龙岗区,广东省深圳市龙岗区龙园路荔园新村91栋1楼,b08ef17fa75de91fd3ff234e,1,0,114.077741,22.643264,15989518028,life,http://api.map.baidu.com/place/detail?uid=b08ef17fa75de91fd3ff234e&output=html&source=placeapi_v2,,09:00-23:00,,,,,,,,14,,,,,,,,114.07769466602,22.643341337281,0
46bde98218d1f67dd12dd605,雪融花洗衣,生活服务,洗衣店,广东省,深圳市,龙岗区,坂田街道杨美上段二巷七号,46bde98218d1f67dd12dd605,1,0,114.088346,22.63303,(0755)84571390,life,http://api.map.baidu.com/place/detail?uid=46bde98218d1f67dd12dd605&output=html&source=placeapi_v2,,09:10-21:10,3.7,,,,,,,21,3,,,,,,,114.08832574163,22.63292172343,0
a300571d2f1b14a28b2fb574,新旧货自助洗衣修改衣服,生活服务,洗衣店,广东省,深圳市,龙岗区,深圳市龙岗区发达路大发埔东村,,1,0,114.062477,22.6353,,life,http://api.map.baidu.com/place/detail?uid=a300571d2f1b14a28b2fb574&output=html&source=placeapi_v2,,,5.0,,,,,,,1,1,,,,,,,,,0
f8698fb215385ffe882fb5fb,雅洁干洗店(肖邦路店),生活服务,洗衣店,广东省,深圳市,龙岗区,深圳市龙岗区坂雪岗大道附近万科城一期C3-121号,f8698fb215385ffe882fb5fb,1,0,114.073813,22.650387,13570885432,life,http://api.map.baidu.com/place/detail?uid=f8698fb215385ffe882fb5fb&output=html&source=placeapi_v2,11,10:30-23:30,0,,,,,,,15,0,,,,,,,114.07384602128,22.650421558628,0
c676e5d7a698c41272455b51,森浪干洗(万科城风情步行街),生活服务,洗衣店,广东省,深圳市,龙岗区,广东省深圳市龙岗区坂田万科城C区8号楼(第五食堂旁边),,1,0,114.076721,22.648942,13422874637,life,http://api.map.baidu.com/place/detail?uid=c676e5d7a698c41272455b51&output=html&source=placeapi_v2,,08:00-22:00,0.0,,,,,,,13,,,,,,,,114.0766898143,22.648976124154,0
2ad0729ee4da8f445f17c39d,自助洗衣房,生活服务,洗衣店,广东省,深圳市,龙华区,广东省深圳市龙华区东二环路12-1号c栋536室,,1,0,114.059502,22.646772,13923879105,life,http://api.map.baidu.com/place/detail?uid=2ad0729ee4da8f445f17c39d&output=html&source=placeapi_v2,,,0.0,,,,,,,4,2,,,,,,,,,0
9c5071bf6f8daf7c8c1a8952,好媳妇洗衣中心,生活服务,洗衣店,广东省,深圳市,龙华区,广东省深圳市龙华区东环二路友联电脑旁,,1,0,114.058948,22.647561,13480920123,life,http://api.map.baidu.com/place/detail?uid=9c5071bf6f8daf7c8c1a8952&output=html&source=placeapi_v2,,,,,,,,,,3,,,,,,,,114.05894001402,22.647428560473,0
9815e93247dc28e6b54f5457,上海洁兴干洗(茵悦之生分店),生活服务,洗衣店,广东省,深圳市,龙岗区,广东省深圳市龙岗区华龙路茵悦之生花园二期8栋1楼1单元,,1,0,114.117269,22.636363,,life,http://api.map.baidu.com/place/detail?uid=9815e93247dc28e6b54f5457&output=html&source=placeapi_v2,,,,,,,,,,,,,,,,,,,,0
d3e96ae33517c01d45572655,美国UCC国际洗衣(广东深圳连锁店),生活服务,洗衣店,广东省,深圳市,龙岗区,广东省深圳市龙岗区科技园路29号润详家园东区d栋1楼,d3e96ae33517c01d45572655,1,0,114.128849,22.628021,18923856580,life,http://api.map.baidu.com/place/detail?uid=d3e96ae33517c01d45572655&output=html&source=placeapi_v2,,10:00-21:00,,,,,,,,6,,,,,,,,114.12887691061,22.627971187772,0
7861561c2ee389730c0e6b57,上海干洗衣物收发点,生活服务,洗衣店,广东省,深圳市,龙岗区,深圳市龙岗区龙景一区九巷龙景一区,7861561c2ee389730c0e6b57,1,0,114.122218,22.632247,,life,http://api.map.baidu.com/place/detail?uid=7861561c2ee389730c0e6b57&output=html&source=placeapi_v2,,,0,,,,,,,7,1,,,,,,,114.12221440232,22.632033992354,0
ee1c749600153ed8c1f1cfcc,小哥帮上海正宗干洗,生活服务,洗衣店,广东省,深圳市,龙岗区,广东省深圳市龙岗区东一巷7号,,1,0,114.115534,22.621176,13928410695,life,http://api.map.baidu.com/place/detail?uid=ee1c749600153ed8c1f1cfcc&output=html&source=placeapi_v2,,,,,,,,,,4,,,,,,,,114.11554039033,22.621081225672,0
5375269c6a3c825283a00c04,洁雅干洗店(红棉路店),生活服务,洗衣店,广东省,深圳市,龙岗区,康桥花园肉菜市场,5375269c6a3c825283a00c04,1,0,114.149505,22.629374,15361067260,life,http://api.map.baidu.com/place/detail?uid=5375269c6a3c825283a00c04&output=html&source=placeapi_v2,,09:00-21:00,5,,,,,,,14,2,,,,,,,114.14934303558,22.629300389029,0
3a05c678bd78b1968adb7342,UCC干洗店(英郡年华店),生活服务,洗衣店,广东省,深圳市,龙岗区,广东省深圳市龙岗区办岭背路振业城二期5-,3a05c678bd78b1968adb7342,1,0,114.157175,22.621762,13798580315,life,http://api.map.baidu.com/place/detail?uid=3a05c678bd78b1968adb7342&output=html&source=placeapi_v2,,08:00-20:00,1,,,,,,,2,5,,,,,,,,,0
2e718fdda28e5011aecb6621,德奈福洗衣(翠岭路店),生活服务,洗衣店,广东省,深圳市,龙岗区,深圳市龙岗区翠岭路与香阅路交叉路口往东北约100米中海阅景馨园,,1,0,114.144545,22.628674,"(0755)28302906,13927473757",life,http://api.map.baidu.com/place/detail?uid=2e718fdda28e5011aecb6621&output=html&source=placeapi_v2,,12:00-22:00,,,,,,,,5,,,,,,,,,,0
75556e9f92c151b24f55478e,洁丰干洗(南岭分店),生活服务,洗衣店,广东省,深圳市,龙岗区,广东省深圳市龙岗区中心围十巷荔枝花园c4栋,b72024cf7d67573702294f65,1,0,114.153148,22.61935,15915338685,life,http://api.map.baidu.com/place/detail?uid=75556e9f92c151b24f55478e&output=html&source=placeapi_v2,,09:00-21:00,0.0,,,,,,,14,,,,,,,,114.15337414113,22.619162938896,0
7a4f043d19b9431814948eab,上海干洗店(东门头路店),生活服务,洗衣店,广东省,深圳市,龙岗区,广东省深圳市龙岗区一巷1号,,1,0,114.164148,22.622459,,life,http://api.map.baidu.com/place/detail?uid=7a4f043d19b9431814948eab&output=html&source=placeapi_v2,,09:00-21:00,,,,,,,,14,,,,,,,,,,0
33d550a31b3fcdc743afe670,干洗补缝,生活服务,洗衣店,广东省,深圳市,龙岗区,广东省深圳市龙岗区香阅路阅景花园,,1,0,114.14421,22.628035,,life,http://api.map.baidu.com/place/detail?uid=33d550a31b3fcdc743afe670&output=html&source=placeapi_v2,,09:00-21:00,,,,,,,,3,,,,,,,,114.14412733096,22.628126756498,0
16a374c1a016d051bb17e7ed,香净干洗店,生活服务,洗衣店,广东省,深圳市,龙岗区,广东省深圳市龙岗区布吉新区连发百货(丹平快速路西),,1,0,114.165489,22.622802,"13430445890,13612878348",life,http://api.map.baidu.com/place/detail?uid=16a374c1a016d051bb17e7ed&output=html&source=placeapi_v2,,,,,,,,,,17,,,,,,,,114.16525394853,22.622688808804,0
ea097c8426714304eb56fa92,优洁洗衣,生活服务,洗衣店,广东省,深圳市,龙岗区,广东省深圳市龙岗区黄金南路荔枝花园b4栋17号铺,,1,0,114.152626,22.618847,19924482716,life,http://api.map.baidu.com/place/detail?uid=ea097c8426714304eb56fa92&output=html&source=placeapi_v2,,,,,,,,,,2,,,,,,,,114.1524847001,22.619114604259,0
b652d57271d1a7d27f29bd31,洁丽雅干洗店,生活服务,洗衣店,广东省,深圳市,龙岗区,广东省深圳市龙岗区南岭西路荔枝花园b5栋,b652d57271d1a7d27f29bd31,1,0,114.151984,22.619089,18682133372,life,http://api.map.baidu.com/place/detail?uid=b652d57271d1a7d27f29bd31&output=html&source=placeapi_v2,,09:00-22:00,,,,,,,,8,,,,,,,,,,0
d70f38f45c59c8de71455b1f,恒新洗衣,生活服务,洗衣店,广东省,深圳市,龙岗区,广东省深圳市龙岗区礼耕路58号,,1,0,114.193819,22.639715,(0755)28505541,life,http://api.map.baidu.com/place/detail?uid=d70f38f45c59c8de71455b1f&output=html&source=placeapi_v2,,08:00-23:00,0,,,,,,,13,1,,,,,,,114.19395877289,22.639637769089,0
54a3d9b4b115a955e60738e0,东方瑞俪洗衣生活馆(瑞泽佳园店),生活服务,洗衣店,广东省,深圳市,龙岗区,广东省深圳市龙岗区埔厦路瑞泽佳园一期3栋1楼12铺,,1,0,114.189302,22.649622,(0755)28505290,life,http://api.map.baidu.com/place/detail?uid=54a3d9b4b115a955e60738e0&output=html&source=placeapi_v2,,09:30-21:00,,,,,,,,10,,,,,,,,114.18941808061,22.64940822374,0
417e2b18b466dc3b72210bf1,SNG干洗(横岗分店),生活服务,洗衣店,广东省,深圳市,龙岗区,广东省深圳市龙岗区红棉一路88-19号附近,417e2b18b466dc3b72210bf1,1,0,114.203309,22.652593,(0755)28869818,life,http://api.map.baidu.com/place/detail?uid=417e2b18b466dc3b72210bf1&output=html&source=placeapi_v2,,09:00-22:00,,,,,,,,4,1,,,,,,,114.20330648972,22.652642490527,0
45018ba500095447a8f729ca,共享洗衣吧,生活服务,洗衣店,广东省,深圳市,龙岗区,深圳市龙岗区蓝屋围路安良学校北侧约150米,,1,0,114.227823,22.637135,,life,http://api.map.baidu.com/place/detail?uid=45018ba500095447a8f729ca&output=html&source=placeapi_v2,,,,,,,,,,9,,,,,,,,114.22790188527,22.637013906643,0
f881a554228bec235bf6be85,洁丰干洗(安良路店),生活服务,洗衣店,广东省,深圳市,龙岗区,广东省深圳市龙岗区安良路160号,,1,0,114.226948,22.635453,(0755)28615685,life,http://api.map.baidu.com/place/detail?uid=f881a554228bec235bf6be85&output=html&source=placeapi_v2,,09:00-21:00,0,,,,,,,18,1,,,,,,,114.22689989823,22.63538748592,0
4361b5e721276bb236b06cc2,美国UCC国际洗衣(石葵路店),生活服务,洗衣店,广东省,深圳市,龙岗区,广东省深圳市龙岗区石葵路云山栖小区32栋102铺,,1,0,114.413933,22.643988,,life,http://api.map.baidu.com/place/detail?uid=4361b5e721276bb236b06cc2&output=html&source=placeapi_v2,,,,,,,,,,3,,,,,,,,,,0
2a0c64ec88a5bf92f842b282,鑫美洗衣店,生活服务,洗衣店,广东省,深圳市,龙岗区,广东省深圳市龙岗区葵政东路7号,2a0c64ec88a5bf92f842b282,1,0,114.428712,22.637318,,life,http://api.map.baidu.com/place/detail?uid=2a0c64ec88a5bf92f842b282&output=html&source=placeapi_v2,,,0,,,,,,,9,1,,,,,,,114.42865027336,22.637385816441,0
