uid,name,cat_L1,cat_L2,province,city,area,address,street_id,detail,child_num,loc_lng,loc_lat,telephone,type,detail_url,price,shop_hours,overall_rating,taste_rating,service_rating,environment_rating,facility_rating,hygiene_rating,technology_rating,image_num,comment_num,groupon_num,discount_num,favorite_num,checkin_num,brand,content_tag,naviloc_lng,naviloc_lat,child_num
cabf5c37f7bb4dba7adbd2f3,联通四方台欣宇营业厅,生活服务,通讯营业厅,辽宁省,沈阳市,辽中区,沈阳市辽中区环村街四方台幼儿园北侧约170米,,1,0,122.971459,41.585793,,life,http://api.map.baidu.com/place/detail?uid=cabf5c37f7bb4dba7adbd2f3&output=html&source=placeapi_v2,,,,,,,,,,,,,,,,,,,,0
34059f97d4f4e62970455bae,中国联通(林盛营业厅),生活服务,通讯营业厅,辽宁省,沈阳市,苏家屯区,沈阳市苏家屯区苏盛街,34059f97d4f4e62970455bae,1,0,123.36241,41.590941,(024)89481100,life,http://api.map.baidu.com/place/detail?uid=34059f97d4f4e62970455bae&output=html&source=placeapi_v2,,08:00-19:00,,,,,,,,,,,,,,,,123.36255968197,41.590709378294,0
ce3ba374b4bbc17c3913fd67,中国电信(林盛营业厅),生活服务,通讯营业厅,辽宁省,沈阳市,苏家屯区,沈阳市苏家屯区苏盛街林盛综合市场西北侧约200米,,1,0,123.367028,41.584575,,life,http://api.map.baidu.com/place/detail?uid=ce3ba374b4bbc17c3913fd67&output=html&source=placeapi_v2,,09:00-18:00,,,,,,,,2,,,,,,,,123.36722423484,41.584562549619,0
23a64d4850d6ccad22f01772,中国电信,生活服务,通讯营业厅,辽宁省,沈阳市,苏家屯区,第一八二中学西南90米附近,,1,0,123.392578,41.587673,,life,http://api.map.baidu.com/place/detail?uid=23a64d4850d6ccad22f01772&output=html&source=placeapi_v2,,,,,,,,,,1,,,,,,,,,,0
35db9f0d2da4d1adb2077da0,中国移动,生活服务,通讯营业厅,辽宁省,沈阳市,苏家屯区,沈阳市苏家屯区林盛矿医院东南侧约30米,,1,0,123.392644,41.588053,,life,http://api.map.baidu.com/place/detail?uid=35db9f0d2da4d1adb2077da0&output=html&source=placeapi_v2,,,,,,,,,,1,,,,,,,,,,0
9706fad5fad63baa00ff2d12,陈相营业厅,生活服务,通讯营业厅,辽宁省,沈阳市,苏家屯区,沈阳市苏家屯区凤山路陈相农贸市场,,1,0,123.516328,41.579123,,life,http://api.map.baidu.com/place/detail?uid=9706fad5fad63baa00ff2d12&output=html&source=placeapi_v2,,,,,,,,,,,,,,,,,,,,0
111b6347c26a4d0a276e9852,中国联通(陈相营业厅),生活服务,通讯营业厅,辽宁省,沈阳市,苏家屯区,辽宁省沈阳市苏家屯区陈相屯镇凤山路16号,,1,0,123.516187,41.579807,"(024)89574000,18602406839",life,http://api.map.baidu.com/place/detail?uid=111b6347c26a4d0a276e9852&output=html&source=placeapi_v2,,08:00-16:00,0.0,,,,,,,7,,,,,,,,,,0
8fde79cc7a0cc5c294ca07a1,中国联通智慧生活馆,生活服务,通讯营业厅,辽宁省,沈阳市,苏家屯区,辽宁省沈阳市苏家屯区八一路71号,,1,1,123.310878,41.620371,(024)89843000,life,http://api.map.baidu.com/place/detail?uid=8fde79cc7a0cc5c294ca07a1&output=html&source=placeapi_v2,,08:00-17:00,,,,,,,,2,,,,,,,,123.31090038594,41.620533292343,1
708503f30832f55c97ec8451,中国移动鑫鑫乐通讯(杨黄线营业厅),生活服务,通讯营业厅,辽宁省,沈阳市,辽中区,沈阳市辽中区杨黄线华府宝地西侧约150米,,1,0,123.04555,41.648731,,life,http://api.map.baidu.com/place/detail?uid=708503f30832f55c97ec8451&output=html&source=placeapi_v2,,,,,,,,,,3,,,,,,,,,,0
df8103f165a73affd72ce23a,中国移动(彰驿指定专营店),生活服务,通讯营业厅,辽宁省,沈阳市,铁西区,沈阳市铁西区沈盘线彰驿中学西南侧约80米,,1,0,123.091409,41.662161,,life,http://api.map.baidu.com/place/detail?uid=df8103f165a73affd72ce23a&output=html&source=placeapi_v2,,,,,,,,,,7,,,,,,,,123.09185541984,41.661864897962,0
7023cb428c178de04d55470f,中国联通(丁香街营业厅),生活服务,通讯营业厅,辽宁省,沈阳市,苏家屯区,沈阳市苏家屯区丁香街216-H10-1门,7023cb428c178de04d55470f,1,0,123.332026,41.648689,(024)89579088,life,http://api.map.baidu.com/place/detail?uid=7023cb428c178de04d55470f&output=html&source=placeapi_v2,,,0,,,,,,,8,1,,,,,,,123.33205957697,41.648519284402,0
84b6dd6a4da7354f7069d32d,中国电信中国移动中国联通,生活服务,通讯营业厅,辽宁省,沈阳市,苏家屯区,沈阳市苏家屯区大来线丽城佳园东南侧约40米,84b6dd6a4da7354f7069d32d,1,0,123.31506,41.662755,,life,http://api.map.baidu.com/place/detail?uid=84b6dd6a4da7354f7069d32d&output=html&source=placeapi_v2,,,,,,,,,,1,,,,,,,,,,0
6deee30870084f1729fc485f,中国联通(大淑堡营业厅),生活服务,通讯营业厅,辽宁省,沈阳市,苏家屯区,辽宁省沈阳市苏家屯区瑰香街33号,6deee30870084f1729fc485f,1,0,123.318286,41.665022,(024)89421600,life,http://api.map.baidu.com/place/detail?uid=6deee30870084f1729fc485f&output=html&source=placeapi_v2,,08:30-16:00,0,,,,,,,14,1,,,,,,,,,0
da2384422c26491fabf0cd7a,中国移动(大淑堡营业厅),生活服务,通讯营业厅,辽宁省,沈阳市,苏家屯区,沈阳市苏家屯区大盛路42号11门,da2384422c26491fabf0cd7a,1,0,123.314137,41.66345,(024)67756083,life,http://api.map.baidu.com/place/detail?uid=da2384422c26491fabf0cd7a&output=html&source=placeapi_v2,,08:00-21:00,,,,,,,,9,,,,,,,,,,0
16c4495c6c6eda2b2bb97c4b,中国移动(涛涛授权代理店),生活服务,通讯营业厅,辽宁省,沈阳市,苏家屯区,辽宁省沈阳市苏家屯区枫杨路153-1甲2门,,1,0,123.328841,41.662441,,life,http://api.map.baidu.com/place/detail?uid=16c4495c6c6eda2b2bb97c4b&output=html&source=placeapi_v2,,,,,,,,,,5,,,,,,,,123.32899046769,41.662396588533,0
8d500ad8f7d381fb1c580076,中国移动强者通讯经销部授权店,生活服务,通讯营业厅,辽宁省,沈阳市,苏家屯区,辽宁省沈阳市苏家屯区解放街道枫杨路52号邮局对面,8d500ad8f7d381fb1c580076,1,0,123.354431,41.667976,,life,http://api.map.baidu.com/place/detail?uid=8d500ad8f7d381fb1c580076&output=html&source=placeapi_v2,,,,,,,,,,9,,,,,,,,123.3544160215,41.667885054044,0
b6ca962f086ef34ac7f50dfe,中国电信(苏家屯区沙柳通讯店),生活服务,通讯营业厅,辽宁省,沈阳市,苏家屯区,辽宁省沈阳市苏家屯区南沙柳路23号,b6ca962f086ef34ac7f50dfe,1,0,123.348306,41.656572,,life,http://api.map.baidu.com/place/detail?uid=b6ca962f086ef34ac7f50dfe&output=html&source=placeapi_v2,,09:00-18:00,0,,,,,,,9,0,,,,,,,123.34826323422,41.656701385395,0
3e1606b28ef8613f4d776e75,手机营业厅,生活服务,通讯营业厅,辽宁省,沈阳市,苏家屯区,沈阳市苏家屯区枫杨路萃华园西北侧约90米,3e1606b28ef8613f4d776e75,1,0,123.343999,41.666312,,life,http://api.map.baidu.com/place/detail?uid=3e1606b28ef8613f4d776e75&output=html&source=placeapi_v2,,,,,,,,,,2,,,,,,,,123.34402522376,41.666220785878,0
e81dc775cb6e4c708a36ee99,中国联通营业厅,生活服务,通讯营业厅,辽宁省,沈阳市,苏家屯区,辽宁省沈阳市苏家屯区雪柳路37号4门,e81dc775cb6e4c708a36ee99,1,0,123.355954,41.667931,18602404132,life,http://api.map.baidu.com/place/detail?uid=e81dc775cb6e4c708a36ee99&output=html&source=placeapi_v2,,09:00-17:00,,,,,,,,5,,,,,,,,123.35592060149,41.668061324213,0
435fe0efe29e58c2eb12e4cb,雪柳街营业厅,生活服务,通讯营业厅,辽宁省,沈阳市,苏家屯区,沈阳市苏家屯区枫杨路中国工商银行(苏家屯支行)东南侧约30米,435fe0efe29e58c2eb12e4cb,1,0,123.35593,41.667923,,life,http://api.map.baidu.com/place/detail?uid=435fe0efe29e58c2eb12e4cb&output=html&source=placeapi_v2,,,,,,,,,,,,,,,,,,,,0
d6df91c19dbd8717f6b916ad,中国电信(牡丹街营业厅店),生活服务,通讯营业厅,辽宁省,沈阳市,苏家屯区,辽宁省沈阳市苏家屯区牡丹街75号,d6df91c19dbd8717f6b916ad,1,0,123.360047,41.667896,(024)31484600,life,http://api.map.baidu.com/place/detail?uid=d6df91c19dbd8717f6b916ad&output=html&source=placeapi_v2,162.5,08:00-17:00,0,,,,,,,12,1,,,,,,,123.35985718374,41.667813896413,0
1853cf81b08a4602d72ce299,中国移动(苏家屯雪柳街营业厅),生活服务,通讯营业厅,辽宁省,沈阳市,苏家屯区,辽宁省沈阳市苏家屯区雪柳街37号,1853cf81b08a4602d72ce299,1,0,123.355567,41.667808,18240175353,life,http://api.map.baidu.com/place/detail?uid=1853cf81b08a4602d72ce299&output=html&source=placeapi_v2,,08:30-20:00,,,,,,,,14,,,,,,,,123.35551151675,41.667989711158,0
4290e1d51655c8fa3b221c69,中国移动5G(报春街营业厅),生活服务,通讯营业厅,辽宁省,沈阳市,苏家屯区,辽宁省沈阳市苏家屯区桂花街228-23门,4290e1d51655c8fa3b221c69,1,0,123.338505,41.66366,15998232222,life,http://api.map.baidu.com/place/detail?uid=4290e1d51655c8fa3b221c69&output=html&source=placeapi_v2,,08:00-22:00,5,,,,,,,16,3,,,,,,,123.33844384322,41.663650352563,0
b49baa1d9a42e438fb2d6184,中国联通(雪莲营业厅),生活服务,通讯营业厅,辽宁省,沈阳市,苏家屯区,辽宁沈阳市苏家屯区枫杨路116号,b49baa1d9a42e438fb2d6184,1,0,123.343356,41.666652,(024)89837500,life,http://api.map.baidu.com/place/detail?uid=b49baa1d9a42e438fb2d6184&output=html&source=placeapi_v2,,08:00-17:00,,,,,,,,8,,,,,,,,123.34347577699,41.666679541385,0
93abaaa1f21842989e82ea8f,中国移动(美杨路营业厅),生活服务,通讯营业厅,辽宁省,沈阳市,苏家屯区,沈阳市苏家屯区美杨路沈铁幸福邸,93abaaa1f21842989e82ea8f,1,0,123.361708,41.66664,15712474555,life,http://api.map.baidu.com/place/detail?uid=93abaaa1f21842989e82ea8f&output=html&source=placeapi_v2,,08:00-17:00,,,,,,,,5,,,,,,,,123.36160745837,41.66661397485,0
e2cfd774c4aec6bcf822138b,中国电信智慧家庭服务中心,生活服务,通讯营业厅,辽宁省,沈阳市,苏家屯区,辽宁省沈阳市苏家屯区枫杨路36-5号,e2cfd774c4aec6bcf822138b,1,0,123.353332,41.664423,,life,http://api.map.baidu.com/place/detail?uid=e2cfd774c4aec6bcf822138b&output=html&source=placeapi_v2,,09:00-18:00,,,,,,,,6,,,,,,,,123.3534705307,41.664443616017,0
b7021bf89e074487f5e73bb9,中国联通(站前营业厅),生活服务,通讯营业厅,辽宁省,沈阳市,苏家屯区,辽宁省沈阳市苏家屯区枫杨路25号,b7021bf89e074487f5e73bb9,1,0,123.35817,41.668288,18602402478,life,http://api.map.baidu.com/place/detail?uid=b7021bf89e074487f5e73bb9&output=html&source=placeapi_v2,,08:40-17:20,0,,,,,,,22,2,,,,,,,123.35814241195,41.66841587908,0
7023cb428c178de04d55470f,中国联通(丁香街营业厅),生活服务,通讯营业厅,辽宁省,沈阳市,苏家屯区,沈阳市苏家屯区丁香街216-H10-1门,7023cb428c178de04d55470f,1,0,123.332026,41.648689,(024)89579088,life,http://api.map.baidu.com/place/detail?uid=7023cb428c178de04d55470f&output=html&source=placeapi_v2,,,0,,,,,,,8,1,,,,,,,123.33205957697,41.648519284402,0
112025801275b07481a12ee0,中国移动(广场社区叶红日通讯智慧家庭服务站),生活服务,通讯营业厅,辽宁省,沈阳市,苏家屯区,辽宁省沈阳市苏家屯区枫杨路90号,112025801275b07481a12ee0,1,0,123.350437,41.667333,,life,http://api.map.baidu.com/place/detail?uid=112025801275b07481a12ee0&output=html&source=placeapi_v2,,,,,,,,,,11,,,,,,,,,,0
4269eeb7e23afddb29fc489b,中国移动通信(1克拉生活广场),生活服务,通讯营业厅,辽宁省,沈阳市,苏家屯区,辽宁省沈阳市苏家屯区桂花街228-24号,4269eeb7e23afddb29fc489b,1,0,123.338571,41.663676,15998232222,life,http://api.map.baidu.com/place/detail?uid=4269eeb7e23afddb29fc489b&output=html&source=placeapi_v2,,,,,,,,,,2,,,,,,,,123.33844636206,41.663640917688,0
50376f1579c79ccc4e5547ae,中国移动不凡通讯,生活服务,通讯营业厅,辽宁省,沈阳市,苏家屯区,辽宁省沈阳市苏家屯区枫杨路160号,50376f1579c79ccc4e5547ae,1,0,123.336939,41.665108,15242430222,life,http://api.map.baidu.com/place/detail?uid=50376f1579c79ccc4e5547ae&output=html&source=placeapi_v2,,08:00-19:00,5,,,,,,,11,1,,,,,,,123.33655525469,41.664937058567,0
0d9e732769c73bcd3b04b1b5,辽宁华星通信工程有限公司,生活服务,通讯营业厅,辽宁省,沈阳市,铁西区,辽宁省沈阳市铁西区潘乌公路16号,,1,0,123.093553,41.695594,,life,http://api.map.baidu.com/place/detail?uid=0d9e732769c73bcd3b04b1b5&output=html&source=placeapi_v2,,,,,,,,,,2,1,,,,,,,,,0
088a22cd17fd14c2430245a6,高花营业厅,生活服务,通讯营业厅,辽宁省,沈阳市,铁西区,沈阳市铁西区潘乌公路沈阳农商银行(高花分理处)西北侧约60米,,1,0,123.091809,41.694831,,life,http://api.map.baidu.com/place/detail?uid=088a22cd17fd14c2430245a6&output=html&source=placeapi_v2,,,,,,,,,,,,,,,,,,123.09176948973,41.694960278261,0
037052b84a6ba6ac1d580010,中国电信营业厅,生活服务,通讯营业厅,辽宁省,沈阳市,苏家屯区,辽宁省沈阳市苏家屯区孔雀杉路36-5号,,1,0,123.301387,41.678499,,life,http://api.map.baidu.com/place/detail?uid=037052b84a6ba6ac1d580010&output=html&source=placeapi_v2,,09:00-18:00,0.0,,,,,,,3,1,,,,,,,123.30137676741,41.678175221829,0
10847af45dbe99ce7702696d,维信电子服务部,生活服务,通讯营业厅,辽宁省,沈阳市,苏家屯区,辽宁省沈阳市苏家屯区冬青街10号,10847af45dbe99ce7702696d,1,0,123.351413,41.685983,13478860889,life,http://api.map.baidu.com/place/detail?uid=10847af45dbe99ce7702696d&output=html&source=placeapi_v2,,07:30-17:30,0,,,,,,,8,0,,,,,,,123.35162735063,41.685974618596,0
d11282bbaf5a7d27a8059dfa,中国联通(苏白路营业厅),生活服务,通讯营业厅,辽宁省,沈阳市,苏家屯区,沈阳市苏家屯区牡丹街12巷苏白路市场(文竹街店),d11282bbaf5a7d27a8059dfa,1,0,123.353889,41.679177,,life,http://api.map.baidu.com/place/detail?uid=d11282bbaf5a7d27a8059dfa&output=html&source=placeapi_v2,,,,,,,,,,10,,,,,,,,123.35393544962,41.679279072146,0
8d500ad8f7d381fb1c580076,中国移动强者通讯经销部授权店,生活服务,通讯营业厅,辽宁省,沈阳市,苏家屯区,辽宁省沈阳市苏家屯区解放街道枫杨路52号邮局对面,8d500ad8f7d381fb1c580076,1,0,123.354431,41.667976,,life,http://api.map.baidu.com/place/detail?uid=8d500ad8f7d381fb1c580076&output=html&source=placeapi_v2,,,,,,,,,,9,,,,,,,,123.3544160215,41.667885054044,0
b1e12c7f68d05d6ebca822bd,中国移动(雪松路营业厅),生活服务,通讯营业厅,辽宁省,沈阳市,苏家屯区,辽宁沈阳市苏家屯区雪松路3号,b1e12c7f68d05d6ebca822bd,1,0,123.354964,41.672431,18802439000,life,http://api.map.baidu.com/place/detail?uid=b1e12c7f68d05d6ebca822bd&output=html&source=placeapi_v2,,08:30-17:00,4,,,,,,,10,2,,,,,,,123.35495099028,41.672545985918,0
c7eca12b1715ea37e115f94f,中国移动(光宽带营业厅),生活服务,通讯营业厅,辽宁省,沈阳市,苏家屯区,辽宁沈阳市苏家屯区乔松路2号,c7eca12b1715ea37e115f94f,1,0,123.358798,41.683179,,life,http://api.map.baidu.com/place/detail?uid=c7eca12b1715ea37e115f94f&output=html&source=placeapi_v2,,,0,,,,,,,11,1,,,,,,,,,0
3189d3815e2d4b0c83a00c67,中国电信(雪松路营业厅),生活服务,通讯营业厅,辽宁省,沈阳市,苏家屯区,辽宁省沈阳市苏家屯区雪松路3号,3189d3815e2d4b0c83a00c67,1,0,123.354704,41.672491,(024)31484058,life,http://api.map.baidu.com/place/detail?uid=3189d3815e2d4b0c83a00c67&output=html&source=placeapi_v2,162.5,08:30-18:00,5,,,,,,,15,1,,,,,,,123.35469744176,41.672514076026,0
e81dc775cb6e4c708a36ee99,中国联通营业厅,生活服务,通讯营业厅,辽宁省,沈阳市,苏家屯区,辽宁省沈阳市苏家屯区雪柳路37号4门,e81dc775cb6e4c708a36ee99,1,0,123.355954,41.667931,18602404132,life,http://api.map.baidu.com/place/detail?uid=e81dc775cb6e4c708a36ee99&output=html&source=placeapi_v2,,09:00-17:00,,,,,,,,5,,,,,,,,123.35592060149,41.668061324213,0
435fe0efe29e58c2eb12e4cb,雪柳街营业厅,生活服务,通讯营业厅,辽宁省,沈阳市,苏家屯区,沈阳市苏家屯区枫杨路中国工商银行(苏家屯支行)东南侧约30米,435fe0efe29e58c2eb12e4cb,1,0,123.35593,41.667923,,life,http://api.map.baidu.com/place/detail?uid=435fe0efe29e58c2eb12e4cb&output=html&source=placeapi_v2,,,,,,,,,,,,,,,,,,,,0
b7021bf89e074487f5e73bb9,中国联通(站前营业厅),生活服务,通讯营业厅,辽宁省,沈阳市,苏家屯区,辽宁省沈阳市苏家屯区枫杨路25号,b7021bf89e074487f5e73bb9,1,0,123.35817,41.668288,18602402478,life,http://api.map.baidu.com/place/detail?uid=b7021bf89e074487f5e73bb9&output=html&source=placeapi_v2,,08:40-17:20,0,,,,,,,22,2,,,,,,,123.35814241195,41.66841587908,0
1853cf81b08a4602d72ce299,中国移动(苏家屯雪柳街营业厅),生活服务,通讯营业厅,辽宁省,沈阳市,苏家屯区,辽宁省沈阳市苏家屯区雪柳街37号,1853cf81b08a4602d72ce299,1,0,123.355567,41.667808,18240175353,life,http://api.map.baidu.com/place/detail?uid=1853cf81b08a4602d72ce299&output=html&source=placeapi_v2,,08:30-20:00,,,,,,,,14,,,,,,,,123.35551151675,41.667989711158,0
57fdc322680df9f12cb96d29,中国联通(金钱松路营业厅),生活服务,通讯营业厅,辽宁省,沈阳市,苏家屯区,辽宁沈阳市苏家屯区金钱松中路15-3号,,1,0,123.375129,41.682522,,life,http://api.map.baidu.com/place/detail?uid=57fdc322680df9f12cb96d29&output=html&source=placeapi_v2,,,,,,,,,,4,,,,,,,,,,0
ea78308c4bb01626e6073828,中国联通公司(葵松二路营业厅),生活服务,通讯营业厅,辽宁省,沈阳市,苏家屯区,辽宁省沈阳市苏家屯区葵松二路10号,,1,0,123.340364,41.678101,,life,http://api.map.baidu.com/place/detail?uid=ea78308c4bb01626e6073828&output=html&source=placeapi_v2,,,,,,,,,,,,,,,,,,,,0
319fafd57440d956734b8792,沈阳市公安局苏家屯分局出入境24小时自助服务厅,生活服务,通讯营业厅,辽宁省,沈阳市,苏家屯区,沈阳市苏家屯区桂花街青松中学西北侧约50米,319fafd57440d956734b8792,1,0,123.337283,41.682493,,life,http://api.map.baidu.com/place/detail?uid=319fafd57440d956734b8792&output=html&source=placeapi_v2,,00:00-24:00,,,,,,,,12,,,,,,,,,,0
b3cadfc4dd7edbabfbf0cbad,鹏博宽带湖西服务中心,生活服务,通讯营业厅,辽宁省,沈阳市,苏家屯区,辽宁省沈阳市苏家屯区青松西路64号,b3cadfc4dd7edbabfbf0cbad,1,0,123.339119,41.671781,13516089828,life,http://api.map.baidu.com/place/detail?uid=b3cadfc4dd7edbabfbf0cbad&output=html&source=placeapi_v2,,08:30-19:00,5,,,,,,,5,4,,,,,,,123.33910385882,41.671678524893,0
5c4e00c256fa272f940319b1,Apple授权经销商(辽宁中邮普泰移动通信设备有限责任公司中邮苏家屯营业厅),生活服务,通讯营业厅,辽宁省,沈阳市,苏家屯区,辽宁省沈阳市苏家屯区芙蓉街9号中国移动大厅1楼,5c4e00c256fa272f940319b1,1,0,123.351717,41.667771,13998893139,life,http://api.map.baidu.com/place/detail?uid=5c4e00c256fa272f940319b1&output=html&source=placeapi_v2,,,,,,,,,,,,,,,,,,,,0
d3335c48e1afe50b7bf7963d,中国移动(金钱松路营业厅),生活服务,通讯营业厅,辽宁省,沈阳市,苏家屯区,辽宁省沈阳市苏家屯区南京南街1208-2门号,d3335c48e1afe50b7bf7963d,1,0,123.387343,41.679491,,life,http://api.map.baidu.com/place/detail?uid=d3335c48e1afe50b7bf7963d&output=html&source=placeapi_v2,,,0,,,,,,,16,1,,,,,,,123.38716925638,41.679256474538,0
37cfb21b8c5ff670fa22136e,中国电信智慧家庭服务中心,生活服务,通讯营业厅,辽宁省,沈阳市,苏家屯区,辽宁省沈阳市苏家屯区南京南街1009-号c2号楼,37cfb21b8c5ff670fa22136e,1,0,123.394907,41.68557,,life,http://api.map.baidu.com/place/detail?uid=37cfb21b8c5ff670fa22136e&output=html&source=placeapi_v2,,08:30-18:00,0,,,,,,,10,1,,,,,,,123.39475324197,41.68565770661,0
57fdc322680df9f12cb96d29,中国联通(金钱松路营业厅),生活服务,通讯营业厅,辽宁省,沈阳市,苏家屯区,辽宁沈阳市苏家屯区金钱松中路15-3号,,1,0,123.375129,41.682522,,life,http://api.map.baidu.com/place/detail?uid=57fdc322680df9f12cb96d29&output=html&source=placeapi_v2,,,,,,,,,,4,,,,,,,,,,0
741ccb9c3debcb3ff822135d,中国电信(雪莲街营业厅),生活服务,通讯营业厅,辽宁省,沈阳市,苏家屯区,辽宁省沈阳市苏家屯区雪莲街72-5门号,741ccb9c3debcb3ff822135d,1,0,123.379621,41.693301,(024)31387007,life,http://api.map.baidu.com/place/detail?uid=741ccb9c3debcb3ff822135d&output=html&source=placeapi_v2,46.5,09:00-18:00,0,,,,,,,17,1,,,,,,,123.3795564262,41.693328685624,0
ff48794e836cde8cab175ae0,中国电信,生活服务,通讯营业厅,辽宁省,沈阳市,浑南区,沈阳市浑南区沈阳城市建设学院,ff48794e836cde8cab175ae0,1,0,123.418746,41.683706,,life,http://api.map.baidu.com/place/detail?uid=ff48794e836cde8cab175ae0&output=html&source=placeapi_v2,,09:00-18:00,,,,,,,,1,,,,,,,,,,0
ddd74a18d706b5e038221c3d,中国联通(红椿路营业厅),生活服务,通讯营业厅,辽宁省,沈阳市,和平区,和平区红椿路42甲4门2楼,ddd74a18d706b5e038221c3d,1,0,123.394484,41.702292,18698844898,life,http://api.map.baidu.com/place/detail?uid=ddd74a18d706b5e038221c3d&output=html&source=placeapi_v2,,08:30-17:00,,,,,,,,6,,,,,,,,123.39437011198,41.702012238498,0
e775f74db0243d0d2bd7ab9a,中国联通智慧生活馆(白塔堡营业厅),生活服务,通讯营业厅,辽宁省,沈阳市,浑南区,辽宁省沈阳市浑南区沈营路7-2号,e775f74db0243d0d2bd7ab9a,1,0,123.428154,41.694325,,life,http://api.map.baidu.com/place/detail?uid=e775f74db0243d0d2bd7ab9a&output=html&source=placeapi_v2,,08:30-16:00,3.3,,,,,,,9,4,,,,,,,123.42843909224,41.694315852735,0
5f8a7e1f9bf7a5e69cf779c2,白塔堡营业厅,生活服务,通讯营业厅,辽宁省,沈阳市,浑南区,沈阳市浑南区沈营大街白塔茗居西北侧约50米,5f8a7e1f9bf7a5e69cf779c2,1,0,123.428155,41.69435,,life,http://api.map.baidu.com/place/detail?uid=5f8a7e1f9bf7a5e69cf779c2&output=html&source=placeapi_v2,,,,,,,,,,1,,,,,,,,,,0
f7c6d04188a5865916b54b8e,中国电信(营业厅),生活服务,通讯营业厅,辽宁省,沈阳市,浑南区,辽宁省沈阳市浑南区智慧大街31-57号旭辉御府西区,,1,0,123.452658,41.696855,(024)31237507,life,http://api.map.baidu.com/place/detail?uid=f7c6d04188a5865916b54b8e&output=html&source=placeapi_v2,,09:00-18:00,,,,,,,,9,,,,,,,,123.45259186842,41.696924679698,0
4049dae5add55a1378f7966e,中国移动光宽带营业厅(塔西路),生活服务,通讯营业厅,辽宁省,沈阳市,浑南区,辽宁省沈阳市浑南区沈营大街607号白塔茗居9号楼,4049dae5add55a1378f7966e,1,0,123.428866,41.694365,15041233330,life,http://api.map.baidu.com/place/detail?uid=4049dae5add55a1378f7966e&output=html&source=placeapi_v2,,,0,,,,,,,25,2,,,,,,,123.42876182916,41.694371479753,0
ff48794e836cde8cab175ae0,中国电信,生活服务,通讯营业厅,辽宁省,沈阳市,浑南区,沈阳市浑南区沈阳城市建设学院,ff48794e836cde8cab175ae0,1,0,123.418746,41.683706,,life,http://api.map.baidu.com/place/detail?uid=ff48794e836cde8cab175ae0&output=html&source=placeapi_v2,,09:00-18:00,,,,,,,,1,,,,,,,,,,0
f53b66cdc9ad3702f5c59c63,中国电信全运路营业厅,生活服务,通讯营业厅,辽宁省,沈阳市,浑南区,辽宁省沈阳市浑南区全运路99-16号,,1,0,123.475856,41.686772,13390569777,life,http://api.map.baidu.com/place/detail?uid=f53b66cdc9ad3702f5c59c63&output=html&source=placeapi_v2,,09:00-18:00,,,,,,,,5,,,,,,,,,,0
5ec11ca21bf260c8f5c59c82,中国移动(沈本大街营业厅),生活服务,通讯营业厅,辽宁省,沈阳市,浑南区,辽宁省沈阳市浑南区沈本大街沈阳国际软件园e区e011楼,5ec11ca21bf260c8f5c59c82,1,0,123.486746,41.702475,(024)66688059,life,http://api.map.baidu.com/place/detail?uid=5ec11ca21bf260c8f5c59c82&output=html&source=placeapi_v2,,08:30-17:00,5,,,,,,,7,12,,,,,,,123.48676287463,41.702373588146,0
d8b4389e8a9596facc06a49b,中国联通(智慧四街营业厅),生活服务,通讯营业厅,辽宁省,沈阳市,浑南区,辽宁省沈阳市浑南区智慧三街55-22号,d8b4389e8a9596facc06a49b,1,0,123.468917,41.69799,18602404697,life,http://api.map.baidu.com/place/detail?uid=d8b4389e8a9596facc06a49b&output=html&source=placeapi_v2,,09:00-15:00,5,,,,,,,11,1,,,,,,,123.46897043024,41.697687858869,0
d0e3eef191a12c1928201a5f,中国联通(万达营业厅),生活服务,通讯营业厅,辽宁省,沈阳市,浑南区,辽宁省沈阳市浑南区全运路70-3号网点31门,d0e3eef191a12c1928201a5f,1,0,123.469076,41.693488,18640567113,life,http://api.map.baidu.com/place/detail?uid=d0e3eef191a12c1928201a5f&output=html&source=placeapi_v2,,09:00-19:00,,,,,,,,5,,,,,,,,,,0
55eacc8647c2943b0ba8d46d,中国联通(绿色家园营业厅),生活服务,通讯营业厅,辽宁省,沈阳市,浑南区,辽宁省沈阳市浑南区桃仙大街9甲8门,,1,0,123.521966,41.696511,(024)23795112,life,http://api.map.baidu.com/place/detail?uid=55eacc8647c2943b0ba8d46d&output=html&source=placeapi_v2,,09:00-18:00,5,,,,,,,10,2,,,,,,,123.5218800301,41.696523411329,0
b3764ad4ec55afc988b98824,沈阳电信库,生活服务,通讯营业厅,辽宁省,沈阳市,铁西区,辽宁省沈阳市铁西区路26号,,1,0,123.224427,41.727072,,life,http://api.map.baidu.com/place/detail?uid=b3764ad4ec55afc988b98824&output=html&source=placeapi_v2,,,,,,,,,,1,,,,,,,,,,0
cbc46b8dd78564fcadcb6610,中国移动(沈辽路店),生活服务,通讯营业厅,辽宁省,沈阳市,铁西区,沈阳市铁西区沈辽路与四环路交叉路口往西约120米,cbc46b8dd78564fcadcb6610,1,0,123.211763,41.724108,,life,http://api.map.baidu.com/place/detail?uid=cbc46b8dd78564fcadcb6610&output=html&source=placeapi_v2,,,,,,,,,,1,,,,,,,,123.21169695118,41.724313606179,0
04df1993b927c70b0b1cc770,联通营业厅,生活服务,通讯营业厅,辽宁省,沈阳市,铁西区,沈阳市铁西区浑河十三街堤畔家园北侧约50米,04df1993b927c70b0b1cc770,1,0,123.266537,41.718955,,life,http://api.map.baidu.com/place/detail?uid=04df1993b927c70b0b1cc770&output=html&source=placeapi_v2,,,,,,,,,,7,,,,,,,,123.26665572066,41.719099538029,0
eaaf3055a6b20aef3a04b11f,中国联通百世佑(前谟村专营店),生活服务,通讯营业厅,辽宁省,沈阳市,苏家屯区,沈阳市苏家屯区城大街瑞丰园西北侧约90米,eaaf3055a6b20aef3a04b11f,1,0,123.310667,41.713975,,life,http://api.map.baidu.com/place/detail?uid=eaaf3055a6b20aef3a04b11f&output=html&source=placeapi_v2,,09:00-18:00,0.0,,,,,,,2,,,,,,,,123.31091934737,41.714081258714,0
47b1ce82ae2e0aa4d3ff2383,中国联通(长白营业厅),生活服务,通讯营业厅,辽宁省,沈阳市,和平区,辽宁省沈阳市和平区沙岗西路27号,47b1ce82ae2e0aa4d3ff2383,1,0,123.405906,41.732202,15640159325,life,http://api.map.baidu.com/place/detail?uid=47b1ce82ae2e0aa4d3ff2383&output=html&source=placeapi_v2,,08:30-17:30,5,,,,,,,9,1,,,,,,,123.40590029528,41.732309338606,0
502ce303e2d1343f28b97ccd,中国移动光宽带营业厅,生活服务,通讯营业厅,辽宁省,沈阳市,和平区,辽宁省沈阳市和平区前进村26西南方向140米,502ce303e2d1343f28b97ccd,1,0,123.383817,41.733556,13897965432,life,http://api.map.baidu.com/place/detail?uid=502ce303e2d1343f28b97ccd&output=html&source=placeapi_v2,,,5,,,,,,,22,3,,,,,,,123.38398618267,41.733514450262,0
ddd74a18d706b5e038221c3d,中国联通(红椿路营业厅),生活服务,通讯营业厅,辽宁省,沈阳市,和平区,和平区红椿路42甲4门2楼,ddd74a18d706b5e038221c3d,1,0,123.394484,41.702292,18698844898,life,http://api.map.baidu.com/place/detail?uid=ddd74a18d706b5e038221c3d&output=html&source=placeapi_v2,,08:30-17:00,,,,,,,,6,,,,,,,,123.39437011198,41.702012238498,0
4cd63f9b634b3457f60e773b,中国联通(世纪路营业厅),生活服务,通讯营业厅,辽宁省,沈阳市,浑南区,辽宁省沈阳市浑南区世纪路28号,4cd63f9b634b3457f60e773b,1,0,123.447718,41.713114,(024)23780003,life,http://api.map.baidu.com/place/detail?uid=4cd63f9b634b3457f60e773b&output=html&source=placeapi_v2,,08:30-17:00,2.7,,,,,,,8,7,,,,,,,123.44779515505,41.71305567289,0
c05c6ddb6c7b3b92c9e33cca,中国移动财双通讯(广成通信营业厅),生活服务,通讯营业厅,辽宁省,沈阳市,浑南区,沈阳市浑南区前榆路98号,c05c6ddb6c7b3b92c9e33cca,1,0,123.430486,41.725439,,life,http://api.map.baidu.com/place/detail?uid=c05c6ddb6c7b3b92c9e33cca&output=html&source=placeapi_v2,,,0,,,,,,,35,1,,,,,,,123.43034644636,41.725455561969,0
174c686c6f1f819e3310af91,中国联通(沈营路营业厅),生活服务,通讯营业厅,辽宁省,沈阳市,浑南区,辽宁省沈阳市浑南区沈营路17甲-2号,174c686c6f1f819e3310af91,1,0,123.450504,41.733315,13124210011,life,http://api.map.baidu.com/place/detail?uid=174c686c6f1f819e3310af91&output=html&source=placeapi_v2,,09:00-19:00,5,,,,,,,11,6,,,,,,,123.45040641508,41.733380390703,0
bd5046e8ca2c2e41d72ce2f3,中国联通沈阳市分公司(浑南区局),生活服务,通讯营业厅,辽宁省,沈阳市,浑南区,辽宁省沈阳市浑南区世纪路28号,bd5046e8ca2c2e41d72ce2f3,1,1,123.447751,41.713083,,life,http://api.map.baidu.com/place/detail?uid=bd5046e8ca2c2e41d72ce2f3&output=html&source=placeapi_v2,,09:00-18:30,2,,,,,,,6,6,,,,,,,123.44780113417,41.713065429824,1
f70a2496ccf4f7f22de67bcd,沈阳华信技术有限公司,生活服务,通讯营业厅,辽宁省,沈阳市,浑南区,辽宁省沈阳市浑南区高歌路2-1号b座201房间,f70a2496ccf4f7f22de67bcd,1,0,123.454639,41.726941,(024)23988229,life,http://api.map.baidu.com/place/detail?uid=f70a2496ccf4f7f22de67bcd&output=html&source=placeapi_v2,,,,,,,,,,1,,,,,,,,123.4554426715,41.7270183744,0
5c4dc8b1113e57c2740269f4,中国电信(世纪路营业厅),生活服务,通讯营业厅,辽宁省,沈阳市,浑南区,辽宁省沈阳市浑南区世纪路2号,5c4dc8b1113e57c2740269f4,1,0,123.462436,41.724462,(024)31619567,life,http://api.map.baidu.com/place/detail?uid=5c4dc8b1113e57c2740269f4&output=html&source=placeapi_v2,,08:30-18:00,1.7,,,,,,,14,8,,,,,,,123.46220605259,41.724443435849,0
5ec11ca21bf260c8f5c59c82,中国移动(沈本大街营业厅),生活服务,通讯营业厅,辽宁省,沈阳市,浑南区,辽宁省沈阳市浑南区沈本大街沈阳国际软件园e区e011楼,5ec11ca21bf260c8f5c59c82,1,0,123.486746,41.702475,(024)66688059,life,http://api.map.baidu.com/place/detail?uid=5ec11ca21bf260c8f5c59c82&output=html&source=placeapi_v2,,08:30-17:00,5,,,,,,,7,12,,,,,,,123.48676287463,41.702373588146,0
f8f03f0bb71d000dd813183b,中国通信建设集团辽宁省通信服务分公司,生活服务,通讯营业厅,辽宁省,沈阳市,浑南区,辽宁省沈阳市浑南区飞云路14号,f8f03f0bb71d000dd813183b,1,0,123.481115,41.727689,(024)31000330,life,http://api.map.baidu.com/place/detail?uid=f8f03f0bb71d000dd813183b&output=html&source=placeapi_v2,,08:30-17:00,,,,,,,,,,,,,,,,123.48117888002,41.727588008456,0
f8db76568b936621eb12e47b,中国电信(沈中大街营业厅),生活服务,通讯营业厅,辽宁省,沈阳市,浑南区,辽宁省沈阳市浑南区沈中大街26-1甲11门,f8db76568b936621eb12e47b,1,0,123.472554,41.706895,13358873981,life,http://api.map.baidu.com/place/detail?uid=f8db76568b936621eb12e47b&output=html&source=placeapi_v2,,08:00-18:00,0,,,,,,,11,1,,,,,,,123.47308639153,41.706889703403,0
53363c6271e2642eabf72907,中国联通(沈中大街营业厅),生活服务,通讯营业厅,辽宁省,沈阳市,浑南区,辽宁沈阳市浑南区智慧三街33-52号,53363c6271e2642eabf72907,1,0,123.465381,41.706147,(024)24910010,life,http://api.map.baidu.com/place/detail?uid=53363c6271e2642eabf72907&output=html&source=placeapi_v2,,09:00-20:00,5,,,,,,,10,1,,,,,,,123.46536383243,41.706006709467,0
b341ce77fd7eb37d6140a9f5,电信数据中心,生活服务,通讯营业厅,辽宁省,沈阳市,浑南区,辽宁省沈阳市浑南区科幻路9号百科集团4楼,b341ce77fd7eb37d6140a9f5,1,0,123.471841,41.726864,,life,http://api.map.baidu.com/place/detail?uid=b341ce77fd7eb37d6140a9f5&output=html&source=placeapi_v2,,09:00-18:00,,,,,,,,,,,,,,,,,,0
50ba2efcffce05fbd8eced50,中国移动接待室(信访),生活服务,通讯营业厅,辽宁省,沈阳市,浑南区,辽宁省沈阳市浑南区新隆街6号,50ba2efcffce05fbd8eced50,1,0,123.46116,41.729411,,life,http://api.map.baidu.com/place/detail?uid=50ba2efcffce05fbd8eced50&output=html&source=placeapi_v2,,,0,,,,,,,1,1,,,,,,,123.46127927411,41.72945236429,0
dfc496b6c35ddcaf8936eee9,中国铁通(辽宁分公司),生活服务,通讯营业厅,辽宁省,沈阳市,浑南区,辽宁省沈阳市浑南区科幻路8号,dfc496b6c35ddcaf8936eee9,1,1,123.470307,41.728055,,life,http://api.map.baidu.com/place/detail?uid=dfc496b6c35ddcaf8936eee9&output=html&source=placeapi_v2,,09:00-18:00,3,,,,,,,8,1,,,,,,,123.47059177108,41.72751831766,1
9bce0b98d204eb25fea7785c,浑南公安分局24小时自助服务区,生活服务,通讯营业厅,辽宁省,沈阳市,浑南区,辽宁省沈阳市浑南区新隆街10-1号,9bce0b98d204eb25fea7785c,1,0,123.460269,41.728115,,life,http://api.map.baidu.com/place/detail?uid=9bce0b98d204eb25fea7785c&output=html&source=placeapi_v2,,00:00-24:00,,,,,,,,,,,,,,,,123.460081549,41.727982383225,0
091dd9b6bb05ae9a631c67a0,沈阳奥维通信技术有限公司(新隆街),生活服务,通讯营业厅,辽宁省,沈阳市,浑南区,沈阳市浑南区自主知识产权园B座,091dd9b6bb05ae9a631c67a0,1,0,123.464215,41.726326,(024)83781111,life,http://api.map.baidu.com/place/detail?uid=091dd9b6bb05ae9a631c67a0&output=html&source=placeapi_v2,,,,,,,,,,,,,,,,,,,,0
4fbdd789e8215d7eaecb6684,中国电信(首创光和城营业厅),生活服务,通讯营业厅,辽宁省,沈阳市,浑南区,辽宁省沈阳市浑南区沈中大街26-116号2楼,,1,0,123.471969,41.705803,13314006850,life,http://api.map.baidu.com/place/detail?uid=4fbdd789e8215d7eaecb6684&output=html&source=placeapi_v2,,09:30-17:00,,,,,,,,9,0,,,,,,,123.4720302232,41.706048278973,0
824d55771df84b78a21de946,中国移动(营城子营业厅),生活服务,通讯营业厅,辽宁省,沈阳市,浑南区,沈阳市浑南区营城子大街101-5号6门,,1,0,123.515718,41.713878,,life,http://api.map.baidu.com/place/detail?uid=824d55771df84b78a21de946&output=html&source=placeapi_v2,,,,,,,,,,10,,,,,,,,123.51561959617,41.714098170096,0
84ec0989dc48af36f7eafc93,中国电信(营城子大街营业厅),生活服务,通讯营业厅,辽宁省,沈阳市,浑南区,沈阳市浑南区营城子大街Z悦香湾,,1,0,123.516901,41.713529,,life,http://api.map.baidu.com/place/detail?uid=84ec0989dc48af36f7eafc93&output=html&source=placeapi_v2,,09:00-18:00,,,,,,,,8,,,,,,,,123.51703163811,41.713521914671,0
8825cbd464b77204581093a4,中国移动通讯,生活服务,通讯营业厅,辽宁省,沈阳市,浑南区,辽宁省沈阳市浑南区营城子大街145号14门,8825cbd464b77204581093a4,1,0,123.522156,41.708234,15640419588,life,http://api.map.baidu.com/place/detail?uid=8825cbd464b77204581093a4&output=html&source=placeapi_v2,,,0.0,,,,,,,1,2,,,,,,,,,0
e458ba092849ab3ac256ac74,中国移动(金水湾店),生活服务,通讯营业厅,辽宁省,沈阳市,浑南区,辽宁省沈阳市浑南区营城子大街45号,e458ba092849ab3ac256ac74,1,0,123.504092,41.719051,15802466885,life,http://api.map.baidu.com/place/detail?uid=e458ba092849ab3ac256ac74&output=html&source=placeapi_v2,,,,,,,,,,11,,,,,,,,,,0
4ffb763844e1be6b28d7abae,中国移动光宽带营业厅(Z悦香湾店),生活服务,通讯营业厅,辽宁省,沈阳市,浑南区,辽宁省沈阳市浑南区营城子大街101-1号-4门,,1,0,123.51736,41.713571,,life,http://api.map.baidu.com/place/detail?uid=4ffb763844e1be6b28d7abae&output=html&source=placeapi_v2,,,,,,,,,,6,,,,,,,,123.51705636217,41.713546561631,0
8beeaa1f197cb9e5220220b1,中国联通翟家营业厅智慧生活馆,生活服务,通讯营业厅,辽宁省,沈阳市,铁西区,辽宁省沈阳市铁西区沈辽西路100-12号5门,,1,0,123.268405,41.756262,(024)89351353,life,http://api.map.baidu.com/place/detail?uid=8beeaa1f197cb9e5220220b1&output=html&source=placeapi_v2,,09:00-18:00,,,,,,,,4,1,,,,,,,123.26864627404,41.756067289141,0
f0383b7f9af0d2e986420e86,中国电信(曹家花园营业厅),生活服务,通讯营业厅,辽宁省,沈阳市,铁西区,辽宁省沈阳市铁西区中央南大街45甲1-21网点4门,f0383b7f9af0d2e986420e86,1,0,123.263358,41.747148,(024)31819123,life,http://api.map.baidu.com/place/detail?uid=f0383b7f9af0d2e986420e86&output=html&source=placeapi_v2,,09:00-20:00,,,,,,,,5,,,,,,,,123.26336771947,41.747082847722,0
189be69fc016ab862efaa798,中国移动(中央大街标准店),生活服务,通讯营业厅,辽宁省,沈阳市,铁西区,辽宁省沈阳市铁西区中央大街25-34号,189be69fc016ab862efaa798,1,0,123.252676,41.75758,13478370070,life,http://api.map.baidu.com/place/detail?uid=189be69fc016ab862efaa798&output=html&source=placeapi_v2,,08:00-17:00,,,,,,,,7,,,,,,,,123.25257188116,41.757564736619,0
dd43027de3af70dcdbeced61,中国联通智慧生活馆,生活服务,通讯营业厅,辽宁省,沈阳市,铁西区,辽宁省沈阳市铁西区中央大街23甲3号8门,dd43027de3af70dcdbeced61,1,0,123.252264,41.760854,18602407463,life,http://api.map.baidu.com/place/detail?uid=dd43027de3af70dcdbeced61&output=html&source=placeapi_v2,,08:30-17:00,,,,,,,,4,,,,,,,,123.25210207456,41.760770562014,0
391bb20d4d59cd292ad7abd4,中国移动(光宽带宁官营业厅),生活服务,通讯营业厅,辽宁省,沈阳市,铁西区,辽宁省沈阳市铁西区沈辽路65-20号家宁新苑底商,391bb20d4d59cd292ad7abd4,1,0,123.276936,41.760473,13610816548,life,http://api.map.baidu.com/place/detail?uid=391bb20d4d59cd292ad7abd4&output=html&source=placeapi_v2,,08:30-20:00,,,,,,,,20,,,,,,,,123.27679062171,41.760677083213,0
5c5c6a7180ea1ef1a7c7565e,中国联通(宁官营业厅),生活服务,通讯营业厅,辽宁省,沈阳市,铁西区,沈辽西路20号(近青苹果友谊城)(沈阳市浑蒲灌区管理处东南),5c5c6a7180ea1ef1a7c7565e,1,0,123.284361,41.763826,15940455222,life,http://api.map.baidu.com/place/detail?uid=5c5c6a7180ea1ef1a7c7565e&output=html&source=placeapi_v2,,09:00-18:00,,,,,,,,11,,,,,,,,123.28437431176,41.763758010229,0
eca9079f7a1649450ab93a31,方翊宽带,生活服务,通讯营业厅,辽宁省,沈阳市,铁西区,辽宁省沈阳市铁西区沈辽西路107号,eca9079f7a1649450ab93a31,1,0,123.258722,41.750476,(024)25555506,life,http://api.map.baidu.com/place/detail?uid=eca9079f7a1649450ab93a31&output=html&source=placeapi_v2,,08:30-17:00,1,,,,,,,16,2,,,,,,,123.25868682373,41.750522751131,0
9da6c5644a094381a6da3916,中国移动(沈辽路营业厅),生活服务,通讯营业厅,辽宁省,沈阳市,于洪区,辽宁省沈阳市于洪区沈辽路191号,9da6c5644a094381a6da3916,1,0,123.314206,41.768266,13998808321,life,http://api.map.baidu.com/place/detail?uid=9da6c5644a094381a6da3916&output=html&source=placeapi_v2,,07:30-18:00,1.8,,,,,,,40,8,,,,,,,123.31421073157,41.768430555906,0
4d094e92e9cbb0642902e13a,中国联通(汪河路营业厅),生活服务,通讯营业厅,辽宁省,沈阳市,于洪区,辽宁省沈阳市于洪区汪河路170-5号3门,,1,0,123.331157,41.752512,18640412225,life,http://api.map.baidu.com/place/detail?uid=4d094e92e9cbb0642902e13a&output=html&source=placeapi_v2,,08:30-20:00,,,,,,,,4,1,,,,,,,123.3313714489,41.752634022418,0
0bb609495f497adbfb22131c,联通沈辽路营业厅,生活服务,通讯营业厅,辽宁省,沈阳市,于洪区,辽宁省沈阳市于洪区沈辽路189号,0bb609495f497adbfb22131c,1,0,123.315368,41.768571,15604033555,life,http://api.map.baidu.com/place/detail?uid=0bb609495f497adbfb22131c&output=html&source=placeapi_v2,,09:00-17:00,,,,,,,,8,,,,,,,,123.3153533672,41.768650773313,0
f6c058ab688be5395fd4fe9a,中国联通(金沙营业厅),生活服务,通讯营业厅,辽宁省,沈阳市,于洪区,沈阳市于洪区南阳湖街道微山湖街谟家鑫村,,1,0,123.312975,41.738799,,life,http://api.map.baidu.com/place/detail?uid=f6c058ab688be5395fd4fe9a&output=html&source=placeapi_v2,,09:00-18:00,0.0,,,,,,,13,,,,,,,,,,0
1a106b753839193a3c9a5e90,中国电信(沈辽西路营业厅),生活服务,通讯营业厅,辽宁省,沈阳市,于洪区,辽宁省沈阳市于洪区沈辽路191号,1a106b753839193a3c9a5e90,1,0,123.313788,41.768209,(024)31598045,life,http://api.map.baidu.com/place/detail?uid=1a106b753839193a3c9a5e90&output=html&source=placeapi_v2,,09:00-18:00,0,,,,,,,24,0,,,,,,,123.31374343664,41.768453341855,0
ed76dfc6cb20cdf907fef5e0,中国移动(谟家鑫村东),生活服务,通讯营业厅,辽宁省,沈阳市,于洪区,沈阳市于洪区杨士乡金沙村(谟家鑫村门市),ed76dfc6cb20cdf907fef5e0,1,0,123.313598,41.738766,,life,http://api.map.baidu.com/place/detail?uid=ed76dfc6cb20cdf907fef5e0&output=html&source=placeapi_v2,,,,,,,,,,15,,,,,,,,123.31354246414,41.738759177162,0
cb7680b95906022a15a190b5,中国移动(南阳湖街),生活服务,通讯营业厅,辽宁省,沈阳市,于洪区,辽宁沈阳市于洪区南阳湖街191-2号于洪新城三期162号楼,cb7680b95906022a15a190b5,1,0,123.342364,41.752168,13555876555,life,http://api.map.baidu.com/place/detail?uid=cb7680b95906022a15a190b5&output=html&source=placeapi_v2,,,5,,,,,,,15,2,,,,,,,123.34237869893,41.75213845532,0
8b03adf3768f75426140a969,中国联通(细河路营业厅),生活服务,通讯营业厅,辽宁省,沈阳市,于洪区,辽宁省沈阳市于洪区细河南路47-3号3门,8b03adf3768f75426140a969,1,0,123.359115,41.764536,"(024)23313750,18602404773",life,http://api.map.baidu.com/place/detail?uid=8b03adf3768f75426140a969&output=html&source=placeapi_v2,,08:30-17:00,0,,,,,,,8,1,,,,,,,123.3589661042,41.764441582995,0
4d094e92e9cbb0642902e13a,中国联通(汪河路营业厅),生活服务,通讯营业厅,辽宁省,沈阳市,于洪区,辽宁省沈阳市于洪区汪河路170-5号3门,,1,0,123.331157,41.752512,18640412225,life,http://api.map.baidu.com/place/detail?uid=4d094e92e9cbb0642902e13a&output=html&source=placeapi_v2,,08:30-20:00,,,,,,,,4,1,,,,,,,123.3313714489,41.752634022418,0
0e7547efd04a30ca704b8708,中国移动(于洪新城营业厅),生活服务,通讯营业厅,辽宁省,沈阳市,于洪区,辽宁省沈阳市于洪区汪河路39号凤凰街广场,,1,0,123.364515,41.762053,13998863916,life,http://api.map.baidu.com/place/detail?uid=0e7547efd04a30ca704b8708&output=html&source=placeapi_v2,,09:00-18:00,5,,,,,,,20,1,,,,,,,123.36417562758,41.762576750171,0
bf4b05b2515f772fe31103e2,中国电信(吉力湖街营业厅),生活服务,通讯营业厅,辽宁省,沈阳市,于洪区,辽宁省沈阳市于洪区吉力湖街68-7门号,bf4b05b2515f772fe31103e2,1,0,123.366701,41.765668,18940077701,life,http://api.map.baidu.com/place/detail?uid=bf4b05b2515f772fe31103e2&output=html&source=placeapi_v2,162.5,09:00-18:00,1.8,,,,,,,19,7,,,,,,,123.36656186478,41.765498475366,0
c9db8388e9db30cbeb56fa77,中国联通(碧桂园营业厅),生活服务,通讯营业厅,辽宁省,沈阳市,于洪区,辽宁省沈阳市于洪区南阳湖街166-10号9期,c9db8388e9db30cbeb56fa77,1,0,123.345163,41.751561,,life,http://api.map.baidu.com/place/detail?uid=c9db8388e9db30cbeb56fa77&output=html&source=placeapi_v2,,,,,,,,,,2,,,,,,,,,,0
cc1ec8b414f67acdc5effb43,中国联通(长白营业厅),生活服务,通讯营业厅,辽宁省,沈阳市,和平区,辽宁省沈阳市和平区长白二街131-1号,cc1ec8b414f67acdc5effb43,1,0,123.398266,41.747626,(024)23910010,life,http://api.map.baidu.com/place/detail?uid=cc1ec8b414f67acdc5effb43&output=html&source=placeapi_v2,,08:30-17:30,4.8,,,,,,,13,6,,,,,,,123.39810293698,41.747497484988,0
4c65ca4206b957025fd4fef7,中国联通(长白营业厅),生活服务,通讯营业厅,辽宁省,沈阳市,和平区,辽宁省沈阳市和平区长白中路277号一期2楼,4c65ca4206b957025fd4fef7,1,1,123.408054,41.747825,"(024)23736777,18602408961",life,http://api.map.baidu.com/place/detail?uid=4c65ca4206b957025fd4fef7&output=html&source=placeapi_v2,,08:30-17:00,,,,,,,,14,13,,,,,,,123.4079251316,41.747927380587,1
a81802b99fd60078af080f13,中国移动(维华商业广场营业厅),生活服务,通讯营业厅,辽宁省,沈阳市,和平区,辽宁省沈阳市和平区南京南街201号维华商业广场F1,a81802b99fd60078af080f13,1,0,123.40885,41.751774,18604002788,life,http://api.map.baidu.com/place/detail?uid=a81802b99fd60078af080f13&output=html&source=placeapi_v2,,08:30-20:30,0,,,,,,,12,1,,,,,,,123.40875518139,41.751753216196,0
519f78fe47139be75c0d024d,中国移动(长白岛营业厅),生活服务,通讯营业厅,辽宁省,沈阳市,和平区,辽宁省沈阳市和平区秀岛路101号二期2楼,519f78fe47139be75c0d024d,1,0,123.412465,41.743479,,life,http://api.map.baidu.com/place/detail?uid=519f78fe47139be75c0d024d&output=html&source=placeapi_v2,,08:00-18:30,2.6,,,,,,,13,12,,,,,,,123.41230751772,41.743608386014,0
5ab8b0194e9605a75b109356,中国电信(长白大润发营业厅),生活服务,通讯营业厅,辽宁省,沈阳市,和平区,辽宁省沈阳市和平区南京南街201号维华商业广场F1,5ab8b0194e9605a75b109356,1,0,123.408909,41.751801,(024)31220777,life,http://api.map.baidu.com/place/detail?uid=5ab8b0194e9605a75b109356&output=html&source=placeapi_v2,,08:30-18:00,0,,,,,,,7,0,,,,,,,123.40875803687,41.751745842751,0
3cfa2270fce659c93686f469,中国移动光宽带营业厅,生活服务,通讯营业厅,辽宁省,沈阳市,和平区,辽宁省沈阳市和平区夹河路9-2号8门,3cfa2270fce659c93686f469,1,0,123.407031,41.744941,15840075008,life,http://api.map.baidu.com/place/detail?uid=3cfa2270fce659c93686f469&output=html&source=placeapi_v2,,08:00-20:00,0,,,,,,,7,0,,,,,,,123.40699398314,41.745041318374,0
f6817a8ad4c6a11db34c4927,中国移动-24小时自助服务厅,生活服务,通讯营业厅,辽宁省,沈阳市,和平区,辽宁省沈阳市和平区长白三路77~79号,f6817a8ad4c6a11db34c4927,1,0,123.412448,41.743448,,life,http://api.map.baidu.com/place/detail?uid=f6817a8ad4c6a11db34c4927&output=html&source=placeapi_v2,,00:00-24:00,0.0,,,,,,,2,1,,,,,,,,,0
6bc80d47be096b11a3d2304d,中国电信(马总花园营业厅),生活服务,通讯营业厅,辽宁省,沈阳市,和平区,辽宁省沈阳市和平区夹河路11-1号,6bc80d47be096b11a3d2304d,1,0,123.389604,41.74423,(024)31837999,life,http://api.map.baidu.com/place/detail?uid=6bc80d47be096b11a3d2304d&output=html&source=placeapi_v2,,09:00-18:00,1,,,,,,,10,3,,,,,,,123.38966109658,41.744075980452,0
9a47c44c3b30c081eb1e97cb,中国移动4G宽带电视服务站砂山店,生活服务,通讯营业厅,辽宁省,沈阳市,和平区,辽宁省沈阳市和平区玉屏路9号,9a47c44c3b30c081eb1e97cb,1,0,123.38749,41.76844,,life,http://api.map.baidu.com/place/detail?uid=9a47c44c3b30c081eb1e97cb&output=html&source=placeapi_v2,,,0,,,,,,,15,1,,,,,,,123.38767242155,41.768396683609,0
e56bf5e348cb35390782c27a,中国联通(浑河站营业厅),生活服务,通讯营业厅,辽宁省,沈阳市,和平区,辽宁省沈阳市和平区沈苏西路29号,e56bf5e348cb35390782c27a,1,0,123.384318,41.736607,(024)23702371,life,http://api.map.baidu.com/place/detail?uid=e56bf5e348cb35390782c27a&output=html&source=placeapi_v2,,09:00-17:00,0,,,,,,,20,1,,,,,,,123.38452006906,41.736662284114,0
a376278802c8bf1e32870a8e,辽宁永联通信技术有限公司,生活服务,通讯营业厅,辽宁省,沈阳市,浑南区,沈阳市浑南区宁园路北巷长河湾西侧约200米,a376278802c8bf1e32870a8e,1,0,123.391712,41.737443,15309898765,life,http://api.map.baidu.com/place/detail?uid=a376278802c8bf1e32870a8e&output=html&source=placeapi_v2,,,,,,,,,,2,1,,,,,,,,,0
ba58e99abb5119ffa11de99b,中国联通(长白营业厅),生活服务,通讯营业厅,辽宁省,沈阳市,和平区,辽宁省沈阳市和平区长白南路381号20门,ba58e99abb5119ffa11de99b,1,0,123.423491,41.737722,18624313131,life,http://api.map.baidu.com/place/detail?uid=ba58e99abb5119ffa11de99b&output=html&source=placeapi_v2,,09:00-18:00,5,,,,,,,14,5,,,,,,,123.42343766672,41.737904357735,0
363ae4b9fe0ca8ce471a326d,中国电信(新世界营业厅),生活服务,通讯营业厅,辽宁省,沈阳市,和平区,辽宁省沈阳市和平区南三好街9-24号1楼1302室,363ae4b9fe0ca8ce471a326d,1,0,123.430181,41.759287,,life,http://api.map.baidu.com/place/detail?uid=363ae4b9fe0ca8ce471a326d&output=html&source=placeapi_v2,,09:00-06:00,0,,,,,,,8,1,,,,,,,123.43006081665,41.759482272324,0
bfe11b75c92b80b76ea3ccbc,中国电信营业厅,生活服务,通讯营业厅,辽宁省,沈阳市,和平区,辽宁省沈阳市和平区长白五街3甲5-6号2期,,1,0,123.421295,41.745974,18141750222,life,http://api.map.baidu.com/place/detail?uid=bfe11b75c92b80b76ea3ccbc&output=html&source=placeapi_v2,,09:00-18:00,,,,,,,,3,,,,,,,,,,0
879fa3487fe9f304abf72930,中国移动(三好街营业厅),生活服务,通讯营业厅,辽宁省,沈阳市,和平区,辽宁省沈阳市和平区三好街79号奉天硅谷大厦1楼,879fa3487fe9f304abf72930,1,0,123.434226,41.768621,,life,http://api.map.baidu.com/place/detail?uid=879fa3487fe9f304abf72930&output=html&source=placeapi_v2,,09:00-17:00,,,,,,,,5,,,,,,,,123.43404022203,41.768625721806,0
b8d8e1722cbe045f2cb908f1,中国联通(浑河堡营业厅),生活服务,通讯营业厅,辽宁省,沈阳市,浑南区,辽宁省沈阳市浑南区沈营路7-2号,b8d8e1722cbe045f2cb908f1,1,0,123.45801,41.745349,"(024)25852277,18602408902",life,http://api.map.baidu.com/place/detail?uid=b8d8e1722cbe045f2cb908f1&output=html&source=placeapi_v2,661,08:00-17:00,1.8,,,,,,,13,21,,,,,,,123.45789650978,41.745322115458,0
3ba3cea55a9516b6e5e9654a,中国电信(荣盛爱家郦都营业厅),生活服务,通讯营业厅,辽宁省,沈阳市,浑南区,沈阳市浑南区绮霞街荣盛爱家郦都,3ba3cea55a9516b6e5e9654a,1,0,123.44248,41.740605,,life,http://api.map.baidu.com/place/detail?uid=3ba3cea55a9516b6e5e9654a&output=html&source=placeapi_v2,,09:00-18:00,1,,,,,,,9,1,,,,,,,123.44283703863,41.740680214117,0
47b82736fbf5247fd9d8918c,中国联通(临波路营业厅),生活服务,通讯营业厅,辽宁省,沈阳市,浑南区,辽宁省沈阳市浑南区绮霞街8-57号,47b82736fbf5247fd9d8918c,1,0,123.438664,41.741096,,life,http://api.map.baidu.com/place/detail?uid=47b82736fbf5247fd9d8918c&output=html&source=placeapi_v2,,08:30-18:00,,,,,,,,3,1,,,,,,,123.43857410558,41.741131599124,0
815802e48ae4b2cbf92213b1,中国移动(银卡路营业厅),生活服务,通讯营业厅,辽宁省,沈阳市,浑南区,辽宁省沈阳市浑南区天成街1-12号,815802e48ae4b2cbf92213b1,1,0,123.476674,41.740821,,life,http://api.map.baidu.com/place/detail?uid=815802e48ae4b2cbf92213b1&output=html&source=placeapi_v2,,09:00-21:00,1,,,,,,,14,4,,,,,,,123.47675988794,41.740859564629,0
5840212c8ed070c2adcb669c,中国联通(营盘营业厅),生活服务,通讯营业厅,辽宁省,沈阳市,浑南区,辽宁省沈阳市浑南区富民南街50号,5840212c8ed070c2adcb669c,1,1,123.476277,41.740002,"(024)23810844,18602408723",life,http://api.map.baidu.com/place/detail?uid=5840212c8ed070c2adcb669c&output=html&source=placeapi_v2,661,08:30-17:00,2,,,,,,,13,8,,,,,,,123.47577702673,41.740186445243,1
fa7da3e8c479bf1f42d63e7a,中国电信(浑南中路营业厅),生活服务,通讯营业厅,辽宁省,沈阳市,浑南区,辽宁省沈阳市浑南区浑南中路10~14号,fa7da3e8c479bf1f42d63e7a,1,0,123.493909,41.74904,(024)31696002,life,http://api.map.baidu.com/place/detail?uid=fa7da3e8c479bf1f42d63e7a&output=html&source=placeapi_v2,,09:00-18:30,1.6,,,,,,,17,33,,,,,,,123.49378497461,41.749040207081,0
c5740f3a467b4bc8e856fab1,中国联通(浑南中路营业厅),生活服务,通讯营业厅,辽宁省,沈阳市,浑南区,辽宁省沈阳市浑南区浑南中路12-5号,c5740f3a467b4bc8e856fab1,1,0,123.491748,41.748257,(024)28411792,life,http://api.map.baidu.com/place/detail?uid=c5740f3a467b4bc8e856fab1&output=html&source=placeapi_v2,,09:00-18:00,4.9,,,,,,,11,8,,,,,,,123.49183548117,41.74823404596,0
23bad215ae4b449693114c2b,沈阳国永通信工程有限公司,生活服务,通讯营业厅,辽宁省,沈阳市,浑南区,辽宁省沈阳市浑南区南堤中路9-19号,23bad215ae4b449693114c2b,1,0,123.491492,41.756733,13109882710,life,http://api.map.baidu.com/place/detail?uid=23bad215ae4b449693114c2b&output=html&source=placeapi_v2,,,,,,,,,,2,1,,,,,,,123.49149343409,41.756889018915,0
b8d8e1722cbe045f2cb908f1,中国联通(浑河堡营业厅),生活服务,通讯营业厅,辽宁省,沈阳市,浑南区,辽宁省沈阳市浑南区沈营路7-2号,b8d8e1722cbe045f2cb908f1,1,0,123.45801,41.745349,"(024)25852277,18602408902",life,http://api.map.baidu.com/place/detail?uid=b8d8e1722cbe045f2cb908f1&output=html&source=placeapi_v2,661,08:00-17:00,1.8,,,,,,,13,21,,,,,,,123.45789650978,41.745322115458,0
9befc9ddb0e39f2c7c29bd1f,中国移动(浑南授权代理店),生活服务,通讯营业厅,辽宁省,沈阳市,浑南区,辽宁省沈阳市浑南区文源街d7-2门,9befc9ddb0e39f2c7c29bd1f,1,0,123.493951,41.74227,13940319099,life,http://api.map.baidu.com/place/detail?uid=9befc9ddb0e39f2c7c29bd1f&output=html&source=placeapi_v2,,08:00-20:00,,,,,,,,19,,,,,,,,123.49418106087,41.742758937777,0
e35635f5e2a979ae7ec8766e,中国联通(浑南新区维护中心),生活服务,通讯营业厅,辽宁省,沈阳市,浑南区,辽宁省沈阳市浑南区富民南街50号,e35635f5e2a979ae7ec8766e,1,1,123.47704,41.739759,(024)23810844,life,http://api.map.baidu.com/place/detail?uid=e35635f5e2a979ae7ec8766e&output=html&source=placeapi_v2,,09:00-18:00,0,,,,,,,8,1,,,,,,,123.47719470195,41.739831045505,1
7341534579225980bd4842f0,中国联通(奥体万达店),生活服务,通讯营业厅,辽宁省,沈阳市,浑南区,沈阳市浑南区营盘西街17号奥体万达广场二楼苏宁易购中国联通,7341534579225980bd4842f0,1,0,123.466827,41.741724,,life,http://api.map.baidu.com/place/detail?uid=7341534579225980bd4842f0&output=html&source=placeapi_v2,,,5,,,,,,,1,1,,,,,,,,,0
fe53d3eba57bc27800ff2d3a,中国移动(金地琥珀天地营业厅),生活服务,通讯营业厅,辽宁省,沈阳市,浑南区,沈阳市浑南区浑南东路18号金地琥珀天地F1,fe53d3eba57bc27800ff2d3a,1,0,123.517795,41.753482,"13604902066,13998294475",life,http://api.map.baidu.com/place/detail?uid=fe53d3eba57bc27800ff2d3a&output=html&source=placeapi_v2,,09:00-21:00,3,,,,,,,12,2,,,,,,,123.51778573948,41.753509089697,0
2fe4c1ee6ed169cc715e8093,中国联通(浑南东路营业厅),生活服务,通讯营业厅,辽宁省,沈阳市,浑南区,辽宁省沈阳市浑南区琥珀天地C区12门,2fe4c1ee6ed169cc715e8093,1,0,123.519565,41.754712,13032433344,life,http://api.map.baidu.com/place/detail?uid=2fe4c1ee6ed169cc715e8093&output=html&source=placeapi_v2,,09:00-19:00,5,,,,,,,11,5,,,,,,,,,0
e797abcd200e20cb6d20b96d,中国电信(金地滨河店),生活服务,通讯营业厅,辽宁省,沈阳市,浑南区,辽宁省沈阳市浑南区学城路(金地・檀溪),e797abcd200e20cb6d20b96d,1,0,123.523453,41.755745,17741333855,life,http://api.map.baidu.com/place/detail?uid=e797abcd200e20cb6d20b96d&output=html&source=placeapi_v2,,09:00-18:00,,,,,,,,1,1,,,,,,,123.52323962717,41.755673884568,0
d2ad99fc3680fb749cec2bc8,中国联通(东滨河营业厅),生活服务,通讯营业厅,辽宁省,沈阳市,浑南区,辽宁省沈阳市浑南区长青南街17-23号,d2ad99fc3680fb749cec2bc8,1,0,123.508175,41.752158,(024)83600822,life,http://api.map.baidu.com/place/detail?uid=d2ad99fc3680fb749cec2bc8&output=html&source=placeapi_v2,,08:30-17:30,1.0,,,,,,,10,2,,,,,,,123.50812690717,41.752148837811,0
0d246deabbbe47c6ed74f80e,中国联通(长青南街营业厅),生活服务,通讯营业厅,辽宁省,沈阳市,浑南区,辽宁省沈阳市浑南区长青南街22-50号(江南水乡2期),,1,0,123.506813,41.746261,17640276767,life,http://api.map.baidu.com/place/detail?uid=0d246deabbbe47c6ed74f80e&output=html&source=placeapi_v2,,09:00-19:00,,,,,,,,6,1,,,,,,,123.50678762707,41.746094092314,0
d4731f28dda8ae3beee4a5b4,鹏博宽带(沈音客户服务中心),生活服务,通讯营业厅,辽宁省,沈阳市,浑南区,辽宁省沈阳市浑南区长青南街18-11-15号,d4731f28dda8ae3beee4a5b4,1,0,123.510363,41.741789,15041229425,life,http://api.map.baidu.com/place/detail?uid=d4731f28dda8ae3beee4a5b4&output=html&source=placeapi_v2,,08:30-19:00,5,,,,,,,6,1,,,,,,,123.51049786239,41.741813082935,0
0e7c657b60d666a5a1d2300f,中国联通(营业厅),生活服务,通讯营业厅,辽宁省,沈阳市,新民市,沈阳市新民市京哈公路金汇・温泉雅苑东北侧约40米,,1,0,123.081639,41.79079,,life,http://api.map.baidu.com/place/detail?uid=0e7c657b60d666a5a1d2300f&output=html&source=placeapi_v2,,,,,,,,,,5,,,,,,,,,,0
828c358860309f5515a190f9,中国移动(胡台营业厅),生活服务,通讯营业厅,辽宁省,沈阳市,新民市,辽宁省沈阳市新民市中心路133号,828c358860309f5515a190f9,1,0,123.14694,41.793903,(024)22857141,life,http://api.map.baidu.com/place/detail?uid=828c358860309f5515a190f9&output=html&source=placeapi_v2,,07:30-17:30,0,,,,,,,10,1,,,,,,,123.14683363044,41.794132020086,0
b85def08224439e3d618b7c0,中国移动胡台镇孙启佳智慧家庭服务站,生活服务,通讯营业厅,辽宁省,沈阳市,新民市,沈阳市新民市京哈公路唐轩英郡,b85def08224439e3d618b7c0,1,0,123.143949,41.793875,,life,http://api.map.baidu.com/place/detail?uid=b85def08224439e3d618b7c0&output=html&source=placeapi_v2,,,,,,,,,,4,,,,,,,,,,0
6eb4df196da0c343601c670b,中国移动光宽带营业厅(沈新西路营业厅),生活服务,通讯营业厅,辽宁省,沈阳市,铁西区,辽宁省沈阳市铁西区沈新西路235-75号,6eb4df196da0c343601c670b,1,0,123.243983,41.792982,13889327402,life,http://api.map.baidu.com/place/detail?uid=6eb4df196da0c343601c670b&output=html&source=placeapi_v2,,08:00-20:00,0.0,,,,,,,14,,,,,,,,123.24403172391,41.793142042458,0
9e162e6f6db1f1288bb98834,中国移动(沙岭指定专营店),生活服务,通讯营业厅,辽宁省,沈阳市,于洪区,辽宁省沈阳市于洪区沙岭镇沙岭水木年华1号18网点,9e162e6f6db1f1288bb98834,1,0,123.21188,41.797636,"(024)31588586,(024)31588600",life,http://api.map.baidu.com/place/detail?uid=9e162e6f6db1f1288bb98834&output=html&source=placeapi_v2,,08:30-18:00,0,,,,,,,15,1,,,,,,,123.21192655178,41.797370888347,0
80ee29665220aee36240a9a0,中国联通智慧生活馆,生活服务,通讯营业厅,辽宁省,沈阳市,于洪区,辽宁省沈阳市于洪区沈辽西路107号16门,80ee29665220aee36240a9a0,1,0,123.214249,41.797087,(024)89375202,life,http://api.map.baidu.com/place/detail?uid=80ee29665220aee36240a9a0&output=html&source=placeapi_v2,,,,,,,,,,14,,,,,,,,123.21424050809,41.796945590251,0
973dbb8ec5247a5ee7073881,中国联通(沙岭营业厅),生活服务,通讯营业厅,辽宁省,沈阳市,于洪区,辽宁省沈阳市于洪区沙岭路沙岭小区,,1,0,123.214264,41.797119,(024)89375202,life,http://api.map.baidu.com/place/detail?uid=973dbb8ec5247a5ee7073881&output=html&source=placeapi_v2,,09:00-18:00,,,,,,,,1,,,,,,,,,,0
cf623d9630b336b6cc06a49a,中国联通(沙岭晓峰满营业厅),生活服务,通讯营业厅,辽宁省,沈阳市,于洪区,辽宁省沈阳市于洪区沙岭南小区(政府后院),cf623d9630b336b6cc06a49a,1,0,123.208386,41.795753,(024)89375202,life,http://api.map.baidu.com/place/detail?uid=cf623d9630b336b6cc06a49a&output=html&source=placeapi_v2,,08:00-16:00,,,,,,,,10,,,,,,,,123.20832537435,41.795868844313,0
142de17ab0c6ba051ce999bd,中国移动(京哈公路营业厅),生活服务,通讯营业厅,辽宁省,沈阳市,于洪区,沈阳市于洪区京哈公路沙岭社区北侧约40米,142de17ab0c6ba051ce999bd,1,0,123.214136,41.797698,,life,http://api.map.baidu.com/place/detail?uid=142de17ab0c6ba051ce999bd&output=html&source=placeapi_v2,,,,,,,,,,3,,,,,,,,,,0
546f7d8b53fdd20c3a13fddb,中国移动(五号路),生活服务,通讯营业厅,辽宁省,沈阳市,铁西区,辽宁省沈阳市铁西区沈新路186号,546f7d8b53fdd20c3a13fddb,1,0,123.270475,41.786002,,life,http://api.map.baidu.com/place/detail?uid=546f7d8b53fdd20c3a13fddb&output=html&source=placeapi_v2,,,0,,,,,,,16,2,,,,,,,123.27055499988,41.785893888417,0
881a28e7649a4d3af942b271,中国联通(松花湖街营业厅),生活服务,通讯营业厅,辽宁省,沈阳市,铁西区,辽宁省沈阳市铁西区松花湖街14号,28e700f1a4908e7c095cb371,1,1,123.28656,41.785024,15640560066,life,http://api.map.baidu.com/place/detail?uid=881a28e7649a4d3af942b271&output=html&source=placeapi_v2,,09:00-17:00,4.2,,,,,,,8,14,,,,,,,123.28679589638,41.785036781224,1
85d9d9d5e1a10eda31870af1,中国电信(太湖街营业厅),生活服务,通讯营业厅,辽宁省,沈阳市,于洪区,辽宁省沈阳市于洪区沈新路106号a3-14门,85d9d9d5e1a10eda31870af1,1,0,123.311808,41.787833,,life,http://api.map.baidu.com/place/detail?uid=85d9d9d5e1a10eda31870af1&output=html&source=placeapi_v2,,08:30-17:00,5,,,,,,,9,2,,,,,,,123.31192627958,41.787586088412,0
00d9b754ef551ba92811d147,沈阳电信工程局,生活服务,通讯营业厅,辽宁省,沈阳市,铁西区,辽宁省沈阳市铁西区沧海路2-1号,00d9b754ef551ba92811d147,1,1,123.30886,41.78393,(024)25790070,life,http://api.map.baidu.com/place/detail?uid=00d9b754ef551ba92811d147&output=html&source=placeapi_v2,,"08:30-11:30,13:30-17:00",,,,,,,,12,,,,,,,,123.30939157494,41.783960148171,1
060f5e537e2155aa091cc7a0,中国移动(花海路营业厅),生活服务,通讯营业厅,辽宁省,沈阳市,铁西区,辽宁沈阳市铁西区花海路19-1号,060f5e537e2155aa091cc7a0,1,0,123.302671,41.773513,,life,http://api.map.baidu.com/place/detail?uid=060f5e537e2155aa091cc7a0&output=html&source=placeapi_v2,,08:30-17:00,0,,,,,,,12,4,,,,,,,123.30260463247,41.773564211854,0
9da6c5644a094381a6da3916,中国移动(沈辽路营业厅),生活服务,通讯营业厅,辽宁省,沈阳市,于洪区,辽宁省沈阳市于洪区沈辽路191号,9da6c5644a094381a6da3916,1,0,123.314206,41.768266,13998808321,life,http://api.map.baidu.com/place/detail?uid=9da6c5644a094381a6da3916&output=html&source=placeapi_v2,,07:30-18:00,1.8,,,,,,,40,8,,,,,,,123.31421073157,41.768430555906,0
6a2417f18569a041badf8f03,中国移动24小时自助服务厅(黄海路营业厅),生活服务,通讯营业厅,辽宁省,沈阳市,于洪区,辽宁省沈阳市于洪区黄海路57号,6a2417f18569a041badf8f03,1,0,123.303657,41.79943,,life,http://api.map.baidu.com/place/detail?uid=6a2417f18569a041badf8f03&output=html&source=placeapi_v2,,00:00-24:00,3,,,,,,,5,3,,,,,,,123.30357932359,41.79952403195,0
1541d04289fa6cf74e554758,中国移动(海王星辰药房沈新路营业厅),生活服务,通讯营业厅,辽宁省,沈阳市,于洪区,辽宁沈阳市于洪区沈新路66号,1541d04289fa6cf74e554758,1,0,123.317476,41.786321,,life,http://api.map.baidu.com/place/detail?uid=1541d04289fa6cf74e554758&output=html&source=placeapi_v2,,,,,,,,,,,,,,,,,,123.31761647815,41.786321728023,0
7970fa49c651126929fc48e4,中国移动(大商新玛特于洪营业厅),生活服务,通讯营业厅,辽宁省,沈阳市,于洪区,辽宁省沈阳市于洪区洪湖街26号-1,7970fa49c651126929fc48e4,1,0,123.315155,41.801336,13478117666,life,http://api.map.baidu.com/place/detail?uid=7970fa49c651126929fc48e4&output=html&source=placeapi_v2,,09:30-21:00,0,,,,,,,8,3,,,,,,,,,0
0d65c09ff100c85b9dec2b80,优家联动,生活服务,通讯营业厅,辽宁省,沈阳市,于洪区,沈阳市于洪区沈新路沈新园-西区西南侧,,1,0,123.317487,41.786634,,life,http://api.map.baidu.com/place/detail?uid=0d65c09ff100c85b9dec2b80&output=html&source=placeapi_v2,,09:00-20:30,,,,,,,,5,,,,,,,,,,0
3dfaf8ee6aeccea41c389434,中国移动光宽带营业厅,生活服务,通讯营业厅,辽宁省,沈阳市,铁西区,辽宁省沈阳市铁西区燕塞湖街23-13号5门,3dfaf8ee6aeccea41c389434,1,0,123.310716,41.778486,"13998150098,13998190606",life,http://api.map.baidu.com/place/detail?uid=3dfaf8ee6aeccea41c389434&output=html&source=placeapi_v2,,,0.0,,,,,,,20,,,,,,,,123.31070540424,41.778392461531,0
315a3dd19678837ad12dd614,中国移动光宽带营业厅,生活服务,通讯营业厅,辽宁省,沈阳市,于洪区,辽宁省沈阳市于洪区黄海路57号,315a3dd19678837ad12dd614,1,0,123.30368,41.799446,,life,http://api.map.baidu.com/place/detail?uid=315a3dd19678837ad12dd614&output=html&source=placeapi_v2,,09:30-21:00,5,,,,,,,5,1,,,,,,,123.30348222306,41.799511337869,0
34c5ccd84188b47d5e17c353,中国移动(盛发专营店),生活服务,通讯营业厅,辽宁省,沈阳市,铁西区,辽宁省沈阳市铁西区洪湖一街40号,34c5ccd84188b47d5e17c353,1,0,123.317277,41.778447,,life,http://api.map.baidu.com/place/detail?uid=34c5ccd84188b47d5e17c353&output=html&source=placeapi_v2,,,0,,,,,,,11,0,,,,,,,,,0
87a18a770ca75459c17da22f,中国移动光宽带营业厅,生活服务,通讯营业厅,辽宁省,沈阳市,于洪区,沈阳市于洪区太湖街风和美苑北侧约70米,87a18a770ca75459c17da22f,1,0,123.311754,41.78709,18509880988,life,http://api.map.baidu.com/place/detail?uid=87a18a770ca75459c17da22f&output=html&source=placeapi_v2,,08:30-18:00,,,,,,,,2,,,,,,,,123.31185396329,41.787081808369,0
7d806ed72c0ea9f703ec014b,中国联通(燕塞湖营业厅),生活服务,通讯营业厅,辽宁省,沈阳市,铁西区,辽宁省沈阳市铁西区燕塞湖街27-5号16门,7d806ed72c0ea9f703ec014b,1,0,123.315086,41.777187,18698819822,life,http://api.map.baidu.com/place/detail?uid=7d806ed72c0ea9f703ec014b&output=html&source=placeapi_v2,,09:00-17:00,0,,,,,,,8,1,,,,,,,123.31508636745,41.77716429434,0
0bb609495f497adbfb22131c,联通沈辽路营业厅,生活服务,通讯营业厅,辽宁省,沈阳市,于洪区,辽宁省沈阳市于洪区沈辽路189号,0bb609495f497adbfb22131c,1,0,123.315368,41.768571,15604033555,life,http://api.map.baidu.com/place/detail?uid=0bb609495f497adbfb22131c&output=html&source=placeapi_v2,,09:00-17:00,,,,,,,,8,,,,,,,,123.3153533672,41.768650773313,0
827ce8c0d3338240c9fa5f71,中国联通智慧生活馆,生活服务,通讯营业厅,辽宁省,沈阳市,铁西区,辽宁省沈阳市铁西区燕塞湖街39号,827ce8c0d3338240c9fa5f71,1,0,123.316835,41.773994,(024)25653010,life,http://api.map.baidu.com/place/detail?uid=827ce8c0d3338240c9fa5f71&output=html&source=placeapi_v2,,08:30-17:00,0,,,,,,,4,0,,,,,,,123.31670827332,41.773775819787,0
45ee405e15683d77e6e9656a,中国电信沈辽路营业厅,生活服务,通讯营业厅,辽宁省,沈阳市,铁西区,辽宁省沈阳市铁西区沈辽路2网点号8040号楼,,1,0,123.333431,41.78032,13324066277,life,http://api.map.baidu.com/place/detail?uid=45ee405e15683d77e6e9656a&output=html&source=placeapi_v2,,09:00-17:30,,,,,,,,6,,,,,,,,123.33363910438,41.78023289679,0
85355c5223a8266d118824fe,中国电信(铁西开发区营业厅),生活服务,通讯营业厅,辽宁省,沈阳市,铁西区,沈阳市铁西区沈辽路燕塞湖街41甲网点6门,85355c5223a8266d118824fe,1,0,123.317468,41.773385,(024)31223756,life,http://api.map.baidu.com/place/detail?uid=85355c5223a8266d118824fe&output=html&source=placeapi_v2,,08:00-18:00,0,,,,,,,3,1,,,,,,,123.31726512751,41.773367149425,0
798bf666658313014d2fdfaf,万通联采,生活服务,通讯营业厅,辽宁省,沈阳市,铁西区,沈阳市铁西区洪湖一街澳海西湖印象,798bf666658313014d2fdfaf,1,0,123.314792,41.777269,,life,http://api.map.baidu.com/place/detail?uid=798bf666658313014d2fdfaf&output=html&source=placeapi_v2,,,,,,,,,,12,,,,,,,,123.31479760804,41.777170732507,0
f475c5e299564ae971210b34,中国移动4G+宽带电视服务站(沈新园店),生活服务,通讯营业厅,辽宁省,沈阳市,于洪区,辽宁沈阳市于洪区沈新路16-3号,f475c5e299564ae971210b34,1,0,123.321174,41.786999,,life,http://api.map.baidu.com/place/detail?uid=f475c5e299564ae971210b34&output=html&source=placeapi_v2,,,,,,,,,,7,,,,,,,,123.32132690121,41.786970244425,0
7ae5abe97b1fbfa31ff74d2e,中国联通(世代龙城营业厅),生活服务,通讯营业厅,辽宁省,沈阳市,于洪区,辽宁省沈阳市于洪区黄海路40号5门,7ae5abe97b1fbfa31ff74d2e,1,0,123.307231,41.800283,(024)25182900,life,http://api.map.baidu.com/place/detail?uid=7ae5abe97b1fbfa31ff74d2e&output=html&source=placeapi_v2,,08:00-17:30,0,,,,,,,11,0,,,,,,,123.30722737012,41.800044398898,0
7388dffd582b6395d2ff23a4,中国联通(黄海路营业厅),生活服务,通讯营业厅,辽宁省,沈阳市,于洪区,辽宁省沈阳市于洪区黄海路50号,7388dffd582b6395d2ff23a4,1,0,123.3008,41.800382,18602404510,life,http://api.map.baidu.com/place/detail?uid=7388dffd582b6395d2ff23a4&output=html&source=placeapi_v2,,08:30-17:00,3.1,,,,,,,22,15,,,,,,,123.3007599118,41.800141629926,0
1a106b753839193a3c9a5e90,中国电信(沈辽西路营业厅),生活服务,通讯营业厅,辽宁省,沈阳市,于洪区,辽宁省沈阳市于洪区沈辽路191号,1a106b753839193a3c9a5e90,1,0,123.313788,41.768209,(024)31598045,life,http://api.map.baidu.com/place/detail?uid=1a106b753839193a3c9a5e90&output=html&source=placeapi_v2,,09:00-18:00,0,,,,,,,24,0,,,,,,,123.31374343664,41.768453341855,0
0565e032a5b8992fa204648c,中国移动(勋业三路营业厅),生活服务,通讯营业厅,辽宁省,沈阳市,铁西区,辽宁省沈阳市铁西区重工街勋业三路29号楼,0565e032a5b8992fa204648c,1,0,123.330951,41.788889,,life,http://api.map.baidu.com/place/detail?uid=0565e032a5b8992fa204648c&output=html&source=placeapi_v2,,09:00-18:00,4,,,,,,,21,5,,,,,,,123.33098398368,41.788648659431,0
e8b243a6fb679f91d7851f92,警保联动便民服务站,生活服务,通讯营业厅,辽宁省,沈阳市,铁西区,沈阳市铁西区沧海路沈阳张士灯具城北侧约240米,e8b243a6fb679f91d7851f92,1,0,123.294011,41.773489,,life,http://api.map.baidu.com/place/detail?uid=e8b243a6fb679f91d7851f92&output=html&source=placeapi_v2,,,,,,,,,,4,,,,,,,,,,0
756b43eb3d7e249fc03644b9,中国联通(手机大卖场),生活服务,通讯营业厅,辽宁省,沈阳市,于洪区,辽宁省沈阳市于洪区金龙湖街5号,756b43eb3d7e249fc03644b9,1,0,123.325727,41.772205,,life,http://api.map.baidu.com/place/detail?uid=756b43eb3d7e249fc03644b9&output=html&source=placeapi_v2,,09:00-20:00,,,,,,,,8,,,,,,,,123.32556726075,41.772094893479,0
9ffadcc077ef8807d4b74ea9,沈阳电信工程局有限公司,生活服务,通讯营业厅,辽宁省,沈阳市,铁西区,辽宁省沈阳市铁西区沧海路2-1号,9ffadcc077ef8807d4b74ea9,1,0,123.297791,41.775172,,life,http://api.map.baidu.com/place/detail?uid=9ffadcc077ef8807d4b74ea9&output=html&source=placeapi_v2,,,,,,,,,,1,,,,,,,,123.29755423762,41.775361661494,0
8a74c8190485b01fc5effbb1,非凡通讯,生活服务,通讯营业厅,辽宁省,沈阳市,于洪区,辽宁省沈阳市于洪区沈辽路39号,8a74c8190485b01fc5effbb1,1,0,123.333207,41.777185,18240333889,shopping,http://api.map.baidu.com/place/detail?uid=8a74c8190485b01fc5effbb1&output=html&source=placeapi_v2,,08:00-21:00,5,,,,,,,,1,,,,,,,123.33320609957,41.777314331248,0
3d900428ffc3ee649b68b4f0,中国电信(新玛特),生活服务,通讯营业厅,辽宁省,沈阳市,于洪区,黄海路45号新玛特2F层,,1,0,123.310457,41.799439,,life,http://api.map.baidu.com/place/detail?uid=3d900428ffc3ee649b68b4f0&output=html&source=placeapi_v2,,,,,,,,,,1,,,,,,,,,,0
998efee59f2e6a86f4e73b2b,一片海通讯,生活服务,通讯营业厅,辽宁省,沈阳市,铁西区,辽宁省沈阳市铁西区勋业三路16号311-片,998efee59f2e6a86f4e73b2b,1,0,123.334278,41.788829,18804015676,life,http://api.map.baidu.com/place/detail?uid=998efee59f2e6a86f4e73b2b&output=html&source=placeapi_v2,,08:00-20:00,,,,,,,,12,,,,,,,,123.3342782739,41.788733505988,0
b703e96b794bfc878f1a8971,中国电信(沈辽中路营业厅店),生活服务,通讯营业厅,辽宁省,沈阳市,铁西区,辽宁省沈阳市铁西区沈辽中路65甲1号,b703e96b794bfc878f1a8971,1,0,123.346535,41.784847,(024)10000,life,http://api.map.baidu.com/place/detail?uid=b703e96b794bfc878f1a8971&output=html&source=placeapi_v2,162.5,08:00-17:00,0.0,,,,,,,14,,,,,,,,123.34658035496,41.784958313665,0
cabb248d3ef0301dd2f49e14,中国移动(勋业五路营业厅),生活服务,通讯营业厅,辽宁省,沈阳市,铁西区,辽宁省沈阳市铁西区肇工南街87号,cabb248d3ef0301dd2f49e14,1,0,123.342001,41.78637,,life,http://api.map.baidu.com/place/detail?uid=cabb248d3ef0301dd2f49e14&output=html&source=placeapi_v2,,09:00-18:00,1,,,,,,,12,1,,,,,,,123.341819952,41.78636356238,0
1056095979fec823bb17e7e9,中国移动24小时自助服务,生活服务,通讯营业厅,辽宁省,沈阳市,铁西区,辽宁省沈阳市铁西区腾飞一街2甲12号103室,1056095979fec823bb17e7e9,1,0,123.37513,41.786408,(024)10086,life,http://api.map.baidu.com/place/detail?uid=1056095979fec823bb17e7e9&output=html&source=placeapi_v2,,07:30-18:30,5,,,,,,,6,3,,,,,,,123.37533410285,41.786399195267,0
056a423eb2f22b5feaf85379,中国电信(艳粉营业厅),生活服务,通讯营业厅,辽宁省,沈阳市,铁西区,辽宁省沈阳市铁西区红艳路15号,056a423eb2f22b5feaf85379,1,0,123.356751,41.782973,(024)31237507,life,http://api.map.baidu.com/place/detail?uid=056a423eb2f22b5feaf85379&output=html&source=placeapi_v2,,09:00-18:00,0,,,,,,,16,0,,,,,,,123.35673325806,41.783162985073,0
d6df91c1679ecd6af6b91697,移动通讯,生活服务,通讯营业厅,辽宁省,沈阳市,铁西区,辽宁省沈阳市铁西区红粉路34号,d6df91c1679ecd6af6b91697,1,0,123.365488,41.783555,,life,http://api.map.baidu.com/place/detail?uid=d6df91c1679ecd6af6b91697&output=html&source=placeapi_v2,,08:00-17:00,0,,,,,,,10,1,,,,,,,123.36557912574,41.783396464716,0
deb9f7ea7e0deed3d13ce327,中国移动(景兴南街营业厅),生活服务,通讯营业厅,辽宁省,沈阳市,铁西区,辽宁省沈阳市铁西区景兴南街122-11号,deb9f7ea7e0deed3d13ce327,1,0,123.361264,41.790751,,life,http://api.map.baidu.com/place/detail?uid=deb9f7ea7e0deed3d13ce327&output=html&source=placeapi_v2,,07:30-18:30,,,,,,,,7,,,,,,,,123.36150200269,41.790653644016,0
4edf9fbfb4995fe9cc06a471,中国联通(齐贤营业厅),生活服务,通讯营业厅,辽宁省,沈阳市,铁西区,辽宁沈阳市铁西区南十二路20~22号,4edf9fbfb4995fe9cc06a471,1,0,123.356549,41.792233,(024)81142777,life,http://api.map.baidu.com/place/detail?uid=4edf9fbfb4995fe9cc06a471&output=html&source=placeapi_v2,661,09:00-18:00,4,,,,,,,14,4,,,,,,,123.35632852202,41.792335716556,0
716324084ab80147b1077d9e,中国联通(勋业营业厅),生活服务,通讯营业厅,辽宁省,沈阳市,铁西区,辽宁省沈阳市铁西区勋业三路19号,716324084ab80147b1077d9e,1,0,123.335896,41.788529,,life,http://api.map.baidu.com/place/detail?uid=716324084ab80147b1077d9e&output=html&source=placeapi_v2,,09:00-18:00,0,,,,,,,20,1,,,,,,,123.33589793491,41.788740682134,0
0817a3fab79bedbcda2f28fd,中国移动(十二路营业厅),生活服务,通讯营业厅,辽宁省,沈阳市,铁西区,辽宁省沈阳市铁西区保工南街71号,0817a3fab79bedbcda2f28fd,1,0,123.35319,41.793111,(024)62383010,life,http://api.map.baidu.com/place/detail?uid=0817a3fab79bedbcda2f28fd&output=html&source=placeapi_v2,,09:00-18:00,,,,,,,,8,,,,,,,,123.35326097938,41.793209391554,0
809ac867b25d62a8f60e770a,中国联通(亿锋营业厅),生活服务,通讯营业厅,辽宁省,沈阳市,铁西区,辽宁省沈阳市铁西区艳粉街红艳路8-8号,809ac867b25d62a8f60e770a,1,0,123.359745,41.784041,13604067867,life,http://api.map.baidu.com/place/detail?uid=809ac867b25d62a8f60e770a&output=html&source=placeapi_v2,,,4.7,,,,,,,15,4,,,,,,,123.35983622268,41.783854615848,0
6c80380d54fb524d5cbe8694,滑翔营业厅,生活服务,通讯营业厅,辽宁省,沈阳市,铁西区,辽宁沈阳市铁西区南滑翔路5号,6c80380d54fb524d5cbe8694,1,0,123.372275,41.774098,,life,http://api.map.baidu.com/place/detail?uid=6c80380d54fb524d5cbe8694&output=html&source=placeapi_v2,,,,,,,,,,2,,,,,,,,,,0
94a39ed5d85cab51246e98e8,中国移动(光宽带营业厅),生活服务,通讯营业厅,辽宁省,沈阳市,铁西区,辽宁省沈阳市铁西区艳粉街红粉路46-6号,94a39ed5d85cab51246e98e8,1,0,123.361495,41.782317,,life,http://api.map.baidu.com/place/detail?uid=94a39ed5d85cab51246e98e8&output=html&source=placeapi_v2,,,,,,,,,,12,,,,,,,,123.36152809487,41.78220989585,0
fa7da3e85bbe3e6142d63e3c,中国电信(维华商业广场铁西营业厅),生活服务,通讯营业厅,辽宁省,沈阳市,铁西区,沈阳市铁西区沈辽中路5号维华商业广场F1,fa7da3e85bbe3e6142d63e3c,1,0,123.36433,41.786628,"(024)31814045,(024)31819929",life,http://api.map.baidu.com/place/detail?uid=fa7da3e85bbe3e6142d63e3c&output=html&source=placeapi_v2,162.5,08:30-18:00,1.2,,,,,,,18,5,,,,,,,123.36432716902,41.786670826052,0
81a37605252fccb779dbd208,中国移动(NO.518),生活服务,通讯营业厅,辽宁省,沈阳市,铁西区,辽宁省沈阳市铁西区艳粉街56巷,81a37605252fccb779dbd208,1,0,123.360012,41.778596,,life,http://api.map.baidu.com/place/detail?uid=81a37605252fccb779dbd208&output=html&source=placeapi_v2,,09:00-18:00,,,,,,,,39,,,,,,,,123.3600261568,41.778553662153,0
fa63aa258d01990f3904b18a,中国联通(手机之家营业厅),生活服务,通讯营业厅,辽宁省,沈阳市,于洪区,辽宁省沈阳市于洪区吉力湖街226号,fa63aa258d01990f3904b18a,1,0,123.344021,41.773775,15840176789,life,http://api.map.baidu.com/place/detail?uid=fa63aa258d01990f3904b18a&output=html&source=placeapi_v2,,08:30-21:00,5,,,,,,,15,4,,,,,,,123.34395299999,41.773714888907,0
a50ffd93b9c125dbf503b824,中国电信(十马路营业厅),生活服务,通讯营业厅,辽宁省,沈阳市,铁西区,辽宁省沈阳市铁西区南十中路1号,a50ffd93b9c125dbf503b824,1,0,123.36921,41.790579,,life,http://api.map.baidu.com/place/detail?uid=a50ffd93b9c125dbf503b824&output=html&source=placeapi_v2,,09:00-18:00,,,,,,,,6,,,,,,,,123.36946330556,41.790462320825,0
45ee405e15683d77e6e9656a,中国电信沈辽路营业厅,生活服务,通讯营业厅,辽宁省,沈阳市,铁西区,辽宁省沈阳市铁西区沈辽路2网点号8040号楼,,1,0,123.333431,41.78032,13324066277,life,http://api.map.baidu.com/place/detail?uid=45ee405e15683d77e6e9656a&output=html&source=placeapi_v2,,09:00-17:30,,,,,,,,6,,,,,,,,123.33363910438,41.78023289679,0
7f6abebc5a08c5ffb9df8f84,浩然通讯(齐贤南街店),生活服务,通讯营业厅,辽宁省,沈阳市,铁西区,辽宁省沈阳市铁西区齐贤南街57号,7f6abebc5a08c5ffb9df8f84,1,0,123.36054,41.797683,,life,http://api.map.baidu.com/place/detail?uid=7f6abebc5a08c5ffb9df8f84&output=html&source=placeapi_v2,,,,,,,,,,11,,,,,,,,123.36040557141,41.797736619676,0
8ad58b2955455ddc58f6be52,中国电信(瀛滨寓营业厅),生活服务,通讯营业厅,辽宁省,沈阳市,铁西区,辽宁沈阳市铁西区南十西路1号,8ad58b2955455ddc58f6be52,1,0,123.349779,41.798186,(024)31088531,life,http://api.map.baidu.com/place/detail?uid=8ad58b2955455ddc58f6be52&output=html&source=placeapi_v2,162.5,09:00-18:00,5,,,,,,,17,3,,,,,,,123.3498781342,41.798136734294,0
820db4e8e9927a732cb908b4,中国联通(南十一路营业厅),生活服务,通讯营业厅,辽宁省,沈阳市,铁西区,辽宁沈阳市铁西区南十一西路13号3门,820db4e8e9927a732cb908b4,1,0,123.345987,41.798027,,life,http://api.map.baidu.com/place/detail?uid=820db4e8e9927a732cb908b4&output=html&source=placeapi_v2,,09:00-18:00,,,,,,,,12,,,,,,,,,,0
c71edde4287caa9a95f08c86,中国联通(万达营业厅),生活服务,通讯营业厅,辽宁省,沈阳市,铁西区,辽宁省沈阳市铁西区兴华沈辽中路景星南苑东一门,c71edde4287caa9a95f08c86,1,0,123.363174,41.789971,,life,http://api.map.baidu.com/place/detail?uid=c71edde4287caa9a95f08c86&output=html&source=placeapi_v2,,,1.0,,,,,,,5,1,,,,,,,,,0
e823fae74c3122fafbf0cba6,中国移动光宽带营业厅,生活服务,通讯营业厅,辽宁省,沈阳市,铁西区,辽宁省沈阳市铁西区艳欣街1-1-2号27号楼,e823fae74c3122fafbf0cba6,1,0,123.355139,41.780708,18704027290,life,http://api.map.baidu.com/place/detail?uid=e823fae74c3122fafbf0cba6&output=html&source=placeapi_v2,,,,,,,,,,8,,,,,,,,123.35515552008,41.780663707826,0
d138dc3245ccf376a8f0cd2c,中国移动(程工授权代理店),生活服务,通讯营业厅,辽宁省,沈阳市,铁西区,辽宁省沈阳市铁西区南十一路25甲113号,d138dc3245ccf376a8f0cd2c,1,0,123.355215,41.79498,,life,http://api.map.baidu.com/place/detail?uid=d138dc3245ccf376a8f0cd2c&output=html&source=placeapi_v2,,,,,,,,,,10,,,,,,,,123.35531469442,41.794938901562,0
0565e032a5b8992fa204648c,中国移动(勋业三路营业厅),生活服务,通讯营业厅,辽宁省,沈阳市,铁西区,辽宁省沈阳市铁西区重工街勋业三路29号楼,0565e032a5b8992fa204648c,1,0,123.330951,41.788889,,life,http://api.map.baidu.com/place/detail?uid=0565e032a5b8992fa204648c&output=html&source=placeapi_v2,,09:00-18:00,4,,,,,,,21,5,,,,,,,123.33098398368,41.788648659431,0
8a74c8190485b01fc5effbb1,非凡通讯,生活服务,通讯营业厅,辽宁省,沈阳市,于洪区,辽宁省沈阳市于洪区沈辽路39号,8a74c8190485b01fc5effbb1,1,0,123.333207,41.777185,18240333889,shopping,http://api.map.baidu.com/place/detail?uid=8a74c8190485b01fc5effbb1&output=html&source=placeapi_v2,,08:00-21:00,5,,,,,,,,1,,,,,,,123.33320609957,41.777314331248,0
998efee59f2e6a86f4e73b2b,一片海通讯,生活服务,通讯营业厅,辽宁省,沈阳市,铁西区,辽宁省沈阳市铁西区勋业三路16号311-片,998efee59f2e6a86f4e73b2b,1,0,123.334278,41.788829,18804015676,life,http://api.map.baidu.com/place/detail?uid=998efee59f2e6a86f4e73b2b&output=html&source=placeapi_v2,,08:00-20:00,,,,,,,,12,,,,,,,,123.3342782739,41.788733505988,0
e8c26dc97a562bb3abf72944,中国移动(指定专营店),生活服务,通讯营业厅,辽宁省,沈阳市,和平区,辽宁省沈阳市和平区太原南街369号,e8c26dc97a562bb3abf72944,1,0,123.396521,41.78351,18842555518,life,http://api.map.baidu.com/place/detail?uid=e8c26dc97a562bb3abf72944&output=html&source=placeapi_v2,,07:00-19:00,5,,,,,,,18,4,,,,,,,123.39635394963,41.783575395968,0
14076dee9c70a28902294f67,中国联通智慧生活馆(和平营业厅),生活服务,通讯营业厅,辽宁省,沈阳市,和平区,辽宁沈阳市和平区西安街67号,14076dee9c70a28902294f67,1,0,123.399114,41.788707,18602408905,life,http://api.map.baidu.com/place/detail?uid=14076dee9c70a28902294f67&output=html&source=placeapi_v2,,08:30-17:00,4.2,,,,,,,20,5,,,,,,,123.39906511022,41.788649238636,0
60cffead6c53d15bd42ce244,中国移动(南六马路营业厅),生活服务,通讯营业厅,辽宁省,沈阳市,和平区,辽宁省沈阳市和平区南宁南街63号,60cffead6c53d15bd42ce244,1,0,123.403102,41.786187,"(024)23516271,13840038801",life,http://api.map.baidu.com/place/detail?uid=60cffead6c53d15bd42ce244&output=html&source=placeapi_v2,,,,,,,,,,6,,,,,,,,123.40300056779,41.786230929931,0
15ed53ce39755a2a9322e0ba,中国移动(太原南街营业厅),生活服务,通讯营业厅,辽宁省,沈阳市,和平区,辽宁省沈阳市和平区太原南街110号,15ed53ce39755a2a9322e0ba,1,1,123.403118,41.792756,13840140008,life,http://api.map.baidu.com/place/detail?uid=15ed53ce39755a2a9322e0ba&output=html&source=placeapi_v2,,07:30-18:00,2.7,,,,,,,21,6,,,,,,,123.40318530162,41.792845052768,1
9f2260b7ddcacd11932ca3df,沈阳市移动崇森南十营业厅,生活服务,通讯营业厅,辽宁省,沈阳市,和平区,辽宁省沈阳市和平区南十马路79号,9f2260b7ddcacd11932ca3df,1,1,123.399205,41.778285,,life,http://api.map.baidu.com/place/detail?uid=9f2260b7ddcacd11932ca3df&output=html&source=placeapi_v2,,07:30-18:30,3,,,,,,,18,4,,,,,,,123.39900373709,41.778460937563,1
1056095979fec823bb17e7e9,中国移动24小时自助服务,生活服务,通讯营业厅,辽宁省,沈阳市,铁西区,辽宁省沈阳市铁西区腾飞一街2甲12号103室,1056095979fec823bb17e7e9,1,0,123.37513,41.786408,(024)10086,life,http://api.map.baidu.com/place/detail?uid=1056095979fec823bb17e7e9&output=html&source=placeapi_v2,,07:30-18:30,5,,,,,,,6,3,,,,,,,123.37533410285,41.786399195267,0
101bc61b362b21a3c52ba1b6,中国电信(南京南街营业厅),生活服务,通讯营业厅,辽宁省,沈阳市,和平区,辽宁省沈阳市和平区南京南街82号,101bc61b362b21a3c52ba1b6,1,0,123.405298,41.787772,(024)31605224,life,http://api.map.baidu.com/place/detail?uid=101bc61b362b21a3c52ba1b6&output=html&source=placeapi_v2,,08:30-18:00,1.8,,,,,,,32,17,,,,,,,123.40537453054,41.787636810503,0
ccfc567335975cf2306212ce,中国联通西安街营业厅智慧生活馆S,生活服务,通讯营业厅,辽宁省,沈阳市,和平区,沈阳市和平区西安街利群胜利农贸综合市场-商住楼,ccfc567335975cf2306212ce,1,0,123.397326,41.786973,18602408905,life,http://api.map.baidu.com/place/detail?uid=ccfc567335975cf2306212ce&output=html&source=placeapi_v2,,08:30-17:00,,,,,,,,4,,,,,,,,123.39743125149,41.786927988978,0
47dd8d1ee529e8655810935b,森通信中国移动营业厅(中华路营业厅),生活服务,通讯营业厅,辽宁省,沈阳市,和平区,辽宁沈阳市和平区中华路53号,47dd8d1ee529e8655810935b,1,0,123.409407,41.796756,(024)24855566,life,http://api.map.baidu.com/place/detail?uid=47dd8d1ee529e8655810935b&output=html&source=placeapi_v2,,09:30-20:00,3,,,,,,,19,2,,,,,,,,,0
389e82e615700c4bd42ce21c,中国移动(胜利大街指定专营店),生活服务,通讯营业厅,辽宁省,沈阳市,和平区,辽宁省沈阳市和平区胜利南街65号,389e82e615700c4bd42ce21c,1,0,123.399401,41.794702,(024)24855566,life,http://api.map.baidu.com/place/detail?uid=389e82e615700c4bd42ce21c&output=html&source=placeapi_v2,,,0,,,,,,,13,3,,,,,,,123.39932311973,41.794612479387,0
350626e49e2db29bd23ce31d,移动通讯,生活服务,通讯营业厅,辽宁省,沈阳市,和平区,和平区多家营业厅,350626e49e2db29bd23ce31d,1,0,123.41545,41.781875,,life,http://api.map.baidu.com/place/detail?uid=350626e49e2db29bd23ce31d&output=html&source=placeapi_v2,,,3,,,,,,,16,2,,,,,,,,,0
350a4a22d8e478d32dfaa79b,沈阳联通和平分公司,生活服务,通讯营业厅,辽宁省,沈阳市,和平区,沈阳市和平区南六马路平安馨园,350a4a22d8e478d32dfaa79b,1,0,123.399101,41.788697,,life,http://api.map.baidu.com/place/detail?uid=350a4a22d8e478d32dfaa79b&output=html&source=placeapi_v2,,,,,,,,,,,,,,,,,,,,0
65174b13f685064eb1077d06,中国联通(南五马路营业厅),生活服务,通讯营业厅,辽宁省,沈阳市,和平区,辽宁省沈阳市和平区南五马路57号,65174b13f685064eb1077d06,1,1,123.404729,41.788106,(024)86110010,life,http://api.map.baidu.com/place/detail?uid=65174b13f685064eb1077d06&output=html&source=placeapi_v2,,09:00-17:30,5,,,,,,,13,1,,,,,,,123.40475534562,41.788156041851,1
15361faa18cf7c83471a32f9,中国联通(南六营业厅),生活服务,通讯营业厅,辽宁省,沈阳市,和平区,辽宁省沈阳市和平区南宁南街63号,15361faa18cf7c83471a32f9,1,0,123.403087,41.786158,,life,http://api.map.baidu.com/place/detail?uid=15361faa18cf7c83471a32f9&output=html&source=placeapi_v2,,09:00-18:00,0,,,,,,,21,2,,,,,,,123.40298004241,41.786204266935,0
87950cd23c477ad81d58002d,中国移动(民主路营业厅),生活服务,通讯营业厅,辽宁省,沈阳市,和平区,辽宁省沈阳市和平区民主路66号,87950cd23c477ad81d58002d,1,0,123.403022,41.797138,13840397000,life,http://api.map.baidu.com/place/detail?uid=87950cd23c477ad81d58002d&output=html&source=placeapi_v2,,,,,,,,,,6,,,,,,,,123.4030559079,41.797167367154,0
85ae9cba79cd0b723586f461,辽宁移动客服中心,生活服务,通讯营业厅,辽宁省,沈阳市,和平区,辽宁省沈阳市和平区南京南街南十马路79号,85ae9cba79cd0b723586f461,1,0,123.400354,41.778514,,life,http://api.map.baidu.com/place/detail?uid=85ae9cba79cd0b723586f461&output=html&source=placeapi_v2,,,,,,,,,,,,,,,,,,123.40052658411,41.778752368275,0
57331a2f4ac0c3450a5cb3bb,中国移动通讯,生活服务,通讯营业厅,辽宁省,沈阳市,和平区,辽宁省沈阳市和平区南京南街南十马路79号,57331a2f4ac0c3450a5cb3bb,1,0,123.402905,41.777826,,life,http://api.map.baidu.com/place/detail?uid=57331a2f4ac0c3450a5cb3bb&output=html&source=placeapi_v2,,,4,,,,,,,12,1,,,,,,,123.40284272653,41.777751409982,0
9ef9e609d9d6568d46e274a2,中国联通(马路湾营业厅),生活服务,通讯营业厅,辽宁省,沈阳市,和平区,辽宁省沈阳市和平区和平南大街16号,9ef9e609d9d6568d46e274a2,1,0,123.416815,41.79242,18602409027,life,http://api.map.baidu.com/place/detail?uid=9ef9e609d9d6568d46e274a2&output=html&source=placeapi_v2,661,08:30-17:00,1,,,,,,,19,6,,,,,,,123.41710814411,41.792373061964,0
39e89ba651b7f223f3193758,迪讯通手机营业厅(南一马路营业厅),生活服务,通讯营业厅,辽宁省,沈阳市,和平区,辽宁省沈阳市和平区太原南街16号,39e89ba651b7f223f3193758,1,0,123.405752,41.796109,13704020999,life,http://api.map.baidu.com/place/detail?uid=39e89ba651b7f223f3193758&output=html&source=placeapi_v2,,09:30-22:00,5,,,,,,,10,1,,,,,,,123.40535456031,41.796462044999,0
b63962d658a6bff340afe6f7,中国移动通信(南七马路营业厅),生活服务,通讯营业厅,辽宁省,沈阳市,和平区,辽宁省沈阳市和平区南京南街99号,b63962d658a6bff340afe6f7,1,0,123.402323,41.780023,18842555518,life,http://api.map.baidu.com/place/detail?uid=b63962d658a6bff340afe6f7&output=html&source=placeapi_v2,,07:00-19:00,0,,,,,,,15,1,,,,,,,123.40240815507,41.780133790035,0
5b58e0371a1f177b250bd0db,中国电信(和平区民族路营业厅),生活服务,通讯营业厅,辽宁省,沈阳市,和平区,辽宁省沈阳市和平区民主路10号,5b58e0371a1f177b250bd0db,1,0,123.403183,41.797902,,life,http://api.map.baidu.com/place/detail?uid=5b58e0371a1f177b250bd0db&output=html&source=placeapi_v2,,09:00-18:00,1,,,,,,,13,4,,,,,,,123.40306609289,41.797708231865,0
a535ea4713b01d43c16c14da,中国移动(授权代理店),生活服务,通讯营业厅,辽宁省,沈阳市,铁西区,沈阳市铁西区飞翔路沈阳市体育运动学校东南侧,a535ea4713b01d43c16c14da,1,0,123.381834,41.78452,,life,http://api.map.baidu.com/place/detail?uid=a535ea4713b01d43c16c14da&output=html&source=placeapi_v2,,,,,,,,,,10,,,,,,,,123.38180169681,41.784399577447,0
45f64ab92bbf1775a8f0cd54,中国移动(砂南路营业厅),生活服务,通讯营业厅,辽宁省,沈阳市,和平区,辽宁省沈阳市和平区玉屏路9号,45f64ab92bbf1775a8f0cd54,1,0,123.387652,41.771759,"13889895156,13998898578",life,http://api.map.baidu.com/place/detail?uid=45f64ab92bbf1775a8f0cd54&output=html&source=placeapi_v2,,08:00-20:00,0,,,,,,,27,1,,,,,,,123.38762651724,41.77164868255,0
b895979a37e75ac13f9a5ee3,中国移动太原街苏宁营业厅,生活服务,通讯营业厅,辽宁省,沈阳市,和平区,辽宁省沈阳市和平区中华路57号,,1,0,123.410244,41.796324,(024)24855566,life,http://api.map.baidu.com/place/detail?uid=b895979a37e75ac13f9a5ee3&output=html&source=placeapi_v2,,10:00-17:30,,,,,,,,6,2,,,,,,,123.41039298165,41.796506963035,0
9a47c44c3b30c081eb1e97cb,中国移动4G宽带电视服务站砂山店,生活服务,通讯营业厅,辽宁省,沈阳市,和平区,辽宁省沈阳市和平区玉屏路9号,9a47c44c3b30c081eb1e97cb,1,0,123.38749,41.76844,,life,http://api.map.baidu.com/place/detail?uid=9a47c44c3b30c081eb1e97cb&output=html&source=placeapi_v2,,,0,,,,,,,15,1,,,,,,,123.38767242155,41.768396683609,0
a0d6c6aebe027e48abf72934,中国移动通信(南六马路专营店),生活服务,通讯营业厅,辽宁省,沈阳市,和平区,沈阳市和平区庆阳路东旭酒店西侧约50米,a0d6c6aebe027e48abf72934,1,0,123.407655,41.79192,,life,http://api.map.baidu.com/place/detail?uid=a0d6c6aebe027e48abf72934&output=html&source=placeapi_v2,,,,,,,,,,1,,,,,,,,,,0
d18daafd60322e2c902ca3a3,移动通讯,生活服务,通讯营业厅,辽宁省,沈阳市,和平区,辽宁省沈阳市和平区万达广场太原街店文新大厦,d18daafd60322e2c902ca3a3,1,0,123.405291,41.795298,13840397000,life,http://api.map.baidu.com/place/detail?uid=d18daafd60322e2c902ca3a3&output=html&source=placeapi_v2,,,,,,,,,,2,,,,,,,,,,0
e99e7520993640b2c056acb5,联通砂山营业厅,生活服务,通讯营业厅,辽宁省,沈阳市,和平区,沈阳市和平区砂南路福运小区北侧约40米,e99e7520993640b2c056acb5,1,0,123.393607,41.771149,,life,http://api.map.baidu.com/place/detail?uid=e99e7520993640b2c056acb5&output=html&source=placeapi_v2,,09:00-21:00,,,,,,,,6,,,,,,,,123.3935983337,41.771377765451,0
1efe09942783837d21026270,中国移动(华华通讯器材经销处社区服务站),生活服务,通讯营业厅,辽宁省,沈阳市,和平区,辽宁省沈阳市和平区民主路8号,,1,0,123.403031,41.798326,15002443036,life,http://api.map.baidu.com/place/detail?uid=1efe09942783837d21026270&output=html&source=placeapi_v2,,09:00-23:00,,,,,,,,8,,,,,,,,123.40308939943,41.798300771479,0
b3f5cb1836a3754780a00ca0,中国电信(铁西分公司),生活服务,通讯营业厅,辽宁省,沈阳市,铁西区,辽宁省沈阳市铁西区南八东路15号b座,b3f5cb1836a3754780a00ca0,1,1,123.381837,41.790358,(024)31222266,life,http://api.map.baidu.com/place/detail?uid=b3f5cb1836a3754780a00ca0&output=html&source=placeapi_v2,,08:00-17:00,,,,,,,,10,2,,,,,,,123.38187550428,41.790475526051,1
77a176f8d6fd0676da2f28e5,中国联通(太原街苏宁营业厅),生活服务,通讯营业厅,辽宁省,沈阳市,和平区,辽宁省沈阳市和平区中华路57号2楼,77a176f8d6fd0676da2f28e5,1,0,123.410446,41.796292,,life,http://api.map.baidu.com/place/detail?uid=77a176f8d6fd0676da2f28e5&output=html&source=placeapi_v2,,10:00-18:00,0,,,,,,,,0,,,,,,,,,0
2e40fc7eabbcd4d6fe0eb000,中国电信(铁西区滑翔路滑翔营业厅),生活服务,通讯营业厅,辽宁省,沈阳市,铁西区,辽宁沈阳市铁西区滑翔路19号,2e40fc7eabbcd4d6fe0eb000,1,0,123.376132,41.777544,,life,http://api.map.baidu.com/place/detail?uid=2e40fc7eabbcd4d6fe0eb000&output=html&source=placeapi_v2,,09:00-18:00,4.7,,,,,,,13,7,,,,,,,,,0
6113ef775d4f41148f7727a0,中国移动(十一纬路营业厅),生活服务,通讯营业厅,辽宁省,沈阳市,沈河区,辽宁省沈阳市沈河区十一纬路128号,6113ef775d4f41148f7727a0,1,0,123.431334,41.796627,,life,http://api.map.baidu.com/place/detail?uid=6113ef775d4f41148f7727a0&output=html&source=placeapi_v2,,07:00-19:00,3.2,,,,,,,15,10,,,,,,,123.43118649407,41.796575136564,0
f9fd6062fccdfe620e0e6baf,中国电信(青年公园营业厅),生活服务,通讯营业厅,辽宁省,沈阳市,沈河区,辽宁沈阳市沈河区文艺路19号地王国际俱乐部1楼,632035befa5594898bf15d4c,1,0,123.446015,41.783835,"(024)31483345,18940269890",life,http://api.map.baidu.com/place/detail?uid=f9fd6062fccdfe620e0e6baf&output=html&source=placeapi_v2,,09:00-18:00,3.7,,,,,,,23,6,,,,,,,123.44610148355,41.783961156257,0
350626e49e2db29bd23ce31d,移动通讯,生活服务,通讯营业厅,辽宁省,沈阳市,和平区,和平区多家营业厅,350626e49e2db29bd23ce31d,1,0,123.41545,41.781875,,life,http://api.map.baidu.com/place/detail?uid=350626e49e2db29bd23ce31d&output=html&source=placeapi_v2,,,3,,,,,,,16,2,,,,,,,,,0
44dd4292a679f18e581093aa,宇洋营业厅,生活服务,通讯营业厅,辽宁省,沈阳市,和平区,辽宁省沈阳市和平区南四经街77号,44dd4292a679f18e581093aa,1,0,123.429263,41.793153,13940508252,life,http://api.map.baidu.com/place/detail?uid=44dd4292a679f18e581093aa&output=html&source=placeapi_v2,,,,,,,,,,3,,,,,,,,,,0
312dbb29e5573428ca1b953b,中国移动(宏田指定专营店),生活服务,通讯营业厅,辽宁省,沈阳市,和平区,辽宁省沈阳市和平区文化路61号,312dbb29e5573428ca1b953b,1,0,123.437732,41.776871,15524376267,life,http://api.map.baidu.com/place/detail?uid=312dbb29e5573428ca1b953b&output=html&source=placeapi_v2,,08:30-21:00,,,,,,,,5,,,,,,,,123.43783594728,41.776865608064,0
5c97b84cae544ffc82288ac8,中国联通(诚大营业厅),生活服务,通讯营业厅,辽宁省,沈阳市,和平区,辽宁省沈阳市和平区文萃路4号,5c97b84cae544ffc82288ac8,1,0,123.4361,41.771324,"(024)23902248,18602407547",life,http://api.map.baidu.com/place/detail?uid=5c97b84cae544ffc82288ac8&output=html&source=placeapi_v2,,08:30-17:00,1.1,,,,,,,21,11,,,,,,,123.43610557192,41.771226217285,0
639fa781df81b3ae3a04b1ed,移动联通电信营业厅,生活服务,通讯营业厅,辽宁省,沈阳市,和平区,辽宁省沈阳市和平区九纬路24-4号,639fa781df81b3ae3a04b1ed,1,0,123.42776,41.798463,(024)22715777,life,http://api.map.baidu.com/place/detail?uid=639fa781df81b3ae3a04b1ed&output=html&source=placeapi_v2,,09:00-18:00,0,,,,,,,8,0,,,,,,,123.42782499981,41.79839288791,0
5920f4cf893947b69403196b,中国移动通信集团辽宁有限公司(沈阳分公司),生活服务,通讯营业厅,辽宁省,沈阳市,沈河区,辽宁省沈阳市沈河区十一纬路128号,5920f4cf893947b69403196b,1,0,123.431381,41.796459,,life,http://api.map.baidu.com/place/detail?uid=5920f4cf893947b69403196b&output=html&source=placeapi_v2,,07:00-19:00,,,,,,,,3,,,,,,,,123.43116987362,41.796601875143,0
b0ae669323e48293f942b2f8,中国移动通讯话吧(金科名苑西),生活服务,通讯营业厅,辽宁省,沈阳市,和平区,辽宁省沈阳市和平区文化路15号,b0ae669323e48293f942b2f8,1,0,123.430606,41.777097,13998822888,life,http://api.map.baidu.com/place/detail?uid=b0ae669323e48293f942b2f8&output=html&source=placeapi_v2,,09:00-18:00,0,,,,,,,11,1,,,,,,,123.43050968914,41.776880668495,0
cb4fd146ba66e63f9d9d68ed,中国电信(和平文萃路营业厅),生活服务,通讯营业厅,辽宁省,沈阳市,和平区,辽宁省沈阳市和平区文萃路3甲5~6号,cb4fd146ba66e63f9d9d68ed,1,0,123.438146,41.770903,(024)31884268,life,http://api.map.baidu.com/place/detail?uid=cb4fd146ba66e63f9d9d68ed&output=html&source=placeapi_v2,162.5,08:30-18:00,2,,,,,,,22,5,,,,,,,123.43826975877,41.770900048586,0
1fd39b9a44a19b8430169bf4,中国移动,生活服务,通讯营业厅,辽宁省,沈阳市,沈河区,辽宁省沈阳市沈河区文艺路84号,1fd39b9a44a19b8430169bf4,1,0,123.460255,41.784339,13072412161,life,http://api.map.baidu.com/place/detail?uid=1fd39b9a44a19b8430169bf4&output=html&source=placeapi_v2,,09:00-18:00,5,,,,,,,7,1,,,,,,,123.46016057114,41.784378846847,0
936f98c4ff726dd3a3acc4a3,中国联通(保安寺街营业厅),生活服务,通讯营业厅,辽宁省,沈阳市,和平区,辽宁省沈阳市和平区青年大街30号,936f98c4ff726dd3a3acc4a3,1,0,123.431274,41.778797,,life,http://api.map.baidu.com/place/detail?uid=936f98c4ff726dd3a3acc4a3&output=html&source=placeapi_v2,,09:00-17:00,,,,,,,,6,,,,,,,,123.43135352589,41.77876493087,0
9ef9e609d9d6568d46e274a2,中国联通(马路湾营业厅),生活服务,通讯营业厅,辽宁省,沈阳市,和平区,辽宁省沈阳市和平区和平南大街16号,9ef9e609d9d6568d46e274a2,1,0,123.416815,41.79242,18602409027,life,http://api.map.baidu.com/place/detail?uid=9ef9e609d9d6568d46e274a2&output=html&source=placeapi_v2,661,08:30-17:00,1,,,,,,,19,6,,,,,,,123.41710814411,41.792373061964,0
3a0fbba816c825419fe321a0,中国移动24小时自助服务厅(青年大街营业厅),生活服务,通讯营业厅,辽宁省,沈阳市,沈河区,辽宁省沈阳市沈河区青年大街165-9-5号3楼,3a0fbba816c825419fe321a0,1,0,123.442322,41.774814,(024)10086,life,http://api.map.baidu.com/place/detail?uid=3a0fbba816c825419fe321a0&output=html&source=placeapi_v2,,08:00-18:30,3.5,,,,,,,9,13,,,,,,,123.44222680083,41.77481837657,0
8ebbba7b5cfd154b6240a9e0,中国移动(十一纬路营业厅),生活服务,通讯营业厅,辽宁省,沈阳市,沈河区,辽宁省沈阳市沈河区十一纬路128号,8ebbba7b5cfd154b6240a9e0,1,0,123.431335,41.796624,,life,http://api.map.baidu.com/place/detail?uid=8ebbba7b5cfd154b6240a9e0&output=html&source=placeapi_v2,,,,,,,,,,6,,,,,,,,123.43118789273,41.796572886114,0
8fbf9da6f6be411497031926,铁通公司沈阳分公司(沈洲路营业厅),生活服务,通讯营业厅,辽宁省,沈阳市,沈河区,辽宁省沈阳市沈河区沈州路28号,8fbf9da6f6be411497031926,1,1,123.451814,41.799236,13478247766,life,http://api.map.baidu.com/place/detail?uid=8fbf9da6f6be411497031926&output=html&source=placeapi_v2,,08:00-17:00,0,,,,,,,16,1,,,,,,,123.45181948109,41.799134474319,1
6df95dae642a9ca20d3dda43,中国移动(南关路指定专营店),生活服务,通讯营业厅,辽宁省,沈阳市,沈河区,辽宁省沈阳市沈河区南关路文艺一校西侧约30米,6df95dae642a9ca20d3dda43,1,0,123.454814,41.787651,13940025522,life,http://api.map.baidu.com/place/detail?uid=6df95dae642a9ca20d3dda43&output=html&source=placeapi_v2,,08:00-20:00,,,,,,,,9,,,,,,,,123.454825594,41.787531501777,0
879fa3487fe9f304abf72930,中国移动(三好街营业厅),生活服务,通讯营业厅,辽宁省,沈阳市,和平区,辽宁省沈阳市和平区三好街79号奉天硅谷大厦1楼,879fa3487fe9f304abf72930,1,0,123.434226,41.768621,,life,http://api.map.baidu.com/place/detail?uid=879fa3487fe9f304abf72930&output=html&source=placeapi_v2,,09:00-17:00,,,,,,,,5,,,,,,,,123.43404022203,41.768625721806,0
67bb1da84a8706ada4c7564c,中国移动通讯,生活服务,通讯营业厅,辽宁省,沈阳市,和平区,辽宁省沈阳市和平区五里河街29-4号,67bb1da84a8706ada4c7564c,1,0,123.438398,41.771387,,life,http://api.map.baidu.com/place/detail?uid=67bb1da84a8706ada4c7564c&output=html&source=placeapi_v2,,,0,,,,,,,11,1,,,,,,,,,0
72d9505b5be6750de9f853e7,中国移动通信（光宽带营业厅）,生活服务,通讯营业厅,辽宁省,沈阳市,沈河区,辽宁省沈阳市沈河区广昌路51-2号,72d9505b5be6750de9f853e7,1,0,123.446339,41.795606,13940590922,life,http://api.map.baidu.com/place/detail?uid=72d9505b5be6750de9f853e7&output=html&source=placeapi_v2,,,,,,,,,,7,,,,,,,,123.44621876452,41.795665224065,0
fb1a534661ad912f3fe2319c,中国移动五爱社区新众博智慧家庭服务站,生活服务,通讯营业厅,辽宁省,沈阳市,沈河区,沈阳市沈河区热闹路雅都苑东南侧约40米,fb1a534661ad912f3fe2319c,1,0,123.444944,41.792627,,life,http://api.map.baidu.com/place/detail?uid=fb1a534661ad912f3fe2319c&output=html&source=placeapi_v2,,,,,,,,,,6,,,,,,,,123.44493514434,41.792777734345,0
82f51e4bb4eb4574c26c14e6,警保联动便民服务站,生活服务,通讯营业厅,辽宁省,沈阳市,和平区,辽宁省沈阳市和平区十三纬路28号,82f51e4bb4eb4574c26c14e6,1,0,123.428857,41.790637,(024)81055211,life,http://api.map.baidu.com/place/detail?uid=82f51e4bb4eb4574c26c14e6&output=html&source=placeapi_v2,,09:00-17:00,,,,,,,,7,,,,,,,,123.42883854445,41.790449060877,0
894c7ca0e11a8cbc9ee3217d,中国移动(三好街诚大店),生活服务,通讯营业厅,辽宁省,沈阳市,和平区,辽宁沈阳市和平区三好街东软电脑城4楼,894c7ca0e11a8cbc9ee3217d,1,0,123.434516,41.771814,,life,http://api.map.baidu.com/place/detail?uid=894c7ca0e11a8cbc9ee3217d&output=html&source=placeapi_v2,,09:00-17:00,0,,,,,,,8,0,,,,,,,123.43444683463,41.771819340994,0
8d3d42ce30d3e260932ca3ae,辽宁佳讯通信工程有限公司,生活服务,通讯营业厅,辽宁省,沈阳市,和平区,辽宁省沈阳市和平区青年大街322号昌鑫大厦23楼,8d3d42ce30d3e260932ca3ae,1,0,123.441035,41.770201,,life,http://api.map.baidu.com/place/detail?uid=8d3d42ce30d3e260932ca3ae&output=html&source=placeapi_v2,,,,,,,,,,,,,,,,,,,,0
2195f890f2902db1ddee8b3a,中国移动(大宇通讯),生活服务,通讯营业厅,辽宁省,沈阳市,和平区,辽宁省沈阳市和平区北五经街34号,2195f890f2902db1ddee8b3a,1,0,123.427451,41.796758,,life,http://api.map.baidu.com/place/detail?uid=2195f890f2902db1ddee8b3a&output=html&source=placeapi_v2,,,0.0,,,,,,,7,2,,,,,,,123.4274843426,41.796640083686,0
dc0f0adcb7193421f82213e5,中国移动(文化东路营业厅),生活服务,通讯营业厅,辽宁省,沈阳市,沈河区,辽宁沈阳市沈河区文化东路33号,dc0f0adcb7193421f82213e5,1,0,123.478093,41.775105,13504020060,life,http://api.map.baidu.com/place/detail?uid=dc0f0adcb7193421f82213e5&output=html&source=placeapi_v2,,07:30-18:30,5,,,,,,,19,4,,,,,,,123.47809808558,41.775277512407,0
748a0f77d937875208f5eb36,中国电信(泉园一路营业厅),生活服务,通讯营业厅,辽宁省,沈阳市,沈河区,辽宁省沈阳市沈河区长青街73-2号,748a0f77d937875208f5eb36,1,0,123.484168,41.784883,,life,http://api.map.baidu.com/place/detail?uid=748a0f77d937875208f5eb36&output=html&source=placeapi_v2,,09:00-18:30,,,,,,,,6,,,,,,,,123.48399944344,41.784771565249,0
41572e00f416e5cab45f1ed0,中国联通智慧生活馆(第五大道营业厅),生活服务,通讯营业厅,辽宁省,沈阳市,沈河区,辽宁省沈阳市沈河区文化东路17号,41572e00f416e5cab45f1ed0,1,0,123.471122,41.775273,(024)24561689,life,http://api.map.baidu.com/place/detail?uid=41572e00f416e5cab45f1ed0&output=html&source=placeapi_v2,661,08:30-17:00,1.4,,,,,,,20,12,,,,,,,123.47119322165,41.775441366379,0
1fd39b9a44a19b8430169bf4,中国移动,生活服务,通讯营业厅,辽宁省,沈阳市,沈河区,辽宁省沈阳市沈河区文艺路84号,1fd39b9a44a19b8430169bf4,1,0,123.460255,41.784339,13072412161,life,http://api.map.baidu.com/place/detail?uid=1fd39b9a44a19b8430169bf4&output=html&source=placeapi_v2,,09:00-18:00,5,,,,,,,7,1,,,,,,,123.46016057114,41.784378846847,0
8f909412c69619c69ee321e9,中国联通(诚信营业厅),生活服务,通讯营业厅,辽宁省,沈阳市,沈河区,辽宁省沈阳市沈河区长青街56号,8f909412c69619c69ee321e9,1,0,123.464806,41.788787,,life,http://api.map.baidu.com/place/detail?uid=8f909412c69619c69ee321e9&output=html&source=placeapi_v2,,,,,,,,,,1,,,,,,,,123.46501101396,41.788767170138,0
01f30e9928fff1c29b68b4dd,移动通讯(泉园一路营业厅),生活服务,通讯营业厅,辽宁省,沈阳市,沈河区,沈阳市沈河区泉园一路沈河区泉园小学东南侧约50米,01f30e9928fff1c29b68b4dd,1,0,123.478543,41.780444,,life,http://api.map.baidu.com/place/detail?uid=01f30e9928fff1c29b68b4dd&output=html&source=placeapi_v2,,09:00-18:00,,,,,,,,12,,,,,,,,123.47841346537,41.780554428697,0
78e738f512d58a96b21e360f,中国联通(南通天街营业厅),生活服务,通讯营业厅,辽宁省,沈阳市,沈河区,辽宁省沈阳市沈河区南通天街14甲3号,78e738f512d58a96b21e360f,1,0,123.463178,41.795848,15640234999,life,http://api.map.baidu.com/place/detail?uid=78e738f512d58a96b21e360f&output=html&source=placeapi_v2,,,1,,,,,,,6,1,,,,,,,123.46324128922,41.795847927003,0
6324b2f97eea9df3e9f85359,中国移动24小时自助服务厅(文化东路营业厅),生活服务,通讯营业厅,辽宁省,沈阳市,沈河区,辽宁省沈阳市沈河区文化东路33号24小时,6324b2f97eea9df3e9f85359,1,0,123.478196,41.775131,,life,http://api.map.baidu.com/place/detail?uid=6324b2f97eea9df3e9f85359&output=html&source=placeapi_v2,,00:00-24:00,5,,,,,,,6,2,,,,,,,123.47810930362,41.77527732748,0
e960e3f3351cd176ae04576f,中国移动(双杰通讯),生活服务,通讯营业厅,辽宁省,沈阳市,大东区,辽宁省沈阳市大东区东顺城街137号,e960e3f3351cd176ae04576f,1,0,123.471089,41.799593,,life,http://api.map.baidu.com/place/detail?uid=e960e3f3351cd176ae04576f&output=html&source=placeapi_v2,,,,,,,,,,10,,,,,,,,123.47099997575,41.799591645275,0
c162e1246520c1ed3913fd96,中国移动(长青营业厅),生活服务,通讯营业厅,辽宁省,沈阳市,沈河区,辽宁省沈阳市沈河区长青街125-5门号,c162e1246520c1ed3913fd96,1,0,123.496796,41.774123,,life,http://api.map.baidu.com/place/detail?uid=c162e1246520c1ed3913fd96&output=html&source=placeapi_v2,,,,,,,,,,5,,,,,,,,123.49657794029,41.773969192014,0
72cb16f9249cf02c6c4760ca,中国电信(文化路营业厅),生活服务,通讯营业厅,辽宁省,沈阳市,沈河区,辽宁省沈阳市沈河区南塔街道文化路104号,72cb16f9249cf02c6c4760ca,1,0,123.461819,41.776453,(024)31997121,life,http://api.map.baidu.com/place/detail?uid=72cb16f9249cf02c6c4760ca&output=html&source=placeapi_v2,,09:00-18:30,0.0,,,,,,,7,,,,,,,,123.46178565701,41.776784940944,0
19aedc2c36fe8ce082288acd,中国移动4G+宽带电视服务站(骏驿巷营业厅),生活服务,通讯营业厅,辽宁省,沈阳市,沈河区,沈阳市沈河区骏驿巷红巾社区,19aedc2c36fe8ce082288acd,1,0,123.464682,41.789637,,life,http://api.map.baidu.com/place/detail?uid=19aedc2c36fe8ce082288acd&output=html&source=placeapi_v2,,,,,,,,,,6,,,,,,,,,,0
646e3a5a3779fa5f5d0d025a,中国移动24小时自助服务厅(南顺城营业厅),生活服务,通讯营业厅,辽宁省,沈阳市,沈河区,辽宁省沈阳市沈河区南顺城路117号南顺城,646e3a5a3779fa5f5d0d025a,1,0,123.470455,41.798963,,life,http://api.map.baidu.com/place/detail?uid=646e3a5a3779fa5f5d0d025a&output=html&source=placeapi_v2,,00:00-24:00,0.0,,,,,,,3,1,,,,,,,123.4708139912,41.798957947967,0
bba87388bbbd99a0bda822a0,中国移动(南顺城营业厅),生活服务,通讯营业厅,辽宁省,沈阳市,沈河区,辽宁省沈阳市沈河区南顺城路117号,bba87388bbbd99a0bda822a0,1,0,123.470559,41.798908,15140209588,life,http://api.map.baidu.com/place/detail?uid=bba87388bbbd99a0bda822a0&output=html&source=placeapi_v2,,08:00-18:30,4,,,,,,,23,8,,,,,,,123.47081447089,41.798976141862,0
ffc5157e9d591cdad32dd6d1,中国联通(红巾里营业厅),生活服务,通讯营业厅,辽宁省,沈阳市,沈河区,辽宁省沈阳市沈河区大南街126号,ffc5157e9d591cdad32dd6d1,1,0,123.465844,41.793914,(024)24126200,life,http://api.map.baidu.com/place/detail?uid=ffc5157e9d591cdad32dd6d1&output=html&source=placeapi_v2,,08:30-17:00,5,,,,,,,5,8,,,,,,,123.46602042549,41.793923084591,0
a6d35b0c87ac89138715417f,中国联通(大南营业厅),生活服务,通讯营业厅,辽宁省,沈阳市,沈河区,辽宁省沈阳市沈河区大南街422号430门,a6d35b0c87ac89138715417f,1,0,123.461946,41.780787,18602407141,life,http://api.map.baidu.com/place/detail?uid=a6d35b0c87ac89138715417f&output=html&source=placeapi_v2,,08:30-17:00,0,,,,,,,14,2,,,,,,,123.46201392003,41.780737384416,0
00700ee6a9996ee6ae31e591,中国联合网络通信有限公司沈阳市分公司沈河区局(东北门),生活服务,通讯营业厅,辽宁省,沈阳市,沈河区,沈阳市沈河区长青街56号,00700ee6a9996ee6ae31e591,1,0,123.491055,41.778287,,life,http://api.map.baidu.com/place/detail?uid=00700ee6a9996ee6ae31e591&output=html&source=placeapi_v2,,,,,,,,,,,,,,,,,,,,0
555fb13b7ca145332bb97c0f,东北空管通信营业厅,生活服务,通讯营业厅,辽宁省,沈阳市,大东区,辽宁省沈阳市大东区小河沿路3号,555fb13b7ca145332bb97c0f,1,0,123.499536,41.794256,(024)88298888,life,http://api.map.baidu.com/place/detail?uid=555fb13b7ca145332bb97c0f&output=html&source=placeapi_v2,,,,,,,,,,9,,,,,,,,,,0
f44609189e7f5d17b01e36b6,中国移动(方文路营业厅),生活服务,通讯营业厅,辽宁省,沈阳市,沈河区,辽宁省沈阳市沈河区方文路2号1楼,f44609189e7f5d17b01e36b6,1,0,123.509345,41.785186,,life,http://api.map.baidu.com/place/detail?uid=f44609189e7f5d17b01e36b6&output=html&source=placeapi_v2,,09:00-17:00,0,,,,,,,13,2,,,,,,,123.50933810506,41.785030409138,0
492c2cf9bca84b138d77276c,中国电信(沈河总厅),生活服务,通讯营业厅,辽宁省,沈阳市,沈河区,沈阳市沈河区方家栏路51号11门,492c2cf9bca84b138d77276c,1,0,123.516813,41.781981,(024)31058899,life,http://api.map.baidu.com/place/detail?uid=492c2cf9bca84b138d77276c&output=html&source=placeapi_v2,,09:00-18:00,4,,,,,,,12,5,,,,,,,,,0
82f351d839ba6f3fc7f50d43,中国联通方明街营业厅,生活服务,通讯营业厅,辽宁省,沈阳市,沈河区,方明街27号6门,82f351d839ba6f3fc7f50d43,1,0,123.509333,41.784414,18540065500,life,http://api.map.baidu.com/place/detail?uid=82f351d839ba6f3fc7f50d43&output=html&source=placeapi_v2,,09:00-19:00,,,,,,,,7,,,,,,,,123.50910836971,41.784414400363,0
2c0b6bb1dbe732e44e554716,天昊移动通讯服务部,生活服务,通讯营业厅,辽宁省,沈阳市,大东区,沈阳市大东区方凌路,,1,0,123.521032,41.795195,,life,http://api.map.baidu.com/place/detail?uid=2c0b6bb1dbe732e44e554716&output=html&source=placeapi_v2,,,,,,,,,,2,,,,,,,,,,0
20834170fcd7583d210262f7,沈阳移动东陵分公司,生活服务,通讯营业厅,辽宁省,沈阳市,沈河区,辽宁省沈阳市沈河区方文路2号,,1,0,123.509318,41.785057,,life,http://api.map.baidu.com/place/detail?uid=20834170fcd7583d210262f7&output=html&source=placeapi_v2,,,,,,,,,,,,,,,,,,,,0
6d53177894350a2c8505bf42,中国电信(方家栏营业厅),生活服务,通讯营业厅,辽宁省,沈阳市,沈河区,辽宁省沈阳市沈河区方家栏路36-5门号,6d53177894350a2c8505bf42,1,0,123.505952,41.779471,"(024)31173881,(024)31785555",life,http://api.map.baidu.com/place/detail?uid=6d53177894350a2c8505bf42&output=html&source=placeapi_v2,,09:00-18:00,0,,,,,,,12,1,,,,,,,123.50594701254,41.779416745976,0
de3dfb92860910fb83a00c51,中国移动(兴盈营业厅),生活服务,通讯营业厅,辽宁省,沈阳市,新民市,辽宁省沈阳市新民市京哈公路富贵雅居,,1,0,123.010494,41.83229,,life,http://api.map.baidu.com/place/detail?uid=de3dfb92860910fb83a00c51&output=html&source=placeapi_v2,,07:00-21:00,,,,,,,,4,,,,,,,,123.01047651874,41.832254333284,0
8ead66fbff719188b6147f0c,联通西和平营业厅,生活服务,通讯营业厅,辽宁省,沈阳市,于洪区,沈阳市于洪区洪汇路晨曦幼儿园东北侧约70米,,1,0,123.263067,41.808653,,life,http://api.map.baidu.com/place/detail?uid=8ead66fbff719188b6147f0c&output=html&source=placeapi_v2,,09:00-18:00,,,,,,,,6,,,,,,,,,,0
02790d47ec6280759d82eab8,中国移动(金英数码),生活服务,通讯营业厅,辽宁省,沈阳市,于洪区,辽宁省沈阳市于洪区肇工街八马路25-4网点,02790d47ec6280759d82eab8,1,0,123.286997,41.808427,13190096009,life,http://api.map.baidu.com/place/detail?uid=02790d47ec6280759d82eab8&output=html&source=placeapi_v2,,08:00-20:00,0,,,,,,,16,1,,,,,,,,,0
7970fa49c651126929fc48e4,中国移动(大商新玛特于洪营业厅),生活服务,通讯营业厅,辽宁省,沈阳市,于洪区,辽宁省沈阳市于洪区洪湖街26号-1,7970fa49c651126929fc48e4,1,0,123.315155,41.801336,13478117666,life,http://api.map.baidu.com/place/detail?uid=7970fa49c651126929fc48e4&output=html&source=placeapi_v2,,09:30-21:00,0,,,,,,,8,3,,,,,,,,,0
32d9a7717341a4c3465726a7,移动通讯,生活服务,通讯营业厅,辽宁省,沈阳市,铁西区,辽宁省沈阳市铁西区熊家岗路5-11门市,32d9a7717341a4c3465726a7,1,0,123.328907,41.820103,,life,http://api.map.baidu.com/place/detail?uid=32d9a7717341a4c3465726a7&output=html&source=placeapi_v2,,09:00-18:00,,,,,,,,20,,,,,,,,123.32890068475,41.820347697808,0
80237ef89c565de0f4b9166f,中国移动(迎宾路高架营业厅),生活服务,通讯营业厅,辽宁省,沈阳市,于洪区,辽宁省沈阳市于洪区黄海路57号1楼,80237ef89c565de0f4b9166f,1,0,123.303326,41.804849,,life,http://api.map.baidu.com/place/detail?uid=80237ef89c565de0f4b9166f&output=html&source=placeapi_v2,,09:00-17:00,,,,,,,,10,,,,,,,,123.3033615941,41.804771304935,0
ac9e8590fe4dee16d42ce29f,中国电信(保利心语营业厅),生活服务,通讯营业厅,辽宁省,沈阳市,铁西区,辽宁省沈阳市铁西区熊家岗路28甲8号,ac9e8590fe4dee16d42ce29f,1,0,123.330638,41.82357,(024)31310000,life,http://api.map.baidu.com/place/detail?uid=ac9e8590fe4dee16d42ce29f&output=html&source=placeapi_v2,,08:30-17:30,,,,,,,,11,,,,,,,,123.33036464066,41.82356242255,0
a687e11ae4108239c9fa5fcc,中国移动(军信通讯),生活服务,通讯营业厅,辽宁省,沈阳市,于洪区,辽宁省沈阳市于洪区东湖街东湖市场24号,a687e11ae4108239c9fa5fcc,1,0,123.32239,41.802125,,life,http://api.map.baidu.com/place/detail?uid=a687e11ae4108239c9fa5fcc&output=html&source=placeapi_v2,,,0,,,,,,,25,1,,,,,,,123.32219761976,41.801606357114,0
7ae5abe97b1fbfa31ff74d2e,中国联通(世代龙城营业厅),生活服务,通讯营业厅,辽宁省,沈阳市,于洪区,辽宁省沈阳市于洪区黄海路40号5门,7ae5abe97b1fbfa31ff74d2e,1,0,123.307231,41.800283,(024)25182900,life,http://api.map.baidu.com/place/detail?uid=7ae5abe97b1fbfa31ff74d2e&output=html&source=placeapi_v2,,08:00-17:30,0,,,,,,,11,0,,,,,,,123.30722737012,41.800044398898,0
10f3bd0268de222d13293501,联通沈大路卖场,生活服务,通讯营业厅,辽宁省,沈阳市,于洪区,辽宁省沈阳市于洪区沈大路150号8门,10f3bd0268de222d13293501,1,0,123.303281,41.804817,,life,http://api.map.baidu.com/place/detail?uid=10f3bd0268de222d13293501&output=html&source=placeapi_v2,,,,,,,,,,10,1,,,,,,,123.30331459655,41.804759134297,0
727d853840e7221f7c29bdad,中国移动(北四西路),生活服务,通讯营业厅,辽宁省,沈阳市,铁西区,辽宁沈阳市铁西区肇工街南八路25-1号,727d853840e7221f7c29bdad,1,0,123.345847,41.815944,,life,http://api.map.baidu.com/place/detail?uid=727d853840e7221f7c29bdad&output=html&source=placeapi_v2,,10:00-22:00,,,,,,,,7,,,,,,,,123.34593499971,41.816071887268,0
c9dda7ed7cb8b7bd6240a91c,移动通讯(北三中路),生活服务,通讯营业厅,辽宁省,沈阳市,铁西区,辽宁沈阳市铁西区北三中路东区5门,c9dda7ed7cb8b7bd6240a91c,1,0,123.365233,41.816298,13998873900,life,http://api.map.baidu.com/place/detail?uid=c9dda7ed7cb8b7bd6240a91c&output=html&source=placeapi_v2,,08:00-18:00,1,,,,,,,26,4,,,,,,,123.36518649817,41.816126516921,0
7603bd48a7823f9d6849f362,中国电信(北四西路营业厅),生活服务,通讯营业厅,辽宁省,沈阳市,铁西区,辽宁省沈阳市铁西区北四西路15号,7603bd48a7823f9d6849f362,1,0,123.33822,41.817733,,life,http://api.map.baidu.com/place/detail?uid=7603bd48a7823f9d6849f362&output=html&source=placeapi_v2,,08:30-17:30,3,,,,,,,15,2,,,,,,,,,0
8cbe0fe5854400804c3a59d6,中国移动光宽带营业厅,生活服务,通讯营业厅,辽宁省,沈阳市,铁西区,辽宁省沈阳市铁西区北四西路15号网点12门,8cbe0fe5854400804c3a59d6,1,0,123.337857,41.817667,18640548333,life,http://api.map.baidu.com/place/detail?uid=8cbe0fe5854400804c3a59d6&output=html&source=placeapi_v2,,08:00-20:00,,,,,,,,11,,,,,,,,123.33762242727,41.817725471153,0
573a93eac7c88988631809cb,汇五移动营业厅,生活服务,通讯营业厅,辽宁省,沈阳市,铁西区,辽宁省沈阳市铁西区南六西路12号,573a93eac7c88988631809cb,1,0,123.351124,41.807654,13940405235,life,http://api.map.baidu.com/place/detail?uid=573a93eac7c88988631809cb&output=html&source=placeapi_v2,,09:00-18:00,0,,,,,,,13,1,,,,,,,,,0
df036291498cd4f234b06c41,中国联通(卫工北街营业厅),生活服务,通讯营业厅,辽宁省,沈阳市,铁西区,辽宁省沈阳市铁西区卫工北街54号,df036291498cd4f234b06c41,1,0,123.354589,41.810231,18602408902,life,http://api.map.baidu.com/place/detail?uid=df036291498cd4f234b06c41&output=html&source=placeapi_v2,,08:30-17:00,4.4,,,,,,,19,8,,,,,,,123.35452204311,41.810065924088,0
cbd7cd271c3ac9be13293503,中国移动光宽带(营业厅),生活服务,通讯营业厅,辽宁省,沈阳市,铁西区,辽宁沈阳市铁西区牛心屯三路1-1号,cbd7cd271c3ac9be13293503,1,0,123.336656,41.822842,,life,http://api.map.baidu.com/place/detail?uid=cbd7cd271c3ac9be13293503&output=html&source=placeapi_v2,,,0,,,,,,,10,0,,,,,,,123.33661677874,41.823010614363,0
bf0f3aff722e63d46c47606d,中国联通(北一西路营业厅),生活服务,通讯营业厅,辽宁省,沈阳市,铁西区,辽宁省沈阳市铁西区肇工北街13号,bf0f3aff722e63d46c47606d,1,0,123.350974,41.830257,"(024)81864393,18604041393",life,http://api.map.baidu.com/place/detail?uid=bf0f3aff722e63d46c47606d&output=html&source=placeapi_v2,,08:30-17:00,5,,,,,,,18,1,,,,,,,123.35085361314,41.830302056752,0
4e40fa9c520115a7adcb66a6,中国移动(凯荣国际营业厅),生活服务,通讯营业厅,辽宁省,沈阳市,铁西区,辽宁沈阳市铁西区熊家岗路2号,4e40fa9c520115a7adcb66a6,1,0,123.335979,41.821618,,life,http://api.map.baidu.com/place/detail?uid=4e40fa9c520115a7adcb66a6&output=html&source=placeapi_v2,,,,,,,,,,4,1,,,,,,,123.33602573054,41.821526162623,0
93f5bde90e8f58d088f15df9,中国电信(重工北街营业厅店),生活服务,通讯营业厅,辽宁省,沈阳市,铁西区,辽宁沈阳市铁西区重工街北四西路50甲1门号,93f5bde90e8f58d088f15df9,1,0,123.337923,41.830752,(024)31089003,life,http://api.map.baidu.com/place/detail?uid=93f5bde90e8f58d088f15df9&output=html&source=placeapi_v2,162.5,09:00-17:00,0,,,,,,,25,1,,,,,,,123.33798429707,41.830968827018,0
ac9e8590fe4dee16d42ce29f,中国电信(保利心语营业厅),生活服务,通讯营业厅,辽宁省,沈阳市,铁西区,辽宁省沈阳市铁西区熊家岗路28甲8号,ac9e8590fe4dee16d42ce29f,1,0,123.330638,41.82357,(024)31310000,life,http://api.map.baidu.com/place/detail?uid=ac9e8590fe4dee16d42ce29f&output=html&source=placeapi_v2,,08:30-17:30,,,,,,,,11,,,,,,,,123.33036464066,41.82356242255,0
c93bd8d08a64f22f3310af1e,中国联通(北一路营业厅店),生活服务,通讯营业厅,辽宁省,沈阳市,铁西区,辽宁省沈阳市铁西区齐贤北街6号,c93bd8d08a64f22f3310af1e,1,0,123.37665,41.81967,,life,http://api.map.baidu.com/place/detail?uid=c93bd8d08a64f22f3310af1e&output=html&source=placeapi_v2,,09:00-17:00,,,,,,,,8,,,,,,,,123.37675039826,41.819632461648,0
9e5f188683cbe874ae080fba,中国联通(恒大华府营业厅),生活服务,通讯营业厅,辽宁省,沈阳市,铁西区,辽宁省沈阳市铁西区北三西路24甲-3号,,1,0,123.346778,41.821312,18940009184,life,http://api.map.baidu.com/place/detail?uid=9e5f188683cbe874ae080fba&output=html&source=placeapi_v2,,09:00-17:30,,,,,,,,9,,,,,,,,123.34670959957,41.821250035087,0
c560d18e01455539ddee8bca,中国移动(建业路店),生活服务,通讯营业厅,辽宁省,沈阳市,铁西区,辽宁省沈阳市铁西区建业路2-2门,c560d18e01455539ddee8bca,1,0,123.340592,41.803513,,life,http://api.map.baidu.com/place/detail?uid=c560d18e01455539ddee8bca&output=html&source=placeapi_v2,,08:00-21:00,0,,,,,,,13,2,,,,,,,123.34059067121,41.803301725273,0
fc767524fb422bfa4f776e97,沈阳铁路信号有限责任公司(北三中路),生活服务,通讯营业厅,辽宁省,沈阳市,铁西区,辽宁省沈阳市铁西区北三中路16号,fc767524fb422bfa4f776e97,1,1,123.370655,41.813984,"(024)62071496,(024)62136269",life,http://api.map.baidu.com/place/detail?uid=fc767524fb422bfa4f776e97&output=html&source=placeapi_v2,,09:00-18:30,4,,,,,,,9,2,,,,,,,123.37051401736,41.813871286987,1
ff4c2653498a1ca29ee321fc,中国移动(记忆通信授权店),生活服务,通讯营业厅,辽宁省,沈阳市,铁西区,辽宁省沈阳市铁西区重工北街小北一西路32-30-10号门,ff4c2653498a1ca29ee321fc,1,0,123.337357,41.831248,(024)66718688,life,http://api.map.baidu.com/place/detail?uid=ff4c2653498a1ca29ee321fc&output=html&source=placeapi_v2,,09:00-18:00,3.7,,,,,,,23,5,,,,,,,,,0
6882b07f4d93ee35fa42b23c,中国移动(兴华北街营业厅),生活服务,通讯营业厅,辽宁省,沈阳市,铁西区,辽宁省沈阳市铁西区兴华北街18号,6882b07f4d93ee35fa42b23c,1,0,123.388233,41.815606,15140221377,life,http://api.map.baidu.com/place/detail?uid=6882b07f4d93ee35fa42b23c&output=html&source=placeapi_v2,,08:30-17:30,3.2,,,,,,,11,8,,,,,,,123.38837316844,41.815572332672,0
0bb198f72b1db54ec72ba15d,中国移动(光宽带营业厅),生活服务,通讯营业厅,辽宁省,沈阳市,铁西区,辽宁省沈阳市铁西区北一东路67甲2号,0bb198f72b1db54ec72ba15d,1,0,123.399345,41.813552,13080771027,life,http://api.map.baidu.com/place/detail?uid=0bb198f72b1db54ec72ba15d&output=html&source=placeapi_v2,,,0,,,,,,,11,1,,,,,,,123.39932565759,41.813664736768,0
abb220570635d652882fb582,中国联通(北一东路营业厅),生活服务,通讯营业厅,辽宁省,沈阳市,铁西区,辽宁省沈阳市铁西区爱工北街1号,abb220570635d652882fb582,1,0,123.399288,41.813609,,life,http://api.map.baidu.com/place/detail?uid=abb220570635d652882fb582&output=html&source=placeapi_v2,,09:00-18:00,1,,,,,,,13,1,,,,,,,123.39932264632,41.813654796956,0
09f6263b161766356e3e1b64,中国移动(兴工北街营业厅),生活服务,通讯营业厅,辽宁省,沈阳市,铁西区,辽宁省沈阳市铁西区兴工北街9号2楼,09f6263b161766356e3e1b64,1,0,123.402668,41.81164,"(024)66900072,13840035343",life,http://api.map.baidu.com/place/detail?uid=09f6263b161766356e3e1b64&output=html&source=placeapi_v2,,07:30-18:30,5,,,,,,,6,2,,,,,,,123.40252858101,41.81172287801,0
1e49f08b31dbcb7b17948e55,中国移动24小时自助服务厅(宁山西路营业厅),生活服务,通讯营业厅,辽宁省,沈阳市,皇姑区,辽宁省沈阳市皇姑区宁山西路7号,1e49f08b31dbcb7b17948e55,1,0,123.403431,41.833179,,life,http://api.map.baidu.com/place/detail?uid=1e49f08b31dbcb7b17948e55&output=html&source=placeapi_v2,,07:30-18:30,3,,,,,,,21,5,,,,,,,123.40358439271,41.83328516322,0
ee66c0c286d37eb843ab9a38,中国移动(恒运通社区服务站),生活服务,通讯营业厅,辽宁省,沈阳市,铁西区,辽宁省沈阳市铁西区云峰北街北三东路24甲3号,ee66c0c286d37eb843ab9a38,1,0,123.389313,41.806134,13842028797,life,http://api.map.baidu.com/place/detail?uid=ee66c0c286d37eb843ab9a38&output=html&source=placeapi_v2,,08:00-20:00,,,,,,,,7,,,,,,,,123.38951234258,41.806080769427,0
4f5bd950ad23f7b4100daae8,中国移动(应昌街营业厅),生活服务,通讯营业厅,辽宁省,沈阳市,铁西区,辽宁省沈阳市铁西区应昌街30-2号,4f5bd950ad23f7b4100daae8,1,0,123.386557,41.808744,,life,http://api.map.baidu.com/place/detail?uid=4f5bd950ad23f7b4100daae8&output=html&source=placeapi_v2,,,5,,,,,,,12,2,,,,,,,123.38675495878,41.808644788153,0
2be077511758d47f028972bd,中国联通(大渡河街营业厅),生活服务,通讯营业厅,辽宁省,沈阳市,皇姑区,辽宁省沈阳市皇姑区大渡河街25号,2be077511758d47f028972bd,1,0,123.410264,41.822879,,life,http://api.map.baidu.com/place/detail?uid=2be077511758d47f028972bd&output=html&source=placeapi_v2,,09:00-18:00,,,,,,,,12,,,,,,,,123.4103595018,41.822832242902,0
5b071272a9bcba6d931fc9b3,中国移动(胜利营业厅),生活服务,通讯营业厅,辽宁省,沈阳市,和平区,辽宁省沈阳市和平区胜利北街10号,5b071272a9bcba6d931fc9b3,1,0,123.408115,41.807297,,life,http://api.map.baidu.com/place/detail?uid=5b071272a9bcba6d931fc9b3&output=html&source=placeapi_v2,,,,,,,,,,6,,,,,,,,123.40828232663,41.807160316289,0
5c340b0a96a699f9157643cf,中国移动(碧海通讯),生活服务,通讯营业厅,辽宁省,沈阳市,皇姑区,辽宁沈阳市皇姑区淮河南街11号,5c340b0a96a699f9157643cf,1,0,123.394061,41.828814,13940352200,life,http://api.map.baidu.com/place/detail?uid=5c340b0a96a699f9157643cf&output=html&source=placeapi_v2,,08:30-19:00,,,,,,,,15,,,,,,,,123.39391188813,41.828888230991,0
0dbcb1cc1921253c14948e6e,安卓市场中国移动通讯,生活服务,通讯营业厅,辽宁省,沈阳市,皇姑区,辽宁省沈阳市皇姑区峨眉山路36号,0dbcb1cc1921253c14948e6e,1,0,123.399718,41.83149,"13898846172,15566238111",life,http://api.map.baidu.com/place/detail?uid=0dbcb1cc1921253c14948e6e&output=html&source=placeapi_v2,,08:00-22:00,1,,,,,,,15,2,,,,,,,123.399794,41.831405886698,0
64fe6beb76f05fb7e8f853dc,中国电信24小时自助服务厅(北一中路营业厅),生活服务,通讯营业厅,辽宁省,沈阳市,铁西区,辽宁省沈阳市铁西区北一中路1-1号,64fe6beb76f05fb7e8f853dc,1,0,123.384416,41.820338,(024)31080046,life,http://api.map.baidu.com/place/detail?uid=64fe6beb76f05fb7e8f853dc&output=html&source=placeapi_v2,162.5,09:00-18:00,3.2,,,,,,,17,5,,,,,,,123.38420061987,41.820521924185,0
7baec8a1c78a052b95ca079e,永好通讯,生活服务,通讯营业厅,辽宁省,沈阳市,铁西区,辽宁省沈阳市铁西区北一东路44号楼,7baec8a1c78a052b95ca079e,1,0,123.401486,41.815303,(024)25121798,life,http://api.map.baidu.com/place/detail?uid=7baec8a1c78a052b95ca079e&output=html&source=placeapi_v2,,09:00-21:00,,,,,,,,9,,,,,,,,123.40168801319,41.81536332755,0
9a3a1bfbc503d3d22fb90866,中国移动(巨信社区服务站),生活服务,通讯营业厅,辽宁省,沈阳市,铁西区,辽宁省沈阳市铁西区小北一中路11网点4门,9a3a1bfbc503d3d22fb90866,1,0,123.38343,41.817971,,life,http://api.map.baidu.com/place/detail?uid=9a3a1bfbc503d3d22fb90866&output=html&source=placeapi_v2,,08:30-17:30,,,,,,,,9,1,,,,,,,123.38349788176,41.818082726424,0
cb816b8a6af489bb6fc02c04,步云山路营业厅,生活服务,通讯营业厅,辽宁省,沈阳市,皇姑区,辽宁省沈阳市皇姑区步云山路59号,cb816b8a6af489bb6fc02c04,1,0,123.405215,41.822743,,life,http://api.map.baidu.com/place/detail?uid=cb816b8a6af489bb6fc02c04&output=html&source=placeapi_v2,,08:00-18:00,,,,,,,,4,,,,,,,,,,0
64635b330b16efacebe5828c,中国联通(云峰北街营业厅),生活服务,通讯营业厅,辽宁省,沈阳市,铁西区,辽宁省沈阳市铁西区云峰北街巴塞罗那东南侧约40米,64635b330b16efacebe5828c,1,0,123.387075,41.802394,18640215757,life,http://api.map.baidu.com/place/detail?uid=64635b330b16efacebe5828c&output=html&source=placeapi_v2,,09:00-17:30,,,,,,,,6,2,,,,,,,123.38692633391,41.802448500824,0
977eef06e8845dd287154188,中国移动(亚明营业厅),生活服务,通讯营业厅,辽宁省,沈阳市,皇姑区,沈阳市皇姑区大渡河街沈阳市启智幼儿园南侧约60米,977eef06e8845dd287154188,1,0,123.410291,41.822856,,life,http://api.map.baidu.com/place/detail?uid=977eef06e8845dd287154188&output=html&source=placeapi_v2,,09:00-18:00,0,,,,,,,14,1,,,,,,,123.41035836904,41.82283053619,0
e20741ce5800677d4054d72e,中国联通智慧生活馆(皇姑营业厅),生活服务,通讯营业厅,辽宁省,沈阳市,皇姑区,沈阳市皇姑区天山北路基业步云阁东南侧约100米,,1,0,123.404571,41.821653,18540004888,life,http://api.map.baidu.com/place/detail?uid=e20741ce5800677d4054d72e&output=html&source=placeapi_v2,,,,,,,,,,4,,,,,,,,,,0
72bcb76d49670a632a02e1a1,中国移动光宽带营业厅(应昌街指定专营店),生活服务,通讯营业厅,辽宁省,沈阳市,铁西区,辽宁省沈阳市铁西区云峰北街34-14号,72bcb76d49670a632a02e1a1,1,0,123.384256,41.805164,18202406068,life,http://api.map.baidu.com/place/detail?uid=72bcb76d49670a632a02e1a1&output=html&source=placeapi_v2,,08:30-17:30,0,,,,,,,12,2,,,,,,,123.38402365728,41.805262936199,0
c9413e8c3352f0f915a1903c,中国电信(军翼网营业厅),生活服务,通讯营业厅,辽宁省,沈阳市,和平区,辽宁省沈阳市和平区民族北街31号甲,c9413e8c3352f0f915a1903c,1,0,123.409057,41.803577,,life,http://api.map.baidu.com/place/detail?uid=c9413e8c3352f0f915a1903c&output=html&source=placeapi_v2,,08:30-17:00,1,,,,,,,12,3,,,,,,,123.40884137357,41.803664677117,0
c2b101615414d88e7dc876d3,中国移动(西塔营业厅),生活服务,通讯营业厅,辽宁省,沈阳市,和平区,辽宁省沈阳市和平区西塔街72号,c2b101615414d88e7dc876d3,1,0,123.416748,41.811408,13478380030,life,http://api.map.baidu.com/place/detail?uid=c2b101615414d88e7dc876d3&output=html&source=placeapi_v2,,10:00-18:00,5,,,,,,,5,5,,,,,,,123.41696264377,41.811330393721,0
