uid,name,cat_L1,cat_L2,province,city,area,address,street_id,detail,child_num,loc_lng,loc_lat,telephone,type,detail_url,price,shop_hours,overall_rating,taste_rating,service_rating,environment_rating,facility_rating,hygiene_rating,technology_rating,image_num,comment_num,groupon_num,discount_num,favorite_num,checkin_num,brand,content_tag,naviloc_lng,naviloc_lat,child_num
34e48508c0b012e2d8d89153,米兰西点(苏家屯店),美食,外国餐厅,辽宁省,沈阳市,苏家屯区,辽宁省沈阳市苏家屯区香杨路83号,34e48508c0b012e2d8d89153,1,0,123.343549,41.662053,(024)29819911,cater,http://api.map.baidu.com/place/detail?uid=34e48508c0b012e2d8d89153&output=html&source=placeapi_v2,80.0,09:00-23:00,4.7,,,,,,,,9,,,,,,,123.34339688151,41.662232741518,0
2c55b8c7d23cff6ac42ba185,木马咖啡西餐(华苑店),美食,外国餐厅,辽宁省,沈阳市,苏家屯区,辽宁省沈阳市苏家屯区海棠街34号,2c55b8c7d23cff6ac42ba185,1,0,123.351933,41.668982,13358852400,cater,http://api.map.baidu.com/place/detail?uid=2c55b8c7d23cff6ac42ba185&output=html&source=placeapi_v2,58.0,10:00-21:00,4.1,,,,,,,,39,,,,,,,,,0
64917227c474c9a093114c2f,勤辉餐馆,美食,外国餐厅,辽宁省,沈阳市,苏家屯区,辽宁沈阳市苏家屯区南沙柳路4号,64917227c474c9a093114c2f,1,0,123.349951,41.657156,15942379693,cater,http://api.map.baidu.com/place/detail?uid=64917227c474c9a093114c2f&output=html&source=placeapi_v2,,06:05-20:30,5,,,,,,,,4,,,,,,,,,0
3b2a96a8f24cd257246e9861,金汉山碳烤疙瘩肉(河畔店),美食,外国餐厅,辽宁省,沈阳市,苏家屯区,辽宁省沈阳市苏家屯区香杨路95-6号,3b2a96a8f24cd257246e9861,1,0,123.339359,41.658692,(024)29834156,cater,http://api.map.baidu.com/place/detail?uid=3b2a96a8f24cd257246e9861&output=html&source=placeapi_v2,70.0,10:00-22:00,3.7,,,,,,,,1,,,,,,,123.33955885145,41.658687589674,0
8dc0e649a7b0b77cb4265523,月尾岛(桂花街店),美食,外国餐厅,辽宁省,沈阳市,苏家屯区,辽宁省沈阳市苏家屯区香杨路95-8-东1门,8dc0e649a7b0b77cb4265523,1,0,123.339432,41.658399,13674138202,cater,http://api.map.baidu.com/place/detail?uid=8dc0e649a7b0b77cb4265523&output=html&source=placeapi_v2,147.0,"09:30-14:00,16:00-21:30",3.7,,,,,,,,43,,,,,,,123.33962107708,41.658474133312,0
f773a07c3675f22ca2d23072,町上寿司(苏家屯店),美食,外国餐厅,辽宁省,沈阳市,苏家屯区,辽宁沈阳市苏家屯区芙蓉街63号,f773a07c3675f22ca2d23072,1,0,123.352633,41.663923,13998152537,cater,http://api.map.baidu.com/place/detail?uid=f773a07c3675f22ca2d23072&output=html&source=placeapi_v2,17.0,09:00-20:00,3.8,,,,,,,,3,,,,,,,123.35266108737,41.663827426747,0
25ea9383930ae1f3a4c7567c,川崎之牛排饭(苏家屯店),美食,外国餐厅,辽宁省,沈阳市,苏家屯区,辽宁省沈阳市苏家屯区玫瑰街85号,25ea9383930ae1f3a4c7567c,1,0,123.358192,41.664131,18809847665,cater,http://api.map.baidu.com/place/detail?uid=25ea9383930ae1f3a4c7567c&output=html&source=placeapi_v2,,07:30-21:30,3.5,,,,,,,,0,,,,,,,123.35804429632,41.664108580812,0
8aa48baa81bac9ff6c3e1bd1,韩香韵年糕料理(秋菊街店),美食,外国餐厅,辽宁省,沈阳市,苏家屯区,辽宁省沈阳市苏家屯区塔柏路12号,8aa48baa81bac9ff6c3e1bd1,1,0,123.353726,41.66861,(024)62186218,cater,http://api.map.baidu.com/place/detail?uid=8aa48baa81bac9ff6c3e1bd1&output=html&source=placeapi_v2,44.0,08:30-20:30,4.0,,,,,,,,5,,,,,,,123.35360952192,41.668605661179,0
03eb9caec55864be9e9d68fc,崔家紫菜包饭简餐店,美食,外国餐厅,辽宁省,沈阳市,苏家屯区,辽宁省沈阳市苏家屯区桂花街228-20号,03eb9caec55864be9e9d68fc,1,0,123.338707,41.662783,15040334237,cater,http://api.map.baidu.com/place/detail?uid=03eb9caec55864be9e9d68fc&output=html&source=placeapi_v2,,08:00-20:30,3.5,,,,,,,,0,,,,,,,123.33867400526,41.662773255594,0
a8be7206850f51c838e4a619,果木烟熏牛排,美食,外国餐厅,辽宁省,沈阳市,苏家屯区,沈阳市苏家屯区香杨路河畔花城,a8be7206850f51c838e4a619,1,0,123.343657,41.662201,,cater,http://api.map.baidu.com/place/detail?uid=a8be7206850f51c838e4a619&output=html&source=placeapi_v2,,,,,,,,,,,,,,,,,,,,0
d219bb1db9ca30f6f40e77ad,红星村(房产大厦店),美食,外国餐厅,辽宁省,沈阳市,苏家屯区,沈阳市苏家屯区枫杨路78号房产大厦8层,d219bb1db9ca30f6f40e77ad,1,0,123.352015,41.66762,,cater,http://api.map.baidu.com/place/detail?uid=d219bb1db9ca30f6f40e77ad&output=html&source=placeapi_v2,,,5,,,,,,,,1,,,,,,,123.35201493083,41.667619279228,0
2c55b8c7d23cff6ac42ba185,木马咖啡西餐(华苑店),美食,外国餐厅,辽宁省,沈阳市,苏家屯区,辽宁省沈阳市苏家屯区海棠街34号,2c55b8c7d23cff6ac42ba185,1,0,123.351933,41.668982,13358852400,cater,http://api.map.baidu.com/place/detail?uid=2c55b8c7d23cff6ac42ba185&output=html&source=placeapi_v2,58.0,10:00-21:00,4.1,,,,,,,,39,,,,,,,,,0
aa40108b90213c6bc5effbd0,叁池润韩式料理,美食,外国餐厅,辽宁省,沈阳市,苏家屯区,辽宁省沈阳市苏家屯区桂花街174-2号,aa40108b90213c6bc5effbd0,1,0,123.339312,41.671811,(024)62185869,cater,http://api.map.baidu.com/place/detail?uid=aa40108b90213c6bc5effbd0&output=html&source=placeapi_v2,49.0,09:00-22:00,3.6,,,,,,,,28,,,,,,,,,0
27cc07a071d9e4c7da2f28b5,晓兰石锅拌饭,美食,外国餐厅,辽宁省,沈阳市,苏家屯区,辽宁省沈阳市苏家屯区玫瑰街4号,27cc07a071d9e4c7da2f28b5,1,0,123.355333,41.673497,15640214662,cater,http://api.map.baidu.com/place/detail?uid=27cc07a071d9e4c7da2f28b5&output=html&source=placeapi_v2,,09:00-20:30,3.5,,,,,,,1,,,,,,,,,,0
8aa48baa81bac9ff6c3e1bd1,韩香韵年糕料理(秋菊街店),美食,外国餐厅,辽宁省,沈阳市,苏家屯区,辽宁省沈阳市苏家屯区塔柏路12号,8aa48baa81bac9ff6c3e1bd1,1,0,123.353726,41.66861,(024)62186218,cater,http://api.map.baidu.com/place/detail?uid=8aa48baa81bac9ff6c3e1bd1&output=html&source=placeapi_v2,44.0,08:30-20:30,4.0,,,,,,,,5,,,,,,,123.35360952192,41.668605661179,0
5ffb1816cd881c5e6f476027,锦江山冷面店,美食,外国餐厅,辽宁省,沈阳市,苏家屯区,辽宁省沈阳市苏家屯区翠柏路13号11-4门,5ffb1816cd881c5e6f476027,1,0,123.348804,41.670327,,cater,http://api.map.baidu.com/place/detail?uid=5ffb1816cd881c5e6f476027&output=html&source=placeapi_v2,,09:00-21:00,3.7,,,,,,,,13,,,,,,,123.34874984362,41.670486012146,0
fa5ab09546bf4f882afc48f5,吉哆哆韩国炸鸡(青松路店),美食,外国餐厅,辽宁省,沈阳市,苏家屯区,辽宁省沈阳市苏家屯区青松路18-4门,fa5ab09546bf4f882afc48f5,1,0,123.348293,41.673521,18840690269,cater,http://api.map.baidu.com/place/detail?uid=fa5ab09546bf4f882afc48f5&output=html&source=placeapi_v2,,09:30-23:00,3.7,,,,,,,,,,,,,,,123.34832394081,41.673412536732,0
d219bb1db9ca30f6f40e77ad,红星村(房产大厦店),美食,外国餐厅,辽宁省,沈阳市,苏家屯区,沈阳市苏家屯区枫杨路78号房产大厦8层,d219bb1db9ca30f6f40e77ad,1,0,123.352015,41.66762,,cater,http://api.map.baidu.com/place/detail?uid=d219bb1db9ca30f6f40e77ad&output=html&source=placeapi_v2,,,5,,,,,,,,1,,,,,,,123.35201493083,41.667619279228,0
8a25864b87a671912e473307,吉哆哆韩国炸鸡(体院店),美食,外国餐厅,辽宁省,沈阳市,苏家屯区,辽宁省沈阳市苏家屯区南京南街1009华府丹郡b14~15门,,1,0,123.397734,41.685983,"13236635544,15840005544",cater,http://api.map.baidu.com/place/detail?uid=8a25864b87a671912e473307&output=html&source=placeapi_v2,,10:30-24:00,3.6,,,,,,,,,,,,,,,123.39779559163,41.686076273535,0
92964e2efe5285ce14c8f625,西鹏牛排,美食,外国餐厅,辽宁省,沈阳市,苏家屯区,苏家屯区银杏路金钱松东路36号,92964e2efe5285ce14c8f625,1,0,123.399914,41.679754,18540194719,cater,http://api.map.baidu.com/place/detail?uid=92964e2efe5285ce14c8f625&output=html&source=placeapi_v2,,09:00-21:00,3.5,,,,,,,,0,,,,,,,,,0
e99f0709010e377da7c756d3,花花韩式简餐馆,美食,外国餐厅,辽宁省,沈阳市,苏家屯区,沈阳市苏家屯区南京南街华府丹郡,e99f0709010e377da7c756d3,1,0,123.394711,41.68534,,cater,http://api.map.baidu.com/place/detail?uid=e99f0709010e377da7c756d3&output=html&source=placeapi_v2,,,,,,,,,,,,,,,,,,,,0
a4c7e138f75e0e8688f15d99,麦啦屋西餐(白塔店),美食,外国餐厅,辽宁省,沈阳市,浑南区,浑南区白塔街57-48号,a4c7e138f75e0e8688f15d99,1,0,123.433338,41.695613,(024)31578686,cater,http://api.map.baidu.com/place/detail?uid=a4c7e138f75e0e8688f15d99&output=html&source=placeapi_v2,91.0,10:30-22:30,4.6,,,,,,,,13,,,,,,,123.43325895045,41.695618905063,0
5367345c385acabcadb22a92,韩国炸酱面(浑南店),美食,外国餐厅,辽宁省,沈阳市,浑南区,沈阳市浑南区塔南村1号,5367345c385acabcadb22a92,1,0,123.42823,41.694568,"15242003381,18809809351",cater,http://api.map.baidu.com/place/detail?uid=5367345c385acabcadb22a92&output=html&source=placeapi_v2,31.0,08:00-21:00,3.7,,,,,,,,3,,,,,,,123.42843092844,41.694549456473,0
f4199a76c716da38e812e491,川崎牛排饭,美食,外国餐厅,辽宁省,沈阳市,浑南区,辽宁省沈阳市浑南区塔东路9号,,1,0,123.435001,41.692089,,cater,http://api.map.baidu.com/place/detail?uid=f4199a76c716da38e812e491&output=html&source=placeapi_v2,,,,,,,,,,1,,,,,,,,,,0
91aae1a4f28036dfd81318b4,町田寿司店(上亿广场店),美食,外国餐厅,辽宁省,沈阳市,浑南区,沈阳市浑南区沈营大街587号上亿广场F3,91aae1a4f28036dfd81318b4,1,0,123.42938,41.69568,,cater,http://api.map.baidu.com/place/detail?uid=91aae1a4f28036dfd81318b4&output=html&source=placeapi_v2,17.0,09:00-20:00,0,,,,,,,,0,,,,,,,123.42938374672,41.698165685447,0
d50e746faf22f5743586f4a6,藤鲜寿司,美食,外国餐厅,辽宁省,沈阳市,浑南区,沈阳市浑南区沈营大街上亿广场东5门东北侧,,1,0,123.430477,41.697477,,cater,http://api.map.baidu.com/place/detail?uid=d50e746faf22f5743586f4a6&output=html&source=placeapi_v2,,,,,,,,,,,,,,,,,,,,0
07221f1f4fff90ae4d776e74,沈阳新都绿城喜来登酒店-盛宴标帜餐厅,美食,外国餐厅,辽宁省,沈阳市,浑南区,辽宁沈阳市浑南新区沈中大街101-1号沈阳新都绿城喜来登酒店,07221f1f4fff90ae4d776e74,1,0,123.474913,41.684857,(024)31619999,cater,http://api.map.baidu.com/place/detail?uid=07221f1f4fff90ae4d776e74&output=html&source=placeapi_v2,160.0,,4.5,,,,,,,,51,,,,,,,,,0
7cb3e90deae2afb83a13fd3b,延寿参鸡汤,美食,外国餐厅,辽宁省,沈阳市,浑南区,辽宁沈阳市浑南区全运北路99-29号,7cb3e90deae2afb83a13fd3b,1,0,123.476205,41.688945,13940065006,cater,http://api.map.baidu.com/place/detail?uid=7cb3e90deae2afb83a13fd3b&output=html&source=placeapi_v2,99.0,11:30-21:30,3.9,,,,,,,,0,,,,,,,123.47620717673,41.689026413583,0
1c134ef67b1740d41d5800c8,漾・Young bar,美食,外国餐厅,辽宁省,沈阳市,浑南区,全运路93-9号6号门(绿城全运村玉兰花园),1c134ef67b1740d41d5800c8,1,0,123.485975,41.69066,,cater,http://api.map.baidu.com/place/detail?uid=1c134ef67b1740d41d5800c8&output=html&source=placeapi_v2,,,5,,,,,,,,1,,,,,,,,,0
6e058e144c0737570482c2e2,富士精致料理(万达广场沈阳全运店),美食,外国餐厅,辽宁省,沈阳市,浑南区,沈阳市浑南区全运路与智慧四街交界处万达广场4楼4057号,,1,0,123.467075,41.692195,,cater,http://api.map.baidu.com/place/detail?uid=6e058e144c0737570482c2e2&output=html&source=placeapi_v2,,,0,,,,,,,,0,,,,,,,123.46474982894,41.691359388242,0
476e428e866cc895f8221317,韩膳烤肉大冷面,美食,外国餐厅,辽宁省,沈阳市,浑南区,辽宁省沈阳市浑南区桃仙大街1号,476e428e866cc895f8221317,1,0,123.522717,41.698272,(024)83659959,cater,http://api.map.baidu.com/place/detail?uid=476e428e866cc895f8221317&output=html&source=placeapi_v2,,10:00-23:00,3.6,,,,,,,,2,,,,,,,123.52272811853,41.698388235486,0
eb38d457e5c285610bf5eb88,沈阳东方银座酒店・天源中餐厅(铁西店),美食,外国餐厅,辽宁省,沈阳市,铁西区,辽宁省沈阳市铁西区经济技术开发区开发二十七号路326-1号(沈阳东方银座铂尔曼酒店二楼),eb38d457e5c285610bf5eb88,1,0,123.236141,41.704556,(024)83935888-8715,cater,http://api.map.baidu.com/place/detail?uid=eb38d457e5c285610bf5eb88&output=html&source=placeapi_v2,,10:00-21:00,3.6,,,,,,,,0,,,,,,,123.23599538221,41.704422120901,0
872fdc58e8cb18a7a5da39d6,和泉日式料理,美食,外国餐厅,辽宁省,沈阳市,和平区,辽宁省沈阳市和平区长白南路223号,872fdc58e8cb18a7a5da39d6,1,0,123.406121,41.733886,19804142345,cater,http://api.map.baidu.com/place/detail?uid=872fdc58e8cb18a7a5da39d6&output=html&source=placeapi_v2,,"11:00-14:00,16:30-21:30",4.4,,,,,,,,15,,,,,,,,,0
c4f8999d7c7c35f7f60e77e7,金达莱(沈苏西路店),美食,外国餐厅,辽宁省,沈阳市,和平区,沈阳市和平区沈苏西路与族兴路交叉路口往东北约140米,c4f8999d7c7c35f7f60e77e7,1,0,123.379832,41.727535,,cater,http://api.map.baidu.com/place/detail?uid=c4f8999d7c7c35f7f60e77e7&output=html&source=placeapi_v2,,,3,,,,,,,,1,,,,,,,123.37998251317,41.727402236826,0
de22215bedfdb7794bcc4a9f,铭仕轻食沙拉,美食,外国餐厅,辽宁省,沈阳市,和平区,辽宁省沈阳市和平区新立屯159号馨丽康城1层3门,,1,0,123.385911,41.702936,,cater,http://api.map.baidu.com/place/detail?uid=de22215bedfdb7794bcc4a9f&output=html&source=placeapi_v2,,,,,,,,,,,,,,,,,,,,0
3dfa2bae5d9b68ae0289725a,十佳缘饭店,美食,外国餐厅,辽宁省,沈阳市,和平区,沈阳市和平区沈苏西路与族兴路交叉路口往东北约180米,3dfa2bae5d9b68ae0289725a,1,0,123.380526,41.727453,,cater,http://api.map.baidu.com/place/detail?uid=3dfa2bae5d9b68ae0289725a&output=html&source=placeapi_v2,,,,,,,,,,,,,,,,,,123.38041853629,41.727549842314,0
e0397cd05b360ce24d2fdf9c,町上寿司(唯美品格店),美食,外国餐厅,辽宁省,沈阳市,浑南区,辽宁省沈阳市浑南区沈营路17丙-5号15号楼,e0397cd05b360ce24d2fdf9c,1,0,123.444678,41.712272,(024)62889095,cater,http://api.map.baidu.com/place/detail?uid=e0397cd05b360ce24d2fdf9c&output=html&source=placeapi_v2,18.0,09:00-19:00,3.9,,,,,,,,0,,,,,,,123.44489721249,41.71242271631,0
e754ce47957435ccf1193773,韩记韩式料理,美食,外国餐厅,辽宁省,沈阳市,浑南区,沈阳市浑南区前榆路浑河站中心小学东侧,e754ce47957435ccf1193773,1,0,123.430479,41.725338,13898817930,cater,http://api.map.baidu.com/place/detail?uid=e754ce47957435ccf1193773&output=html&source=placeapi_v2,,,,,,,,,,,,,,,,,,123.430296859,41.725249679538,0
799b06a446f77e1d8c1a89c7,真味楼韩式烤肉,美食,外国餐厅,辽宁省,沈阳市,浑南区,辽宁省沈阳市浑南区新隆街1-32号,799b06a446f77e1d8c1a89c7,1,0,123.464423,41.727809,(024)83696699,cater,http://api.map.baidu.com/place/detail?uid=799b06a446f77e1d8c1a89c7&output=html&source=placeapi_v2,64.0,09:00-22:00,4.0,,,,,,,,60,,,,,,,123.46431696516,41.727969762764,0
94b32b554609c878210262c6,韩帝园食品(月星国际城店),美食,外国餐厅,辽宁省,沈阳市,浑南区,辽宁省沈阳市浑南区沈中大街3-4号久日红超市内,94b32b554609c878210262c6,1,0,123.474548,41.709418,18640460590,cater,http://api.map.baidu.com/place/detail?uid=94b32b554609c878210262c6&output=html&source=placeapi_v2,,08:00-20:15,,,,,,,,1,,,,,,,,123.47476240054,41.709368177439,0
eb695b19a5941ef017c8f6f4,若长良川北派日料,美食,外国餐厅,辽宁省,沈阳市,浑南区,辽宁沈阳市浑南新区新隆街18号,,1,0,123.462561,41.725727,,cater,http://api.map.baidu.com/place/detail?uid=eb695b19a5941ef017c8f6f4&output=html&source=placeapi_v2,113.0,10:30-22:00,0,,,,,,,,0,,,,,,,,,0
62a9b481aeb42317ac31e55d,三个先森的韩国炸鸡(白塔河店),美食,外国餐厅,辽宁省,沈阳市,浑南区,辽宁省沈阳市浑南区智慧三街3-2-24号,62a9b481aeb42317ac31e55d,1,0,123.46454,41.712123,13763794966,cater,http://api.map.baidu.com/place/detail?uid=62a9b481aeb42317ac31e55d&output=html&source=placeapi_v2,24.0,09:00-24:00,3.7,,,,,,,,,,,,,,,123.46454589562,41.712222233645,0
5be086218810a98502ff2d79,阿里郎韩式简餐,美食,外国餐厅,辽宁省,沈阳市,浑南区,浑南区新隆街1-34号2门,,1,0,123.465766,41.7267,18740012232,cater,http://api.map.baidu.com/place/detail?uid=5be086218810a98502ff2d79&output=html&source=placeapi_v2,,10:00-21:00,,,,,,,,,,,,,,,,123.46597958984,41.72677509575,0
ec87903b8da5f487725e8099,喜顺牛肉份饭,美食,外国餐厅,辽宁省,沈阳市,铁西区,沈阳市铁西区北渠岸路义德家园西南侧约110米,ec87903b8da5f487725e8099,1,0,123.242054,41.74381,,cater,http://api.map.baidu.com/place/detail?uid=ec87903b8da5f487725e8099&output=html&source=placeapi_v2,,,4,,,,,,,,1,,,,,,,123.24208800009,41.74378689032,0
b4d84d547e68b4856b49f3b6,三个先森的韩国炸鸡(开发区店),美食,外国餐厅,辽宁省,沈阳市,铁西区,辽宁省沈阳市铁西区中央大街十四号路V街区20-4号,b4d84d547e68b4856b49f3b6,1,0,123.250256,41.753163,,cater,http://api.map.baidu.com/place/detail?uid=b4d84d547e68b4856b49f3b6&output=html&source=placeapi_v2,21.0,09:00-24:00,3.6,,,,,,,,12,,,,,,,,,0
28928baf1512cfa8e115f924,熊家韩式炸鸡(中央大街店),美食,外国餐厅,辽宁省,沈阳市,铁西区,铁西区沈辽西路122-27号,,1,0,123.248728,41.750156,13840077082,cater,http://api.map.baidu.com/place/detail?uid=28928baf1512cfa8e115f924&output=html&source=placeapi_v2,,09:30-20:30,3.5,,,,,,,,,,,,,,,,,0
7902890898cdf8dc6e20b973,非尝了得小逆と馊夥古Ｅ欧,美食,外国餐厅,辽宁省,沈阳市,铁西区,辽宁省沈阳市铁西区沈辽西路十号街122-25号,7902890898cdf8dc6e20b973,1,0,123.249305,41.7494,18202400986,cater,http://api.map.baidu.com/place/detail?uid=7902890898cdf8dc6e20b973&output=html&source=placeapi_v2,,,3.5,,,,,,,,,,,,,,,,,0
14a0dfc2825475fd5fbe862c,荠之岛拌饭,美食,外国餐厅,辽宁省,沈阳市,铁西区,铁西区经济技术开发区十四号路20-14号（7门）,,1,0,123.249756,41.754131,17647505187,cater,http://api.map.baidu.com/place/detail?uid=14a0dfc2825475fd5fbe862c&output=html&source=placeapi_v2,,,,,,,,,,,,,,,,,,123.2500391501,41.754206087792,0
d38d1146d8019d40c8213daa,香遇颂西餐厅(荣信财富广场店),美食,外国餐厅,辽宁省,沈阳市,铁西区,辽宁省沈阳市铁西区沈辽路116号荣信财富广场F1,d38d1146d8019d40c8213daa,1,0,123.254673,41.749588,13897986347,cater,http://api.map.baidu.com/place/detail?uid=d38d1146d8019d40c8213daa&output=html&source=placeapi_v2,79.0,10:00-21:00,3.9,,,,,,,,0,,,,,,,123.25473219093,41.749505398613,0
20dd6d3f852e000fc6effbe1,釜元山烤肉(红都店),美食,外国餐厅,辽宁省,沈阳市,铁西区,辽宁省沈阳市铁西区沈辽西路100-24号,20dd6d3f852e000fc6effbe1,1,0,123.270439,41.757601,(024)89551688,cater,http://api.map.baidu.com/place/detail?uid=20dd6d3f852e000fc6effbe1&output=html&source=placeapi_v2,71.0,10:00-22:00,3.9,,,,,,,,0,,,,,,,,,0
871562bcda875ec76fc02ce1,Helens海伦司(中央大街店),美食,外国餐厅,辽宁省,沈阳市,铁西区,辽宁省沈阳市铁西区沈辽路116号荣信财富广场F5,871562bcda875ec76fc02ce1,1,0,123.254183,41.749904,(024)31382536,cater,http://api.map.baidu.com/place/detail?uid=871562bcda875ec76fc02ce1&output=html&source=placeapi_v2,68.0,19:00-02:00,3.6,,,,,,,1,2,,,,,,,123.25515154599,41.751100067221,0
207fd724be8122534bcc4ad1,7喔喔韩式炸鸡(中央大街店),美食,外国餐厅,辽宁省,沈阳市,铁西区,辽宁省沈阳市铁西区浑河七街8-5甲号,207fd724be8122534bcc4ad1,1,0,123.262799,41.748706,18842448406,cater,http://api.map.baidu.com/place/detail?uid=207fd724be8122534bcc4ad1&output=html&source=placeapi_v2,,10:00-23:00,3.6,,,,,,,,,,,,,,,123.26292563728,41.748773316565,0
b4d84d547e68b4856b49f3b6,三个先森的韩国炸鸡(开发区店),美食,外国餐厅,辽宁省,沈阳市,铁西区,辽宁省沈阳市铁西区中央大街十四号路V街区20-4号,b4d84d547e68b4856b49f3b6,1,0,123.250256,41.753163,,cater,http://api.map.baidu.com/place/detail?uid=b4d84d547e68b4856b49f3b6&output=html&source=placeapi_v2,21.0,09:00-24:00,3.6,,,,,,,,12,,,,,,,,,0
23c026e7121461206d20b992,青田寿司(荣信财富广场店),美食,外国餐厅,辽宁省,沈阳市,铁西区,辽宁省沈阳市铁西区沈辽路116号荣信财富广场F4,,1,0,123.25462,41.750109,13644056411,cater,http://api.map.baidu.com/place/detail?uid=23c026e7121461206d20b992&output=html&source=placeapi_v2,14.0,,3.6,,,,,,,,,,,,,,,123.25515154599,41.751100067221,0
28928baf1512cfa8e115f924,熊家韩式炸鸡(中央大街店),美食,外国餐厅,辽宁省,沈阳市,铁西区,铁西区沈辽西路122-27号,,1,0,123.248728,41.750156,13840077082,cater,http://api.map.baidu.com/place/detail?uid=28928baf1512cfa8e115f924&output=html&source=placeapi_v2,,09:30-20:30,3.5,,,,,,,,,,,,,,,,,0
7902890898cdf8dc6e20b973,非尝了得小逆と馊夥古Ｅ欧,美食,外国餐厅,辽宁省,沈阳市,铁西区,辽宁省沈阳市铁西区沈辽西路十号街122-25号,7902890898cdf8dc6e20b973,1,0,123.249305,41.7494,18202400986,cater,http://api.map.baidu.com/place/detail?uid=7902890898cdf8dc6e20b973&output=html&source=placeapi_v2,,,3.5,,,,,,,,,,,,,,,,,0
f57f553a05415235eb56fa25,杨伟英菜包饭油饼卷饭店(荣信财富广场店),美食,外国餐厅,辽宁省,沈阳市,铁西区,辽宁省沈阳市铁西区沈辽路116号荣信财富广场F2,,1,0,123.253566,41.749476,18204031978,cater,http://api.map.baidu.com/place/detail?uid=f57f553a05415235eb56fa25&output=html&source=placeapi_v2,,08:00-21:00,,,,,,,,,,,,,,,,123.25348343308,41.749004212942,0
14a0dfc2825475fd5fbe862c,荠之岛拌饭,美食,外国餐厅,辽宁省,沈阳市,铁西区,铁西区经济技术开发区十四号路20-14号（7门）,,1,0,123.249756,41.754131,17647505187,cater,http://api.map.baidu.com/place/detail?uid=14a0dfc2825475fd5fbe862c&output=html&source=placeapi_v2,,,,,,,,,,,,,,,,,,123.2500391501,41.754206087792,0
0271280bce17764f4107c1ff,于洪区朴盛园韩式烤肉,美食,外国餐厅,辽宁省,沈阳市,于洪区,沈阳市于洪区大通湖街碧桂园芷兰湾北侧约150米,0271280bce17764f4107c1ff,1,0,123.355673,41.755778,(024)23401131,cater,http://api.map.baidu.com/place/detail?uid=0271280bce17764f4107c1ff&output=html&source=placeapi_v2,62.0,10:00-22:00,4.8,,,,,,,,1,,,,,,,123.35516464776,41.755498139429,0
251f5b68e44ff540ad31e558,町田寿司店(恒大绿洲店),美食,外国餐厅,辽宁省,沈阳市,于洪区,辽宁省沈阳市于洪区南阳湖街166号,251f5b68e44ff540ad31e558,1,0,123.342723,41.751657,13252862822,cater,http://api.map.baidu.com/place/detail?uid=251f5b68e44ff540ad31e558&output=html&source=placeapi_v2,19.0,09:30-20:00,4.2,,,,,,,,4,,,,,,,123.34255326753,41.751876507736,0
c9a87bb2664772db11882458,江湖传统炸牛排(于洪店),美食,外国餐厅,辽宁省,沈阳市,于洪区,辽宁省沈阳市于洪区汪河路39号,c9a87bb2664772db11882458,1,0,123.364871,41.761688,18842346600,cater,http://api.map.baidu.com/place/detail?uid=c9a87bb2664772db11882458&output=html&source=placeapi_v2,,,3.5,,,,,,,,0,,,,,,,123.36549052317,41.761735318433,0
b867f97336f3195e2cb17ed2,吉哆哆韩国炸鸡(于洪新城店),美食,外国餐厅,辽宁省,沈阳市,于洪区,辽宁省沈阳市于洪区大通湖街120-2号,b867f97336f3195e2cb17ed2,1,0,123.339844,41.766487,17150215170,cater,http://api.map.baidu.com/place/detail?uid=b867f97336f3195e2cb17ed2&output=html&source=placeapi_v2,,,3.5,,,,,,,,,,,,,,,123.33961782072,41.766696263636,0
4d9433144d49df6d471a3266,爱比利家料理(水调店),美食,外国餐厅,辽宁省,沈阳市,于洪区,辽宁省沈阳市于洪区吉利湖街76号,4d9433144d49df6d471a3266,1,0,123.362898,41.766381,13898178586,cater,http://api.map.baidu.com/place/detail?uid=4d9433144d49df6d471a3266&output=html&source=placeapi_v2,16.0,09:00-20:30,3.7,,,,,,,,0,,,,,,,123.3627967951,41.766243435505,0
c01e980b2f5a0e2533169b6e,牛肉传中式牛排快餐连锁(长白店),美食,外国餐厅,辽宁省,沈阳市,和平区,辽宁省沈阳市和平区长白西路52甲,c01e980b2f5a0e2533169b6e,1,0,123.395032,41.752232,13804026580,cater,http://api.map.baidu.com/place/detail?uid=c01e980b2f5a0e2533169b6e&output=html&source=placeapi_v2,32.0,09:00-21:00,4.2,,,,,,,,5,,,,,,,123.39506602476,41.752158979606,0
792bc719240f6fa38515415b,久满日式料亭,美食,外国餐厅,辽宁省,沈阳市,和平区,辽宁省沈阳市和平区长白西路44-1甲3号,792bc719240f6fa38515415b,1,0,123.396355,41.752854,18204084770,cater,http://api.map.baidu.com/place/detail?uid=792bc719240f6fa38515415b&output=html&source=placeapi_v2,479.0,15:00-22:00,4.2,,,,,,,,4,,,,,,,123.39622324348,41.752821975408,0
de449d546d5e10a89d9d6817,胆道(长白店),美食,外国餐厅,辽宁省,沈阳市,和平区,辽宁省沈阳市和平区长白二街46甲1号,de449d546d5e10a89d9d6817,1,0,123.395512,41.752955,(024)31735885,cater,http://api.map.baidu.com/place/detail?uid=de449d546d5e10a89d9d6817&output=html&source=placeapi_v2,267.0,11:00-21:30,4.8,,,,,,,,,,,,,,,123.39553378412,41.752959505964,0
7a680ce3ed3f7d4af60e7797,日本怀石料理,美食,外国餐厅,辽宁省,沈阳市,和平区,沈阳市和平区长白二街万科城东区西南门东北侧约40米,7a680ce3ed3f7d4af60e7797,1,0,123.39659,41.752788,(024)81270966,cater,http://api.map.baidu.com/place/detail?uid=7a680ce3ed3f7d4af60e7797&output=html&source=placeapi_v2,,"11:30-13:00,16:00-21:00",4.9,,,,,,,,23,,,,,,,123.39658774442,41.752761542389,0
efecc2fc43e4b164eb56fadc,树与夏花・隐市西厨,美食,外国餐厅,辽宁省,沈阳市,和平区,辽宁省沈阳市和平区长白西街68号8门,efecc2fc43e4b164eb56fadc,1,0,123.39722,41.747725,13889819413,cater,http://api.map.baidu.com/place/detail?uid=efecc2fc43e4b164eb56fadc&output=html&source=placeapi_v2,146.0,10:30-21:30,4.6,,,,,,,1,1,,,,,,,123.39726519613,41.74760345197,0
9ac2fca2a4fea1f930169b92,鸟匠日本料理(长白店),美食,外国餐厅,辽宁省,沈阳市,和平区,沈阳市和平区宝岛路格林・观堂-二期,9ac2fca2a4fea1f930169b92,1,0,123.398193,41.749942,(024)88261488,cater,http://api.map.baidu.com/place/detail?uid=9ac2fca2a4fea1f930169b92&output=html&source=placeapi_v2,214.0,"11:00-14:00,16:00-23:00",3.8,,,,,,,,2,,,,,,,123.39832400278,41.750209826795,0
fe30f2399abd978cfe0eb0fe,黑鲸日料亭,美食,外国餐厅,辽宁省,沈阳市,和平区,辽宁省沈阳市和平区长白二街101-3号,fe30f2399abd978cfe0eb0fe,1,0,123.39952,41.750315,13700007383,cater,http://api.map.baidu.com/place/detail?uid=fe30f2399abd978cfe0eb0fe&output=html&source=placeapi_v2,282.0,10:00-22:00,3.9,,,,,,,,0,,,,,,,123.39956062272,41.75046839837,0
ae937fe529b68c0b7adbd2e5,越谜越南餐厅(长白店),美食,外国餐厅,辽宁省,沈阳市,和平区,辽宁省沈阳市和平区长白北路330号,ae937fe529b68c0b7adbd2e5,1,0,123.408718,41.755209,(024)83187129,cater,http://api.map.baidu.com/place/detail?uid=ae937fe529b68c0b7adbd2e5&output=html&source=placeapi_v2,80.0,10:00-22:00,4.6,,,,,,,,2,,,,,,,123.4087990014,41.755234590635,0
0465781199564a17a5da396a,蔡鸟铁板烧(长白岛店),美食,外国餐厅,辽宁省,沈阳市,和平区,辽宁省沈阳市和平区长白二街3-2号,0465781199564a17a5da396a,1,0,123.396317,41.756431,(024)31833887,cater,http://api.map.baidu.com/place/detail?uid=0465781199564a17a5da396a&output=html&source=placeapi_v2,204.0,11:00-22:00,4.4,,,,,,,,59,,,,,,,123.39637121234,41.756613720651,0
890224945bd28ff445e274fa,兰巴赫(华润万象汇店),美食,外国餐厅,辽宁省,沈阳市,和平区,长白北路199号L1层L129号商铺(位于商场外侧西北角酒吧街区),,1,0,123.40586,41.753667,(024)86130666,cater,http://api.map.baidu.com/place/detail?uid=890224945bd28ff445e274fa&output=html&source=placeapi_v2,118.0,11:00-01:00,4.4,,,,,,,,,,,,,,,123.40574844841,41.753975408845,0
f091d84f1b28705d4e776e8b,红叶精致寿司(华润幸福里店),美食,外国餐厅,辽宁省,沈阳市,和平区,辽宁省沈阳市和平区和康街91号四期,f091d84f1b28705d4e776e8b,1,0,123.407067,41.749755,15802421587,cater,http://api.map.baidu.com/place/detail?uid=f091d84f1b28705d4e776e8b&output=html&source=placeapi_v2,78.0,11:00-22:00,4.8,,,,,,,,2,,,,,,,123.40688489741,41.749693400861,0
2d0ea289c5c20301e6e96511,必胜客(维华商业广场餐厅),美食,外国餐厅,辽宁省,沈阳市,和平区,辽宁省沈阳市和平区南京南街201号维华商业广场F1,2d0ea289c5c20301e6e96511,1,0,123.408975,41.751568,(024)24684102,cater,http://api.map.baidu.com/place/detail?uid=2d0ea289c5c20301e6e96511&output=html&source=placeapi_v2,104.0,08:00-22:00,4.8,,,,,,,,6,,,,,,,123.4088385361,41.751538100659,0
f85942dcb3496f6dd518b78d,鱼儿酒吧,美食,外国餐厅,辽宁省,沈阳市,和平区,辽宁省沈阳市和平区仙岛北路160号,f85942dcb3496f6dd518b78d,1,0,123.414565,41.742844,(024)23760895,cater,http://api.map.baidu.com/place/detail?uid=f85942dcb3496f6dd518b78d&output=html&source=placeapi_v2,138.0,10:30-22:00,4.6,,,,,,,,1,,,,,,,123.41466581043,41.742654355583,0
0f769ef70ba54d362fb96d6d,町上寿司(南京一校长白二分校店),美食,外国餐厅,辽宁省,沈阳市,和平区,辽宁省沈阳市和平区长白一街51-6号,0f769ef70ba54d362fb96d6d,1,0,123.39056,41.747013,15140109977,cater,http://api.map.baidu.com/place/detail?uid=0f769ef70ba54d362fb96d6d&output=html&source=placeapi_v2,,09:00-20:30,3.3,,,,,,,,,,,,,,,123.39060373975,41.746897111843,0
2eabfb4fa3cb473858109333,居酒屋(长白店),美食,外国餐厅,辽宁省,沈阳市,和平区,辽宁省沈阳市和平区长白东路21号,2eabfb4fa3cb473858109333,1,0,123.411962,41.756025,15542193756,cater,http://api.map.baidu.com/place/detail?uid=2eabfb4fa3cb473858109333&output=html&source=placeapi_v2,75.0,11:30-21:00,4.7,,,,,,,2,2,,,,,,,123.41188651517,41.756230830322,0
dcd3c8b6a3b5eb95eddfca95,町上寿司(幸福里店),美食,外国餐厅,辽宁省,沈阳市,和平区,辽宁省沈阳市和平区长白西二街15-1号1门,dcd3c8b6a3b5eb95eddfca95,1,0,123.402734,41.746582,19904042385,cater,http://api.map.baidu.com/place/detail?uid=dcd3c8b6a3b5eb95eddfca95&output=html&source=placeapi_v2,,10:00-20:00,3.7,,,,,,,,1,,,,,,,123.40265360447,41.74685472296,0
259f08c16dc507674bcc4ad7,宽厨轻食(长白店),美食,外国餐厅,辽宁省,沈阳市,和平区,辽宁省沈阳市和平区长白街103-1号(12号120号),259f08c16dc507674bcc4ad7,1,0,123.409917,41.750683,13998256787,cater,http://api.map.baidu.com/place/detail?uid=259f08c16dc507674bcc4ad7&output=html&source=placeapi_v2,28.0,10:00-19:30,4.0,,,,,,,,0,,,,,,,123.40983098914,41.750623533653,0
6f2afddf6476e0f3471a3213,百万两日式料理(长白店),美食,外国餐厅,辽宁省,沈阳市,和平区,辽宁省沈阳市和平区丽岛路97号,6f2afddf6476e0f3471a3213,1,0,123.41506,41.754349,(024)24912491,cater,http://api.map.baidu.com/place/detail?uid=6f2afddf6476e0f3471a3213&output=html&source=placeapi_v2,138.0,10:00-22:00,0,,,,,,,,0,,,,,,,123.41498288533,41.754543998567,0
8487d76da088826d81288acc,仙料理,美食,外国餐厅,辽宁省,沈阳市,和平区,沈阳市和平区长白三街万科城-东区,8487d76da088826d81288acc,1,0,123.401845,41.756331,,cater,http://api.map.baidu.com/place/detail?uid=8487d76da088826d81288acc&output=html&source=placeapi_v2,,,,,,,,,,,,,,,,,,123.4020660983,41.75625917233,0
f42d8824f499986779dbd2d8,火鸟韩式简餐(长白店),美食,外国餐厅,辽宁省,沈阳市,和平区,辽宁省沈阳市和平区兴岛路90号,f42d8824f499986779dbd2d8,1,0,123.403879,41.73708,"13080848005,13555845175",cater,http://api.map.baidu.com/place/detail?uid=f42d8824f499986779dbd2d8&output=html&source=placeapi_v2,43.0,09:00-21:00,3.9,,,,,,,,0,,,,,,,123.40389217374,41.737017268012,0
5b4183e7b5fc6abf90114cc6,惠源7喔喔韩式炸鸡专门店(长白店),美食,外国餐厅,辽宁省,沈阳市,和平区,辽宁省沈阳市和平区长白西二街23-1号7甲,5b4183e7b5fc6abf90114cc6,1,0,123.403335,41.74531,13130641638,cater,http://api.map.baidu.com/place/detail?uid=5b4183e7b5fc6abf90114cc6&output=html&source=placeapi_v2,26.0,10:00-22:00,3.6,,,,,,,,,,,,,,,123.40345299397,41.745336443562,0
bdf6eb9b51dc54f07069d38e,哦那炸鸡&韩式炸酱面专门店(长白店),美食,外国餐厅,辽宁省,沈阳市,和平区,辽宁省沈阳市和平区长白三街430号,bdf6eb9b51dc54f07069d38e,1,0,123.407835,41.738766,(024)31127787,cater,http://api.map.baidu.com/place/detail?uid=bdf6eb9b51dc54f07069d38e&output=html&source=placeapi_v2,37.0,10:00-22:00,4.8,,,,,,,,,,,,,,,123.40807687965,41.738810710115,0
db3ab10abebcad67a21de944,町田寿司(长白中海店),美食,外国餐厅,辽宁省,沈阳市,和平区,辽宁省沈阳市和平区长白五街122号,db3ab10abebcad67a21de944,1,0,123.416343,41.748159,(024)31530922,cater,http://api.map.baidu.com/place/detail?uid=db3ab10abebcad67a21de944&output=html&source=placeapi_v2,26.0,09:30-20:00,3.8,,,,,,,,1,,,,,,,123.4162883523,41.748327331198,0
700fa7a78e79b4d1734b87e0,汉杰韩釜牛炭火烤肉(长白店),美食,外国餐厅,辽宁省,沈阳市,和平区,辽宁省沈阳市和平区长白街172-13号,700fa7a78e79b4d1734b87e0,1,0,123.408908,41.737594,13314007178,cater,http://api.map.baidu.com/place/detail?uid=700fa7a78e79b4d1734b87e0&output=html&source=placeapi_v2,62.0,,3.6,,,,,,,,,,,,,,,123.40869908557,41.737546904754,0
21c83418b0c9dcb978f796a7,町上寿司(兴岛路店),美食,外国餐厅,辽宁省,沈阳市,和平区,辽宁省沈阳市和平区兴岛路125号,21c83418b0c9dcb978f796a7,1,0,123.40612,41.736285,13940206469,cater,http://api.map.baidu.com/place/detail?uid=21c83418b0c9dcb978f796a7&output=html&source=placeapi_v2,23.0,10:00-21:00,3.7,,,,,,,,,,,,,,,,,0
d30e0b949ad4cbed04026fa3,秘巢精致西厨(浑南店),美食,外国餐厅,辽宁省,沈阳市,浑南区,辽宁省沈阳市浑南区临波路20号5门,d30e0b949ad4cbed04026fa3,1,0,123.441768,41.742344,"(024)86852999,13624068866",cater,http://api.map.baidu.com/place/detail?uid=d30e0b949ad4cbed04026fa3&output=html&source=placeapi_v2,154.0,10:30-24:00,4.8,,,,,,,,6,,,,,,,123.44198430955,41.74217855842,0
9a952167f22305cf077ce88f,万鑫西餐厅,美食,外国餐厅,辽宁省,沈阳市,和平区,辽宁省沈阳市和平区青年大街390号皇朝万鑫酒店10楼,9a952167f22305cf077ce88f,1,0,123.444072,41.760164,(024)23538299,cater,http://api.map.baidu.com/place/detail?uid=9a952167f22305cf077ce88f&output=html&source=placeapi_v2,136.0,"11:30-14:00,17:30-21:00",4.2,,,,,,,,109,,,,,,,123.44424791008,41.760253351518,0
d029ad70ecc229de593ac85d,丽都索菲特酒店西餐厅-自助餐,美食,外国餐厅,辽宁省,沈阳市,和平区,辽宁省沈阳市和平区青年大街386号丽都索菲特酒店2楼,d029ad70ecc229de593ac85d,1,0,123.442474,41.762818,(024)23188888,cater,http://api.map.baidu.com/place/detail?uid=d029ad70ecc229de593ac85d&output=html&source=placeapi_v2,183.0,"11:00-14:30,17:00-22:30",4.6,,,,,,,,2,,,,,,,123.44277242441,41.762931857589,0
5578f0a0b606e8fab35c6ae7,荣唐鳗屋日式料理,美食,外国餐厅,辽宁省,沈阳市,和平区,辽宁省沈阳市和平区香港路尚景新世界139-16号(九龙街与香港路交口西行30米),5578f0a0b606e8fab35c6ae7,1,0,123.438019,41.755817,(024)23488077,cater,http://api.map.baidu.com/place/detail?uid=5578f0a0b606e8fab35c6ae7&output=html&source=placeapi_v2,224.0,10:30-21:30,4.8,,,,,,,,66,,,,,,,123.43802525978,41.755755453444,0
17ba9d02ffa895cc2cb17e05,上井精致料理(沈阳K11购物艺术中心店),美食,外国餐厅,辽宁省,沈阳市,和平区,辽宁省沈阳市和平区博览路2甲1号沈阳K11购物艺术中心F2,,1,0,123.444941,41.756673,(024)66392688,cater,http://api.map.baidu.com/place/detail?uid=17ba9d02ffa895cc2cb17e05&output=html&source=placeapi_v2,339.0,"11:00-13:30,16:30-20:30",4.3,,,,,,,,1,,,,,,,123.44703858598,41.758129581714,0
76a0b7ec784e73e496f08c7b,隐川(文安路形象店),美食,外国餐厅,辽宁省,沈阳市,和平区,辽宁省沈阳市和平区文安路49-511号,76a0b7ec784e73e496f08c7b,1,0,123.43519,41.76197,15004092180,cater,http://api.map.baidu.com/place/detail?uid=76a0b7ec784e73e496f08c7b&output=html&source=placeapi_v2,159.0,11:00-22:00,4.5,,,,,,,,1,,,,,,,123.43525508158,41.762046695782,0
7ee6e5cc8e74ea57102935e6,厚道得克萨斯BBQ烤肉(K11艺术购物中心店),美食,外国餐厅,辽宁省,沈阳市,和平区,辽宁省沈阳市和平区博览路2甲1号K11艺术购物中心4层4007商铺,7ee6e5cc8e74ea57102935e6,1,0,123.444524,41.755518,13032450703,cater,http://api.map.baidu.com/place/detail?uid=7ee6e5cc8e74ea57102935e6&output=html&source=placeapi_v2,108.0,11:00-21:00,4.5,,,,,,,,,,,,,,,123.44495573799,41.755219656592,0
a7e4a29eb0d395f6130daa45,胆道(文安路店),美食,外国餐厅,辽宁省,沈阳市,和平区,辽宁省沈阳市和平区文安路15号,a7e4a29eb0d395f6130daa45,1,0,123.44033,41.761212,(024)23215999,cater,http://api.map.baidu.com/place/detail?uid=a7e4a29eb0d395f6130daa45&output=html&source=placeapi_v2,350.0,10:00-21:30,4.8,,,,,,,,145,,,,,,,123.44033149658,41.761352198901,0
05dd7d5fc0ad3718ad080f10,三方吉烤串酒屋(万豪店),美食,外国餐厅,辽宁省,沈阳市,和平区,辽宁省沈阳市和平区文安路10-2号,05dd7d5fc0ad3718ad080f10,1,0,123.441804,41.762023,(024)31567759,cater,http://api.map.baidu.com/place/detail?uid=05dd7d5fc0ad3718ad080f10&output=html&source=placeapi_v2,106.0,10:00-24:00,4.6,,,,,,,,36,,,,,,,123.44193804322,41.761809645346,0
44faaf9ad65d7b6406fef5f2,小乔回转寿司(沈阳K11购物艺术中心店),美食,外国餐厅,辽宁省,沈阳市,和平区,辽宁省沈阳市和平区二环路沈阳K11购物艺术中心B1美食广场内,44faaf9ad65d7b6406fef5f2,1,0,123.443997,41.758014,(024)66917030,cater,http://api.map.baidu.com/place/detail?uid=44faaf9ad65d7b6406fef5f2&output=html&source=placeapi_v2,123.0,10:00-21:30,4.7,,,,,,,,174,,,,,,,123.44703858598,41.758129581714,0
0175d73abc30e866a8f72990,锦绣江山韩式传统料理(临波路店),美食,外国餐厅,辽宁省,沈阳市,浑南区,浑南区临波路凤翔新南门附近(浑南四小对面),0175d73abc30e866a8f72990,1,0,123.453588,41.744679,(024)23660199,cater,http://api.map.baidu.com/place/detail?uid=0175d73abc30e866a8f72990&output=html&source=placeapi_v2,,09:30-22:00,3.8,,,,,,,16,20,,,,,,,123.45354082668,41.744641541505,0
bebec79d6c1a766cf4b9165c,蟹将军日本料理(K11店),美食,外国餐厅,辽宁省,沈阳市,和平区,辽宁省沈阳市和平区博览路2甲1号5楼,bebec79d6c1a766cf4b9165c,1,0,123.445044,41.756078,(024)31894877,cater,http://api.map.baidu.com/place/detail?uid=bebec79d6c1a766cf4b9165c&output=html&source=placeapi_v2,273.0,"11:00-15:00,17:00-21:30",0,,,,,,,,0,,,,,,,123.44552608563,41.755701976994,0
6f2afddf6476e0f3471a3213,百万两日式料理(长白店),美食,外国餐厅,辽宁省,沈阳市,和平区,辽宁省沈阳市和平区丽岛路97号,6f2afddf6476e0f3471a3213,1,0,123.41506,41.754349,(024)24912491,cater,http://api.map.baidu.com/place/detail?uid=6f2afddf6476e0f3471a3213&output=html&source=placeapi_v2,138.0,10:00-22:00,0,,,,,,,,0,,,,,,,123.41498288533,41.754543998567,0
196b9b3ef6727f994afc8dc2,皇朝万豪酒店西餐厅,美食,外国餐厅,辽宁省,沈阳市,和平区,沈阳市和平区青年大街皇朝万豪酒店,196b9b3ef6727f994afc8dc2,1,0,123.443541,41.761311,,cater,http://api.map.baidu.com/place/detail?uid=196b9b3ef6727f994afc8dc2&output=html&source=placeapi_v2,165.0,,3.6,,,,,,,,,,,,,,,,,0
0ed20a15bac19d8e56bfff8f,御门铁板烧(万豪店),美食,外国餐厅,辽宁省,沈阳市,和平区,辽宁省沈阳市和平区青年大街388号皇朝万豪酒店2楼,0ed20a15bac19d8e56bfff8f,1,0,123.443688,41.761286,(024)23883456-745,cater,http://api.map.baidu.com/place/detail?uid=0ed20a15bac19d8e56bfff8f&output=html&source=placeapi_v2,413.0,"11:30-14:30,17:00-21:30",4.1,,,,,,,,4,,,,,,,123.44397046752,41.761338697471,0
61848d38f51d4a452efaa78e,HAKUNA MATATA无忧精酿啤酒餐吧,美食,外国餐厅,辽宁省,沈阳市,浑南区,辽宁省沈阳市浑南区明波路2-15号,61848d38f51d4a452efaa78e,1,0,123.455417,41.749252,18809869493,cater,http://api.map.baidu.com/place/detail?uid=61848d38f51d4a452efaa78e&output=html&source=placeapi_v2,91.0,11:00-01:00,0,,,,,,,,0,,,,,,,123.45544226456,41.749144596684,0
dc029da6b8ee9a5f8f1a89ea,炉琳的西餐厅,美食,外国餐厅,辽宁省,沈阳市,浑南区,辽宁省沈阳市浑南区临波路6-1号,dc029da6b8ee9a5f8f1a89ea,1,0,123.454254,41.744766,18640486460,cater,http://api.map.baidu.com/place/detail?uid=dc029da6b8ee9a5f8f1a89ea&output=html&source=placeapi_v2,59.0,10:00-21:00,3.8,,,,,,,,3,,,,,,,123.45427990395,41.744678934139,0
8a3085db2d17e42dd8eced95,蜜餐厅(沈营路店),美食,外国餐厅,辽宁省,沈阳市,浑南区,辽宁省沈阳市浑南区沈营路22-6号楼,8a3085db2d17e42dd8eced95,1,0,123.457002,41.743431,"(024)83653994,18698876019",cater,http://api.map.baidu.com/place/detail?uid=8a3085db2d17e42dd8eced95&output=html&source=placeapi_v2,65.0,09:30-22:00,0,,,,,,,,0,,,,,,,123.45724361684,41.743357506843,0
4ad13395395a35a86cc02c08,熊本和牛寿喜烧,美食,外国餐厅,辽宁省,沈阳市,浑南区,辽宁省沈阳市浑南区浑河站东街道金阳街2-1号1层,4ad13395395a35a86cc02c08,1,0,123.430101,41.741205,18640468111,cater,http://api.map.baidu.com/place/detail?uid=4ad13395395a35a86cc02c08&output=html&source=placeapi_v2,221.0,11:30-21:30,3.8,,,,,,,,3,,,,,,,,,0
db3ab10abebcad67a21de944,町田寿司(长白中海店),美食,外国餐厅,辽宁省,沈阳市,和平区,辽宁省沈阳市和平区长白五街122号,db3ab10abebcad67a21de944,1,0,123.416343,41.748159,(024)31530922,cater,http://api.map.baidu.com/place/detail?uid=db3ab10abebcad67a21de944&output=html&source=placeapi_v2,26.0,09:30-20:00,3.8,,,,,,,,1,,,,,,,123.4162883523,41.748327331198,0
4e0b4b86567fefe6047ce857,鲸喜寿司・奶茶,美食,外国餐厅,辽宁省,沈阳市,浑南区,辽宁省沈阳市浑南区明波路2期22号楼,,1,0,123.452676,41.746576,,cater,http://api.map.baidu.com/place/detail?uid=4e0b4b86567fefe6047ce857&output=html&source=placeapi_v2,,,,,,,,,,,,,,,,,,,,0
85f5c9835b6b501c2102203a,韩式拌饭冷面(大千食界美食城店),美食,外国餐厅,辽宁省,沈阳市,浑南区,沈阳市浑南区浑南西路8号501室,85f5c9835b6b501c2102203a,1,0,123.458636,41.743592,15940341010,cater,http://api.map.baidu.com/place/detail?uid=85f5c9835b6b501c2102203a&output=html&source=placeapi_v2,,,0,,,,,,,,0,,,,,,,,,0
0851fab212b62b794251c07e,韩式料理(万象九宜城店),美食,外国餐厅,辽宁省,沈阳市,浑南区,辽宁省沈阳市浑南区浑南西路万象久宜城4搂,0851fab212b62b794251c07e,1,0,123.457926,41.743675,17604024577,cater,http://api.map.baidu.com/place/detail?uid=0851fab212b62b794251c07e&output=html&source=placeapi_v2,,09:30-21:30,0,,,,,,,,0,,,,,,,,,0
6c024dc5d7fab9ecd0ff2338,明子日本料理,美食,外国餐厅,辽宁省,沈阳市,浑南区,辽宁省沈阳市浑南区朗月街6甲12门,6c024dc5d7fab9ecd0ff2338,1,0,123.487522,41.75039,(024)31215918,cater,http://api.map.baidu.com/place/detail?uid=6c024dc5d7fab9ecd0ff2338&output=html&source=placeapi_v2,103.0,11:00-22:00,4.2,,,,,,,,1,,,,,,,123.4876785902,41.750372594377,0
eb2e803e7a8cc59995f08ccf,蜜me餐厅(恒达路店),美食,外国餐厅,辽宁省,沈阳市,浑南区,辽宁省沈阳市浑南区浑南中路10-16号,eb2e803e7a8cc59995f08ccf,1,0,123.493924,41.751035,(024)66677368,cater,http://api.map.baidu.com/place/detail?uid=eb2e803e7a8cc59995f08ccf&output=html&source=placeapi_v2,75.0,10:30-20:30,4.5,,,,,,,,0,,,,,,,,,0
8926ba7383488e49b11e36d7,河风精致寿司(浑南店),美食,外国餐厅,辽宁省,沈阳市,浑南区,辽宁省沈阳市浑南区浑南中路12-17号,8926ba7383488e49b11e36d7,1,0,123.493069,41.749713,13654998882,cater,http://api.map.baidu.com/place/detail?uid=8926ba7383488e49b11e36d7&output=html&source=placeapi_v2,93.0,08:30-23:00,4.5,,,,,,,,1,,,,,,,123.49344136377,41.749711462119,0
3c1507f051e3b56231870a87,和之斋日本料理,美食,外国餐厅,辽宁省,沈阳市,浑南区,辽宁省沈阳市浑南区天坛南街5-5号,3c1507f051e3b56231870a87,1,0,123.472394,41.739787,"(024)83300209,15940576053",cater,http://api.map.baidu.com/place/detail?uid=3c1507f051e3b56231870a87&output=html&source=placeapi_v2,142.0,09:00-21:00,4.0,,,,,,,1,1,,,,,,,,,0
2ceaf4ecc2f0f5528715415d,道禾精致寿司(浑南店),美食,外国餐厅,辽宁省,沈阳市,浑南区,辽宁省沈阳市浑南区浑南中路12-5号,2ceaf4ecc2f0f5528715415d,1,0,123.491642,41.748245,18040202227,cater,http://api.map.baidu.com/place/detail?uid=2ceaf4ecc2f0f5528715415d&output=html&source=placeapi_v2,78.0,10:00-20:00,4.4,,,,,,,,0,,,,,,,123.49165902323,41.748192357044,0
94299753363ce32a41d63e79,町上寿司(沈阳奥体中心店),美食,外国餐厅,辽宁省,沈阳市,浑南区,辽宁省沈阳市浑南区金卡路6-4号,94299753363ce32a41d63e79,1,0,123.47576,41.742548,18304041119,cater,http://api.map.baidu.com/place/detail?uid=94299753363ce32a41d63e79&output=html&source=placeapi_v2,21.0,09:30-20:00,3.8,,,,,,,,,,,,,,,123.47561850186,41.742427073069,0
14f074e7b4ee0d9885420eb1,北方图书城西餐厅,美食,外国餐厅,辽宁省,沈阳市,浑南区,沈阳市浑南区浑南四路1号116门市,14f074e7b4ee0d9885420eb1,1,0,123.463719,41.749589,(024)31696236,cater,http://api.map.baidu.com/place/detail?uid=14f074e7b4ee0d9885420eb1&output=html&source=placeapi_v2,,10:00-21:00,0,,,,,,,,0,,,,,,,,,0
e201bf35bfd26b9f3b221c16,Japanese restaurant,美食,外国餐厅,辽宁省,沈阳市,浑南区,沈阳市浑南区朗月街邻里农贸市场,e201bf35bfd26b9f3b221c16,1,0,123.487578,41.750359,,cater,http://api.map.baidu.com/place/detail?uid=e201bf35bfd26b9f3b221c16&output=html&source=placeapi_v2,,,,,,,,,,,,,,,,,,123.48767836382,41.750356959492,0
fa43487794c1012508f5eb74,咖喱的家,美食,外国餐厅,辽宁省,沈阳市,浑南区,沈阳市浑南区天成街嘉龙中心,fa43487794c1012508f5eb74,1,0,123.472269,41.755694,,cater,http://api.map.baidu.com/place/detail?uid=fa43487794c1012508f5eb74&output=html&source=placeapi_v2,,10:00-21:00,,,,,,,,,,,,,,,,,,0
9e33fd4b3937970afe0eb006,秀尔韩式拌饭(亿丰店),美食,外国餐厅,辽宁省,沈阳市,浑南区,辽宁省沈阳市浑南区金卡路18号,9e33fd4b3937970afe0eb006,1,0,123.47353,41.743269,,cater,http://api.map.baidu.com/place/detail?uid=9e33fd4b3937970afe0eb006&output=html&source=placeapi_v2,23.0,09:30-21:00,3.7,,,,,,,,3,,,,,,,,,0
98a8dc3c7947cfb3ede4a5c2,吉哆哆,美食,外国餐厅,辽宁省,沈阳市,浑南区,辽宁省沈阳市浑南区金卡路18号,98a8dc3c7947cfb3ede4a5c2,1,0,123.475712,41.743269,,cater,http://api.map.baidu.com/place/detail?uid=98a8dc3c7947cfb3ede4a5c2&output=html&source=placeapi_v2,,,0.0,,,,,,,,1,,,,,,,,,0
8bb4628f0327000b08ccdd30,拌饭世家之波波的拌饭,美食,外国餐厅,辽宁省,沈阳市,浑南区,沈阳市浑南区金卡路18-62号,8bb4628f0327000b08ccdd30,1,0,123.473385,41.743272,,cater,http://api.map.baidu.com/place/detail?uid=8bb4628f0327000b08ccdd30&output=html&source=placeapi_v2,,,0,,,,,,,,0,,,,,,,,,0
e551fc37c66d3153b44f5475,伟萍韩式拌饭&石锅菜,美食,外国餐厅,辽宁省,沈阳市,浑南区,辽宁省沈阳市浑南区浑南四路1号a座,,1,0,123.464658,41.749346,,cater,http://api.map.baidu.com/place/detail?uid=e551fc37c66d3153b44f5475&output=html&source=placeapi_v2,,,,,,,,,,,,,,,,,,,,0
f9fd3c5e23078799c51b75b5,三十三之城・板前寿司,美食,外国餐厅,辽宁省,沈阳市,浑南区,辽宁省沈阳市浑南区天坛南街与浑南中路交叉口南80米华润悦玺A座33楼,,1,0,123.466851,41.743635,,cater,http://api.map.baidu.com/place/detail?uid=f9fd3c5e23078799c51b75b5&output=html&source=placeapi_v2,,,,,,,,,,,,,,,,,,,,0
85f5c9835b6b501c2102203a,韩式拌饭冷面(大千食界美食城店),美食,外国餐厅,辽宁省,沈阳市,浑南区,沈阳市浑南区浑南西路8号501室,85f5c9835b6b501c2102203a,1,0,123.458636,41.743592,15940341010,cater,http://api.map.baidu.com/place/detail?uid=85f5c9835b6b501c2102203a&output=html&source=placeapi_v2,,,0,,,,,,,,0,,,,,,,,,0
8a84735a007e0346c7effb45,福原精致寿司,美食,外国餐厅,辽宁省,沈阳市,浑南区,辽宁省沈阳市浑南区浑南中路18-3号,,1,0,123.521772,41.753695,13020308828,cater,http://api.map.baidu.com/place/detail?uid=8a84735a007e0346c7effb45&output=html&source=placeapi_v2,28.0,09:00-22:00,3.7,,,,,,,,,,,,,,,123.52190188048,41.753552216328,0
4dff3dac8cbfb48b4f3a59cf,三月居酒屋(建筑大学店),美食,外国餐厅,辽宁省,沈阳市,浑南区,辽宁省沈阳市浑南区学成路6-6号,4dff3dac8cbfb48b4f3a59cf,1,0,123.516684,41.754261,15840164455,cater,http://api.map.baidu.com/place/detail?uid=4dff3dac8cbfb48b4f3a59cf&output=html&source=placeapi_v2,74.0,11:00-22:00,4.8,,,,,,,,,,,,,,,123.51689171984,41.754278444791,0
ab4c899300e677613686f45c,北角餐厅(建大北门店),美食,外国餐厅,辽宁省,沈阳市,浑南区,辽宁省沈阳市浑南区浑南东路18~20号,ab4c899300e677613686f45c,1,0,123.525453,41.754871,"13358877502,13591688342",cater,http://api.map.baidu.com/place/detail?uid=ab4c899300e677613686f45c&output=html&source=placeapi_v2,47.0,08:00-23:00,4.4,,,,,,,,34,,,,,,,,,0
b922dd21324035c5e115f97a,余千味饭团寿司(金地琥珀天地店),美食,外国餐厅,辽宁省,沈阳市,浑南区,沈阳市浑南区浑南东路18号金地琥珀天地F1,,1,0,123.519702,41.753226,,cater,http://api.map.baidu.com/place/detail?uid=b922dd21324035c5e115f97a&output=html&source=placeapi_v2,,,,,,,,,,,,,,,,,,123.51943898728,41.752625116923,0
3dabe0be799016ba41d63e40,町上寿司(音乐学院店),美食,外国餐厅,辽宁省,沈阳市,浑南区,浑南新区学城路2-4-1号,3dabe0be799016ba41d63e40,1,0,123.513364,41.755589,18602411105,cater,http://api.map.baidu.com/place/detail?uid=3dabe0be799016ba41d63e40&output=html&source=placeapi_v2,,09:00-21:00,3.6,,,,,,,,,,,,,,,,,0
6040f230974d26d604026f10,大寿司(长青湾店),美食,外国餐厅,辽宁省,沈阳市,浑南区,辽宁省沈阳市浑南区学城路18-118号金地长青湾丹陛,6040f230974d26d604026f10,1,0,123.522325,41.757496,13804972219,cater,http://api.map.baidu.com/place/detail?uid=6040f230974d26d604026f10&output=html&source=placeapi_v2,22.0,10:00-22:00,3.8,,,,,,,,0,,,,,,,123.52246167214,41.757326849519,0
039397a9c436eb29a10464ee,九合的轻食(浑南新区建大店),美食,外国餐厅,辽宁省,沈阳市,浑南区,辽宁省沈阳市浑南区文华街生活巷3-11号门,039397a9c436eb29a10464ee,1,0,123.52816,41.754541,18830206490,cater,http://api.map.baidu.com/place/detail?uid=039397a9c436eb29a10464ee&output=html&source=placeapi_v2,,09:00-19:00,3.9,,,,,,,,,,,,,,,123.52789939386,41.754478416453,0
66fa48a960a50372912ca34a,朴灿荣韩国炸鸡,美食,外国餐厅,辽宁省,沈阳市,浑南区,辽宁省沈阳市浑南区长青南街27号,66fa48a960a50372912ca34a,1,0,123.510118,41.746301,15566161653,cater,http://api.map.baidu.com/place/detail?uid=66fa48a960a50372912ca34a&output=html&source=placeapi_v2,,10:00-22:00,,,,,,,,,,,,,,,,,,0
4f3a3cfb132306966168581d,韩式烤肉,美食,外国餐厅,辽宁省,沈阳市,新民市,沈阳市新民市京哈公路金汇・温泉雅苑,4f3a3cfb132306966168581d,1,0,123.079432,41.790287,15840226921,cater,http://api.map.baidu.com/place/detail?uid=4f3a3cfb132306966168581d&output=html&source=placeapi_v2,,,,,,,,,,,,,,,,,,123.0793262741,41.790605324174,0
4f3a3cfb132306966168581d,韩式烤肉,美食,外国餐厅,辽宁省,沈阳市,新民市,沈阳市新民市京哈公路金汇・温泉雅苑,4f3a3cfb132306966168581d,1,0,123.079432,41.790287,15840226921,cater,http://api.map.baidu.com/place/detail?uid=4f3a3cfb132306966168581d&output=html&source=placeapi_v2,,,,,,,,,,,,,,,,,,123.0793262741,41.790605324174,0
4f7e7233bb45856f581093bd,米西亲子游乐餐厅,美食,外国餐厅,辽宁省,沈阳市,于洪区,辽宁沈阳市于洪区渤海路44-4号网点,4f7e7233bb45856f581093bd,1,0,123.305795,41.796217,15840228957,cater,http://api.map.baidu.com/place/detail?uid=4f7e7233bb45856f581093bd&output=html&source=placeapi_v2,48.0,09:30-19:00,0,,,,,,,,0,,,,,,,123.30579383442,41.796026811746,0
43f953ae29e1a1526c47601c,藤崎寿司(沈新路店),美食,外国餐厅,辽宁省,沈阳市,于洪区,辽宁沈阳市于洪区沈新路104号,43f953ae29e1a1526c47601c,1,0,123.314482,41.788317,(024)31328262,cater,http://api.map.baidu.com/place/detail?uid=43f953ae29e1a1526c47601c&output=html&source=placeapi_v2,28.0,09:00-21:00,3.9,,,,,,,,1,,,,,,,123.31450342556,41.788360892015,0
c9c2f30b55fabbe04f6d46de,町上寿司(铁西金地檀府店),美食,外国餐厅,辽宁省,沈阳市,铁西区,沈阳市铁西区燕塞湖街37号21门,,1,0,123.316909,41.774765,13002482031,cater,http://api.map.baidu.com/place/detail?uid=c9c2f30b55fabbe04f6d46de&output=html&source=placeapi_v2,,08:00-22:00,3.7,,,,,,,,,,,,,,,123.31703284098,41.774722623928,0
e889a744c8fc15c88705bfb6,啊美丽炭火烤肉(黄海店),美食,外国餐厅,辽宁省,沈阳市,于洪区,辽宁省沈阳市于洪区黄海路29号,e889a744c8fc15c88705bfb6,1,0,123.317699,41.79982,(024)85831717,cater,http://api.map.baidu.com/place/detail?uid=e889a744c8fc15c88705bfb6&output=html&source=placeapi_v2,43.0,10:00-21:20,4.1,,,,,,,,5,,,,,,,123.31769891655,41.79984646978,0
84a2798bf2ee1d5797f08c0c,燃卡&轻食(铁西店),美食,外国餐厅,辽宁省,沈阳市,铁西区,沈阳市铁西区重工南街132巷沈阳长途客运西站北侧,84a2798bf2ee1d5797f08c0c,1,0,123.331714,41.786675,15840346721,cater,http://api.map.baidu.com/place/detail?uid=84a2798bf2ee1d5797f08c0c&output=html&source=placeapi_v2,26.0,09:00-20:00,3.8,,,,,,,1,0,,,,,,,123.33171733335,41.786612523078,0
98219774fb2f15120c0e6b2a,NUBA牛巴店(大商新玛特于洪店),美食,外国餐厅,辽宁省,沈阳市,于洪区,沈阳市于洪区黄海路45号大商新玛特F7,98219774fb2f15120c0e6b2a,1,0,123.311125,41.799288,(024)25995855,cater,http://api.map.baidu.com/place/detail?uid=98219774fb2f15120c0e6b2a&output=html&source=placeapi_v2,89.0,10:00-20:00,4.5,,,,,,,1,32,,,,,,,123.31053433633,41.799897289245,0
6815f3167dc29dfca204648c,大寿司(万科公园大道店),美食,外国餐厅,辽宁省,沈阳市,于洪区,辽宁省沈阳市于洪区渤海路21-1号,6815f3167dc29dfca204648c,1,0,123.309222,41.795196,13998222287,cater,http://api.map.baidu.com/place/detail?uid=6815f3167dc29dfca204648c&output=html&source=placeapi_v2,,09:30-20:30,3.8,,,,,,,,0,,,,,,,123.30933080816,41.795197535557,0
ce925827e4ee61bf7ab55c6d,金悦韩式自助烤肉(于洪沈辽路华润万家店),美食,外国餐厅,辽宁省,沈阳市,于洪区,辽宁省沈阳市于洪区沈辽路141号沈辽万家L101号摊位,ce925827e4ee61bf7ab55c6d,1,0,123.325314,41.773191,(024)67896111,cater,http://api.map.baidu.com/place/detail?uid=ce925827e4ee61bf7ab55c6d&output=html&source=placeapi_v2,66.0,11:00-22:00,4.1,,,,,,,,,,,,,,,,,0
5b0cff1f599e36762bd7ab17,韩麦韩式炭火烤肉(沈辽路店),美食,外国餐厅,辽宁省,沈阳市,铁西区,沈阳市铁西区沈辽路益格名邸,5b0cff1f599e36762bd7ab17,1,0,123.325142,41.774415,(024)89836677,cater,http://api.map.baidu.com/place/detail?uid=5b0cff1f599e36762bd7ab17&output=html&source=placeapi_v2,,,0,,,,,,,,1,,,,,,,,,0
2320a07efd859d62c356ac0d,卷恋食代紫菜包饭饭团,美食,外国餐厅,辽宁省,沈阳市,于洪区,辽宁省沈阳市于洪区黄海路40甲号,2320a07efd859d62c356ac0d,1,0,123.306453,41.800254,13190056276,cater,http://api.map.baidu.com/place/detail?uid=2320a07efd859d62c356ac0d&output=html&source=placeapi_v2,,08:30-21:00,3.4,,,,,,,,,,,,,,,123.30645081914,41.800051737517,0
e57c7f1e62117293b45f1eef,一汁韩式炸鸡,美食,外国餐厅,辽宁省,沈阳市,于洪区,辽宁省沈阳市于洪区沈辽路169-3号,e57c7f1e62117293b45f1eef,1,0,123.322659,41.76941,15204094609,cater,http://api.map.baidu.com/place/detail?uid=e57c7f1e62117293b45f1eef&output=html&source=placeapi_v2,,10:00-24:00,,,,,,,,,,,,,,,,123.32279241209,41.769393539113,0
fac78eea0e0eeaa15abbbc21,泡泡鱼刺身料理(兴顺街店),美食,外国餐厅,辽宁省,沈阳市,铁西区,辽宁省沈阳市铁西区兴顺街249号,fac78eea0e0eeaa15abbbc21,1,0,123.36087,41.791291,(024)25433636,cater,http://api.map.baidu.com/place/detail?uid=fac78eea0e0eeaa15abbbc21&output=html&source=placeapi_v2,97.0,10:00-22:00,3.9,,,,,,,,9,,,,,,,123.36077948838,41.791208035813,0
16fd56996ec299b1ad31e575,藤崎寿司(十三路店),美食,外国餐厅,辽宁省,沈阳市,铁西区,辽宁省沈阳市铁西区保工南街119-1号,16fd56996ec299b1ad31e575,1,0,123.351648,41.790022,15998195865,cater,http://api.map.baidu.com/place/detail?uid=16fd56996ec299b1ad31e575&output=html&source=placeapi_v2,40.0,10:00-21:00,3.8,,,,,,,,4,,,,,,,,,0
786df84141db59e5bbbd63f7,食其家(万达广场沈阳铁西店),美食,外国餐厅,辽宁省,沈阳市,铁西区,沈阳市铁西区兴华南街58-20号万达广场F3,786df84141db59e5bbbd63f7,1,0,123.365048,41.787868,(024)25420580,life,http://api.map.baidu.com/place/detail?uid=786df84141db59e5bbbd63f7&output=html&source=placeapi_v2,,09:30-21:30,,,,,,,,7,,,,,,,,123.36339735994,41.788088809164,0
9530545285bb4739c9fa5fc3,啊美丽炭火烤肉(勋业三路店),美食,外国餐厅,辽宁省,沈阳市,铁西区,辽宁省沈阳市铁西区肇工街勋业三路11甲,9530545285bb4739c9fa5fc3,1,0,123.341392,41.788653,(024)85725885,cater,http://api.map.baidu.com/place/detail?uid=9530545285bb4739c9fa5fc3&output=html&source=placeapi_v2,78.0,09:25-21:25,3.9,,,,,,,,7,,,,,,,123.34147794284,41.788753938541,0
44c4390e8388a8764f3a59f8,必胜客(万达广场沈阳铁西餐厅),美食,外国餐厅,辽宁省,沈阳市,铁西区,沈阳市铁西区兴华南街58-20号万达广场F2,44c4390e8388a8764f3a59f8,1,0,123.367345,41.788235,(024)25420576,cater,http://api.map.baidu.com/place/detail?uid=44c4390e8388a8764f3a59f8&output=html&source=placeapi_v2,76.0,10:30-21:00,4.7,,,,,,,,200,,,,,,,123.36339735994,41.788088809164,0
e16dfdaecfafb0284251c0df,黑牛家炭火烤肉(万达广场沈阳铁西店),美食,外国餐厅,辽宁省,沈阳市,铁西区,沈阳市铁西区兴华南街58-20号万达广场F3,e16dfdaecfafb0284251c0df,1,0,123.364765,41.788094,(024)31633139,cater,http://api.map.baidu.com/place/detail?uid=e16dfdaecfafb0284251c0df&output=html&source=placeapi_v2,69.0,10:00-21:00,3.7,,,,,,,,0,,,,,,,123.36339735994,41.788088809164,0
a3a11bfdb7162c6a581093d7,兴烨汇烤肉海鲜(万达广场沈阳铁西店),美食,外国餐厅,辽宁省,沈阳市,铁西区,沈阳市铁西区兴华南街58-20号万达广场F5,a3a11bfdb7162c6a581093d7,1,0,123.366272,41.787505,,cater,http://api.map.baidu.com/place/detail?uid=a3a11bfdb7162c6a581093d7&output=html&source=placeapi_v2,90.0,11:00-21:00,4.5,,,,,,,,4,,,,,,,123.36339735994,41.788088809164,0
8797f3ec98d42936a11de9d2,哎呦不错韩式啤酒炸鸡拌饭店,美食,外国餐厅,辽宁省,沈阳市,铁西区,沈阳市铁西区艳欣街12巷沈阳方齐物业管理有限公司今日阳光西北侧,8797f3ec98d42936a11de9d2,1,0,123.35297,41.781331,,cater,http://api.map.baidu.com/place/detail?uid=8797f3ec98d42936a11de9d2&output=html&source=placeapi_v2,,10:30-21:00,0,,,,,,,,1,,,,,,,,,0
92c32e5b3d11d7b0f60e77c0,两个大叔韩式炸鸡,美食,外国餐厅,辽宁省,沈阳市,铁西区,辽宁省沈阳市铁西区前工一街29号,,1,0,123.356503,41.788687,18309833901,cater,http://api.map.baidu.com/place/detail?uid=92c32e5b3d11d7b0f60e77c0&output=html&source=placeapi_v2,,,,,,,,,,,,,,,,,,,,0
f22d6430ae38dda39ef77979,阿毕红牛坊牛排牛尾锅,美食,外国餐厅,辽宁省,沈阳市,铁西区,辽宁省沈阳市铁西区南十西路11号,f22d6430ae38dda39ef77979,1,0,123.346361,41.799344,13512637330,cater,http://api.map.baidu.com/place/detail?uid=f22d6430ae38dda39ef77979&output=html&source=placeapi_v2,,10:00-22:30,3.7,,,,,,,,4,,,,,,,123.34643211569,41.799520150832,0
3a8098280c67ba63c1f1cfd0,爱寿司(滑翔店),美食,外国餐厅,辽宁省,沈阳市,铁西区,铁西区艳粉街68号-2门,3a8098280c67ba63c1f1cfd0,1,0,123.363765,41.77837,13998222970,cater,http://api.map.baidu.com/place/detail?uid=3a8098280c67ba63c1f1cfd0&output=html&source=placeapi_v2,26.0,09:30-23:00,3.7,,,,,,,,3,,,,,,,123.36379669717,41.778401199822,0
84a2798bf2ee1d5797f08c0c,燃卡&轻食(铁西店),美食,外国餐厅,辽宁省,沈阳市,铁西区,沈阳市铁西区重工南街132巷沈阳长途客运西站北侧,84a2798bf2ee1d5797f08c0c,1,0,123.331714,41.786675,15840346721,cater,http://api.map.baidu.com/place/detail?uid=84a2798bf2ee1d5797f08c0c&output=html&source=placeapi_v2,26.0,09:00-20:00,3.8,,,,,,,1,0,,,,,,,123.33171733335,41.786612523078,0
f3664f684b0049b109a8d4be,藤山奇寿司(兴隆大天地店),美食,外国餐厅,辽宁省,沈阳市,铁西区,辽宁省沈阳市铁西区沈辽西路17甲4号3门,f3664f684b0049b109a8d4be,1,0,123.341604,41.78119,18642078303,cater,http://api.map.baidu.com/place/detail?uid=f3664f684b0049b109a8d4be&output=html&source=placeapi_v2,,09:00-21:00,5,,,,,,,,1,,,,,,,,,0
a8d3f53449b459ffc91b95e6,极上烧肉寿喜专门店,美食,外国餐厅,辽宁省,沈阳市,铁西区,辽宁省沈阳市铁西区保工南街23号,a8d3f53449b459ffc91b95e6,1,0,123.359211,41.801789,(024)25636008,cater,http://api.map.baidu.com/place/detail?uid=a8d3f53449b459ffc91b95e6&output=html&source=placeapi_v2,62.0,10:00-21:00,4.4,,,,,,,,,,,,,,,123.35902748721,41.801865630736,0
b3f7eeabbd536b2c58f6be29,老釜山烤肉馆(滑翔店),美食,外国餐厅,辽宁省,沈阳市,铁西区,辽宁省沈阳市铁西区飞翔路2号21,b3f7eeabbd536b2c58f6be29,1,0,123.375972,41.784759,18240181800,cater,http://api.map.baidu.com/place/detail?uid=b3f7eeabbd536b2c58f6be29&output=html&source=placeapi_v2,66.0,10:00-22:00,4.0,,,,,,,,3,,,,,,,,,0
5f689a7802962df5e3110397,爱尚石记韩餐石锅饭,美食,外国餐厅,辽宁省,沈阳市,铁西区,辽宁省沈阳市铁西区景兴南街139-5号,5f689a7802962df5e3110397,1,0,123.363805,41.791954,18341444456,cater,http://api.map.baidu.com/place/detail?uid=5f689a7802962df5e3110397&output=html&source=placeapi_v2,,09:00-21:00,3.6,,,,,,,,1,,,,,,,123.36370054614,41.791826337071,0
72ecc40933891278c17da21b,和悦外带寿司(金牛店),美食,外国餐厅,辽宁省,沈阳市,铁西区,辽宁省沈阳市铁西区沈辽中路5号家乐福2楼,72ecc40933891278c17da21b,1,0,123.365842,41.786336,"(024)31351688,18630953034",cater,http://api.map.baidu.com/place/detail?uid=72ecc40933891278c17da21b&output=html&source=placeapi_v2,21.0,09:00-20:00,3.9,,,,,,,,0,,,,,,,123.36607278953,41.785797372509,0
2a2297e9d4113cd77f29bd0f,韩园烤肉冷面(十马路店),美食,外国餐厅,辽宁省,沈阳市,铁西区,辽宁省沈阳市铁西区南十西路13号,2a2297e9d4113cd77f29bd0f,1,0,123.344892,41.799689,18624068512,cater,http://api.map.baidu.com/place/detail?uid=2a2297e9d4113cd77f29bd0f&output=html&source=placeapi_v2,17.0,10:00-22:00,3.5,,,,,,,,0,,,,,,,,,0
b25206d4266e8b780c0e6b88,嗨友道日韩料理专营店,美食,外国餐厅,辽宁省,沈阳市,铁西区,沈阳市铁西区南十中路荣仕家园,b25206d4266e8b780c0e6b88,1,0,123.366155,41.793077,,cater,http://api.map.baidu.com/place/detail?uid=b25206d4266e8b780c0e6b88&output=html&source=placeapi_v2,,,3.5,,,,,,,,,,,,,,,,,0
7527939737bed587fbdc851b,喜来辣,美食,外国餐厅,辽宁省,沈阳市,铁西区,辽宁省沈阳市铁西区腾飞二街滑翔一区底商7号商铺,7527939737bed587fbdc851b,1,0,123.369609,41.782154,15840407968,cater,http://api.map.baidu.com/place/detail?uid=7527939737bed587fbdc851b&output=html&source=placeapi_v2,,09:30-20:00,3.5,,,,,,,,1,,,,,,,123.36947512435,41.782235604315,0
46fcb9cc2970fcf01188244f,小老道韩式炸鸡,美食,外国餐厅,辽宁省,沈阳市,铁西区,沈阳市铁西区吉工二街中兴里小区,46fcb9cc2970fcf01188244f,1,0,123.36806,41.794623,,cater,http://api.map.baidu.com/place/detail?uid=46fcb9cc2970fcf01188244f&output=html&source=placeapi_v2,,,,,,,,,,,,,,,,,,,,0
167eb7b6f13aac97f8dc85f0,韩国烤肉冷面,美食,外国餐厅,辽宁省,沈阳市,铁西区,南十西路老北京炸酱面旁,167eb7b6f13aac97f8dc85f0,1,0,123.344894,41.799707,,cater,http://api.map.baidu.com/place/detail?uid=167eb7b6f13aac97f8dc85f0&output=html&source=placeapi_v2,,,,,,,,,,,,,,,,,,123.34493128344,41.79986096039,0
d1fe7059472f9354ad080f64,欧罗巴欧式休闲餐厅(太原街百盛店),美食,外国餐厅,辽宁省,沈阳市,和平区,辽宁省沈阳市和平区太原街百盛东门对面二楼,d1fe7059472f9354ad080f64,1,0,123.407194,41.797372,(024)23863168,cater,http://api.map.baidu.com/place/detail?uid=d1fe7059472f9354ad080f64&output=html&source=placeapi_v2,51.0,09:00-22:00,4.7,,,,,,,,88,,,,,,,123.40744916442,41.797784201242,0
904cc055e9f0b6a2a2046423,大寿司(民族南街店),美食,外国餐厅,辽宁省,沈阳市,和平区,辽宁省沈阳市和平区民族南街167号,904cc055e9f0b6a2a2046423,1,0,123.396404,41.787266,13998819810,cater,http://api.map.baidu.com/place/detail?uid=904cc055e9f0b6a2a2046423&output=html&source=placeapi_v2,21.0,09:00-20:00,3.5,,,,,,,,4,,,,,,,123.39620854181,41.787351182923,0
3964d16430b4b135b34c496e,大元韩式烤肉(南八马路店),美食,外国餐厅,辽宁省,沈阳市,和平区,辽宁省沈阳市和平区南八马路新华广场97号,3964d16430b4b135b34c496e,1,0,123.403493,41.781779,18240039983,cater,http://api.map.baidu.com/place/detail?uid=3964d16430b4b135b34c496e&output=html&source=placeapi_v2,60.0,10:00-22:00,3.7,,,,,,,,24,,,,,,,123.40354537302,41.781808075451,0
9d00bbc1027ebfa045e27416,情缘牛排专家,美食,外国餐厅,辽宁省,沈阳市,和平区,沈阳市和平区南七马路宜春小区南区东侧约30米,9d00bbc1027ebfa045e27416,1,0,123.398898,41.786513,,cater,http://api.map.baidu.com/place/detail?uid=9d00bbc1027ebfa045e27416&output=html&source=placeapi_v2,,,,,,,,,,,,,,,,,,123.39885453573,41.786458799706,0
291fedc2e8b6d748f11937f8,啊美丽炭火烤肉(凌空店),美食,外国餐厅,辽宁省,沈阳市,铁西区,辽宁省沈阳市铁西区凌空二街17号,291fedc2e8b6d748f11937f8,1,0,123.383755,41.780894,"(024)25904866,(024)25905798",cater,http://api.map.baidu.com/place/detail?uid=291fedc2e8b6d748f11937f8&output=html&source=placeapi_v2,63.0,09:00-21:00,3.8,,,,,,,,7,,,,,,,123.38384144948,41.781006150475,0
5b9f897d68e59275373a7107,大寿司(南九马路集贤店),美食,外国餐厅,辽宁省,沈阳市,和平区,辽宁省沈阳市和平区南九马路80号412-2号,5b9f897d68e59275373a7107,1,0,123.402272,41.780326,13940206575,cater,http://api.map.baidu.com/place/detail?uid=5b9f897d68e59275373a7107&output=html&source=placeapi_v2,,10:00-21:00,3.5,,,,,,,,7,,,,,,,123.40224684276,41.780292533767,0
550fd5f9b12c5d79921fc982,来客(便利店),美食,外国餐厅,辽宁省,沈阳市,和平区,辽宁省沈阳市和平区同泽南街165号,550fd5f9b12c5d79921fc982,1,0,123.401693,41.784999,15904050288,cater,http://api.map.baidu.com/place/detail?uid=550fd5f9b12c5d79921fc982&output=html&source=placeapi_v2,,07:00-24:00,,,,,,,,,1,,,,,,,123.4019256671,41.785107423372,0
0f9523d7cf4efabe15c90578,我们出海吧(寿司店),美食,外国餐厅,辽宁省,沈阳市,和平区,沈阳市和平区天津南街95甲1号1-1-2号,0f9523d7cf4efabe15c90578,1,0,123.404573,41.790346,13236683226,cater,http://api.map.baidu.com/place/detail?uid=0f9523d7cf4efabe15c90578&output=html&source=placeapi_v2,52.0,09:00-19:00,4.8,,,,,,,,0,,,,,,,123.40463693818,41.790302669575,0
a2b385e910b5aa0f30169bb0,老客,美食,外国餐厅,辽宁省,沈阳市,和平区,沈阳市和平区南八马路铁路光复里小区,a2b385e910b5aa0f30169bb0,1,0,123.405155,41.781439,13002469052,cater,http://api.map.baidu.com/place/detail?uid=a2b385e910b5aa0f30169bb0&output=html&source=placeapi_v2,131.0,15:00-24:00,4.7,,,,,,,,,,,,,,,123.4050939017,41.781372702409,0
0394041b65814368d42ce2f4,一途定食屋(太原街店),美食,外国餐厅,辽宁省,沈阳市,和平区,辽宁省沈阳市和平区太原南街165号,0394041b65814368d42ce2f4,1,0,123.40212,41.790747,"15041234966,15840588074",cater,http://api.map.baidu.com/place/detail?uid=0394041b65814368d42ce2f4&output=html&source=placeapi_v2,46.0,11:00-20:30,4.9,,,,,,,,0,,,,,,,123.40201060637,41.790811737278,0
1a61db2e8d389f1086420e2e,小樽极匠和食,美食,外国餐厅,辽宁省,沈阳市,和平区,辽宁省沈阳市和平区南一马路南宁南街1-1-1号,1a61db2e8d389f1086420e2e,1,0,123.409441,41.794782,"13190097778,15940070627",cater,http://api.map.baidu.com/place/detail?uid=1a61db2e8d389f1086420e2e&output=html&source=placeapi_v2,86.0,10:00-21:00,4.8,,,,,,,,4,,,,,,,123.40940884843,41.794736157045,0
bc4f17b89e5951cb4c3a5984,争鲜回转寿司(万达店),美食,外国餐厅,辽宁省,沈阳市,和平区,辽宁省沈阳市和平区太原南街2号万达广场3楼308室,bc4f17b89e5951cb4c3a5984,1,0,123.406113,41.797297,(024)23581861,cater,http://api.map.baidu.com/place/detail?uid=bc4f17b89e5951cb4c3a5984&output=html&source=placeapi_v2,64.0,11:00-21:30,4.6,,,,,,,,8,,,,,,,123.40456786926,41.797652751854,0
16f786ffbbd23028c6f50da2,悦荟T骨牛排(太原街万达店),美食,外国餐厅,辽宁省,沈阳市,和平区,辽宁省沈阳市和平区太原南街2号万达广场4楼,95f77219529988adf7b916da,1,0,123.405957,41.796866,(024)23580882,cater,http://api.map.baidu.com/place/detail?uid=16f786ffbbd23028c6f50da2&output=html&source=placeapi_v2,78.0,10:00-21:30,4.5,,,,,,,,0,,,,,,,,,0
cdd2ef6b1406c4ff9d9d6806,三月居酒屋(太原街店),美食,外国餐厅,辽宁省,沈阳市,和平区,辽宁省沈阳市和平区民主路68号,cdd2ef6b1406c4ff9d9d6806,1,0,123.40508,41.79539,15542193768,cater,http://api.map.baidu.com/place/detail?uid=cdd2ef6b1406c4ff9d9d6806&output=html&source=placeapi_v2,89.0,11:00-22:00,4.6,,,,,,,,0,,,,,,,123.40454980254,41.795166081882,0
d9a4c75318a25159fa42b235,手工披萨街头牛排,美食,外国餐厅,辽宁省,沈阳市,和平区,辽宁省沈阳市和平区砂阳路90号,d9a4c75318a25159fa42b235,1,0,123.390863,41.77381,17741778101,cater,http://api.map.baidu.com/place/detail?uid=d9a4c75318a25159fa42b235&output=html&source=placeapi_v2,28.0,09:30-19:30,3.8,,,,,,,,,,,,,,,123.39083373651,41.773688176889,0
ea1a105a3a6c63fca2a9342c,小猪小牛(太原街万达店),美食,外国餐厅,辽宁省,沈阳市,和平区,辽宁省沈阳市和平区太原南街2号万达广场4楼,ea1a105a3a6c63fca2a9342c,1,0,123.404775,41.797668,(024)88323777,cater,http://api.map.baidu.com/place/detail?uid=ea1a105a3a6c63fca2a9342c&output=html&source=placeapi_v2,79.0,10:30-21:30,4.7,,,,,,,,40,,,,,,,,,0
f7407022005fb4d6c42ba1e4,奉S日式简餐,美食,外国餐厅,辽宁省,沈阳市,和平区,辽宁省沈阳市和平区南宁南街8号,f7407022005fb4d6c42ba1e4,1,0,123.409666,41.794979,17640229860,cater,http://api.map.baidu.com/place/detail?uid=f7407022005fb4d6c42ba1e4&output=html&source=placeapi_v2,68.0,11:00-20:30,4.8,,,,,,,1,1,,,,,,,123.40981894107,41.794991018501,0
2965cc128322a71ae8e5827a,敏丁拌饭馆(太原街店),美食,外国餐厅,辽宁省,沈阳市,和平区,辽宁省沈阳市和平区太原南街8-20号,2965cc128322a71ae8e5827a,1,0,123.404432,41.796707,15640007251,cater,http://api.map.baidu.com/place/detail?uid=2965cc128322a71ae8e5827a&output=html&source=placeapi_v2,34.0,09:00-23:00,3.9,,,,,,,,15,,,,,,,123.40461623762,41.796803824039,0
680d9e7a90fb339d2dfaa74d,久叙・日式放题,美食,外国餐厅,辽宁省,沈阳市,铁西区,沈阳市铁西区云峰北街60号,680d9e7a90fb339d2dfaa74d,1,0,123.383866,41.799073,(024)25999989,cater,http://api.map.baidu.com/place/detail?uid=680d9e7a90fb339d2dfaa74d&output=html&source=placeapi_v2,180.0,11:00-22:00,4.3,,,,,,,,1,,,,,,,123.3840734809,41.798983240893,0
e034f34b7257ecfefda77808,川崎的牛排饭(铁西店),美食,外国餐厅,辽宁省,沈阳市,铁西区,辽宁省沈阳市铁西区兴工南街42号,e034f34b7257ecfefda77808,1,0,123.385658,41.792304,15242072984,cater,http://api.map.baidu.com/place/detail?uid=e034f34b7257ecfefda77808&output=html&source=placeapi_v2,,08:30-20:00,3.5,,,,,,,,,,,,,,,123.38549681364,41.792348536844,0
b947a35168597ae9ab0dd823,鸟匠日式烤肉居酒屋(太原街店),美食,外国餐厅,辽宁省,沈阳市,和平区,辽宁省沈阳市和平区同泽南街20号,b947a35168597ae9ab0dd823,1,0,123.408414,41.795484,(024)31815615,cater,http://api.map.baidu.com/place/detail?uid=b947a35168597ae9ab0dd823&output=html&source=placeapi_v2,260.0,11:00-23:00,4.5,,,,,,,,29,,,,,,,123.40865395201,41.795353744167,0
33ef79ff81aefdb825e0a031,山海亭海鲜浜烧,美食,外国餐厅,辽宁省,沈阳市,和平区,辽宁省沈阳市和平区南一马路62号,33ef79ff81aefdb825e0a031,1,0,123.409034,41.794982,(024)31319600,cater,http://api.map.baidu.com/place/detail?uid=33ef79ff81aefdb825e0a031&output=html&source=placeapi_v2,166.0,"11:00-14:30,17:00-22:00",4.7,,,,,,,,48,,,,,,,123.40895551674,41.794921072202,0
16e225b95198841916764313,丸子寿司(南十马路店),美食,外国餐厅,辽宁省,沈阳市,和平区,辽宁省沈阳市和平区南十马路52号,16e225b95198841916764313,1,0,123.400025,41.779173,15541569009,cater,http://api.map.baidu.com/place/detail?uid=16e225b95198841916764313&output=html&source=placeapi_v2,21.0,10:00-19:00,3.7,,,,,,,,1,,,,,,,123.39990658084,41.779019134457,0
a897f6465747b4c64bcc4a77,町上寿司(南京南街店),美食,外国餐厅,辽宁省,沈阳市,和平区,辽宁省沈阳市和平区南京南街84号,a897f6465747b4c64bcc4a77,1,0,123.40486,41.787127,18809818368,cater,http://api.map.baidu.com/place/detail?uid=a897f6465747b4c64bcc4a77&output=html&source=placeapi_v2,21.0,09:00-21:00,3.7,,,,,,,,0,,,,,,,123.4048136699,41.787073660037,0
7bdd9e504611580681288a3c,天下S屋日式S饭专门店(太原街店),美食,外国餐厅,辽宁省,沈阳市,和平区,辽宁省沈阳市和平区太原南街16-2号,7bdd9e504611580681288a3c,1,0,123.404323,41.796802,13840444884,cater,http://api.map.baidu.com/place/detail?uid=7bdd9e504611580681288a3c&output=html&source=placeapi_v2,34.0,10:00-22:00,0,,,,,,,2,2,,,,,,,123.40424797908,41.79697140881,0
48eb005886d11cb42fe67b22,上井精致料理(中兴方城店),美食,外国餐厅,辽宁省,沈阳市,和平区,辽宁省沈阳市和平区太原北街86号中兴方城7层705号商铺,48eb005886d11cb42fe67b22,1,0,123.406101,41.799922,"(024)23402055,(024)23411399",cater,http://api.map.baidu.com/place/detail?uid=48eb005886d11cb42fe67b22&output=html&source=placeapi_v2,308.0,"11:30-14:00,16:30-21:30",4.6,,,,,,,,169,,,,,,,123.40695619412,41.799450124764,0
eeff64dab301f21917b54bbd,町田寿司店(云峰店),美食,外国餐厅,辽宁省,沈阳市,铁西区,辽宁省沈阳市铁西区建设东路43-1号,eeff64dab301f21917b54bbd,1,0,123.385289,41.795781,13274245865,cater,http://api.map.baidu.com/place/detail?uid=eeff64dab301f21917b54bbd&output=html&source=placeapi_v2,20.0,09:00-21:00,3.8,,,,,,,,5,,,,,,,,,0
e0c1faff1febf052704b87c5,小乔回转寿司(玖伍文化城店),美食,外国餐厅,辽宁省,沈阳市,和平区,辽宁省沈阳市和平区太原北街95号玖伍文化城负1层,e0c1faff1febf052704b87c5,1,0,123.408748,41.798532,(024)67850988,cater,http://api.map.baidu.com/place/detail?uid=e0c1faff1febf052704b87c5&output=html&source=placeapi_v2,99.0,10:00-21:00,4.7,,,,,,,,1,,,,,,,123.409788,41.798968887892,0
b3f7eeabbd536b2c58f6be29,老釜山烤肉馆(滑翔店),美食,外国餐厅,辽宁省,沈阳市,铁西区,辽宁省沈阳市铁西区飞翔路2号21,b3f7eeabbd536b2c58f6be29,1,0,123.375972,41.784759,18240181800,cater,http://api.map.baidu.com/place/detail?uid=b3f7eeabbd536b2c58f6be29&output=html&source=placeapi_v2,66.0,10:00-22:00,4.0,,,,,,,,3,,,,,,,,,0
e6fb9c28bf211a71eb12e446,大韩城烤肉(爱工街店),美食,外国餐厅,辽宁省,沈阳市,铁西区,辽宁省沈阳市铁西区爱工北街39甲2门,e6fb9c28bf211a71eb12e446,1,0,123.389506,41.801491,18623404883,cater,http://api.map.baidu.com/place/detail?uid=e6fb9c28bf211a71eb12e446&output=html&source=placeapi_v2,51.0,10:00-24:00,4.0,,,,,,,,9,,,,,,,123.38934749363,41.801530959021,0
e128722e313c8370c42ba14f,KLG快乐鸡,美食,外国餐厅,辽宁省,沈阳市,和平区,沈阳市和平区太原街时尚地下商业街(中华路与天津北街交叉口今旅酒店入口下楼梯),e128722e313c8370c42ba14f,1,0,123.407998,41.798042,13700059030,cater,http://api.map.baidu.com/place/detail?uid=e128722e313c8370c42ba14f&output=html&source=placeapi_v2,,10:30-19:30,4.7,,,,,,,,108,,,,,,,,,0
93df0dc361fa5c32882fb521,阿妈妮(嘉兴街店),美食,外国餐厅,辽宁省,沈阳市,和平区,辽宁省沈阳市和平区嘉兴街24号,93df0dc361fa5c32882fb521,1,0,123.415139,41.7811,13804980780,cater,http://api.map.baidu.com/place/detail?uid=93df0dc361fa5c32882fb521&output=html&source=placeapi_v2,28.0,10:00-22:00,3.9,,,,,,,,118,,,,,,,,,0
7d00dc401be7ccd979dbd255,吉顺樱烤肉馆,美食,外国餐厅,辽宁省,沈阳市,铁西区,辽宁省沈阳市铁西区云峰南街26号,7d00dc401be7ccd979dbd255,1,0,123.379353,41.793105,,cater,http://api.map.baidu.com/place/detail?uid=7d00dc401be7ccd979dbd255&output=html&source=placeapi_v2,40.0,11:00-21:00,3.7,,,,,,,,26,,,,,,,123.37951184959,41.793035832651,0
25ec69fcceefad64c36c1488,仁川烤肉冷面店(南一马路店),美食,外国餐厅,辽宁省,沈阳市,和平区,辽宁省沈阳市和平区太原街南一马路64号,25ec69fcceefad64c36c1488,1,0,123.409323,41.794877,15640348330,cater,http://api.map.baidu.com/place/detail?uid=25ec69fcceefad64c36c1488&output=html&source=placeapi_v2,48.0,10:00-22:00,3.8,,,,,,,,5,,,,,,,,,0
bebae31363d0230be115f9c2,果维轻食料理,美食,外国餐厅,辽宁省,沈阳市,铁西区,铁西区南六东路16-3号4-1-1室,,1,0,123.386241,41.795093,13709881850,cater,http://api.map.baidu.com/place/detail?uid=bebae31363d0230be115f9c2&output=html&source=placeapi_v2,,,,,,,,,,,,,,,,,,123.38632398503,41.795203971497,0
957a13bead8d8f41abf7292e,恋的牛寿喜烧和牛自助,美食,外国餐厅,辽宁省,沈阳市,和平区,辽宁省沈阳市和平区天津南街49号,,1,0,123.406238,41.795132,13840449797,cater,http://api.map.baidu.com/place/detail?uid=957a13bead8d8f41abf7292e&output=html&source=placeapi_v2,179.0,10:30-21:30,4.0,,,,,,,,,,,,,,,123.40668703574,41.794939642051,0
ef1fc155a315f0e8c5f50d18,大喜屋(玖伍文化城店),美食,外国餐厅,辽宁省,沈阳市,和平区,辽宁省沈阳市和平区太原北街95号玖伍文化城3楼,ef1fc155a315f0e8c5f50d18,1,0,123.408581,41.79874,(024)31984160,cater,http://api.map.baidu.com/place/detail?uid=ef1fc155a315f0e8c5f50d18&output=html&source=placeapi_v2,65.0,10:00-21:00,4.4,,,,,,,,0,,,,,,,123.409788,41.798968887892,0
2e0b9404d213f6c73913fd26,君品鲜紫菜包饭&打糕,美食,外国餐厅,辽宁省,沈阳市,和平区,和平区南京南街40号,2e0b9404d213f6c73913fd26,1,0,123.408511,41.791795,15940500211,cater,http://api.map.baidu.com/place/detail?uid=2e0b9404d213f6c73913fd26&output=html&source=placeapi_v2,16.0,06:00-21:00,3.6,,,,,,,,0,,,,,,,,,0
b36ae4ecec49c7aa85330480,阿斯达韩式拌饭(太原街店),美食,外国餐厅,辽宁省,沈阳市,和平区,沈阳市和平区咸阳路联营社区,b36ae4ecec49c7aa85330480,1,0,123.409607,41.795542,13072413066,cater,http://api.map.baidu.com/place/detail?uid=b36ae4ecec49c7aa85330480&output=html&source=placeapi_v2,12.0,09:00-20:30,4.5,,,,,,,,4,,,,,,,,,0
61618c81132b988c223bf2ba,朴三顺紫菜包饭,美食,外国餐厅,辽宁省,沈阳市,铁西区,辽宁省沈阳市铁西区南七东路25号,61618c81132b988c223bf2ba,1,0,123.378552,41.794639,13998354901,cater,http://api.map.baidu.com/place/detail?uid=61618c81132b988c223bf2ba&output=html&source=placeapi_v2,14.0,10:00-22:00,3.7,,,,,,,,0,,,,,,,123.37861845422,41.794722164081,0
a9d1f9121f0526f71b94c60e,有间咖喱屋,美食,外国餐厅,辽宁省,沈阳市,和平区,辽宁省沈阳市和平区太原北街95号玖伍文化城3楼,,1,0,123.408465,41.798664,17642061013,cater,http://api.map.baidu.com/place/detail?uid=a9d1f9121f0526f71b94c60e&output=html&source=placeapi_v2,,10:00-21:00,,,,,,,,,,,,,,,,,,0
43f01f77cec03422bbbd638b,秀尔拌饭馆(云峰街店),美食,外国餐厅,辽宁省,沈阳市,铁西区,铁西区小五路34号,43f01f77cec03422bbbd638b,1,0,123.381329,41.797268,18640241563,cater,http://api.map.baidu.com/place/detail?uid=43f01f77cec03422bbbd638b&output=html&source=placeapi_v2,16.0,09:00-19:30,,,,,,,,,,,,,,,,123.38138250973,41.797330747045,0
0fc9ad5e92b0a06817948eee,饭小包麻辣烫・饭包,美食,外国餐厅,辽宁省,沈阳市,和平区,辽宁省沈阳市和平区兰州南街54甲,,1,0,123.403752,41.795259,15710577615,cater,http://api.map.baidu.com/place/detail?uid=0fc9ad5e92b0a06817948eee&output=html&source=placeapi_v2,,09:00-20:30,,,,,,,,,,,,,,,,,,0
0a95e4b105b0afb2f7e73b36,7喔喔韩式炸鸡(和平万达店),美食,外国餐厅,辽宁省,沈阳市,和平区,辽宁省沈阳市和平区南宁南街15号楼411号,0a95e4b105b0afb2f7e73b36,1,0,123.408171,41.792373,13889199038,cater,http://api.map.baidu.com/place/detail?uid=0a95e4b105b0afb2f7e73b36&output=html&source=placeapi_v2,,10:00-23:30,,,,,,,,,,,,,,,,,,0
58250bfd924128526140a907,日式串烧,美食,外国餐厅,辽宁省,沈阳市,和平区,沈阳市和平区天津南街辽宁省建行西北侧约30米,58250bfd924128526140a907,1,0,123.406349,41.794798,,cater,http://api.map.baidu.com/place/detail?uid=58250bfd924128526140a907&output=html&source=placeapi_v2,,,,,,,,,,,,,,,,,,,,0
378d6acf6b80179a28b97cb3,盛崎烧鸟,美食,外国餐厅,辽宁省,沈阳市,和平区,辽宁省沈阳市和平区天津南街36-1号,378d6acf6b80179a28b97cb3,1,0,123.406265,41.79469,,cater,http://api.map.baidu.com/place/detail?uid=378d6acf6b80179a28b97cb3&output=html&source=placeapi_v2,,11:00-23:00,,,,,,,,,,,,,,,,,,0
610c5e987e89c071e6e9656d,带骨牛排NUBA(中兴商业大厦店),美食,外国餐厅,辽宁省,沈阳市,和平区,辽宁省沈阳市和平区太原北街86号8楼,610c5e987e89c071e6e9656d,1,0,123.406516,41.800008,,cater,http://api.map.baidu.com/place/detail?uid=610c5e987e89c071e6e9656d&output=html&source=placeapi_v2,71.0,,4.6,,,,,,,,,,,,,,,123.40695619412,41.799450124764,0
13a2b6a73e7a6df9b13c81d3,鑫金排酸牛肉,美食,外国餐厅,辽宁省,沈阳市,和平区,辽宁省沈阳市和平区砂平街19号,13a2b6a73e7a6df9b13c81d3,1,0,123.387787,41.772337,18302483444,cater,http://api.map.baidu.com/place/detail?uid=13a2b6a73e7a6df9b13c81d3&output=html&source=placeapi_v2,,08:00-20:00,0,,,,,,,,0,,,,,,,123.38766308906,41.772367329983,0
a78560d849906294077ce89e,乌远日本料理,美食,外国餐厅,辽宁省,沈阳市,和平区,沈阳市和平区同泽南街正大广场,a78560d849906294077ce89e,1,0,123.408455,41.795486,,cater,http://api.map.baidu.com/place/detail?uid=a78560d849906294077ce89e&output=html&source=placeapi_v2,,,,,,,,,,,,,,,,,,,,0
aae4c0cd8f8a8501213bf261,町上寿司(中华路店),美食,外国餐厅,辽宁省,沈阳市,和平区,辽宁省沈阳市和平区中华路162号,,1,0,123.414584,41.795036,18202425877,cater,http://api.map.baidu.com/place/detail?uid=aae4c0cd8f8a8501213bf261&output=html&source=placeapi_v2,,09:30-19:00,3.5,,,,,,,,,,,,,,,,,0
6a79d5eccb1417922afc4840,京子韩式料理,美食,外国餐厅,辽宁省,沈阳市,铁西区,辽宁省沈阳市铁西区兴工北街95-4号1门2门,,1,0,123.392886,41.799239,(024)31322728,cater,http://api.map.baidu.com/place/detail?uid=6a79d5eccb1417922afc4840&output=html&source=placeapi_v2,,10:00-21:00,,,,,,,,,,,,,,,,123.39273260344,41.799305572634,0
78048c4dcca6ea35bca822aa,町上寿司(中山路店),美食,外国餐厅,辽宁省,沈阳市,和平区,辽宁省沈阳市和平区昆明北街61号,78048c4dcca6ea35bca822aa,1,0,123.405548,41.801245,15942019871,cater,http://api.map.baidu.com/place/detail?uid=78048c4dcca6ea35bca822aa&output=html&source=placeapi_v2,,10:00-22:00,3.6,,,,,,,,0,,,,,,,123.40549846616,41.801266116975,0
0378ba1760514ce3e5e965ae,韩式丽山炒饭拌饭,美食,外国餐厅,辽宁省,沈阳市,和平区,辽宁省沈阳市和平区中华路21号负一层B08号商铺,,1,0,123.406876,41.797756,13840254152,cater,http://api.map.baidu.com/place/detail?uid=0378ba1760514ce3e5e965ae&output=html&source=placeapi_v2,,09:30-19:30,,,,,,,,,,,,,,,,,,0
aea5b28910bcd13388fc06f7,朴大树拌饭韩式料理,美食,外国餐厅,辽宁省,沈阳市,和平区,辽宁省沈阳市和平区徐州街29号,,1,0,123.412275,41.794039,15140239955,cater,http://api.map.baidu.com/place/detail?uid=aea5b28910bcd13388fc06f7&output=html&source=placeapi_v2,,09:00-03:00,,,,,,,,,,,,,,,,123.41213962622,41.794066562978,0
6516b2bfe9d194c0eddfca8b,贡茶紫菜包饭,美食,外国餐厅,辽宁省,沈阳市,和平区,沈阳市和平区常德街当代程式,6516b2bfe9d194c0eddfca8b,1,0,123.416389,41.79374,,cater,http://api.map.baidu.com/place/detail?uid=6516b2bfe9d194c0eddfca8b&output=html&source=placeapi_v2,,,,,,,,,,,,,,,,,,123.41648820192,41.793872577258,0
7a3d4d3d56c3a29dc4f50d3c,和卿料理,美食,外国餐厅,辽宁省,沈阳市,铁西区,辽宁沈阳市铁西区北四东路39甲2号,7a3d4d3d56c3a29dc4f50d3c,1,0,123.389448,41.800535,,cater,http://api.map.baidu.com/place/detail?uid=7a3d4d3d56c3a29dc4f50d3c&output=html&source=placeapi_v2,,,,,,,,,,,,,,,,,,123.3894232163,41.800479693257,0
095ca0110d6c86f0f50e77fc,料理寿司,美食,外国餐厅,辽宁省,沈阳市,铁西区,沈阳市铁西区云峰北街东环国际花园,095ca0110d6c86f0f50e77fc,1,0,123.383891,41.799103,,cater,http://api.map.baidu.com/place/detail?uid=095ca0110d6c86f0f50e77fc&output=html&source=placeapi_v2,,,,,,,,,,,,,,,,,,,,0
2c3ffb2b7a19f2c4c356acf4,韩式丽山家炒饭(玖伍文化城店),美食,外国餐厅,辽宁省,沈阳市,和平区,辽宁省沈阳市和平区太原北街95号玖五文化城负1层,2c3ffb2b7a19f2c4c356acf4,1,0,123.408593,41.798653,13840254152,cater,http://api.map.baidu.com/place/detail?uid=2c3ffb2b7a19f2c4c356acf4&output=html&source=placeapi_v2,,,,,,,,,,,,,,,,,,123.409788,41.798968887892,0
ba0e851321016330725e804e,兰巴赫西餐・啤酒坊(万象城沈阳青年大街店),美食,外国餐厅,辽宁省,沈阳市,和平区,沈阳市和平区青年大街288号万象城F1,ba0e851321016330725e804e,1,0,123.439958,41.783229,(024)31905678,cater,http://api.map.baidu.com/place/detail?uid=ba0e851321016330725e804e&output=html&source=placeapi_v2,147.0,11:00-23:30,4.9,,,,,,,,113,,,,,,,123.44035725909,41.781651216323,0
8ad1649b8f150c4f6fa3ccf8,黑羊西餐厅(BlackSheep),美食,外国餐厅,辽宁省,沈阳市,和平区,辽宁省沈阳市和平区南三经街22号,8ad1649b8f150c4f6fa3ccf8,1,0,123.432691,41.791862,(024)31126811,cater,http://api.map.baidu.com/place/detail?uid=8ad1649b8f150c4f6fa3ccf8&output=html&source=placeapi_v2,130.0,12:00-22:00,4.5,,,,,,,,6,,,,,,,123.43291930923,41.791916589081,0
ecd47638c0484cf04afd3f8c,bluefrog蓝蛙(万象城店),美食,外国餐厅,辽宁省,沈阳市,和平区,辽宁沈阳市和平区彩塔街29甲号华润万象城三期112号,ecd47638c0484cf04afd3f8c,1,0,123.439579,41.782836,(024)31255020,cater,http://api.map.baidu.com/place/detail?uid=ecd47638c0484cf04afd3f8c&output=html&source=placeapi_v2,151.0,10:00-22:30,4.8,,,,,,,,2,,,,,,,,,0
daa4311dfbb7bcfd130daaf3,燃和食精致料理,美食,外国餐厅,辽宁省,沈阳市,沈河区,辽宁省沈阳市沈河区文艺路30号,daa4311dfbb7bcfd130daaf3,1,0,123.437497,41.784479,(024)23408555,cater,http://api.map.baidu.com/place/detail?uid=daa4311dfbb7bcfd130daaf3&output=html&source=placeapi_v2,226.0,"11:30-14:00,16:30-22:00",4.2,,,,,,,,0,,,,,,,123.43749423636,41.784361262983,0
d67f95e94367c97bc17da225,蟹道(春河里店),美食,外国餐厅,辽宁省,沈阳市,沈河区,辽宁省沈阳市沈河区文艺路32号,d67f95e94367c97bc17da225,1,0,123.438424,41.784492,(024)22832777,cater,http://api.map.baidu.com/place/detail?uid=d67f95e94367c97bc17da225&output=html&source=placeapi_v2,270.0,"11:00-14:00,16:30-21:00",4.9,,,,,,,,0,,,,,,,123.43841443178,41.784338433241,0
97d7968b19b9148b8505bf42,九万家意大利餐厅(十三纬路店),美食,外国餐厅,辽宁省,沈阳市,和平区,辽宁省沈阳市和平区十三纬路南三经街20号嘉隆大厦,97d7968b19b9148b8505bf42,1,0,123.432809,41.791742,13022495361,cater,http://api.map.baidu.com/place/detail?uid=97d7968b19b9148b8505bf42&output=html&source=placeapi_v2,99.0,11:00-22:00,4.6,,,,,,,,,,,,,,,123.43297481552,41.79178646764,0
74681250a22481c2fda77836,君悦酒店新奉天中餐厅,美食,外国餐厅,辽宁省,沈阳市,和平区,辽宁省沈阳市和平区青年大街288号万象城6楼668号,74681250a22481c2fda77836,1,0,123.440479,41.783648,(024)25121234-6859,cater,http://api.map.baidu.com/place/detail?uid=74681250a22481c2fda77836&output=html&source=placeapi_v2,293.0,"11:30-14:00,17:00-21:00",4.8,,,,,,,,10,,,,,,,,,0
f01095a0e6c69d7694ec8448,牛Yo寿喜烧(春河里店),美食,外国餐厅,辽宁省,沈阳市,沈河区,辽宁省沈阳市沈河区彩塔街16-2号401牛YO寿喜烧旁(万科春河里东门旁),f01095a0e6c69d7694ec8448,1,0,123.438866,41.784909,(024)31127631,cater,http://api.map.baidu.com/place/detail?uid=f01095a0e6c69d7694ec8448&output=html&source=placeapi_v2,171.0,"11:00-14:00,17:00-20:30",4.8,,,,,,,,0,,,,,,,123.43918514107,41.784892349908,0
fd39f6f14ac3ec09adb22a2a,达令湾餐厅,美食,外国餐厅,辽宁省,沈阳市,沈河区,辽宁省沈阳市沈河区南三经街77号,fd39f6f14ac3ec09adb22a2a,1,0,123.434426,41.78887,15840442282,cater,http://api.map.baidu.com/place/detail?uid=fd39f6f14ac3ec09adb22a2a&output=html&source=placeapi_v2,228.0,10:00-22:00,0,,,,,,,,0,,,,,,,123.43425746733,41.788832061697,0
b1676e3d7e9cba199022e061,KidsToo亲子兔亲子餐厅(嘉里城店),美食,外国餐厅,辽宁省,沈阳市,沈河区,沈阳市沈河区青年大街123号嘉里城F2,b1676e3d7e9cba199022e061,1,0,123.443295,41.782183,17640097597,cater,http://api.map.baidu.com/place/detail?uid=b1676e3d7e9cba199022e061&output=html&source=placeapi_v2,159.0,10:00-21:30,4.7,,,,,,,,0,,,,,,,123.44333757806,41.78051871548,0
a0f6bdaca607651f94ec8484,必胜客(沈阳百联购物中心青年大街餐厅),美食,外国餐厅,辽宁省,沈阳市,沈河区,沈阳市沈河区青年大街55号沈阳百联购物中心F1,a0f6bdaca607651f94ec8484,1,0,123.440687,41.798588,(024)82970209,cater,http://api.map.baidu.com/place/detail?uid=a0f6bdaca607651f94ec8484&output=html&source=placeapi_v2,86.0,10:00-21:00,4.6,,,,,,,,8,,,,,,,123.44099909388,41.799123115842,0
cdd6210518da97094251c01c,生日本料理,美食,外国餐厅,辽宁省,沈阳市,沈河区,辽宁省沈阳市沈河区南三经街119号,cdd6210518da97094251c01c,1,0,123.43513,41.787171,(024)81228552,cater,http://api.map.baidu.com/place/detail?uid=cdd6210518da97094251c01c&output=html&source=placeapi_v2,337.0,11:00-22:00,4.6,,,,,,,,2,,,,,,,123.43490083072,41.787069552516,0
f6cbf36ab8cc8c82581093bb,ROASTBURGER厚切肉排火烤汉堡(嘉里城店),美食,外国餐厅,辽宁省,沈阳市,沈河区,沈阳市沈河区青年大街123号嘉里城F4,f6cbf36ab8cc8c82581093bb,1,0,123.443005,41.781652,13889136413,cater,http://api.map.baidu.com/place/detail?uid=f6cbf36ab8cc8c82581093bb&output=html&source=placeapi_v2,153.0,11:00-22:00,4.3,,,,,,,,200,,,,,,,123.44333757806,41.78051871548,0
4fa24e7b6c907c0f5fd4fe97,l户寿司怀石料理,美食,外国餐厅,辽宁省,沈阳市,沈河区,辽宁沈阳市沈河区彩塔街16-2号春河里5号楼,,1,0,123.438798,41.784839,,cater,http://api.map.baidu.com/place/detail?uid=4fa24e7b6c907c0f5fd4fe97&output=html&source=placeapi_v2,,,,,,,,,,,,,,,,,,,,0
881a28e7f4c33d47f842b2b2,泰味太(南三经街店),美食,外国餐厅,辽宁省,沈阳市,沈河区,辽宁省沈阳市沈河区南三经街45号领事馆一楼,881a28e7f4c33d47f842b2b2,1,0,123.433847,41.790451,(024)82701666,cater,http://api.map.baidu.com/place/detail?uid=881a28e7f4c33d47f842b2b2&output=html&source=placeapi_v2,133.0,10:00-21:00,4.7,,,,,,,,14,,,,,,,123.43364722415,41.790381454123,0
f0f9a3b7581172d20b1cc7fc,勇男家,美食,外国餐厅,辽宁省,沈阳市,和平区,辽宁省沈阳市和平区十四纬路南四经街106号10号,f0f9a3b7581172d20b1cc7fc,1,0,123.430665,41.788717,(024)23200585,cater,http://api.map.baidu.com/place/detail?uid=f0f9a3b7581172d20b1cc7fc&output=html&source=placeapi_v2,102.0,11:00-21:00,4.8,,,,,,,,4,,,,,,,123.43081759593,41.788779841285,0
15bb828eb9b59a2903ec0176,芭港湾印度餐厅(领事馆店),美食,外国餐厅,辽宁省,沈阳市,沈河区,辽宁省沈阳市沈河区南三经街51号,15bb828eb9b59a2903ec0176,1,0,123.433942,41.790214,(024)22865988,cater,http://api.map.baidu.com/place/detail?uid=15bb828eb9b59a2903ec0176&output=html&source=placeapi_v2,92.0,10:00-22:00,4.0,,,,,,,,200,,,,,,,123.43374792958,41.790184143038,0
463d2038a8a3b4dc08ccdd1d,蚝神烧肉水产,美食,外国餐厅,辽宁省,沈阳市,和平区,辽宁省沈阳市和平区南三经街58号,463d2038a8a3b4dc08ccdd1d,1,0,123.434154,41.788344,(024)28717999,cater,http://api.map.baidu.com/place/detail?uid=463d2038a8a3b4dc08ccdd1d&output=html&source=placeapi_v2,298.0,11:00-02:00,0,,,,,,,1,0,,,,,,,123.43432254058,41.788380719865,0
17fc8d9c8c8f4180acee7ad7,雅风臻享西餐厅,美食,外国餐厅,辽宁省,沈阳市,和平区,辽宁省沈阳市和平区十四纬路1-4号3-1室,,1,0,123.42942,41.786846,15998882911,cater,http://api.map.baidu.com/place/detail?uid=17fc8d9c8c8f4180acee7ad7&output=html&source=placeapi_v2,,10:00-21:00,,,,,,,,,1,,,,,,,123.42945646096,41.786758792301,0
f6a2fbc0525b10c4e5e965f0,道禾精致寿司(沈阳总店),美食,外国餐厅,辽宁省,沈阳市,和平区,辽宁省沈阳市和平区南三经街22号,f6a2fbc0525b10c4e5e965f0,1,0,123.432752,41.791805,13019368576,cater,http://api.map.baidu.com/place/detail?uid=f6a2fbc0525b10c4e5e965f0&output=html&source=placeapi_v2,94.0,09:00-22:00,4.5,,,,,,,,0,,,,,,,123.43294713603,41.791851355649,0
420dfcdc67fa56d440afe62a,ROZZ-TOX,美食,外国餐厅,辽宁省,沈阳市,沈河区,辽宁省沈阳市沈河区九纬路63号,420dfcdc67fa56d440afe62a,1,0,123.434714,41.799195,(024)23445905,cater,http://api.map.baidu.com/place/detail?uid=420dfcdc67fa56d440afe62a&output=html&source=placeapi_v2,111.0,11:00-22:00,4.8,,,,,,,,0,,,,,,,123.43473246793,41.799312427616,0
e047c5ad51c80bde871541bd,沈阳香格里拉大酒店新鲜特色餐厅(香格里拉大酒店),美食,外国餐厅,辽宁省,沈阳市,沈河区,辽宁省沈阳市沈河区青年大街15号酒店30层(近万象城),e047c5ad51c80bde871541bd,1,0,123.443023,41.783387,(024)24366699,cater,http://api.map.baidu.com/place/detail?uid=e047c5ad51c80bde871541bd&output=html&source=placeapi_v2,246.0,,4.7,,,,,,,,4,,,,,,,123.44237638038,41.783604228541,0
3856df9e7de0b6e56e20b916,冲浪里精品料理(领事馆店),美食,外国餐厅,辽宁省,沈阳市,和平区,辽宁省沈阳市和平区南四经街100号,3856df9e7de0b6e56e20b916,1,0,123.430213,41.789713,"13324085211,13840459610",cater,http://api.map.baidu.com/place/detail?uid=3856df9e7de0b6e56e20b916&output=html&source=placeapi_v2,215.0,11:30-21:00,4.7,,,,,,,,0,,,,,,,123.43047088054,41.789723144595,0
8ab08877bbd7345a5bf6be78,ONE FULL B&C(二经街店),美食,外国餐厅,辽宁省,沈阳市,沈河区,辽宁省沈阳市沈河区北二经街81号,8ab08877bbd7345a5bf6be78,1,0,123.434537,41.797898,(024)22896888,cater,http://api.map.baidu.com/place/detail?uid=8ab08877bbd7345a5bf6be78&output=html&source=placeapi_v2,342.0,11:30-21:30,4.9,,,,,,,,0,,,,,,,123.43453360375,41.798007198915,0
691a0e69c2bbdcc4725e80e0,11号酒吧餐厅,美食,外国餐厅,辽宁省,沈阳市,沈河区,辽宁沈阳市沈河区十一纬路111号,691a0e69c2bbdcc4725e80e0,1,0,123.43301,41.79602,13704000022,cater,http://api.map.baidu.com/place/detail?uid=691a0e69c2bbdcc4725e80e0&output=html&source=placeapi_v2,77.0,18:00-02:00,0,,,,,,,,5,,,,,,,123.43304432101,41.796068662039,0
47e3b49ecbe2edc907026f23,江之叶日料(青年大街店),美食,外国餐厅,辽宁省,沈阳市,沈河区,辽宁省沈阳市沈河区十一纬路125号,47e3b49ecbe2edc907026f23,1,0,123.434015,41.796482,18502452885,cater,http://api.map.baidu.com/place/detail?uid=47e3b49ecbe2edc907026f23&output=html&source=placeapi_v2,111.0,"11:00-14:00,16:30-21:00",4.8,,,,,,,,3,,,,,,,123.43394103023,41.796625274642,0
e168f38859aa725ea5da39fa,三月居酒屋(青年大街店),美食,外国餐厅,辽宁省,沈阳市,沈河区,辽宁省沈阳市沈河区大西路360-2号,e168f38859aa725ea5da39fa,1,0,123.441181,41.799198,18540268378,cater,http://api.map.baidu.com/place/detail?uid=e168f38859aa725ea5da39fa&output=html&source=placeapi_v2,102.0,11:00-22:00,4.6,,,,,,,,87,,,,,,,123.4413678465,41.799133101463,0
2324311276f647ffad31e519,冲浪里(日式料理),美食,外国餐厅,辽宁省,沈阳市,和平区,辽宁省沈阳市和平区北五经街20号,2324311276f647ffad31e519,1,0,123.42744,41.799472,"(024)31324671,13840451087",cater,http://api.map.baidu.com/place/detail?uid=2324311276f647ffad31e519&output=html&source=placeapi_v2,162.0,11:30-22:00,4.8,,,,,,,,1,,,,,,,123.42755981643,41.799455325833,0
ded16edc03d23b55f7eafc83,町上餐饮(十三纬路店),美食,外国餐厅,辽宁省,沈阳市,沈河区,辽宁沈阳市沈河区十三纬路92号,ded16edc03d23b55f7eafc83,1,0,123.43813,41.792666,13889882616,cater,http://api.map.baidu.com/place/detail?uid=ded16edc03d23b55f7eafc83&output=html&source=placeapi_v2,68.0,09:30-21:30,4.5,,,,,,,,22,,,,,,,,,0
270b2ae8b29727596218098a,大吉屋生鱼寿司,美食,外国餐厅,辽宁省,沈阳市,和平区,和平区十四纬路17号(近领事馆),270b2ae8b29727596218098a,1,0,123.431692,41.788402,(024)31273781,cater,http://api.map.baidu.com/place/detail?uid=270b2ae8b29727596218098a&output=html&source=placeapi_v2,,09:00-21:00,3.7,,,,,,,,,,,,,,,123.4316776992,41.788442152647,0
7e7355bcee8df20e4e2fdf7a,臻牛排,美食,外国餐厅,辽宁省,沈阳市,和平区,辽宁省沈阳市和平区龙泉路81号,,1,0,123.435823,41.779888,15040822846,cater,http://api.map.baidu.com/place/detail?uid=7e7355bcee8df20e4e2fdf7a&output=html&source=placeapi_v2,,10:00-22:00,,,,,,,,,,,,,,,,123.4358289612,41.780051228232,0
086136ffa7079c88d6851fe1,拌馋拌饭(青年大街店),美食,外国餐厅,辽宁省,沈阳市,和平区,辽宁省沈阳市和平区青年大街8-1号巷,086136ffa7079c88d6851fe1,1,0,123.438914,41.774025,18640429308,cater,http://api.map.baidu.com/place/detail?uid=086136ffa7079c88d6851fe1&output=html&source=placeapi_v2,,09:00-19:00,3.5,,,,,,,,1,,,,,,,,,0
28c9d7318c07c73cb4f42fb7,传闻来紫菜包饭打糕(五里河店),美食,外国餐厅,辽宁省,沈阳市,和平区,沈阳市和平区青年大街304巷8号如家快捷酒店楼下,28c9d7318c07c73cb4f42fb7,1,0,123.438546,41.773774,"13840283241,18604044205",cater,http://api.map.baidu.com/place/detail?uid=28c9d7318c07c73cb4f42fb7&output=html&source=placeapi_v2,17.0,07:00-19:30,3.8,,,,,,,,0,,,,,,,123.43840780498,41.773727576837,0
d626b3373b9eaa34a7c75625,町上寿司(七院店),美食,外国餐厅,辽宁省,沈阳市,沈河区,辽宁省沈阳市沈河区南三经1号,d626b3373b9eaa34a7c75625,1,0,123.431712,41.795758,13840206680,cater,http://api.map.baidu.com/place/detail?uid=d626b3373b9eaa34a7c75625&output=html&source=placeapi_v2,20.0,09:00-20:00,3.8,,,,,,,,47,,,,,,,123.43161410006,41.795720993329,0
c789ac562157f2b903ff2de0,町上寿司(沈阳青年大街店),美食,外国餐厅,辽宁省,沈阳市,沈河区,辽宁省沈阳市沈河区北文萃路11-4号212室,c789ac562157f2b903ff2de0,1,0,123.44706,41.771991,13252864321,cater,http://api.map.baidu.com/place/detail?uid=c789ac562157f2b903ff2de0&output=html&source=placeapi_v2,29.0,09:30-19:30,3.9,,,,,,,,1,,,,,,,123.44699552391,41.772115555248,0
3e3f9dc51439d941100daac4,解忧日料店(八纬路店),美食,外国餐厅,辽宁省,沈阳市,和平区,辽宁省沈阳市和平区八经街八纬路2-1-2号,3e3f9dc51439d941100daac4,1,0,123.425579,41.799711,18512495535,cater,http://api.map.baidu.com/place/detail?uid=3e3f9dc51439d941100daac4&output=html&source=placeapi_v2,70.0,11:00-02:00,4.3,,,,,,,,1,,,,,,,123.4252847652,41.799802094419,0
3e8186e9db1436d3e115f981,季西式日餐,美食,外国餐厅,辽宁省,沈阳市,沈河区,辽宁省沈阳市沈河区药王庙路3号,3e8186e9db1436d3e115f981,1,0,123.439607,41.802454,15541562895,cater,http://api.map.baidu.com/place/detail?uid=3e8186e9db1436d3e115f981&output=html&source=placeapi_v2,164.0,"11:00-14:00,16:00-21:00",4.5,,,,,,,,0,,,,,,,123.43947242906,41.802603767254,0
0d10e089e56738d0c7f025a4,A・T・ONE Taco&Bar,美食,外国餐厅,辽宁省,沈阳市,沈河区,辽宁省沈阳市沈河区八纬路48号,0d10e089e56738d0c7f025a4,1,0,123.4334,41.801292,15840255716,cater,http://api.map.baidu.com/place/detail?uid=0d10e089e56738d0c7f025a4&output=html&source=placeapi_v2,113.0,,4.6,,,,,,,1,1,,,,,,,123.43344310308,41.801194286591,0
d21cc29ba15bb6434151c0fc,Lenore's Bar,美食,外国餐厅,辽宁省,沈阳市,沈河区,辽宁省沈阳市沈河区南三经街39号,,1,0,123.434026,41.790743,,cater,http://api.map.baidu.com/place/detail?uid=d21cc29ba15bb6434151c0fc&output=html&source=placeapi_v2,,18:00-05:00,,,,,,,,,,,,,,,,,,0
3cf0c3b08a0ba59f9e95de7b,金鸣鹤拌饭,美食,外国餐厅,辽宁省,沈阳市,和平区,辽宁省沈阳市和平区南四经街24号,3cf0c3b08a0ba59f9e95de7b,1,0,123.428668,41.793924,18204080608,cater,http://api.map.baidu.com/place/detail?uid=3cf0c3b08a0ba59f9e95de7b&output=html&source=placeapi_v2,50.0,11:00-22:00,3.6,,,,,,,,0,,,,,,,123.4288403734,41.793893846343,0
a3ed182f1d6b5b4ac42ba1b2,荣日铁板烧,美食,外国餐厅,辽宁省,沈阳市,和平区,辽宁省沈阳市和平区南四经街104号,a3ed182f1d6b5b4ac42ba1b2,1,0,123.430508,41.789141,,cater,http://api.map.baidu.com/place/detail?uid=a3ed182f1d6b5b4ac42ba1b2&output=html&source=placeapi_v2,,,,,,,,,,,,,,,,,,123.43069480834,41.789119446586,0
93df0dc361fa5c32882fb521,阿妈妮(嘉兴街店),美食,外国餐厅,辽宁省,沈阳市,和平区,辽宁省沈阳市和平区嘉兴街24号,93df0dc361fa5c32882fb521,1,0,123.415139,41.7811,13804980780,cater,http://api.map.baidu.com/place/detail?uid=93df0dc361fa5c32882fb521&output=html&source=placeapi_v2,28.0,10:00-22:00,3.9,,,,,,,,118,,,,,,,,,0
ead30e7c2e5879a4a2d23071,炉子旁(一方广场店),美食,外国餐厅,辽宁省,沈阳市,沈河区,沈阳市沈河区文化路81号一方广场F6,ead30e7c2e5879a4a2d23071,1,0,123.443981,41.775937,,cater,http://api.map.baidu.com/place/detail?uid=ead30e7c2e5879a4a2d23071&output=html&source=placeapi_v2,67.0,10:00-21:30,0.0,,,,,,,,27,,,,,,,,,0
8110b7ea6f11877231f71dd6,万胜居酒屋,美食,外国餐厅,辽宁省,沈阳市,和平区,辽宁省沈阳市和平区十四纬路七经街14号,,1,0,123.425166,41.787407,13555840850,cater,http://api.map.baidu.com/place/detail?uid=8110b7ea6f11877231f71dd6&output=html&source=placeapi_v2,,17:00-02:00,,,,,,,,,3,,,,,,,123.42525649463,41.787409031274,0
f10dfb36057ade57276e985a,大福寿司(一方广场店),美食,外国餐厅,辽宁省,沈阳市,沈河区,沈阳市沈河区文化路81号一方广场F4,878b19bdfe54fd53246e98b3,1,0,123.442706,41.776119,18002415667,cater,http://api.map.baidu.com/place/detail?uid=f10dfb36057ade57276e985a&output=html&source=placeapi_v2,,09:30-22:00,,,,,,,,,,,,,,,,,,0
ca37b05cda3b67b23686f4f5,田町寿司(总统大厦店),美食,外国餐厅,辽宁省,沈阳市,和平区,辽宁省沈阳市和平区八经街66号,ca37b05cda3b67b23686f4f5,1,0,123.425286,41.800195,18640082328,cater,http://api.map.baidu.com/place/detail?uid=ca37b05cda3b67b23686f4f5&output=html&source=placeapi_v2,15.0,09:30-19:30,3.6,,,,,,,,5,,,,,,,123.42546559051,41.800039989395,0
1bfabe10a2d545c788b988f0,韩式汤饭,美食,外国餐厅,辽宁省,沈阳市,和平区,辽宁省沈阳市和平区南五经街1号,1bfabe10a2d545c788b988f0,1,0,123.425356,41.794297,15940089096,cater,http://api.map.baidu.com/place/detail?uid=1bfabe10a2d545c788b988f0&output=html&source=placeapi_v2,,08:30-20:30,3.5,,,,,,,,,,,,,,,123.42529114228,41.794284364396,0
fb6a9a52574ad2654d554736,ONEBARONEQUE,美食,外国餐厅,辽宁省,沈阳市,沈河区,沈阳市沈河区合众三巷茂泉小区西南侧约30米,fb6a9a52574ad2654d554736,1,0,123.446568,41.793403,,cater,http://api.map.baidu.com/place/detail?uid=fb6a9a52574ad2654d554736&output=html&source=placeapi_v2,,,,,,,,,,,,,,,,,,,,0
46abad286e17ae3cd4851f00,土豆王拌饭(三好街店),美食,外国餐厅,辽宁省,沈阳市,和平区,辽宁省沈阳市和平区三好街72-7号,,1,0,123.431828,41.773952,,cater,http://api.map.baidu.com/place/detail?uid=46abad286e17ae3cd4851f00&output=html&source=placeapi_v2,,09:00-20:00,,,,,,,,,,,,,,,,,,0
9ccedbbd877c65b16c3e1bab,布只是咖喱,美食,外国餐厅,辽宁省,沈阳市,和平区,和平区北六经街2号111号,9ccedbbd877c65b16c3e1bab,1,0,123.424716,41.798328,17640196859,cater,http://api.map.baidu.com/place/detail?uid=9ccedbbd877c65b16c3e1bab&output=html&source=placeapi_v2,21.0,11:00-19:00,4.2,,,,,,,,,,,,,,,,,0
dcb7225b5c9c598a3586f4e0,嗨拌饭(和平店),美食,外国餐厅,辽宁省,沈阳市,和平区,和平区北六经街3号,,1,0,123.424952,41.797438,,cater,http://api.map.baidu.com/place/detail?uid=dcb7225b5c9c598a3586f4e0&output=html&source=placeapi_v2,,,,,,,,,,,,,,,,,,,,0
0629b6aee1129b82b75f1edb,巴比客牛排饭,美食,外国餐厅,辽宁省,沈阳市,沈河区,沈河区桃源巷桃源社区,,1,0,123.45351,41.798252,,cater,http://api.map.baidu.com/place/detail?uid=0629b6aee1129b82b75f1edb&output=html&source=placeapi_v2,,09:00-23:00,,,,,,,,,,,,,,,,123.45344574733,41.798270717084,0
ed2233a4ea2e649fede4a53d,翻滚吧团团紫菜包饭拌饭,美食,外国餐厅,辽宁省,沈阳市,和平区,八经街70号,ed2233a4ea2e649fede4a53d,1,0,123.424287,41.799698,13840015823,cater,http://api.map.baidu.com/place/detail?uid=ed2233a4ea2e649fede4a53d&output=html&source=placeapi_v2,,10:00-22:00,,,,,,,,,,,,,,,,123.42424177681,41.799589516649,0
3a0fbba85773e4589ee321fd,鑫元太祖(长青店),美食,外国餐厅,辽宁省,沈阳市,沈河区,辽宁省沈阳市沈河区长青街52号2楼,3a0fbba85773e4589ee321fd,1,0,123.486268,41.782246,,cater,http://api.map.baidu.com/place/detail?uid=3a0fbba85773e4589ee321fd&output=html&source=placeapi_v2,55.0,11:00-21:00,4.3,,,,,,,,34,,,,,,,123.48633842258,41.781884978606,0
9f97b1c58efbb01fb74f54e4,玲玲烧烤冷面,美食,外国餐厅,辽宁省,沈阳市,沈河区,辽宁省沈阳市沈河区大南街197号,9f97b1c58efbb01fb74f54e4,1,0,123.465744,41.791502,13840046310,cater,http://api.map.baidu.com/place/detail?uid=9f97b1c58efbb01fb74f54e4&output=html&source=placeapi_v2,64.0,10:00-22:00,4.1,,,,,,,,44,,,,,,,123.46559985592,41.791513049545,0
170de89d116b88c69e9d6860,大吉韩食,美食,外国餐厅,辽宁省,沈阳市,大东区,辽宁省沈阳市大东区小河沿路3号民航小区1号楼,170de89d116b88c69e9d6860,1,0,123.49751,41.79423,(024)88293658,cater,http://api.map.baidu.com/place/detail?uid=170de89d116b88c69e9d6860&output=html&source=placeapi_v2,46.0,10:00-21:00,4.5,,,,,,,,2,,,,,,,123.49754564619,41.794350244132,0
a776277c6eefbba0a0acc493,吾爱佳韩式拌饭,美食,外国餐厅,辽宁省,沈阳市,沈河区,辽宁省沈阳市沈河区热闹路78号,a776277c6eefbba0a0acc493,1,0,123.461169,41.794321,13372913388,cater,http://api.map.baidu.com/place/detail?uid=a776277c6eefbba0a0acc493&output=html&source=placeapi_v2,23.0,09:00-20:00,3.5,,,,,,,,0,,,,,,,123.46117017311,41.794182956251,0
be8a1ebe026fd69d15a190d6,老街传统炸牛排(沈河店),美食,外国餐厅,辽宁省,沈阳市,沈河区,辽宁省沈阳市沈河区乐郊路59号,be8a1ebe026fd69d15a190d6,1,0,123.464833,41.798008,15840581155,cater,http://api.map.baidu.com/place/detail?uid=be8a1ebe026fd69d15a190d6&output=html&source=placeapi_v2,,00:00-24:00,0,,,,,,,,0,,,,,,,123.46483023806,41.798120539412,0
39e1534cb6b79faca8059da3,正宗张家电烤鸡架(总店),美食,外国餐厅,辽宁省,沈阳市,沈河区,辽宁省沈阳市沈河区南通天街56号大南新天地超市通天街店58号楼,39e1534cb6b79faca8059da3,1,0,123.463125,41.788591,13390573998,cater,http://api.map.baidu.com/place/detail?uid=39e1534cb6b79faca8059da3&output=html&source=placeapi_v2,,08:00-20:00,3.5,,,,,,,,0,,,,,,,123.46312783234,41.788622178034,0
6fc59b4ff7955da63be4a695,不二牛扒拉锅,美食,外国餐厅,辽宁省,沈阳市,大东区,辽宁省沈阳市大东区堂子街7号,,1,0,123.48325,41.800511,15998867797,cater,http://api.map.baidu.com/place/detail?uid=6fc59b4ff7955da63be4a695&output=html&source=placeapi_v2,37.0,10:00-22:00,4.6,,,,,,,,,,,,,,,,,0
fd1199068ef6ef05725e80cd,刘先生美食餐厅,美食,外国餐厅,辽宁省,沈阳市,沈河区,大南街333-2号2-1-4,fd1199068ef6ef05725e80cd,1,0,123.465526,41.78466,18640097398,cater,http://api.map.baidu.com/place/detail?uid=fd1199068ef6ef05725e80cd&output=html&source=placeapi_v2,,09:00-21:00,3.4,,,,,,,,,,,,,,,,,0
57abebbb27e581195fbe860a,福藤寿司,美食,外国餐厅,辽宁省,沈阳市,沈河区,辽宁省沈阳市沈河区南顺城路103号93号楼,57abebbb27e581195fbe860a,1,0,123.469468,41.798972,15840078881,cater,http://api.map.baidu.com/place/detail?uid=57abebbb27e581195fbe860a&output=html&source=placeapi_v2,,09:00-20:30,3.6,,,,,,,,1,,,,,,,123.46947349031,41.799109824624,0
29e978bf5cb8e7ee223bf289,韩园冷面烧烤(小河沿路店),美食,外国餐厅,辽宁省,沈阳市,大东区,辽宁省沈阳市大东区小河沿路112号1-1-3室,29e978bf5cb8e7ee223bf289,1,0,123.491363,41.795482,,cater,http://api.map.baidu.com/place/detail?uid=29e978bf5cb8e7ee223bf289&output=html&source=placeapi_v2,,,3.5,,,,,,,,0,,,,,,,123.49151544078,41.795449747913,0
58a4781903b6990bad045736,扒拉锅,美食,外国餐厅,辽宁省,沈阳市,大东区,辽宁省沈阳市大东区大东路培育巷9号,58a4781903b6990bad045736,1,0,123.480919,41.801828,13840459836,cater,http://api.map.baidu.com/place/detail?uid=58a4781903b6990bad045736&output=html&source=placeapi_v2,,09:00-21:00,3.5,,,,,,,,,,,,,,,,,0
7bbc689740437abde5073849,金白菜韩式炸鸡,美食,外国餐厅,辽宁省,沈阳市,沈河区,沈阳市沈河区大南街雅东商务公寓,7bbc689740437abde5073849,1,0,123.46623,41.79339,13940236796,cater,http://api.map.baidu.com/place/detail?uid=7bbc689740437abde5073849&output=html&source=placeapi_v2,,10:00-20:00,3.4,,,,,,,,,,,,,,,,,0
890d4549982c2ff9f942b2f8,町久上藤(寿司店),美食,外国餐厅,辽宁省,沈阳市,沈河区,辽宁省沈阳市沈河区南乐郊路102号,890d4549982c2ff9f942b2f8,1,0,123.464431,41.796451,13940174331,cater,http://api.map.baidu.com/place/detail?uid=890d4549982c2ff9f942b2f8&output=html&source=placeapi_v2,,09:00-19:00,3.5,,,,,,,,,,,,,,,,,0
8eca231a02969e3ad23ce362,张家韩式拌菜,美食,外国餐厅,辽宁省,沈阳市,沈河区,辽宁省沈阳市沈河区南通天街58号楼,8eca231a02969e3ad23ce362,1,0,123.462908,41.788574,"13897940000,15840209999",cater,http://api.map.baidu.com/place/detail?uid=8eca231a02969e3ad23ce362&output=html&source=placeapi_v2,,09:00-20:00,,,,,,,,,,,,,,,,,,0
35a060352b2b603bf8f0cbd8,阿里郎冷面(五爱美食广场店),美食,外国餐厅,辽宁省,沈阳市,沈河区,辽宁省沈阳市沈河区五爱市场鞋帽城5楼,,1,0,123.458468,41.793144,,cater,http://api.map.baidu.com/place/detail?uid=35a060352b2b603bf8f0cbd8&output=html&source=placeapi_v2,64.0,06:00-15:00,3.0,,,,,,,,1,,,,,,,123.45846790664,41.793144172894,0
0b2d9d88d9b6e73eeedfcaf0,拌菜馆,美食,外国餐厅,辽宁省,沈阳市,大东区,辽宁省沈阳市大东区堂子街6号4单元,0b2d9d88d9b6e73eeedfcaf0,1,0,123.482418,41.801796,,cater,http://api.map.baidu.com/place/detail?uid=0b2d9d88d9b6e73eeedfcaf0&output=html&source=placeapi_v2,,,,,,,,,,,,,,,,,,,,0
47cb6b7adaf30ec49b68b4aa,久藤寿司(滂江街店),美食,外国餐厅,辽宁省,沈阳市,大东区,辽宁省沈阳市大东区滂江街173号,47cb6b7adaf30ec49b68b4aa,1,0,123.491079,41.79867,13644904478,cater,http://api.map.baidu.com/place/detail?uid=47cb6b7adaf30ec49b68b4aa&output=html&source=placeapi_v2,18.0,09:00-21:00,3.8,,,,,,,,0,,,,,,,,,0
82e2b0b3232ca1940bb93a5f,崔氏拌菜,美食,外国餐厅,辽宁省,沈阳市,沈河区,辽宁省沈阳市沈河区小南街六合巷199-3号,82e2b0b3232ca1940bb93a5f,1,0,123.461483,41.788734,,cater,http://api.map.baidu.com/place/detail?uid=82e2b0b3232ca1940bb93a5f&output=html&source=placeapi_v2,,,,,,,,,,,,,,,,,,,,0
ee4e38bc52a5b694373a71b1,泰国榴莲,美食,外国餐厅,辽宁省,沈阳市,沈河区,沈阳市沈河区六合巷沈阳市满族中学东北侧,ee4e38bc52a5b694373a71b1,1,0,123.462008,41.788841,,cater,http://api.map.baidu.com/place/detail?uid=ee4e38bc52a5b694373a71b1&output=html&source=placeapi_v2,,,,,,,,,,,,,,,,,,,,0
9be45a9be823fccfc27da2a8,三个先森的韩国炸鸡(于洪店),美食,外国餐厅,辽宁省,沈阳市,于洪区,辽宁省沈阳市于洪区珍珠巷6号,9be45a9be823fccfc27da2a8,1,0,123.311428,41.802767,13066726751,cater,http://api.map.baidu.com/place/detail?uid=9be45a9be823fccfc27da2a8&output=html&source=placeapi_v2,27.0,09:30-23:30,3.8,,,,,,,,0,,,,,,,123.31143301553,41.802652814684,0
5586d05e23652173e6073884,Sawa低卡轻食(于洪广场店),美食,外国餐厅,辽宁省,沈阳市,于洪区,辽宁省沈阳市于洪区东湖街12-5号,,1,0,123.319076,41.804802,19523109881,cater,http://api.map.baidu.com/place/detail?uid=5586d05e23652173e6073884&output=html&source=placeapi_v2,,08:30-20:00,,,,,,,,,,,,,,,,123.31892506584,41.804740011596,0
1c094d9a3b01745171210bb6,川崎的牛排饭(于洪广场店),美食,外国餐厅,辽宁省,沈阳市,于洪区,辽宁省沈阳市于洪区东湖街12-5号-2号,1c094d9a3b01745171210bb6,1,0,123.319074,41.804767,18842542552,cater,http://api.map.baidu.com/place/detail?uid=1c094d9a3b01745171210bb6&output=html&source=placeapi_v2,,09:00-21:30,3.4,,,,,,,,,,,,,,,123.31892495984,41.804752011781,0
ede81587b896f85e1d1d1141,我・你VENIR RESTAURANT,美食,外国餐厅,辽宁省,沈阳市,铁西区,辽宁省沈阳市铁西区卫工北街44号红梅文创园9号楼3门,ede81587b896f85e1d1d1141,1,0,123.35755,41.818223,(024)22737373,cater,http://api.map.baidu.com/place/detail?uid=ede81587b896f85e1d1d1141&output=html&source=placeapi_v2,99.0,11:00-21:30,5,,,,,,,1,2,,,,,,,123.357682122,41.818543523428,0
4877731033a33184eb1e9714,金悦餐厅(铁西店),美食,外国餐厅,辽宁省,沈阳市,铁西区,辽宁省沈阳市铁西区建设中路62号,4877731033a33184eb1e9714,1,0,123.360073,41.808011,(024)25636666,cater,http://api.map.baidu.com/place/detail?uid=4877731033a33184eb1e9714&output=html&source=placeapi_v2,211.0,10:30-21:30,4.4,,,,,,,,2,,,,,,,123.36001665722,41.807871411029,0
1a487dfea1c1226f0bccdd30,必胜客(龙之梦大都汇餐厅),美食,外国餐厅,辽宁省,沈阳市,铁西区,建设西路2号龙之梦大都汇F1,1a487dfea1c1226f0bccdd30,1,0,123.351763,41.809965,(024)31081503,cater,http://api.map.baidu.com/place/detail?uid=1a487dfea1c1226f0bccdd30&output=html&source=placeapi_v2,103.0,09:00-21:00,4.8,,,,,,,,6,,,,,,,123.35163125646,41.809647386599,0
b87c6c68a113fe722bd7ab2b,町上寿司(第一城店),美食,外国餐厅,辽宁省,沈阳市,铁西区,辽宁省沈阳市铁西区建设西路18-9号,b87c6c68a113fe722bd7ab2b,1,0,123.35008,41.814773,18624036278,cater,http://api.map.baidu.com/place/detail?uid=b87c6c68a113fe722bd7ab2b&output=html&source=placeapi_v2,,09:00-21:00,3.7,,,,,,,,0,,,,,,,123.35026073689,41.814736024073,0
683d9be0aadfd18d455726d2,鸣味日式精致简餐,美食,外国餐厅,辽宁省,沈阳市,铁西区,辽宁省沈阳市铁西区肇工北街北三西路24甲2号,,1,0,123.348485,41.820908,13998296227,cater,http://api.map.baidu.com/place/detail?uid=683d9be0aadfd18d455726d2&output=html&source=placeapi_v2,,,,,,,,,,,,,,,,,,123.34847254749,41.820731104728,0
ba061aeb3ccd7216bca82211,老长江朝鲜大冷面,美食,外国餐厅,辽宁省,沈阳市,铁西区,辽宁省沈阳市铁西区南八西路11号,ba061aeb3ccd7216bca82211,1,0,123.344066,41.803949,13390551699,cater,http://api.map.baidu.com/place/detail?uid=ba061aeb3ccd7216bca82211&output=html&source=placeapi_v2,20.0,10:00-22:00,3.8,,,,,,,,5,,,,,,,123.3441084823,41.804119855814,0
57fb9588399a9ab781288a35,朴三姨紫菜包饭&打糕(第一城店),美食,外国餐厅,辽宁省,沈阳市,铁西区,铁西区启工街3甲7门,57fb9588399a9ab781288a35,1,0,123.34978,41.812896,13700005173,cater,http://api.map.baidu.com/place/detail?uid=57fb9588399a9ab781288a35&output=html&source=placeapi_v2,15.0,10:00-22:00,3.8,,,,,,,,10,,,,,,,123.34963099958,41.812873887376,0
9bd7f504f1fdbddd21f01728,梦想轻食(铁西店),美食,外国餐厅,辽宁省,沈阳市,铁西区,沈阳市铁西区育工街卫工一校西北侧约50米,9bd7f504f1fdbddd21f01728,1,0,123.352061,41.806233,18602456616,cater,http://api.map.baidu.com/place/detail?uid=9bd7f504f1fdbddd21f01728&output=html&source=placeapi_v2,,21:00-19:00,,,,,,,,,,,,,,,,123.35189137519,41.806273661454,0
d4a47008e0e7e19c28d7abb5,牛巴店(兴隆大都汇店),美食,外国餐厅,辽宁省,沈阳市,铁西区,辽宁省沈阳市铁西区建设西路龙之梦大都汇5楼,d4a47008e0e7e19c28d7abb5,1,0,123.352498,41.809993,(024)31801036,cater,http://api.map.baidu.com/place/detail?uid=d4a47008e0e7e19c28d7abb5&output=html&source=placeapi_v2,85.0,09:30-20:30,4.5,,,,,,,,30,,,,,,,123.35280053403,41.809368471331,0
e5ff86f47dca0ab115a19006,牛头烤肉(重工店),美食,外国餐厅,辽宁省,沈阳市,铁西区,辽宁省沈阳市铁西区重工北街50甲26网点6门(重工街，小北一路，普罗旺斯二期西门，金谷购物中心斜对面),e5ff86f47dca0ab115a19006,1,0,123.336015,41.829442,"13889128881,15002475555",cater,http://api.map.baidu.com/place/detail?uid=e5ff86f47dca0ab115a19006&output=html&source=placeapi_v2,52.0,10:00-22:00,3.7,,,,,,,,7,,,,,,,123.33584853529,41.829484143064,0
3003dc0f69ce01463a13fd18,卷福来紫菜包饭&打糕(北四中路店),美食,外国餐厅,辽宁省,沈阳市,铁西区,辽宁省沈阳市铁西区北四中路32-3号7门,3003dc0f69ce01463a13fd18,1,0,123.358612,41.81331,13940193021,cater,http://api.map.baidu.com/place/detail?uid=3003dc0f69ce01463a13fd18&output=html&source=placeapi_v2,,08:00-21:00,,,,,,,,,,,,,,,,123.35852453674,41.813123952829,0
0f23d56ac38a3186eddfcaa8,大寿司(北三路店),美食,外国餐厅,辽宁省,沈阳市,铁西区,辽宁省沈阳市铁西区北三中路20甲9门,0f23d56ac38a3186eddfcaa8,1,0,123.365011,41.816403,15840001201,cater,http://api.map.baidu.com/place/detail?uid=0f23d56ac38a3186eddfcaa8&output=html&source=placeapi_v2,,10:00-19:30,3.6,,,,,,,,,,,,,,,123.36488712238,41.816253863048,0
a8d3f53449b459ffc91b95e6,极上烧肉寿喜专门店,美食,外国餐厅,辽宁省,沈阳市,铁西区,辽宁省沈阳市铁西区保工南街23号,a8d3f53449b459ffc91b95e6,1,0,123.359211,41.801789,(024)25636008,cater,http://api.map.baidu.com/place/detail?uid=a8d3f53449b459ffc91b95e6&output=html&source=placeapi_v2,62.0,10:00-21:00,4.4,,,,,,,,,,,,,,,123.35902748721,41.801865630736,0
1743d58650b869ea882fb5a9,匠贰寿司,美食,外国餐厅,辽宁省,沈阳市,铁西区,辽宁省沈阳市铁西区重工北街50甲38号,1743d58650b869ea882fb5a9,1,0,123.337128,41.827886,"13998138864,18524829169",cater,http://api.map.baidu.com/place/detail?uid=1743d58650b869ea882fb5a9&output=html&source=placeapi_v2,19.0,10:00-22:00,3.8,,,,,,,,,,,,,,,123.33707469087,41.827768023689,0
e9850ec058bee443b34c49e3,BIGBOX韩国炸鸡,美食,外国餐厅,辽宁省,沈阳市,铁西区,辽宁省沈阳市铁西区保工北街9-5号保工印象024号,,1,0,123.367822,41.811625,15640078283,cater,http://api.map.baidu.com/place/detail?uid=e9850ec058bee443b34c49e3&output=html&source=placeapi_v2,,10:00-23:30,,,,,,,,,,,,,,,,123.36778165946,41.811470564852,0
ae949417aa03ada5b020a87f,韩乐园炭火烤肉(重工店),美食,外国餐厅,辽宁省,沈阳市,铁西区,辽宁省沈阳市铁西区北一西路32-19号,ae949417aa03ada5b020a87f,1,0,123.338133,41.831077,18640144758,cater,http://api.map.baidu.com/place/detail?uid=ae949417aa03ada5b020a87f&output=html&source=placeapi_v2,63.0,10:00-22:30,3.9,,,,,,,,0,,,,,,,,,0
232bf2e00bd73c95fb2d6129,肉肉香咱家小店,美食,外国餐厅,辽宁省,沈阳市,铁西区,辽宁省沈阳市铁西区建设西路7-3号楼,,1,0,123.345566,41.809328,18002459507,cater,http://api.map.baidu.com/place/detail?uid=232bf2e00bd73c95fb2d6129&output=html&source=placeapi_v2,,,,,,,,,,,,,,,,,,,,0
c54affe92f8891084c3a59a0,町上寿司(普罗旺斯店),美食,外国餐厅,辽宁省,沈阳市,铁西区,铁西区重工北街32-3号3门,c54affe92f8891084c3a59a0,1,0,123.339208,41.830806,15524393938,cater,http://api.map.baidu.com/place/detail?uid=c54affe92f8891084c3a59a0&output=html&source=placeapi_v2,17.0,10:00-20:00,3.8,,,,,,,,1,,,,,,,123.33916348025,41.830690751891,0
ea28fac872b73064d8eced29,JING烧肉居酒屋,美食,外国餐厅,辽宁省,沈阳市,铁西区,沈阳市铁西区肇工南街百合花园东北侧约40米,ea28fac872b73064d8eced29,1,0,123.342221,41.805268,,cater,http://api.map.baidu.com/place/detail?uid=ea28fac872b73064d8eced29&output=html&source=placeapi_v2,,,3.6,,,,,,,,,,,,,,,123.34190112558,41.805270844933,0
be8568eba3fb84c5aecb664b,吉顺韩式烤肉(明廉路店),美食,外国餐厅,辽宁省,沈阳市,皇姑区,沈阳市皇姑区明廉路44-6号,be8568eba3fb84c5aecb664b,1,0,123.366657,41.831632,15840456479,cater,http://api.map.baidu.com/place/detail?uid=be8568eba3fb84c5aecb664b&output=html&source=placeapi_v2,55.0,09:00-23:00,3.7,,,,,,,,2,,,,,,,123.3666228741,41.831558498686,0
572e5937a4591011f7231080,韩式烤肉,美食,外国餐厅,辽宁省,沈阳市,铁西区,沈阳市铁西区肇工南街鲁尔新天地-三期,572e5937a4591011f7231080,1,0,123.342177,41.809494,,cater,http://api.map.baidu.com/place/detail?uid=572e5937a4591011f7231080&output=html&source=placeapi_v2,,,,,,,,,,,,,,,,,,,,0
3d8ed2aaaaca339babf729cd,兄弟连(小北一东路店),美食,外国餐厅,辽宁省,沈阳市,铁西区,辽宁省沈阳市铁西区北一东路3-14门,3d8ed2aaaaca339babf729cd,1,0,123.393378,41.815366,13654011232,cater,http://api.map.baidu.com/place/detail?uid=3d8ed2aaaaca339babf729cd&output=html&source=placeapi_v2,90.0,17:00-24:00,3.7,,,,,,,,2,,,,,,,,,0
12094ef0cc858c133617dc54,菲尼咖啡,美食,外国餐厅,辽宁省,沈阳市,铁西区,辽宁省沈阳市铁西区虹桥路32-10号,12094ef0cc858c133617dc54,1,0,123.39435,41.81452,(024)23405025,cater,http://api.map.baidu.com/place/detail?uid=12094ef0cc858c133617dc54&output=html&source=placeapi_v2,58.0,12:00-22:30,3.5,,,,,,,,1,,,,,,,123.39428378931,41.814533308053,0
c600a8203698cebab64f54b0,心日本料理(1号店),美食,外国餐厅,辽宁省,沈阳市,铁西区,辽宁省沈阳市铁西区虹桥路34-18号,c600a8203698cebab64f54b0,1,0,123.390488,41.815695,(024)25113844,cater,http://api.map.baidu.com/place/detail?uid=c600a8203698cebab64f54b0&output=html&source=placeapi_v2,90.0,11:00-21:30,4.4,,,,,,,,3,,,,,,,,,0
5c3548d3ee564dffc27da224,小娘惹(星摩尔沈阳购物中心店),美食,外国餐厅,辽宁省,沈阳市,铁西区,辽宁省沈阳市铁西区北二中路6号星摩尔购物中心3层,5c3548d3ee564dffc27da224,1,0,123.384001,41.814515,"(024)25255212,(024)25255213",cater,http://api.map.baidu.com/place/detail?uid=5c3548d3ee564dffc27da224&output=html&source=placeapi_v2,104.0,10:00-21:00,3.7,,,,,,,,200,,,,,,,123.38232319729,41.813501420859,0
92f4e027bda2aec782288af3,传闻来紫菜包饭&打糕(云峰小北一路店),美食,外国餐厅,辽宁省,沈阳市,铁西区,辽宁省沈阳市铁西区北一东路75甲,92f4e027bda2aec782288af3,1,0,123.392986,41.815399,13516004417,cater,http://api.map.baidu.com/place/detail?uid=92f4e027bda2aec782288af3&output=html&source=placeapi_v2,19.0,06:00-20:00,3.7,,,,,,,,21,,,,,,,,,0
dbb7662b6e301e4ac16c14f3,川奈寿司日式料理,美食,外国餐厅,辽宁省,沈阳市,铁西区,辽宁省沈阳市铁西区北一路万达广场b座公寓一层(地铁9号线重型文化广场站b口出左行10米),dbb7662b6e301e4ac16c14f3,1,0,123.388371,41.818822,13352496840,cater,http://api.map.baidu.com/place/detail?uid=dbb7662b6e301e4ac16c14f3&output=html&source=placeapi_v2,87.0,11:30-21:00,4.9,,,,,,,,1,,,,,,,123.38851063042,41.818804057547,0
dc61774f104249e872210b8b,松兰味(西塔店),美食,外国餐厅,辽宁省,沈阳市,和平区,辽宁省沈阳市和平区安图街3号20门,dc61774f104249e872210b8b,1,0,123.415435,41.812638,(024)31898282,cater,http://api.map.baidu.com/place/detail?uid=dc61774f104249e872210b8b&output=html&source=placeapi_v2,72.0,"00:00-06:00,10:00-24:00",4.6,,,,,,,,11,,,,,,,123.41537520229,41.81274098512,0
37d60a46c9dc30791e1d1125,长寿参鸡汤(西塔店),美食,外国餐厅,辽宁省,沈阳市,和平区,辽宁省沈阳市和平区西塔街珲春路5号,37d60a46c9dc30791e1d1125,1,0,123.416307,41.813913,(024)23463055,cater,http://api.map.baidu.com/place/detail?uid=37d60a46c9dc30791e1d1125&output=html&source=placeapi_v2,61.0,09:00-23:00,4.7,,,,,,,,110,,,,,,,123.41624231774,41.813911676455,0
e22423eae4053072081cc743,大人物西餐厅,美食,外国餐厅,辽宁省,沈阳市,铁西区,沈阳市铁西区北一中路万达广场(北一路店),e22423eae4053072081cc743,1,0,123.385944,41.819356,,cater,http://api.map.baidu.com/place/detail?uid=e22423eae4053072081cc743&output=html&source=placeapi_v2,,,,,,,,,,,,,,,,,,,,0
25ec69fcce9ead64c36c14bb,三千里烤肉馆(西塔总店),美食,外国餐厅,辽宁省,沈阳市,和平区,辽宁省沈阳市和平区西塔街100号,25ec69fcce9ead64c36c14bb,1,0,123.416499,41.81029,(024)23470222,cater,http://api.map.baidu.com/place/detail?uid=25ec69fcce9ead64c36c14bb&output=html&source=placeapi_v2,91.0,10:00-23:00,4.2,,,,,,,,10,,,,,,,123.41636740678,41.810191376268,0
2527be1e243a22aa4afc8d27,万寿参鸡汤(珲春南路店),美食,外国餐厅,辽宁省,沈阳市,和平区,辽宁省沈阳市和平区西塔珲春南路15号,065f2361014f37a4a1046441,1,0,123.416092,41.812995,(024)23470100,cater,http://api.map.baidu.com/place/detail?uid=2527be1e243a22aa4afc8d27&output=html&source=placeapi_v2,76.0,09:30-22:30,4.3,,,,,,,,13,,,,,,,123.41593305361,41.813019042019,0
ab6d7b734792c0737369d37c,梧桐树韩式烧烤,美食,外国餐厅,辽宁省,沈阳市,铁西区,辽宁省沈阳市铁西区虹桥路25-2号,ab6d7b734792c0737369d37c,1,0,123.390375,41.811634,(024)64691611,cater,http://api.map.baidu.com/place/detail?uid=ab6d7b734792c0737369d37c&output=html&source=placeapi_v2,70.0,10:00-23:00,4.1,,,,,,,,28,,,,,,,123.390381322,41.811691709268,0
bc1e899e60a461ed8bf15de3,Cream&Bunny Patisserie,美食,外国餐厅,辽宁省,沈阳市,铁西区,辽宁省沈阳市铁西区兴华北街6-4号,bc1e899e60a461ed8bf15de3,1,0,123.38613,41.818762,"13840066826,13840088626",cater,http://api.map.baidu.com/place/detail?uid=bc1e899e60a461ed8bf15de3&output=html&source=placeapi_v2,64.0,10:30-17:00,4.1,,,,,,,1,73,,,,,,,,,0
