[{"name":"Bronx Employment Works","hours":"Mon - Wed: 9:00 AM - 5:00 PM; Thu - Fri: 9:00 AM - 7:00 PM","number":"369","street":"East 148th Street","street_address_2":"1st Floor","city":"Bronx","borough":"Bronx","state":"NY","postcode":"10455","details":"This center provides career advisement and preparation workshops to help Bronx and Manhattan candidates succeed beyond barriers to work that are common for individuals formerly acquainted with the criminal justice system. Please call 311 to contact this location.","location_type":"Employment Works","latitude":"40.815895","longitude":"-73.919111","bin":"2097041","bbl":"2023270072","nta":"Melrose South-Mott Haven North                                             ","councildistrict":"17","censustract":"65","communityboard":"1"}
,{"name":"Bronx Workforce1 Career Center","hours":"Mon - Fri: 8:30 AM - 5:00 PM","number":"400","street":"East Fordham Road","street_address_2":"Entrance on Webster Avenue","city":"Bronx","borough":"Bronx","state":"NY","postcode":"10458","details":"Dedicated Veteran Specialist available to connect veterans and their spouses to training, jobs, and supportive services to meet your career goals while leveraging your military skills and experiences. Workforce1 Career Centers are a proud partner of the American Job Center network. Please call 311 to contact this location.","location_type":"Workforce1 Career Center","latitude":"40.861042","longitude":"-73.891505","bin":"2116415","bbl":"2030337501","nta":"Fordham South                                                              ","councildistrict":"15","censustract":"38302","communityboard":"6"}
,{"name":"Bronx Workforce1 Industrial & Transportation Career Center","hours":"Mon - Fri: 8:30 AM - 5:00 PM","number":"14","street":"Bruckner Boulevard","street_address_2":"3rd Floor","city":"Bronx","borough":"Bronx","state":"NY","postcode":"10454","details":"The center offers comprehensive career services and connections to high-quality employment in the industrial and manufacturing sectors. Workforce1 Career Centers are a proud partner of the American Job Center network. Please call 311 to contact this location.","location_type":"Workforce1 Career Center","latitude":"40.807212","longitude":"-73.929499","bin":"2000682","bbl":"2023080001","nta":"Mott Haven-Port Morris                                                     ","councildistrict":"8","censustract":"19","communityboard":"1"}
,{"name":"Brooklyn Employment Works","hours":"Mon: 8:30 AM - 5:00 PM; Tue: 8:30 AM - 7:00 PM; Wed: 8:30 AM - 6:00 PM; Thu - Fri: 8:30 AM - 5:00 PM","number":"9","street":"Bond Street","street_address_2":"5th Floor","city":"Brooklyn","borough":"Brooklyn","state":"NY","postcode":"11201","details":"This center provides career advisement and preparation workshops to help Brooklyn, Queens, and Staten Island candidates succeed beyond barriers to work that are common for individuals formerly acquainted with the criminal justice system. Please call 311 to contact this location.","location_type":"Employment Works","latitude":"40.689247","longitude":"-73.982865","bin":"3329441","bbl":"3001600007","nta":"DUMBO-Vinegar Hill-Downtown Brooklyn-Boerum Hill                           ","councildistrict":"33","censustract":"37","communityboard":"2"}
,{"name":"Brooklyn Workforce1 Career Center","hours":"Mon - Fri: 9:00 AM - 5:00 PM","number":"9","street":"Bond Street","street_address_2":"5th Floor","city":"Brooklyn","borough":"Brooklyn","state":"NY","postcode":"11201","details":"Dedicated Veteran Specialist available to connect veterans and their spouses to training, jobs, and supportive services to meet your career goals while leveraging your military skills and experiences. Workforce1 Career Centers are a proud partner of the American Job Center network. Please call 311 to contact this location.","location_type":"Workforce1 Career Center","latitude":"40.689247","longitude":"-73.982865","bin":"3329441","bbl":"3001600007","nta":"DUMBO-Vinegar Hill-Downtown Brooklyn-Boerum Hill                           ","councildistrict":"33","censustract":"37","communityboard":"2"}
,{"name":"Brooklyn Workforce1 Industrial & Transportation Career Center","hours":"Mon - Fri: 8:30 AM - 5:00 PM","number":"140","street":"58th Street","street_address_2":"Building B\" Lobby\"","city":"Brooklyn","borough":"Brooklyn","state":"NY","postcode":"11220","details":"The center offers comprehensive career services and connections to high-quality employment in the industrial and manufacturing sectors. Workforce1 Career Centers are a proud partner of the American Job Center network. Please call 311 to contact this location.","location_type":"Workforce1 Career Center","latitude":"40.645199","longitude":"-74.027196","bin":"3257058","bbl":"3057780001","nta":"Sunset Park West                                                           ","councildistrict":"38","censustract":"18","communityboard":"7"}
,{"name":"East New York Workforce1 Career Center","hours":"Mon - Fri: 9:00 AM - 5:00 PM","number":"2619","street":"Atlantic Avenue","city":"Brooklyn","borough":"Brooklyn","state":"NY","postcode":"11207","details":"This center provides an array of career services for area residents, including specially designed workshops to serve out-of-school, out-of-work youth and individuals formerly acquainted with the criminal justice system. Workforce1 Career Centers are a proud partner of the American Job Center network. Please call 311 to contact this location.","location_type":"Workforce1 Career Center","latitude":"40.675954","longitude":"-73.897776","bin":"3083267","bbl":"3036690001","nta":"East New York                                                              ","councildistrict":"37","censustract":"1198","communityboard":"5"}
,{"name":"Flushing Workforce1 Career Center","hours":"Mon - Fri: 9:00 AM - 5:00 PM","number":"41-17","street":"Main Street","street_address_2":"3rd Floor","city":"Flushing","borough":"Queens","state":"NY","postcode":"11355","details":"Workforce1 Career Centers are a proud partner of the American Job Center network. Please call 311 to contact this location.","location_type":"Workforce1 Career Center","latitude":"40.757822","longitude":"-73.828913","bin":"4114282","bbl":"4050430011","nta":"Flushing                                                                   ","councildistrict":"20","censustract":"853","communityboard":"7"}
,{"name":"Hunts Point Workforce1 Career Center","hours":"Mon - Fri: 9:00 AM - 5:00 PM","number":"1029","street":"East 163rd Street","street_address_2":"3rd Floor","city":"Bronx","borough":"Bronx","state":"NY","postcode":"10459","details":"Dedicated Veteran Specialist available to connect veterans and their spouses to training, jobs, and supportive services to meet your career goals while leveraging your military skills and experiences. Workforce1 Career Centers are a proud partner of the American Job Center network. Please call 311 to contact this location.","location_type":"Workforce1 Career Center","latitude":"40.821245","longitude":"-73.892072","bin":"2005788","bbl":"2027240190","nta":"Hunts Point                                                                ","councildistrict":"17","censustract":"159","communityboard":"2"}
,{"name":"Long Island City Workforce1 Career Center","hours":"Mon - Fri: 9:00 AM - 5:00 PM","number":"38-81","street":"13th Street","city":"Long Island City","borough":"Queens","state":"NY","postcode":"11101","details":"Workforce1 Career Centers are a proud partner of the American Job Center network. Please call 311 to contact this location.","location_type":"Workforce1 Career Center","latitude":"40.755758","longitude":"-73.941707","bin":"4005324","bbl":"4004710696","nta":"Queensbridge-Ravenswood-Long Island City                                   ","councildistrict":"26","censustract":"85","communityboard":"1"}
,{"name":"Midtown Workforce1 Career Center","hours":"Mon - Fri: 9:00 AM - 5:00 PM","number":"1250","street":"Broadway","street_address_2":"Suite 810","city":"New York","borough":"Manhattan","state":"NY","postcode":"10001","details":"Dedicated Veteran Specialist available to connect veterans and their spouses to training, jobs, and supportive services to meet your career goals while leveraging your military skills and experiences. Workforce1 Career Centers are a proud partner of the American Job Center network. Please call 311 to contact this location.","location_type":"Workforce1 Career Center","latitude":"40.747774","longitude":"-73.987874"}
,{"name":"NYC Business Solutions Bronx Center","hours":"Mon - Fri: 9:00 AM - 5:00 PM","number":"400","street":"East Fordham Road","street_address_2":"7th Floor","city":"Bronx","borough":"Bronx","state":"NY","postcode":"10458","details":"Please call 311 to contact this location.","location_type":"NYC Business Solutions Center","latitude":"40.861042","longitude":"-73.891505","bin":"2116415","bbl":"2030337501","nta":"Fordham South                                                              ","councildistrict":"15","censustract":"38302","communityboard":"6"}
,{"name":"NYC Business Solutions Brooklyn Center","hours":"Mon - Fri: 9:00 AM - 5:00 PM","number":"9","street":"Bond Street","street_address_2":"5th Floor","city":"Brooklyn","borough":"Brooklyn","state":"NY","postcode":"11201","details":"Please call 311 to contact this location.","location_type":"NYC Business Solutions Center","latitude":"40.689247","longitude":"-73.982865","bin":"3329441","bbl":"3001600007","nta":"DUMBO-Vinegar Hill-Downtown Brooklyn-Boerum Hill                           ","councildistrict":"33","censustract":"37","communityboard":"2"}
,{"name":"NYC Business Solutions Industrial and Transportation - Bronx","hours":"Call 311 to contact this location for hours.","number":"555","street":"Bergen Avenue","street_address_2":"3rd Floor","city":"Bronx","borough":"Bronx","state":"NY","postcode":"10455","location_type":"NYC Business Solutions Industrial and Transportation","latitude":"40.816138","longitude":"-73.91669","bin":"2097027","bbl":"2022940002","nta":"Melrose South-Mott Haven North                                             ","councildistrict":"17","censustract":"71","communityboard":"1"}
,{"name":"NYC Business Solutions Industrial and Transportation - Brooklyn","hours":"Call 311 to contact this location for hours.","number":"85","street":"South Oxford Street","city":"Brooklyn","borough":"Brooklyn","state":"NY","postcode":"11217","details":"East New York and Flatlands Neighborhoods","location_type":"NYC Business Solutions Industrial and Transportation","latitude":"40.686992","longitude":"-73.973292","bin":"3059350","bbl":"3021180011","nta":"Fort Greene                                                                ","councildistrict":"35","censustract":"181","communityboard":"2"}
,{"name":"NYC Business Solutions Industrial and Transportation - Brooklyn","hours":"Call 311 to contact this location for hours.","number":"2","street":"Kingsland Avenue","city":"Brooklyn","borough":"Brooklyn","state":"NY","postcode":"11211","details":"Greenpoint and Williamsburg Neighborhoods","location_type":"NYC Business Solutions Industrial and Transportation","latitude":"40.7162","longitude":"-73.939776","bin":"3389465","bbl":"3028850010","nta":"East Williamsburg                                                          ","councildistrict":"34","censustract":"449","communityboard":"1"}
,{"name":"NYC Business Solutions Industrial and Transportation - Brooklyn","hours":"Call 311 to contact this location for hours.","number":"241","street":"41st Street","city":"Brooklyn","borough":"Brooklyn","state":"NY","postcode":"11232","details":"Sunset Park and Southwest Brooklyn Neighborhoods","location_type":"NYC Business Solutions Industrial and Transportation","latitude":"40.653522","longitude":"-74.01021","bin":"3010563","bbl":"3007120028","nta":"Sunset Park West                                                           ","councildistrict":"38","censustract":"2","communityboard":"7"}
,{"name":"NYC Business Solutions Industrial and Transportation - Manhattan","hours":"Call 311 to contact this location for hours.","number":"79","street":"John Street","street_address_2":"2nd Floor","city":"New York","borough":"Manhattan","state":"NY","postcode":"10038","location_type":"NYC Business Solutions Industrial and Transportation","latitude":"40.708774","longitude":"-74.006745","bin":"1001186","bbl":"1000770008","nta":"Battery Park City-Lower Manhattan                                          ","councildistrict":"1","censustract":"1502","communityboard":"1"}
,{"name":"NYC Business Solutions Industrial and Transportation - Queens","hours":"Call 311 to contact this location for hours.","number":"96-11","street":"40th Road","city":"Corona","borough":"Queens","state":"NY","postcode":"11368","details":"Maspeth, Ridgewood/SoMA, Steinway, and Woodside Neighborhoods","location_type":"NYC Business Solutions Industrial and Transportation","latitude":"40.748721","longitude":"-73.86847","bin":"4040179","bbl":"4016050011","nta":"North Corona                                                               ","councildistrict":"21","censustract":"375","communityboard":"4"}
,{"name":"NYC Business Solutions Industrial and Transportation - Queens","hours":"Call 311 to contact this location for hours.","number":"27-01","street":"Queens Plaza North","street_address_2":"9th Floor","city":"Long Island City","borough":"Queens","state":"NY","postcode":"11101","details":"Long Island City Neighborhood","location_type":"NYC Business Solutions Industrial and Transportation","latitude":"40.750808","longitude":"-73.938615","bin":"4005016","bbl":"4004160010","nta":"Queensbridge-Ravenswood-Long Island City                                   ","councildistrict":"26","censustract":"33","communityboard":"1"}
,{"name":"NYC Business Solutions Industrial and Transportation - Queens","hours":"Call 311 to contact this location for hours.","number":"90-04","street":"161st Street","city":"Jamaica","borough":"Queens","state":"NY","postcode":"11432","details":"Jamaica and JFK Neighborhoods","location_type":"NYC Business Solutions Industrial and Transportation","latitude":"40.705199","longitude":"-73.799278","bin":"4208850","bbl":"4097570023","nta":"Jamaica                                                                    ","councildistrict":"24","censustract":"44601","communityboard":"12"}
,{"name":"NYC Business Solutions Industrial and Transportation - Staten Island","hours":"Call 311 to contact this location for hours.","number":"900","street":"South Avenue","street_address_2":"Suite 402","city":"Staten Island","borough":"Staten Island","state":"NY","postcode":"10314","location_type":"NYC Business Solutions Industrial and Transportation","latitude":"40.61431","longitude":"-74.173997","bin":"5113281","bbl":"5017250085","nta":"New Springville-Bloomfield-Travis                                          ","councildistrict":"50","censustract":"29102","communityboard":"2"}
,{"name":"NYC Business Solutions Lower Manhattan Center","hours":"Mon - Fri: 9:00 AM - 5:00 PM","number":"79","street":"John Street","street_address_2":"2nd Floor","city":"New York","borough":"Manhattan","state":"NY","postcode":"10038","details":"Please call 311 to contact this location.","location_type":"NYC Business Solutions Center","latitude":"40.708774","longitude":"-74.006745","bin":"1001186","bbl":"1000770008","nta":"Battery Park City-Lower Manhattan                                          ","councildistrict":"1","censustract":"1502","communityboard":"1"}
,{"name":"NYC Business Solutions Queens Center at the NYC Small Business Support Center","hours":"Mon - Fri: 9:00 AM - 5:00 PM","number":"90-27","street":"Sutphin Boulevard","street_address_2":"4th Floor","city":"Jamaica","borough":"Queens","state":"NY","postcode":"11435","details":"The NYC Small Business Support Center offers services from Department of Consumer Affairs (DCA), Department of Health and Mental Hygiene (DOHMH), and Small Business Services (SBS) at one convenient location. Please call 311 to contact this location.","location_type":"NYC Business Solutions Center","latitude":"40.70246","longitude":"-73.807823","bin":"4206784","bbl":"4096770007","nta":"Jamaica                                                                    ","councildistrict":"24","censustract":"240","communityboard":"12"}
,{"name":"NYC Business Solutions Staten Island Center","hours":"Mon - Fri: 9:00 AM - 5:00 PM","number":"120","street":"Stuyvesant Place","street_address_2":"3rd Floor","city":"Staten Island","borough":"Staten Island","state":"NY","postcode":"10301","details":"Please call 311 to contact this location.","location_type":"NYC Business Solutions Center","latitude":"40.643277","longitude":"-74.077667","bin":"5000084","bbl":"5000080060","nta":"West New Brighton-New Brighton-St. George                                  ","councildistrict":"49","censustract":"3","communityboard":"1"}
,{"name":"NYC Business Solutions Upper Manhattan Center","hours":"Mon - Fri: 9:00 AM - 5:00 PM","number":"361","street":"John Street","street_address_2":"2nd Floor","city":"New York","borough":"Manhattan","state":"NY","postcode":"10027","details":"Please call 311 to contact this location.","location_type":"NYC Business Solutions Center","latitude":"40.811232","longitude":"-73.952976"}
,{"name":"NYC Business Solutions Washington Heights Center","hours":"Mon - Fri: 9:00 AM - 5:00 PM","number":"560","street":"West 181st Street","street_address_2":"2nd Floor","city":"New York","borough":"Manhattan","state":"NY","postcode":"10033","details":"Please call 311 to contact this location.","location_type":"NYC Business Solutions Center","latitude":"40.848514","longitude":"-73.933392","bin":"1081875","bbl":"1021530081","nta":"Washington Heights North                                                   ","councildistrict":"10","censustract":"269","communityboard":"12"}
,{"name":"NYS Department of Labor Flushing Workforce1 Career Center","hours":"Mon - Fri: 8:30 AM - 5:00 PM","number":"138-60","street":"Barclay Avenue","street_address_2":"2nd Floor","city":"Flushing","borough":"Queens","state":"NY","postcode":"11355","details":"Workforce1 Career Centers are a proud partner of the American Job Center network. Please call 311 to contact this location.","location_type":"Workforce1 Career Center","latitude":"40.758018","longitude":"-73.825855","bin":"4114294","bbl":"4050457501","nta":"Flushing                                                                   ","councildistrict":"20","censustract":"853","communityboard":"7"}
,{"name":"NYS Department of Labor Lower Manhattan Workforce1 Career Center","hours":"Mon - Fri: 8:30 AM - 4:30 PM","number":"75","street":"Varick Street","street_address_2":"2nd Floor","city":"New York","borough":"Manhattan","state":"NY","postcode":"10013","details":"Workforce1 Career Centers are a proud partner of the American Job Center network. Please call 311 to contact this location.","location_type":"Workforce1 Career Center","latitude":"40.723439","longitude":"-74.006819","bin":"1002934","bbl":"1002260001","nta":"SoHo-TriBeCa-Civic Center-Little Italy                                     ","councildistrict":"1","censustract":"37","communityboard":"2"}
,{"name":"NYS Department of Labor MetroTech Workforce1 Career Center","hours":"Mon - Fri: 8:00 AM - 4:30 PM","number":"250","street":"Schermerhorn Street","city":"Brooklyn","borough":"Brooklyn","state":"NY","postcode":"11201","details":"Workforce1 Career Centers are a proud partner of the American Job Center network. Please call 311 to contact this location.","location_type":"Workforce1 Career Center","latitude":"40.68813","longitude":"-73.984477","bin":"3000542","bbl":"3001710026","nta":"DUMBO-Vinegar Hill-Downtown Brooklyn-Boerum Hill                           ","councildistrict":"33","censustract":"41","communityboard":"2"}
,{"name":"Queens Workforce1 Career Center","hours":"Mon - Fri: 9:00 AM - 5:00 PM","number":"168-25","street":"Jamaica Avenue","street_address_2":"2nd Floor","city":"Jamaica","borough":"Queens","state":"NY","postcode":"11432","details":"Dedicated Veteran Specialist available to connect veterans and their spouses to training, jobs, and supportive services to meet your career goals while leveraging your military skills and experiences. Workforce1 Career Centers are a proud partner of the American Job Center network. Please call 311 to contact this location.","location_type":"Workforce1 Career Center","latitude":"40.707139","longitude":"-73.791644","bin":"4209641","bbl":"4097990001","nta":"Jamaica                                                                    ","councildistrict":"27","censustract":"460","communityboard":"12"}
,{"name":"Rockaway Workforce1 Career Center","hours":"Mon - Fri: 8:30 AM - 5:00 PM","number":"57-17","street":"Shore Front Parkway","city":"Arverne","borough":"Queens","state":"NY","postcode":"11692","details":"Workforce1 Career Centers are a proud partner of the American Job Center network. Please call 311 to contact this location.","location_type":"Workforce1 Career Center","latitude":"40.590668","longitude":"-73.78751"}
,{"name":"Sandy Recovery Workforce1 Career Center","hours":"Mon - Fri: 9:00 AM - 5:00 PM","number":"1906","street":"Mermaid Avenue","street_address_2":"2nd Floor","city":"Brooklyn","borough":"Brooklyn","state":"NY","postcode":"11224","details":"The center connects Sandy-affected residents to recovery- and resiliency-related career opportunities and job training. Workforce1 Career Centers are a proud partner of the American Job Center network. Please call 311 to contact this location.","location_type":"Workforce1 Career Center","latitude":"40.576239","longitude":"-73.98608","bin":"3398528","bbl":"3070600010","nta":"Seagate-Coney Island                                                       ","councildistrict":"47","censustract":"326","communityboard":"13"}
,{"name":"Staten Island South Shore Workforce1 Career Center","hours":"Mon - Fri: 9:00 AM - 5:00 PM","number":"3845","street":"Richmond Avenue","street_address_2":"2nd Floor","city":"Staten Island","borough":"Staten Island","state":"NY","postcode":"10312","details":"The center connects Sandy-affected residents to recovery- and resiliency-related career opportunities and job training. Workforce1 Career Centers are a proud partner of the American Job Center network. Please call 311 to contact this location.","location_type":"Workforce1 Career Center","latitude":"40.544112","longitude":"-74.164751","bin":"5073200","bbl":"5054970150","nta":"Great Kills                                                                ","councildistrict":"51","censustract":"14604","communityboard":"3"}
,{"name":"Staten Island Workforce1 Career Center","hours":"Mon - Fri: 8:30 AM - 5:00 PM","number":"120","street":"Stuyvesant Place","street_address_2":"3rd Floor","city":"Staten Island","borough":"Staten Island","state":"NY","postcode":"10301","details":"Dedicated Veteran Specialist available to connect veterans and their spouses to training, jobs, and supportive services to meet your career goals while leveraging your military skills and experiences. Workforce1 Career Centers are a proud partner of the American Job Center network. Please call 311 to contact this location.","location_type":"Workforce1 Career Center","latitude":"40.643277","longitude":"-74.077667","bin":"5000084","bbl":"5000080060","nta":"West New Brighton-New Brighton-St. George                                  ","councildistrict":"49","censustract":"3","communityboard":"1"}
,{"name":"Staten Island Workforce1 Industrial & Transportation Career Center","hours":"Mon - Fri: 8:30 AM - 5:00 PM","number":"1972","street":"Richmond Terrace","city":"Staten Island","borough":"Staten Island","state":"NY","postcode":"10302","details":"The center offers comprehensive career services and connections to high-quality employment in the industrial and manufacturing sectors. Workforce1 Career Centers are a proud partner of the American Job Center network. Please call 311 to contact this location.","location_type":"Workforce1 Career Center","latitude":"40.638918","longitude":"-74.129555","bin":"5167185","bbl":"5010060062","nta":"Port Richmond                                                              ","councildistrict":"49","censustract":"207","communityboard":"1"}
,{"name":"Upper Manhattan Workforce1 Career Center","hours":"Mon - Tue: 8:30 AM - 5:00 PM; Wed: 8:30 AM - 8:00 PM; Thu - Fri: 8:30 AM - 5:00 PM","number":"215","street":"West 125th Street","street_address_2":"6th Floor","city":"New York","borough":"Manhattan","state":"NY","postcode":"10027","details":"Dedicated Veteran Specialist available to connect veterans and their spouses to training, jobs, and supportive services to meet your career goals while leveraging your military skills and experiences. Workforce1 Career Centers are a proud partner of the American Job Center network. Please call 311 to contact this location.","location_type":"Workforce1 Career Center","latitude":"40.809693","longitude":"-73.948939","bin":"1058659","bbl":"1019310021","nta":"Central Harlem South                                                       ","councildistrict":"9","censustract":"222","communityboard":"10"}
,{"name":"Washington Heights Workforce1 Career Center","hours":"Mon - Fri: 8:30 AM - 5:00 PM","number":"516","street":"West 181st Street","street_address_2":"5th Floor","city":"New York","borough":"Manhattan","state":"NY","postcode":"10033","details":"The center offers Global Talent Pipeline services, which support connections to employment and training for foreign-born New Yorkers. Workforce1 Career Centers are a proud partner of the American Job Center network. Please call 311 to contact this location.","location_type":"Workforce1 Career Center","latitude":"40.848357","longitude":"-73.932207","bin":"1063614","bbl":"1021520067","nta":"Washington Heights North                                                   ","councildistrict":"10","censustract":"269","communityboard":"12"}
,{"name":"West Farms Workforce1 Career Center","hours":"Mon - Fri: 8:30 AM - 5:00 PM","number":"901","street":"East Tremont Avenue","street_address_2":"2nd Floor","city":"Bronx","borough":"Bronx","state":"NY","postcode":"10460","details":"The center offers services for youth, ages 18-24, who seek to obtain a High School Equivalency Diploma while preparing for careers. Workforce1 Career Centers are a proud partner of the American Job Center network. Please call 311 to contact this location.","location_type":"Workforce1 Career Center","latitude":"40.842429","longitude":"-73.884361","bin":"2113796","bbl":"2031210033","nta":"East Tremont                                                               ","councildistrict":"17","censustract":"363","communityboard":"6"}
,{"name":"Workforce1 Healthcare Career Center","hours":"Mon - Fri: 9:00 AM - 5:00 PM","number":"79","street":"John Street","street_address_2":"2nd Floor","city":"New York","borough":"Manhattan","state":"NY","postcode":"10038","details":"Workforce1 Career Centers are a proud partner of the American Job Center network. Please call 311 to contact this location.","location_type":"Workforce1 Career Center","latitude":"40.708774","longitude":"-74.006745","bin":"1001186","bbl":"1000770008","nta":"Battery Park City-Lower Manhattan                                          ","councildistrict":"1","censustract":"1502","communityboard":"1"}
,{"name":"Workforce1 Industrial & Transportation Career Center","hours":"Mon - Fri: 8:30 AM - 5:00 PM","number":"168-46","street":"91 Avenue","street_address_2":"2nd Floor","city":"Jamaica","borough":"Queens","state":"NY","postcode":"11432","details":"The center offers comprehensive career services and connections to high-quality employment in the industrial and manufacturing sectors. Dedicated Veteran Specialist available to connect veterans and their spouses to training, jobs, and supportive services to meet your career goals while leveraging your military skills and experiences. Workforce1 Career Centers are a proud partner of the American Job Center network. Please call 311 to contact this location.","location_type":"Workforce1 Career Center","latitude":"40.707139","longitude":"-73.791644","bin":"4209641","bbl":"4097990001","nta":"Jamaica                                                                    ","councildistrict":"27","censustract":"460","communityboard":"12"}]
