uid,name,cat_L1,cat_L2,province,city,area,address,street_id,detail,child_num,loc_lng,loc_lat,telephone,type,detail_url,price,shop_hours,overall_rating,taste_rating,service_rating,environment_rating,facility_rating,hygiene_rating,technology_rating,image_num,comment_num,groupon_num,discount_num,favorite_num,checkin_num,brand,content_tag,naviloc_lng,naviloc_lat,child_num
2e0741ad35ce919514b54bf9,湾旦小学,教育培训,小学,浙江省,温州市,苍南县,灵内线北50米,,1,0,120.382205,27.555208,,education,http://api.map.baidu.com/place/detail?uid=2e0741ad35ce919514b54bf9&output=html&source=placeapi_v2,,,0.0,,,,,,,,,,,,,,,120.38208921104,27.554959533417,0
21eaff675500dc71f6c59c93,站前小学,教育培训,小学,浙江省,温州市,苍南县,浙江省温州市苍南县灵溪镇站前区新桥路莲花寺路旁,21eaff675500dc71f6c59c93,1,0,120.429746,27.537017,,education,http://api.map.baidu.com/place/detail?uid=21eaff675500dc71f6c59c93&output=html&source=placeapi_v2,,,0.0,,,,,,,,,,,,,,,120.42905985624,27.537621549405,0
7d5f3a0a64227c352cb9083c,沪山辅导小学,教育培训,小学,浙江省,温州市,苍南县,浙江省温州市苍南县龙庆北路108号,,1,0,120.433329,27.55309,,education,http://api.map.baidu.com/place/detail?uid=7d5f3a0a64227c352cb9083c&output=html&source=placeapi_v2,,,3.0,,,,,,,,2,,,,,,,120.43289179938,27.55304662757,0
1eeed54663aed8f1b5147f48,畔小学,教育培训,小学,浙江省,温州市,苍南县,浙江省温州市苍南县龙庆北路51号,,1,0,120.423969,27.554838,,education,http://api.map.baidu.com/place/detail?uid=1eeed54663aed8f1b5147f48&output=html&source=placeapi_v2,,,0.0,,,,,,,,0,,,,,,,120.42376069275,27.554841501058,0
d5bef7e06b7899a1343a714d,灵江镇余桥小学,教育培训,小学,浙江省,温州市,苍南县,浙江省温州市苍南县上灵线东50米,,1,0,120.469668,27.543756,,education,http://api.map.baidu.com/place/detail?uid=d5bef7e06b7899a1343a714d&output=html&source=placeapi_v2,,,0.0,,,,,,,,,,,,,,,120.46949747581,27.543650702002,0
7524cb4fa69a014904026fc3,浦山小学,教育培训,小学,浙江省,温州市,苍南县,浙江省温州市苍南县海峡大道,,1,0,120.483569,27.542168,,education,http://api.map.baidu.com/place/detail?uid=7524cb4fa69a014904026fc3&output=html&source=placeapi_v2,,,0.0,,,,,,,,0,,,,,,,120.48356704033,27.54218514729,0
8f383e4abfdbc5aeacee7a1f,龙港市江山辅导小学,教育培训,小学,浙江省,温州市,龙港市,温州市龙港市振兴北路35号,,1,0,120.524527,27.544222,,education,http://api.map.baidu.com/place/detail?uid=8f383e4abfdbc5aeacee7a1f&output=html&source=placeapi_v2,,,5,,,,,,,,2,,,,,,,120.52454308087,27.54344536423,0
d219bb1d1fb28a88f50e7748,双灵小学,教育培训,小学,浙江省,温州市,龙港市,浙江省温州市龙港市林头村云湖线,,1,0,120.501177,27.540689,(0577)64350634,education,http://api.map.baidu.com/place/detail?uid=d219bb1d1fb28a88f50e7748&output=html&source=placeapi_v2,,,0.0,,,,,,,,0,,,,,,,120.50186310712,27.540192805147,0
cf0f0e86e0a343ad8e77279c,凤江小学,教育培训,小学,浙江省,温州市,龙港市,浙江省温州市龙港市江宅路6-1号,,1,0,120.510246,27.555217,,education,http://api.map.baidu.com/place/detail?uid=cf0f0e86e0a343ad8e77279c&output=html&source=placeapi_v2,,,3.0,,,,,,,,1,,,,,,,120.51064277507,27.555730352642,0
095429cfaa3eae3688f15def,龙港市平等小学,教育培训,小学,浙江省,温州市,龙港市,浙江省温州市龙港市平等片区张东村500号,,1,0,120.56402,27.543379,(0577)64360508,education,http://api.map.baidu.com/place/detail?uid=095429cfaa3eae3688f15def&output=html&source=placeapi_v2,,,0.0,,,,,,,,,,,,,,,120.56455758507,27.543775971104,0
6f22631c6484a94a38221ca0,宜山镇第二小学,教育培训,小学,浙江省,温州市,苍南县,浙江省温州市苍南县东风街79号,,1,0,120.553049,27.524275,(0577)64381176,education,http://api.map.baidu.com/place/detail?uid=6f22631c6484a94a38221ca0&output=html&source=placeapi_v2,,,,,,,,,,,,,,,,,,120.5532115005,27.523569899516,0
5baf22b7d8c78620a1a934fe,苍南第二实验小学,教育培训,小学,浙江省,温州市,苍南县,浙江省温州市苍南县东风街79号,,1,0,120.546561,27.523894,(0577)64381177,education,http://api.map.baidu.com/place/detail?uid=5baf22b7d8c78620a1a934fe&output=html&source=placeapi_v2,,,,,,,,,,,,,,,,,,120.54565550072,27.523222885555,0
5a2ea8ec152672632fb908da,梧桥小学,教育培训,小学,浙江省,温州市,龙港市,温州市龙港市梧桥村247号,,1,0,120.547473,27.5476,,education,http://api.map.baidu.com/place/detail?uid=5a2ea8ec152672632fb908da&output=html&source=placeapi_v2,,,0.0,,,,,,,,0,,,,,,,,,0
606289fd5489f84ea30464b4,龙港市徐家庄小学,教育培训,小学,浙江省,温州市,龙港市,浙江省温州市龙港市埭金线,,1,0,120.554625,27.556237,,education,http://api.map.baidu.com/place/detail?uid=606289fd5489f84ea30464b4&output=html&source=placeapi_v2,,,0.0,,,,,,,,0,,,,,,,120.55478347855,27.556105863613,0
df2032d17e3c12d28415411a,龙港第十二小学,教育培训,小学,浙江省,温州市,龙港市,浙江省温州市龙港市埭金线东,,1,0,120.55551,27.551177,,education,http://api.map.baidu.com/place/detail?uid=df2032d17e3c12d28415411a&output=html&source=placeapi_v2,,,0.0,,,,,,,,,,,,,,,120.55573828388,27.550638082128,0
8d509c94da92a08288fc06d8,龙港市海城小学,教育培训,小学,浙江省,温州市,龙港市,浙江省温州市龙港市朝北处村205号,,1,0,120.595811,27.529552,,education,http://api.map.baidu.com/place/detail?uid=8d509c94da92a08288fc06d8&output=html&source=placeapi_v2,,,5,,,,,,,,2,,,,,,,120.59574350589,27.530364732143,0
1bf85b259e1403a7a1a9344c,闹村中心小学,教育培训,小学,浙江省,温州市,平阳县,温州市平阳县府前街南雁荡山国家重点风景名胜区,1bf85b259e1403a7a1a9344c,1,0,120.309069,27.569266,,education,http://api.map.baidu.com/place/detail?uid=1bf85b259e1403a7a1a9344c&output=html&source=placeapi_v2,,,0.0,,,,,,,,,,,,,,,120.30896098198,27.568736976407,0
a26ea1da89c987352efaa737,朝阳中心小学,教育培训,小学,浙江省,温州市,平阳县,浙江省温州市平阳县水头镇灵内线朝阳中心学校,a26ea1da89c987352efaa737,1,0,120.358946,27.573981,,education,http://api.map.baidu.com/place/detail?uid=a26ea1da89c987352efaa737&output=html&source=placeapi_v2,,,0.0,,,,,,,,0,,,,,,,,,0
5b25f446604a56e91029354c,朝阳乡中心学校,教育培训,小学,浙江省,温州市,平阳县,浙江省温州市平阳县水头镇灵内线朝阳中心学校,5b25f446604a56e91029354c,1,0,120.358934,27.57378,,education,http://api.map.baidu.com/place/detail?uid=5b25f446604a56e91029354c&output=html&source=placeapi_v2,,,0.0,,,,,,,,0,,,,,,,120.35918464924,27.573733943674,0
91c13f931240268421f01705,平阳县萧江镇第五小学,教育培训,小学,浙江省,温州市,平阳县,浙江省温州市平阳县夏桥教堂对面,,1,0,120.444848,27.571608,,education,http://api.map.baidu.com/place/detail?uid=91c13f931240268421f01705&output=html&source=placeapi_v2,,,0.0,,,,,,,,0,,,,,,,120.44536154916,27.57188821606,0
51f3c05094ab7779d2f49e54,台溪小学,教育培训,小学,浙江省,温州市,苍南县,浙江省温州市苍南县龙庆北路,,1,0,120.419941,27.570328,,education,http://api.map.baidu.com/place/detail?uid=51f3c05094ab7779d2f49e54&output=html&source=placeapi_v2,,,0.0,,,,,,,,0,,,,,,,120.419937032,27.570431925325,0
08f1f1f5e993f6c988db7348,平阳县萧江镇第三小学,教育培训,小学,浙江省,温州市,平阳县,浙江省温州市平阳县大同南路46号,,1,0,120.475668,27.573193,,education,http://api.map.baidu.com/place/detail?uid=08f1f1f5e993f6c988db7348&output=html&source=placeapi_v2,,,0,,,,,,,,2,,,,,,,120.47539232725,27.574015458593,0
cac5fc765472c1f02cb96d48,平阳县萧江镇第二小学,教育培训,小学,浙江省,温州市,平阳县,浙江省温州市平阳县萧振路172号,,1,0,120.476359,27.579253,,education,http://api.map.baidu.com/place/detail?uid=cac5fc765472c1f02cb96d48&output=html&source=placeapi_v2,,,0,,,,,,,,2,,,,,,,120.47695509227,27.580103646359,0
f1f5cac5de207f9b36b06c48,平阳县萧江镇第四小学,教育培训,小学,浙江省,温州市,平阳县,浙江省温州市平阳县国道南路508号,,1,1,120.460019,27.563635,,education,http://api.map.baidu.com/place/detail?uid=f1f5cac5de207f9b36b06c48&output=html&source=placeapi_v2,,,5,,,,,,,,3,,,,,,,120.46067595761,27.562948531915,1
d43e5c465dabd85288fc06f7,萧江镇第一小学,教育培训,小学,浙江省,温州市,平阳县,温州市平阳县建兴路与上市步行街交叉路口往东约210米,,1,0,120.484532,27.57111,,education,http://api.map.baidu.com/place/detail?uid=d43e5c465dabd85288fc06f7&output=html&source=placeapi_v2,,,0,,,,,,,,1,,,,,,,120.48436975805,27.570817123932,0
5b25f446604256e910293544,龙港市湖前小学,教育培训,小学,浙江省,温州市,龙港市,浙江省温州市龙港市文昌街50号,5b25f446604256e910293544,1,0,120.527478,27.572174,,education,http://api.map.baidu.com/place/detail?uid=5b25f446604256e910293544&output=html&source=placeapi_v2,,,2,,,,,,,,1,,,,,,,120.52750972943,27.571731077508,0
e3a7fd1391a4145128b97c48,朱家站小学,教育培训,小学,浙江省,温州市,龙港市,浙江省温州市龙港市朱家站村,,1,0,120.505669,27.572444,,education,http://api.map.baidu.com/place/detail?uid=e3a7fd1391a4145128b97c48&output=html&source=placeapi_v2,,,5.0,,,,,,,,1,,,,,,,120.5061480253,27.571801130959,0
bf29b70277a2519a09b93a44,龙港市第九小学,教育培训,小学,浙江省,温州市,龙港市,浙江省温州市龙港市斗门村,bf29b70277a2519a09b93a44,1,1,120.523891,27.58494,(0577)64226290,education,http://api.map.baidu.com/place/detail?uid=bf29b70277a2519a09b93a44&output=html&source=placeapi_v2,,,0,,,,,,,,0,,,,,,,120.52434769762,27.584347289278,1
5c56edd62abb0659a1d23044,钱仓镇中心学校,教育培训,小学,浙江省,温州市,平阳县,浙江省温州市平阳县环城南路91号,,1,0,120.516427,27.587279,,education,http://api.map.baidu.com/place/detail?uid=5c56edd62abb0659a1d23044&output=html&source=placeapi_v2,,,0.0,,,,,,,,0,,,,,,,120.51626110921,27.587737539882,0
67a15b9015bf362217b54b74,龙港市第十一小学,教育培训,小学,浙江省,温州市,龙港市,浙江省温州市龙港市通港路588号,67a15b9015bf362217b54b74,1,0,120.555782,27.57031,,education,http://api.map.baidu.com/place/detail?uid=67a15b9015bf362217b54b74&output=html&source=placeapi_v2,,,0.0,,,,,,,,,,,,,,,120.55612071499,27.570627463931,0
6113ef7706f59e6a8e7727e1,龙港市第八小学,教育培训,小学,浙江省,温州市,龙港市,浙江省温州市龙港市塘洪路48号,6113ef7706f59e6a8e7727e1,1,1,120.555771,27.574857,,education,http://api.map.baidu.com/place/detail?uid=6113ef7706f59e6a8e7727e1&output=html&source=placeapi_v2,,,5.0,,,,,,,,3,,,,,,,120.55584967826,27.573990894127,1
35debf29da581147a6da3944,龙港市第七小学,教育培训,小学,浙江省,温州市,龙港市,温州市龙港市兴安街88号,35debf29da581147a6da3944,1,2,120.546276,27.582874,(0577)64222840,education,http://api.map.baidu.com/place/detail?uid=35debf29da581147a6da3944&output=html&source=placeapi_v2,,,0,,,,,,,,3,,,,,,,120.54630983095,27.582384611342,2
be1ea5ef428417be14948e15,龙港市第六小学,教育培训,小学,浙江省,温州市,龙港市,浙江省温州市龙港市繁华街29号,be1ea5ef428417be14948e15,1,0,120.575913,27.574619,15258074117,education,http://api.map.baidu.com/place/detail?uid=be1ea5ef428417be14948e15&output=html&source=placeapi_v2,,,4,,,,,,,,3,,,,,,,120.57573874973,27.575100423583,0
80dd06701b8f936b441a32b6,宇骁才俊小学,教育培训,小学,浙江省,温州市,龙港市,浙江省温州市龙港市龙港大厦4楼E2室,80dd06701b8f936b441a32b6,1,0,120.549854,27.587091,,education,http://api.map.baidu.com/place/detail?uid=80dd06701b8f936b441a32b6&output=html&source=placeapi_v2,,,,,,,,,,,,,,,,,,,,0
bcaebff88827a957c9e33c44,龙港市第三小学,教育培训,小学,浙江省,温州市,龙港市,浙江省温州市龙港市育才街98号,bcaebff88827a957c9e33c44,1,2,120.559532,27.58122,,education,http://api.map.baidu.com/place/detail?uid=bcaebff88827a957c9e33c44&output=html&source=placeapi_v2,,,5,,,,,,,,2,,,,,,,120.55998032145,27.580974896942,2
b7021bf8307ffef9f4e73b44,龙港市第二小学,教育培训,小学,浙江省,温州市,龙港市,浙江省温州市龙港市龙翔路1092号,b7021bf8307ffef9f4e73b44,1,0,120.569128,27.577881,(0577)64209973,education,http://api.map.baidu.com/place/detail?uid=b7021bf8307ffef9f4e73b44&output=html&source=placeapi_v2,,,0,,,,,,,,1,,,,,,,120.56876401678,27.578592540328,0
a3e8341c5a84b5964afd3f44,龙港市第五小学,教育培训,小学,浙江省,温州市,龙港市,温州市龙港市人民路314号,a3e8341c5a84b5964afd3f44,1,1,120.554189,27.585557,(0577)64228288,education,http://api.map.baidu.com/place/detail?uid=a3e8341c5a84b5964afd3f44&output=html&source=placeapi_v2,,,4,,,,,,,,4,,,,,,,120.55361617994,27.585476859461,1
12c8663f08c152344f3a59d4,小六小八,教育培训,小学,浙江省,温州市,龙港市,浙江省温州市龙港市沿河北路54号,,1,0,120.55842,27.588638,,education,http://api.map.baidu.com/place/detail?uid=12c8663f08c152344f3a59d4&output=html&source=placeapi_v2,,,,,,,,,,,,,,,,,,120.55850919077,27.588581052192,0
627494049f6cc4282cb908b6,龙港第七小学北门,教育培训,小学,浙江省,温州市,龙港市,温州市龙港市第七小学(西城路南),,1,0,120.546419,27.583042,,education,http://api.map.baidu.com/place/detail?uid=627494049f6cc4282cb908b6&output=html&source=placeapi_v2,,,,,,,,,,,,,,,,,,120.54626839391,27.583482446429,0
606289fd5489f84ea30464b4,龙港市徐家庄小学,教育培训,小学,浙江省,温州市,龙港市,浙江省温州市龙港市埭金线,,1,0,120.554625,27.556237,,education,http://api.map.baidu.com/place/detail?uid=606289fd5489f84ea30464b4&output=html&source=placeapi_v2,,,0.0,,,,,,,,0,,,,,,,120.55478347855,27.556105863613,0
a11e3127269e8f20b15c6a17,龙港市宏程小学,教育培训,小学,浙江省,温州市,龙港市,浙江省温州市龙港市宏程路135号,,1,0,120.539495,27.568435,,education,http://api.map.baidu.com/place/detail?uid=a11e3127269e8f20b15c6a17&output=html&source=placeapi_v2,,,,,,,,,,,,,,,,,,,,0
e96b4420d05b522783288a82,龙港市第一小学,教育培训,小学,浙江省,温州市,龙港市,浙江省温州市龙港市沿河北路86号,e96b4420d05b522783288a82,1,2,120.557432,27.588917,(0577)84206726,education,http://api.map.baidu.com/place/detail?uid=e96b4420d05b522783288a82&output=html&source=placeapi_v2,,,0,,,,,,,,1,,,,,,,120.55806958341,27.588035554654,2
a41101891e929b342ce67bd1,七月工作室五小,教育培训,小学,浙江省,温州市,龙港市,浙江省温州市龙港市泰安路33号,,1,0,120.553613,27.586124,,education,http://api.map.baidu.com/place/detail?uid=a41101891e929b342ce67bd1&output=html&source=placeapi_v2,,,,,,,,,,,,,,,,,,,,0
97dd1a16baad0249d5851f65,涂厂小学,教育培训,小学,浙江省,温州市,龙港市,浙江省温州市龙港市滨海路210~212号8栋,97dd1a16baad0249d5851f65,1,0,120.588213,27.575415,,education,http://api.map.baidu.com/place/detail?uid=97dd1a16baad0249d5851f65&output=html&source=placeapi_v2,,,0.0,,,,,,,,,,,,,,,120.5882005549,27.575831008287,0
04b8276b7b7a4bf2f90cad13,龙港第十三小学,教育培训,小学,浙江省,温州市,龙港市,浙江省温州市龙港市涂厂村滨海路148号上面502室龙港十三小旁,04b8276b7b7a4bf2f90cad13,1,0,120.59148,27.578782,,education,http://api.map.baidu.com/place/detail?uid=04b8276b7b7a4bf2f90cad13&output=html&source=placeapi_v2,,,0.0,,,,,,,,,,,,,,,120.59090186736,27.579215290759,0
4ce10ce63870c8a2441a3241,南雁镇中心小学,教育培训,小学,浙江省,温州市,平阳县,浙江省温州市平阳县南雁新街321-327号,,1,0,120.263552,27.619844,,education,http://api.map.baidu.com/place/detail?uid=4ce10ce63870c8a2441a3241&output=html&source=placeapi_v2,,,0,,,,,,,,1,,,,,,,120.26418045232,27.620409652624,0
fadd9844eaeff2b1c5effbd6,雁山第一泉,教育培训,小学,浙江省,温州市,平阳县,温州市平阳县南雁镇南雁荡山国家级风景名胜区内,,1,0,120.291072,27.601529,,education,http://api.map.baidu.com/place/detail?uid=fadd9844eaeff2b1c5effbd6&output=html&source=placeapi_v2,,,,,,,,,,,,,,,,,,,,0
db391a1b22c1dbd825e0a025,水头镇南湖小学,教育培训,小学,浙江省,温州市,平阳县,浙江省温州市平阳县南湖社区湖滨村灵内线,,1,0,120.35291,27.600255,(0577)63900169,education,http://api.map.baidu.com/place/detail?uid=db391a1b22c1dbd825e0a025&output=html&source=placeapi_v2,,,0,,,,,,,,1,,,,,,,120.35267252808,27.600507061814,0
3ae18a42bd5b3eec40e19200,南湖小学(湖西校区),教育培训,小学,浙江省,温州市,平阳县,浙江省温州市平阳县水头镇南湖乡建峰中学南湖幼儿园,,1,0,120.338384,27.598534,,education,http://api.map.baidu.com/place/detail?uid=3ae18a42bd5b3eec40e19200&output=html&source=placeapi_v2,,,0.0,,,,,,,,,,,,,,,120.33845415206,27.598552279499,0
796ffc372c9ce43d9b005064,渡头小学,教育培训,小学,浙江省,温州市,平阳县,温州市平阳县S57,796ffc372c9ce43d9b005064,1,0,120.386987,27.615094,,education,http://api.map.baidu.com/place/detail?uid=796ffc372c9ce43d9b005064&output=html&source=placeapi_v2,,,0.0,,,,,,,,0,,,,,,,,,0
38e480372daffb4a373a7140,平阳县麻步镇渔塘小学,教育培训,小学,浙江省,温州市,平阳县,浙江省温州市平阳县麻步镇前洋中路19号,38e480372daffb4a373a7140,1,0,120.403138,27.598401,(0577)63518010,education,http://api.map.baidu.com/place/detail?uid=38e480372daffb4a373a7140&output=html&source=placeapi_v2,,,0.0,,,,,,,,,,,,,,,120.40342230324,27.598901717335,0
608f94e4e8369239f9dc85ad,树贤小学,教育培训,小学,浙江省,温州市,平阳县,学前北路17-21号东北方向80米,,1,0,120.428961,27.603887,(0577)63503373,education,http://api.map.baidu.com/place/detail?uid=608f94e4e8369239f9dc85ad&output=html&source=placeapi_v2,,,5.0,,,,,,,,,,,,,,,120.42873234753,27.603755567733,0
7524cb4fce18b93704026f40,麻步镇中心小学,教育培训,小学,浙江省,温州市,平阳县,温州市平阳县学前巷18号,,1,0,120.43105,27.594736,(0577)63511313,education,http://api.map.baidu.com/place/detail?uid=7524cb4fce18b93704026f40&output=html&source=placeapi_v2,,,0.0,,,,,,,,,,,,,,,120.4310022371,27.594571694517,0
803708f1d5abc07a01897240,桃源中心小学,教育培训,小学,浙江省,温州市,平阳县,平阳县长安路与桃园振兴街交叉路口往西南约280米,,1,0,120.461383,27.59182,,education,http://api.map.baidu.com/place/detail?uid=803708f1d5abc07a01897240&output=html&source=placeapi_v2,,,0.0,,,,,,,,0,,,,,,,120.46085932332,27.592410375514,0
b119f9c41dbb014ef7231081,包皮袋复膜套包袋,,,浙江省,温州市,平阳县,温州市平阳县S57桃源中心小学北侧约170米,,1,0,120.461926,27.594028,,life,http://api.map.baidu.com/place/detail?uid=b119f9c41dbb014ef7231081&output=html&source=placeapi_v2,,,,,,,,,,1,,,,,,,,,,0
edd64ce1ed63d2ec3fe2311a,鳌江镇前进小学,教育培训,小学,浙江省,温州市,平阳县,浙江省温州市平阳县方家村286号,,1,0,120.500048,27.60342,(0577)63699286,education,http://api.map.baidu.com/place/detail?uid=edd64ce1ed63d2ec3fe2311a&output=html&source=placeapi_v2,,,0.0,,,,,,,,0,,,,,,,120.50012405234,27.603198469621,0
854ec98a894630b0f03cbabc,鳌江十一小学,教育培训,小学,浙江省,温州市,平阳县,浙江省温州市平阳县塘中路99号,,1,0,120.513543,27.623609,,education,http://api.map.baidu.com/place/detail?uid=854ec98a894630b0f03cbabc&output=html&source=placeapi_v2,,,0.0,,,,,,,,,,,,,,,120.51374186519,27.623418358946,0
3c0ea7c515811a9ffbf0cb7d,鳌江实验小学,教育培训,小学,浙江省,温州市,平阳县,浙江省温州市平阳县育才街82-88号,3c0ea7c515811a9ffbf0cb7d,1,2,120.553604,27.608724,(0577)63638130,education,http://api.map.baidu.com/place/detail?uid=3c0ea7c515811a9ffbf0cb7d&output=html&source=placeapi_v2,,,5,,,,,,,,4,,,,,,,120.55364970111,27.608024590823,2
550fd5f9416fad7a931fc97d,鳌江第一小学,教育培训,小学,浙江省,温州市,平阳县,浙江省温州市平阳县鳌江镇技校街96号后门,550fd5f9416fad7a931fc97d,1,1,120.561623,27.605772,(0577)63628163,education,http://api.map.baidu.com/place/detail?uid=550fd5f9416fad7a931fc97d&output=html&source=placeapi_v2,,,0,,,,,,,,2,,,,,,,120.56186093212,27.605124916478,1
1020060f2632a5a51894c67d,鳌江镇第七小学,教育培训,小学,浙江省,温州市,平阳县,浙江省温州市平阳县曙东路30栋,1020060f2632a5a51894c67d,1,0,120.565476,27.611784,,education,http://api.map.baidu.com/place/detail?uid=1020060f2632a5a51894c67d&output=html&source=placeapi_v2,,,5,,,,,,,,3,,,,,,,120.566244663,27.61194329545,0
f696f3c2be5dfde81b11d57d,鳌江小学,教育培训,小学,浙江省,温州市,平阳县,温州市平阳县吉祥路147号楼上2单元301室,f696f3c2be5dfde81b11d57d,1,2,120.569371,27.598722,(0577)63633215,education,http://api.map.baidu.com/place/detail?uid=f696f3c2be5dfde81b11d57d&output=html&source=placeapi_v2,,,5,,,,,,,,6,,,,,,,120.56886795224,27.599162056976,2
e7d6e8115184c154c27da2a0,鳌江镇第十五小学,教育培训,小学,浙江省,温州市,平阳县,浙江省温州市平阳县五中路19-89号,e7d6e8115184c154c27da2a0,1,1,120.552637,27.600194,,education,http://api.map.baidu.com/place/detail?uid=e7d6e8115184c154c27da2a0&output=html&source=placeapi_v2,,,,,,,,,,,,,,,,,,120.55246989271,27.600722302389,1
12c8663f08c152344f3a59d4,小六小八,教育培训,小学,浙江省,温州市,龙港市,浙江省温州市龙港市沿河北路54号,,1,0,120.55842,27.588638,,education,http://api.map.baidu.com/place/detail?uid=12c8663f08c152344f3a59d4&output=html&source=placeapi_v2,,,,,,,,,,,,,,,,,,120.55850919077,27.588581052192,0
6ee010207f6e54ec52e5c57d,鳌江三小,教育培训,小学,浙江省,温州市,平阳县,温州市平阳县南门街嘉弘花苑西南侧约140米,6ee010207f6e54ec52e5c57d,1,0,120.569209,27.593471,,education,http://api.map.baidu.com/place/detail?uid=6ee010207f6e54ec52e5c57d&output=html&source=placeapi_v2,,,0.0,,,,,,,,0,,,,,,,120.56914533731,27.593531919642,0
b707a000300b6ab0e856fa1b,平阳县鳌江小学西门,教育培训,小学,浙江省,温州市,平阳县,温州市平阳县鳌江环球宾馆南,,1,0,120.567931,27.598604,,education,http://api.map.baidu.com/place/detail?uid=b707a000300b6ab0e856fa1b&output=html&source=placeapi_v2,,,,,,,,,,,,,,,,,,120.56731907861,27.598481541165,0
ce6be967cf7a70ff3913fde4,龙港市第四小学,教育培训,小学,浙江省,温州市,龙港市,浙江省温州市龙港市建新路143~145号,ce6be967cf7a70ff3913fde4,1,2,120.555172,27.593214,,education,http://api.map.baidu.com/place/detail?uid=ce6be967cf7a70ff3913fde4&output=html&source=placeapi_v2,,,3.5,,,,,,,,3,,,,,,,120.55490168837,27.592746372323,2
32401309999b6027b9df8fc7,鳌江第十小学,教育培训,小学,浙江省,温州市,平阳县,温州市平阳县京岚线与垂柳街交叉路口北侧,,1,0,120.537815,27.606836,,education,http://api.map.baidu.com/place/detail?uid=32401309999b6027b9df8fc7&output=html&source=placeapi_v2,,,,,,,,,,,,,,,,,,,,0
4dc9f07fd5a37bf5d0ff2378,平阳县鳌江镇第五小学,教育培训,小学,浙江省,温州市,平阳县,浙江省温州市平阳县垂杨校前路16号,4dc9f07fd5a37bf5d0ff2378,1,1,120.540587,27.603935,,education,http://api.map.baidu.com/place/detail?uid=4dc9f07fd5a37bf5d0ff2378&output=html&source=placeapi_v2,,,0.0,,,,,,,,,,,,,,,120.54056586879,27.603832718583,1
e96b4420d05b522783288a82,龙港市第一小学,教育培训,小学,浙江省,温州市,龙港市,浙江省温州市龙港市沿河北路86号,e96b4420d05b522783288a82,1,2,120.557432,27.588917,(0577)84206726,education,http://api.map.baidu.com/place/detail?uid=e96b4420d05b522783288a82&output=html&source=placeapi_v2,,,0,,,,,,,,1,,,,,,,120.55806958341,27.588035554654,2
68f8f56b133211a1220220e5,祝博士鳌江镇鳌江小学校区,教育培训,小学,浙江省,温州市,平阳县,温州市平阳县东风路鳌江镇人民政府东侧约130米,,1,0,120.567888,27.596982,,education,http://api.map.baidu.com/place/detail?uid=68f8f56b133211a1220220e5&output=html&source=placeapi_v2,,,,,,,,,,,,,,,,,,,,0
4e784f093165d0da3de2314c,滨江小学,教育培训,小学,浙江省,温州市,平阳县,浙江省温州市平阳县敖江镇塘外村一号,,1,0,120.585005,27.595399,(0577)63621111,education,http://api.map.baidu.com/place/detail?uid=4e784f093165d0da3de2314c&output=html&source=placeapi_v2,,,0,,,,,,,,0,,,,,,,120.58502823121,27.595088634985,0
e279075dba142264c16c14f5,鳌江河口小学,教育培训,小学,浙江省,温州市,平阳县,浙江省温州市平阳县鳌江河口小学(林家路东500米),,1,0,120.586859,27.608278,(0577)63666793,education,http://api.map.baidu.com/place/detail?uid=e279075dba142264c16c14f5&output=html&source=placeapi_v2,,,5.0,,,,,,,,1,,,,,,,120.586950605,27.608069996629,0
5e53af1a930aff5c4151c07d,鳌江镇第八小学,教育培训,小学,浙江省,温州市,平阳县,浙江省温州市平阳县鳌江河口小学(林家路东480米),,1,0,120.586798,27.6083,(0577)63666793,education,http://api.map.baidu.com/place/detail?uid=5e53af1a930aff5c4151c07d&output=html&source=placeapi_v2,,,0.0,,,,,,,,,,,,,,,120.58690568973,27.607861922941,0
64de58d26b8098937c29bd24,鳌江第六中小学,教育培训,小学,浙江省,温州市,平阳县,浙江省温州市平阳县鳌江镇墨城中心路54号近,,1,0,120.626429,27.608908,,education,http://api.map.baidu.com/place/detail?uid=64de58d26b8098937c29bd24&output=html&source=placeapi_v2,,,5.0,,,,,,,,1,,,,,,,120.62654078381,27.608030031067,0
f0a0eeac032ab7d23517dc84,东屿小学(占山线),教育培训,小学,浙江省,温州市,平阳县,温州市平阳县安康路与凤雁南路交叉路口往西约90米,,1,0,120.267449,27.643417,,education,http://api.map.baidu.com/place/detail?uid=f0a0eeac032ab7d23517dc84&output=html&source=placeapi_v2,,,0.0,,,,,,,,,,,,,,,,,0
d4034eb34f68e0f5c0364446,山门镇中心小学,教育培训,小学,浙江省,温州市,平阳县,浙江省温州市平阳县山门镇小(中国工农红军挺进师纪念园北),,1,1,120.249787,27.642369,15858033506,education,http://api.map.baidu.com/place/detail?uid=d4034eb34f68e0f5c0364446&output=html&source=placeapi_v2,,,0,,,,,,,,1,,,,,,,120.24986119121,27.642253900499,1
14a1f05854508bf733169b4a,章旦路溪心小学,教育培训,小学,浙江省,温州市,平阳县,浙江省温州市平阳县育才路23号,,1,0,120.319433,27.634073,,education,http://api.map.baidu.com/place/detail?uid=14a1f05854508bf733169b4a&output=html&source=placeapi_v2,,,0.0,,,,,,,,,,,,,,,120.31947570636,27.634140087333,0
f4460918340be769b11e3641,水头镇第五小学,教育培训,小学,浙江省,温州市,平阳县,温州市平阳县水头镇育才路27号,,1,1,120.318075,27.634471,(0577)63851018,education,http://api.map.baidu.com/place/detail?uid=f4460918340be769b11e3641&output=html&source=placeapi_v2,,,0.0,,,,,,,,0,,,,,,,120.31844686628,27.634518901493,1
c305e30706e4a25d35b06ce2,水头镇实验小学,教育培训,小学,浙江省,温州市,平阳县,浙江省温州市平阳县水头镇实验小学(振德东路东),,1,0,120.344477,27.641735,,education,http://api.map.baidu.com/place/detail?uid=c305e30706e4a25d35b06ce2&output=html&source=placeapi_v2,,,3.0,,,,,,,,1,,,,,,,120.34413624073,27.642047017865,0
5c56edd62abc0659a1d23041,平阳县水头镇第一小学,教育培训,小学,浙江省,温州市,平阳县,浙江省温州市平阳县径川中路80号,5c56edd62abc0659a1d23041,1,0,120.337018,27.642865,,education,http://api.map.baidu.com/place/detail?uid=5c56edd62abc0659a1d23041&output=html&source=placeapi_v2,,,0,,,,,,,,1,,,,,,,120.33675354295,27.641916709347,0
b7021bf83078fef9f4e73b41,水头镇第四小学,教育培训,小学,浙江省,温州市,平阳县,浙江省温州市平阳县水头镇第四小学(清溪东路北),b7021bf83078fef9f4e73b41,1,0,120.343173,27.63249,,education,http://api.map.baidu.com/place/detail?uid=b7021bf83078fef9f4e73b41&output=html&source=placeapi_v2,,,0.0,,,,,,,,0,,,,,,,120.34317269758,27.632319115582,0
5b25f446604556e910293541,平阳县水头镇第三小学,教育培训,小学,浙江省,温州市,平阳县,浙江省温州市平阳县育秀路6号,,1,0,120.350546,27.651007,,education,http://api.map.baidu.com/place/detail?uid=5b25f446604556e910293541&output=html&source=placeapi_v2,,,5,,,,,,,,4,,,,,,,120.35032300253,27.650860874137,0
39ea6b0863f21169ecdfca86,平阳县水头镇第七小学,教育培训,小学,浙江省,温州市,平阳县,温州市平阳县平雁东路水头镇晨光幼儿园西侧,,1,0,120.354704,27.645211,,education,http://api.map.baidu.com/place/detail?uid=39ea6b0863f21169ecdfca86&output=html&source=placeapi_v2,,,,,,,,,,,,,,,,,,120.35436134243,27.645156749452,0
2617013c7e93765c33870a5a,水头镇南岙小学,教育培训,小学,浙江省,温州市,平阳县,温州市平阳县建华路与显腾线交叉路口往南约200米,2617013c7e93765c33870a5a,1,0,120.391117,27.645963,,education,http://api.map.baidu.com/place/detail?uid=2617013c7e93765c33870a5a&output=html&source=placeapi_v2,,,0.0,,,,,,,,0,,,,,,,120.39075381773,27.645126868643,0
fc767524eb11dbf94e776e40,梅溪中心小学,教育培训,小学,浙江省,温州市,平阳县,浙江省温州市平阳县梅溪中学东南50米(兴梅北路北),,1,0,120.471347,27.635288,,education,http://api.map.baidu.com/place/detail?uid=fc767524eb11dbf94e776e40&output=html&source=placeapi_v2,,,5,,,,,,,,1,,,,,,,120.47075155971,27.634910392387,0
854ec98a894630b0f03cbabc,鳌江十一小学,教育培训,小学,浙江省,温州市,平阳县,浙江省温州市平阳县塘中路99号,,1,0,120.513543,27.623609,,education,http://api.map.baidu.com/place/detail?uid=854ec98a894630b0f03cbabc&output=html&source=placeapi_v2,,,0.0,,,,,,,,,,,,,,,120.51374186519,27.623418358946,0
a7c56ee06a410cb0a3acc47d,鳌江十三小,教育培训,小学,浙江省,温州市,平阳县,鳌江镇玉莲新村34号,a7c56ee06a410cb0a3acc47d,1,0,120.559819,27.624699,,education,http://api.map.baidu.com/place/detail?uid=a7c56ee06a410cb0a3acc47d&output=html&source=placeapi_v2,,,0.0,,,,,,,,,,,,,,,120.56045059247,27.624730600747,0
c20b7c0b30e95d462afc4846,平阳县鳌江镇第十二小学,教育培训,小学,浙江省,温州市,平阳县,浙江省温州市平阳县务西路31-3号,,1,1,120.571038,27.63283,(0577)63030496,education,http://api.map.baidu.com/place/detail?uid=c20b7c0b30e95d462afc4846&output=html&source=placeapi_v2,,,0.0,,,,,,,,0,,,,,,,120.57153962063,27.632394743904,1
edd64ce169bb56923fe23141,平阳县凤卧镇红军小学,教育培训,小学,浙江省,温州市,平阳县,吴桥中路与红军桥交叉路口往东南约100米,,1,0,120.29154,27.661486,(0577)58181152,education,http://api.map.baidu.com/place/detail?uid=edd64ce169bb56923fe23141&output=html&source=placeapi_v2,,,0.0,,,,,,,,,,,,,,,120.29141707537,27.66221958957,0
b3aa435d898849081576437f,带溪小学,教育培训,小学,浙江省,温州市,平阳县,温州市平阳县联源东路与腾溪新河路交叉路口北侧,,1,0,120.341993,27.678765,,education,http://api.map.baidu.com/place/detail?uid=b3aa435d898849081576437f&output=html&source=placeapi_v2,,,0.0,,,,,,,,,,,,,,,120.34161504212,27.678569413808,0
5c2dc21ddbb8da076fc02c41,凤湾小学,教育培训,小学,浙江省,温州市,平阳县,浙江省温州市平阳县凤湾中路286号,,1,0,120.351721,27.657641,,education,http://api.map.baidu.com/place/detail?uid=5c2dc21ddbb8da076fc02c41&output=html&source=placeapi_v2,,,0.0,,,,,,,,,,,,,,,120.35141193865,27.657660714934,0
c7d7b803b5f648b0e01103f2,平阳县腾蛟镇实验小学,教育培训,小学,浙江省,温州市,平阳县,浙江省温州市平阳县学府路1号,,1,0,120.336051,27.681494,,education,http://api.map.baidu.com/place/detail?uid=c7d7b803b5f648b0e01103f2&output=html&source=placeapi_v2,,,,,,,,,,,,,,,,,,120.3359980761,27.681367492434,0
d146b388e4a36add74026940,水头镇鹤溪中心小学,教育培训,小学,浙江省,温州市,平阳县,温州市平阳县城中路与振兴路交叉路口往东北约170米,,1,0,120.393349,27.664335,,education,http://api.map.baidu.com/place/detail?uid=d146b388e4a36add74026940&output=html&source=placeapi_v2,,,0.0,,,,,,,,0,,,,,,,120.39303736334,27.663835393025,0
bbab2f37bae5d9f7c71e51f7,石牌小学,教育培训,小学,浙江省,温州市,平阳县,温州市平阳县凤中东路与显腾线交叉路口往东南约260米,,1,0,120.37229,27.682897,18551163583,education,http://api.map.baidu.com/place/detail?uid=bbab2f37bae5d9f7c71e51f7&output=html&source=placeapi_v2,,,0.0,,,,,,,,0,,,,,,,120.37210785017,27.68284924435,0
ad62b13531c5445578f7969b,昆阳镇第一小学,教育培训,小学,浙江省,温州市,平阳县,浙江省温州市平阳县城隍路32号,ad62b13531c5445578f7969b,1,1,120.568911,27.6715,(0577)58112025,education,http://api.map.baidu.com/place/detail?uid=ad62b13531c5445578f7969b&output=html&source=placeapi_v2,,,5,,,,,,,,1,,,,,,,120.56920297978,27.670887512731,1
fa12af86e26f8f7388f15dfe,昆阳镇第二小学,教育培训,小学,浙江省,温州市,平阳县,浙江省温州市平阳县校前路2号,fa12af86e26f8f7388f15dfe,1,2,120.572195,27.677944,(0577)63710765,education,http://api.map.baidu.com/place/detail?uid=fa12af86e26f8f7388f15dfe&output=html&source=placeapi_v2,,,0,,,,,,,,2,,,,,,,120.57237904131,27.677089944707,2
24d0550803f070d212882423,昆阳三小,教育培训,小学,浙江省,温州市,平阳县,浙江省温州市平阳县西马路166号,24d0550803f070d212882423,1,1,120.564023,27.666297,,education,http://api.map.baidu.com/place/detail?uid=24d0550803f070d212882423&output=html&source=placeapi_v2,,,0.0,,,,,,,,,,,,,,,120.56438425972,27.665875857411,1
93cb2e6a544f613a15a190e0,昆阳实验小学,教育培训,小学,浙江省,温州市,平阳县,浙江省温州市平阳县置信・汇金名豪北70米(公园路南),93cb2e6a544f613a15a190e0,1,1,120.560036,27.679813,,education,http://api.map.baidu.com/place/detail?uid=93cb2e6a544f613a15a190e0&output=html&source=placeapi_v2,,,5,,,,,,,,1,,,,,,,120.56037853219,27.680553939519,1
f667ea65fee0ff07f90cad3b,平阳县昆阳镇城北小高层,教育培训,小学,浙江省,温州市,平阳县,温州市平阳县G104昆阳实验小学西南侧约30米,,1,0,120.559253,27.67872,,education,http://api.map.baidu.com/place/detail?uid=f667ea65fee0ff07f90cad3b&output=html&source=placeapi_v2,,,,,,,,,,,,,,,,,,,,0
d948d9f048aa212957bfff94,古早小叶曲,教育培训,小学,浙江省,温州市,平阳县,温州市平阳县雅河路平阳大厦北侧约30米,d948d9f048aa212957bfff94,1,0,120.570419,27.671135,,education,http://api.map.baidu.com/place/detail?uid=d948d9f048aa212957bfff94&output=html&source=placeapi_v2,,,,,,,,,,,,,,,,,,120.57049531712,27.6710808825,0
14076dee1c6c22f702294f79,宋埠镇小学,教育培训,小学,浙江省,温州市,平阳县,温州市平阳县宋埠小区聚乐北路28号,14076dee1c6c22f702294f79,1,0,120.649545,27.678486,,education,http://api.map.baidu.com/place/detail?uid=14076dee1c6c22f702294f79&output=html&source=placeapi_v2,,,0,,,,,,,,1,,,,,,,120.64894512239,27.678560284769,0
a5ef680f8c8a67aab9df8f17,蔡中心小学,教育培训,小学,浙江省,温州市,平阳县,浙江省温州市平阳县平鹤线,a5ef680f8c8a67aab9df8f17,1,0,120.398101,27.693908,,education,http://api.map.baidu.com/place/detail?uid=a5ef680f8c8a67aab9df8f17&output=html&source=placeapi_v2,,,0.0,,,,,,,,,,,,,,,120.39786663759,27.69387542529,0
c87fabcfa1742439b45f1e8e,马屿镇大南小学,教育培训,小学,浙江省,温州市,瑞安市,浙江省温州市瑞安市许峰路31号,c87fabcfa1742439b45f1e8e,1,0,120.422147,27.720153,,education,http://api.map.baidu.com/place/detail?uid=c87fabcfa1742439b45f1e8e&output=html&source=placeapi_v2,,,0.0,,,,,,,,,,,,,,,,,0
9ee392b815b1d542bbbd637f,曹村镇中心小学,教育培训,小学,浙江省,温州市,瑞安市,温州市瑞安市曹村镇叔远东路32号,9ee392b815b1d542bbbd637f,1,1,120.469205,27.717006,15057756069,education,http://api.map.baidu.com/place/detail?uid=9ee392b815b1d542bbbd637f&output=html&source=placeapi_v2,,,5,,,,,,,,1,,,,,,,120.46887817899,27.717565614485,1
92b806d2cd9e4cfd79b55c7f,曹村镇第三小学,教育培训,小学,浙江省,温州市,瑞安市,浙江省温州市瑞安市曹村镇三小(钱马线南),92b806d2cd9e4cfd79b55c7f,1,0,120.47021,27.695222,,education,http://api.map.baidu.com/place/detail?uid=92b806d2cd9e4cfd79b55c7f&output=html&source=placeapi_v2,,,0.0,,,,,,,,1,,,,,,,120.47067048135,27.694912178578,0
fb45ccfa875ff278853304b3,西岙小学,教育培训,小学,浙江省,温州市,平阳县,平阳县昆江线,,1,0,120.517476,27.710592,,education,http://api.map.baidu.com/place/detail?uid=fb45ccfa875ff278853304b3&output=html&source=placeapi_v2,,,,,,,,,,,,,,,,,,,,0
606289fd54c7f84ea204647e,昆阳镇第五小学,教育培训,小学,浙江省,温州市,平阳县,浙江省温州市平阳县三大辽63号,606289fd54c7f84ea204647e,1,1,120.567044,27.695278,,education,http://api.map.baidu.com/place/detail?uid=606289fd54c7f84ea204647e&output=html&source=placeapi_v2,,,0.0,,,,,,,,,,,,,,,120.5667656802,27.694474040354,1
28e700f198718a7c095cb316,练川小学,教育培训,小学,浙江省,温州市,平阳县,温州市平阳县三郑线与宋练线交叉路口往西北约100米,,1,0,120.593315,27.698606,,education,http://api.map.baidu.com/place/detail?uid=28e700f198718a7c095cb316&output=html&source=placeapi_v2,,,0.0,,,,,,,,0,,,,,,,120.59334127077,27.698401781822,0
6c6c051944514d5dbca2401b,阁巷中心小学,教育培训,小学,浙江省,温州市,瑞安市,浙江省温州市瑞安市育英路108号,,1,0,120.653178,27.706341,,education,http://api.map.baidu.com/place/detail?uid=6c6c051944514d5dbca2401b&output=html&source=placeapi_v2,,,5,,,,,,,,3,,,,,,,120.65334716434,27.705748233993,0
624b4e3a52b10c78bb17e79d,宋埠镇民族小学,教育培训,小学,浙江省,温州市,平阳县,浙江省温州市平阳县万全镇斗北村学前路26号,,1,0,120.652164,27.697967,,education,http://api.map.baidu.com/place/detail?uid=624b4e3a52b10c78bb17e79d&output=html&source=placeapi_v2,,,0.0,,,,,,,,0,,,,,,,120.65212043295,27.697738105981,0
5933090d51d5e18ad2f49eb2,平阳坑镇小,教育培训,小学,浙江省,温州市,瑞安市,康乐街与永和路交叉口东南150米,5933090d51d5e18ad2f49eb2,1,0,120.378934,27.751138,,education,http://api.map.baidu.com/place/detail?uid=5933090d51d5e18ad2f49eb2&output=html&source=placeapi_v2,,,0.0,,,,,,,,0,,,,,,,120.37870886405,27.751052875093,0
eb852dad83897ec9220220ab,曹村镇第二小学,教育培训,小学,浙江省,温州市,瑞安市,温州市瑞安市富强路与钱马线交叉路口往西北约270米,eb852dad83897ec9220220ab,1,0,120.463083,27.737947,,education,http://api.map.baidu.com/place/detail?uid=eb852dad83897ec9220220ab&output=html&source=placeapi_v2,,,0.0,,,,,,,,0,,,,,,,120.46297546161,27.737622195407,0
d502350ed88eddcb7ab55cce,马屿镇第二小学,教育培训,小学,浙江省,温州市,瑞安市,浙江省温州市瑞安市鹤河北路2号,d502350ed88eddcb7ab55cce,1,0,120.462733,27.75482,,education,http://api.map.baidu.com/place/detail?uid=d502350ed88eddcb7ab55cce&output=html&source=placeapi_v2,,,,,,,,,,,,,,,,,,120.46270741982,27.754655287499,0
3faf9137efb724dd9122e005,马屿街一小,教育培训,小学,浙江省,温州市,瑞安市,温州市瑞安市钱马线马屿镇第二小学,,1,0,120.467001,27.756787,,education,http://api.map.baidu.com/place/detail?uid=3faf9137efb724dd9122e005&output=html&source=placeapi_v2,,,0.0,,,,,,,,0,,,,,,,,,0
00f1c7fb5a377a62c056ac16,万全镇湖岭小学,教育培训,小学,浙江省,温州市,平阳县,浙江省温州市平阳县瑶山村1号,,1,0,120.568908,27.748197,,education,http://api.map.baidu.com/place/detail?uid=00f1c7fb5a377a62c056ac16&output=html&source=placeapi_v2,,,5,,,,,,,,1,,,,,,,120.56892772909,27.747820629795,0
20f8746fd8a9492e3362123c,万全镇宋桥小学,教育培训,小学,浙江省,温州市,平阳县,浙江省温州市平阳县万全镇宋桥村健康路211号,,1,0,120.589756,27.737502,(0577)63775152,education,http://api.map.baidu.com/place/detail?uid=20f8746fd8a9492e3362123c&output=html&source=placeapi_v2,,,0.0,,,,,,,,,,,,,,,120.59030364171,27.737476385944,0
0393cb155bffe5ba25e0a041,宋家埭小学,教育培训,小学,浙江省,温州市,瑞安市,温州市瑞安市民心路瑞安市江南实验学校南侧约130米,,1,0,120.639659,27.742195,,education,http://api.map.baidu.com/place/detail?uid=0393cb155bffe5ba25e0a041&output=html&source=placeapi_v2,,,0.0,,,,,,,,0,,,,,,,120.6394631035,27.742059919194,0
025fade7ba18e26df942b298,瑞安市江南实验小学,教育培训,小学,浙江省,温州市,瑞安市,浙江省温州市瑞安市飞云街道飞林路666号欣炜机械宋家埭,,1,1,120.640198,27.744205,(0577)58901912,education,http://api.map.baidu.com/place/detail?uid=025fade7ba18e26df942b298&output=html&source=placeapi_v2,,,0,,,,,,,,1,,,,,,,120.63914692601,27.744958371046,1
f5125d62f519ab1d94ec84eb,高楼镇中心小学,教育培训,小学,浙江省,温州市,瑞安市,浙江省温州市瑞安市龙湖高楼镇龙腾路西高楼镇,,1,0,120.294753,27.765461,(0577)65747160,education,http://api.map.baidu.com/place/detail?uid=f5125d62f519ab1d94ec84eb&output=html&source=placeapi_v2,,,3.0,,,,,,,,1,,,,,,,120.29542630652,27.765765884088,0
d298e96578e5d3be16a19073,龙湖小学,教育培训,小学,浙江省,温州市,瑞安市,温州市瑞安市龙翔路与学府路交叉路口往西南约110米,,1,0,120.294685,27.766158,,education,http://api.map.baidu.com/place/detail?uid=d298e96578e5d3be16a19073&output=html&source=placeapi_v2,,,,,,,,,,,,,,,,,,,,0
f83c3853c8c33fbf17c8f60c,湾小学,教育培训,小学,浙江省,温州市,瑞安市,温州市瑞安市龙丽温高速寨寮溪风景区,,1,0,120.32245,27.770649,,education,http://api.map.baidu.com/place/detail?uid=f83c3853c8c33fbf17c8f60c&output=html&source=placeapi_v2,,,0.0,,,,,,,,0,,,,,,,120.3227479818,27.77068492926,0
63445fe1222807dee5e965a6,龙湖镇中心学校,教育培训,小学,浙江省,温州市,瑞安市,温州市瑞安市七中路与沿江东路交叉路口往西北约80米,,1,0,120.290794,27.76735,,education,http://api.map.baidu.com/place/detail?uid=63445fe1222807dee5e965a6&output=html&source=placeapi_v2,,,0.0,,,,,,,,0,,,,,,,,,0
25ec69fc74372300c26c14f7,戈溪小学,教育培训,小学,浙江省,温州市,瑞安市,浙江省温州市瑞安市岭龙线寨寮溪风景区,25ec69fc74372300c26c14f7,1,0,120.356802,27.783729,,education,http://api.map.baidu.com/place/detail?uid=25ec69fc74372300c26c14f7&output=html&source=placeapi_v2,,,0.0,,,,,,,,,,,,,,,120.35661549009,27.783710446184,0
5b773dcb1655a00e5abbbce9,瑞安市马屿镇清祥小学,教育培训,小学,浙江省,温州市,瑞安市,浙江省温州市瑞安市S330,,1,0,120.402416,27.7752,(0577)65774325,education,http://api.map.baidu.com/place/detail?uid=5b773dcb1655a00e5abbbce9&output=html&source=placeapi_v2,,,0.0,,,,,,,,,,,,,,,120.40297941975,27.775763726863,0
8451ba31d6377da2eb12e4c4,五仁山村小学,教育培训,小学,浙江省,温州市,瑞安市,浙江省温州市瑞安市平大线,,1,0,120.404215,27.762136,,education,http://api.map.baidu.com/place/detail?uid=8451ba31d6377da2eb12e4c4&output=html&source=placeapi_v2,,,0.0,,,,,,,,0,,,,,,,,,0
c6ab85f6cf7f262ef4e73b26,马屿镇第四小学,教育培训,小学,浙江省,温州市,瑞安市,浙江省温州市瑞安市永祥路194号,c6ab85f6cf7f262ef4e73b26,1,0,120.443778,27.779935,,education,http://api.map.baidu.com/place/detail?uid=c6ab85f6cf7f262ef4e73b26&output=html&source=placeapi_v2,,,1,,,,,,,,1,,,,,,,120.44390307679,27.779985073668,0
100085ea9b32ed3fd42ce258,永丰小学,教育培训,小学,浙江省,温州市,瑞安市,温州市瑞安市永祥路与中强街交叉路口往南约140米,100085ea9b32ed3fd42ce258,1,0,120.443687,27.779782,,education,http://api.map.baidu.com/place/detail?uid=100085ea9b32ed3fd42ce258&output=html&source=placeapi_v2,,,0.0,,,,,,,,0,,,,,,,,,0
c8e701780ff5c3af6240a930,马屿镇中心小学,教育培训,小学,浙江省,温州市,瑞安市,浙江省温州市瑞安市育才街87号,c8e701780ff5c3af6240a930,1,2,120.462996,27.784522,,education,http://api.map.baidu.com/place/detail?uid=c8e701780ff5c3af6240a930&output=html&source=placeapi_v2,,,0.0,,,,,,,,,,,,,,,120.46300677654,27.785400391747,2
3faf9137efb724dd9122e005,马屿街一小,教育培训,小学,浙江省,温州市,瑞安市,温州市瑞安市钱马线马屿镇第二小学,,1,0,120.467001,27.756787,,education,http://api.map.baidu.com/place/detail?uid=3faf9137efb724dd9122e005&output=html&source=placeapi_v2,,,0.0,,,,,,,,0,,,,,,,,,0
5e53af1a17e17b224151c011,江溪小学,教育培训,小学,浙江省,温州市,瑞安市,温州市瑞安市仙降镇灯洋村,,1,0,120.517248,27.77073,(0577)65986699,education,http://api.map.baidu.com/place/detail?uid=5e53af1a17e17b224151c011&output=html&source=placeapi_v2,,,0.0,,,,,,,,,,,,,,,120.5183428397,27.770929248489,0
87ae9d3b82ca0376e115f984,坑小学,教育培训,小学,浙江省,温州市,瑞安市,温州市瑞安市仙降街道办事处(篮球场边),,1,0,120.529364,27.780398,,education,http://api.map.baidu.com/place/detail?uid=87ae9d3b82ca0376e115f984&output=html&source=placeapi_v2,,,0.0,,,,,,,,,,,,,,,,,0
c978f545a1337f2cfbf0cb8a,涨岙小学,教育培训,小学,浙江省,温州市,瑞安市,温州市瑞安市仙岩线与涨岙线交叉路口往东南约230米,,1,0,120.550329,27.776612,,education,http://api.map.baidu.com/place/detail?uid=c978f545a1337f2cfbf0cb8a&output=html&source=placeapi_v2,,,,,,,,,,,,,,,,,,120.55022787577,27.776302543558,0
44f21c472b39ff4ebda240db,双岙小学,教育培训,小学,浙江省,温州市,瑞安市,温州市瑞安市项岙线,,1,0,120.562441,27.779904,,education,http://api.map.baidu.com/place/detail?uid=44f21c472b39ff4ebda240db&output=html&source=placeapi_v2,,,,,,,,,,,,,,,,,,120.56247304198,27.77978011785,0
b388f9fd7c0a8342b35c6a7a,瑞安市仙降镇中心小学,教育培训,小学,浙江省,温州市,瑞安市,浙江省温州市瑞安市仙山路75号,,1,1,120.552635,27.787057,(0577)58816729,education,http://api.map.baidu.com/place/detail?uid=b388f9fd7c0a8342b35c6a7a&output=html&source=placeapi_v2,,,5,,,,,,,,3,,,,,,,120.55348872477,27.787416577768,1
300dca6d4056af7d7bf79655,霞砀小学,教育培训,小学,浙江省,温州市,瑞安市,温州市瑞安市马龙路与铁龙线交叉路口往西约100米,,1,0,120.592693,27.766976,,education,http://api.map.baidu.com/place/detail?uid=300dca6d4056af7d7bf79655&output=html&source=placeapi_v2,,,0.0,,,,,,,,0,,,,,,,120.59274198152,27.767123848968,0
f712394ddafacf0b5f0d02a2,瑞安市虹桥路小学,教育培训,小学,浙江省,温州市,瑞安市,浙江省温州市瑞安市屏星街16号,f712394ddafacf0b5f0d02a2,1,3,120.638379,27.78403,(0577)58818699,education,http://api.map.baidu.com/place/detail?uid=f712394ddafacf0b5f0d02a2&output=html&source=placeapi_v2,,,0,,,,,,,,2,,,,,,,120.63845507536,27.784390565849,3
015f46ce3e039487704b874c,滨江小学,教育培训,小学,浙江省,温州市,瑞安市,浙江省温州市瑞安市华滨路26-2号,015f46ce3e039487704b874c,1,1,120.640113,27.779013,(0577)66600911,education,http://api.map.baidu.com/place/detail?uid=015f46ce3e039487704b874c&output=html&source=placeapi_v2,,,0.0,,,,,,,,,,,,,,,120.64057837854,27.77899237639,1
eef2d528e9891aa43be4a672,瑞安市毓蒙小学,教育培训,小学,浙江省,温州市,瑞安市,浙江省温州市瑞安市玉泉路8号,eef2d528e9891aa43be4a672,1,2,120.654047,27.770901,,education,http://api.map.baidu.com/place/detail?uid=eef2d528e9891aa43be4a672&output=html&source=placeapi_v2,,,0.0,,,,,,,,,,,,,,,120.65458837373,27.771278260362,2
c8b5cdef92af9500130daa72,瑞安市隆山实验小学,教育培训,小学,浙江省,温州市,瑞安市,浙江省温州市瑞安市塘河南路122号,c8b5cdef92af9500130daa72,1,3,120.654885,27.781282,(0577)65816247,education,http://api.map.baidu.com/place/detail?uid=c8b5cdef92af9500130daa72&output=html&source=placeapi_v2,,,0,,,,,,,,2,,,,,,,120.65495239946,27.781730920373,3
3bd50bf38073dca68505bf35,瑞安市解放路小学,教育培训,小学,浙江省,温州市,瑞安市,浙江省温州市瑞安市凤山巷14号,3bd50bf38073dca68505bf35,1,2,120.647582,27.784308,(0577)58809059,education,http://api.map.baidu.com/place/detail?uid=3bd50bf38073dca68505bf35&output=html&source=placeapi_v2,,,5,,,,,,,,3,,,,,,,120.6471636595,27.784253352853,2
ad159b37b08062f0c5effb88,瑞安市玉海中心小学,教育培训,小学,浙江省,温州市,瑞安市,浙江省温州市瑞安市范大桥街28号,ad159b37b08062f0c5effb88,1,0,120.635835,27.784864,(0577)66611015,education,http://api.map.baidu.com/place/detail?uid=ad159b37b08062f0c5effb88&output=html&source=placeapi_v2,,,0,,,,,,,,2,,,,,,,120.63578134717,27.784607455661,0
083a55fae27bdc7a246e9872,瑞安市安阳实验小学,教育培训,小学,浙江省,温州市,瑞安市,浙江省温州市瑞安市安阳街道安阳路700号,083a55fae27bdc7a246e9872,1,2,120.658489,27.771754,(0577)59886580,education,http://api.map.baidu.com/place/detail?uid=083a55fae27bdc7a246e9872&output=html&source=placeapi_v2,,,3.8,,,,,,,,4,,,,,,,120.65940753216,27.771516764351,2
f4a33da9d883c20a3010af72,瑞安市实验小学,教育培训,小学,浙江省,温州市,瑞安市,浙江省温州市瑞安市衙后街25号,f4a33da9d883c20a3010af72,1,2,120.639275,27.786463,(0577)65636866,education,http://api.map.baidu.com/place/detail?uid=f4a33da9d883c20a3010af72&output=html&source=placeapi_v2,,,0,,,,,,,,3,,,,,,,120.63916002241,27.786394097014,2
881a28e7e481cd44f942b272,瑞安市玉海第二小学,教育培训,小学,浙江省,温州市,瑞安市,浙江省温州市瑞安市仓前街83号,881a28e7e481cd44f942b272,1,1,120.633091,27.788189,(0577)58802918,education,http://api.map.baidu.com/place/detail?uid=881a28e7e481cd44f942b272&output=html&source=placeapi_v2,,,0,,,,,,,,2,,,,,,,120.63368582769,27.78801239341,1
24b6a5a4a02e3af99e82eafa,瑞安市安阳实验小学,教育培训,小学,浙江省,温州市,瑞安市,浙江省温州市瑞安市安阳街道安阳路700号,083a55fae27bdc7a246e9872,1,0,120.658489,27.771754,(0577)59886580,education,http://api.map.baidu.com/place/detail?uid=24b6a5a4a02e3af99e82eafa&output=html&source=placeapi_v2,,,3.8,,,,,,,,4,,,,,,,120.65940753216,27.771516764351,0
9fbfeef20c583b46ede4a572,瑞安市广场实验小学,教育培训,小学,浙江省,温州市,瑞安市,浙江省温州市瑞安市上望街道望昌北路四巷21号广场小学这栋,9fbfeef20c583b46ede4a572,1,2,120.676642,27.775331,(0577)58802751,education,http://api.map.baidu.com/place/detail?uid=9fbfeef20c583b46ede4a572&output=html&source=placeapi_v2,,,3.3,,,,,,,,3,,,,,,,120.67699666126,27.775878180512,2
75d0881acd970a4e3a04b172,瑞安市上望第一小学,教育培训,小学,浙江省,温州市,瑞安市,浙江省温州市瑞安市瑞昌路80号,75d0881acd970a4e3a04b172,1,1,120.679452,27.771675,(0577)59881515,education,http://api.map.baidu.com/place/detail?uid=75d0881acd970a4e3a04b172&output=html&source=placeapi_v2,,,0,,,,,,,,1,,,,,,,120.67932992718,27.771083810351,1
e1d7583469299b6fb726553f,瑞安市上望第二小学,教育培训,小学,浙江省,温州市,瑞安市,浙江省温州市瑞安市薛东路2号,e1d7583469299b6fb726553f,1,1,120.687227,27.770516,,education,http://api.map.baidu.com/place/detail?uid=e1d7583469299b6fb726553f&output=html&source=placeapi_v2,,,0.0,,,,,,,,,,,,,,,120.68739014404,27.771044750072,1
125a1e36046859cd78f7969a,瑞安市莘塍镇第六小学,教育培训,小学,浙江省,温州市,瑞安市,浙江省温州市瑞安市莘塍第六小学(万松东路南),125a1e36046859cd78f7969a,1,1,120.693295,27.775356,,education,http://api.map.baidu.com/place/detail?uid=125a1e36046859cd78f7969a&output=html&source=placeapi_v2,,,5.0,,,,,,,,1,,,,,,,120.69334590957,27.775926995397,1
864f4fe24c10798688b98819,雅儒小学,教育培训,小学,浙江省,温州市,瑞安市,浙江省温州市瑞安市儒河路40号,864f4fe24c10798688b98819,1,1,120.676623,27.772627,,education,http://api.map.baidu.com/place/detail?uid=864f4fe24c10798688b98819&output=html&source=placeapi_v2,,,0.0,,,,,,,,0,,,,,,,120.67670030847,27.772515040376,1
cef822412c788c0ecd04ef31,吉莱姆文化小学部,教育培训,小学,浙江省,温州市,瑞安市,温州市瑞安市望荣北路50-54号,,1,0,120.676165,27.776725,13486706406,education,http://api.map.baidu.com/place/detail?uid=cef822412c788c0ecd04ef31&output=html&source=placeapi_v2,,,,,,,,,,,,,,,,,,120.67623176849,27.776665255278,0
07f3c8b5109f44606240a972,莘塍实验小学,教育培训,小学,浙江省,温州市,瑞安市,浙江省温州市瑞安市新兴路288号,07f3c8b5109f44606240a972,1,1,120.681863,27.78315,,education,http://api.map.baidu.com/place/detail?uid=07f3c8b5109f44606240a972&output=html&source=placeapi_v2,,,5,,,,,,,,3,,,,,,,120.68260425435,27.782760822269,1
d9b14868d090cb2e441a3292,瑞安市莘塍第二小学,教育培训,小学,浙江省,温州市,瑞安市,温州市瑞安市富民北路36号-62号,d9b14868d090cb2e441a3292,1,1,120.684017,27.790029,(0577)65532379,education,http://api.map.baidu.com/place/detail?uid=d9b14868d090cb2e441a3292&output=html&source=placeapi_v2,,,4.5,,,,,,,,2,,,,,,,120.68310888735,27.789892774587,1
6c2f245ab96c5eefe8e5820b,瑞安市阳光小学,教育培训,小学,浙江省,温州市,瑞安市,浙江省温州市瑞安市周红路161号,6c2f245ab96c5eefe8e5820b,1,1,120.673306,27.785116,,education,http://api.map.baidu.com/place/detail?uid=6c2f245ab96c5eefe8e5820b&output=html&source=placeapi_v2,,,0.0,,,,,,,,,,,,,,,120.67276549229,27.785138956399,1
1c45cb97c8e13900eedfca06,瑞安市莘塍镇中心小学,教育培训,小学,浙江省,温州市,瑞安市,浙江省温州市瑞安市小西路一号地块1栋,1c45cb97c8e13900eedfca06,1,1,120.690813,27.785543,,education,http://api.map.baidu.com/place/detail?uid=1c45cb97c8e13900eedfca06&output=html&source=placeapi_v2,,,1,,,,,,,,2,,,,,,,120.68993234863,27.785802677112,1
9112c5d69fdcdcb05a109378,瑞安市上望第五小学,教育培训,小学,浙江省,温州市,瑞安市,浙江省温州市瑞安市上望街道蔡宅东路2号靠近,9112c5d69fdcdcb05a109378,1,1,120.675514,27.764828,,education,http://api.map.baidu.com/place/detail?uid=9112c5d69fdcdcb05a109378&output=html&source=placeapi_v2,,,0.0,,,,,,,,0,,,,,,,120.67584090319,27.765029572716,1
75a54968e519cc838afc0642,瑞安市实验小学(万松东路校区),教育培训,小学,浙江省,温州市,瑞安市,浙江省温州市瑞安市东进路与环镇东路交叉口,,1,0,120.695564,27.772645,,education,http://api.map.baidu.com/place/detail?uid=75a54968e519cc838afc0642&output=html&source=placeapi_v2,,,,,,,,,,,,,,,,,,,,0
fb663da8484ef979a8059de0,华睦第六小学,教育培训,小学,浙江省,温州市,瑞安市,温州市瑞安市万松东路瑞安市莘塍镇第六小学,,1,0,120.693381,27.775799,,education,http://api.map.baidu.com/place/detail?uid=fb663da8484ef979a8059de0&output=html&source=placeapi_v2,,,,,,,,,,,,,,,,,,,,0
25ba70261088d358e011030a,瑞安市高楼乡沙小学,教育培训,小学,浙江省,温州市,瑞安市,温州市瑞安市上软线寨寮溪风景区,25ba70261088d358e011030a,1,0,120.312482,27.808761,,education,http://api.map.baidu.com/place/detail?uid=25ba70261088d358e011030a&output=html&source=placeapi_v2,,,0.0,,,,,,,,,,,,,,,120.31236322516,27.808892014686,0
cb4fd146ade0f3429d9d687a,仙降镇第二小学,教育培训,小学,浙江省,温州市,瑞安市,温州市瑞安市仙降街道四甲村,,1,0,120.525227,27.79512,,education,http://api.map.baidu.com/place/detail?uid=cb4fd146ade0f3429d9d687a&output=html&source=placeapi_v2,,,0,,,,,,,,1,,,,,,,120.52523749438,27.794918104347,0
91718e00c947fd2a734b8719,下林小学,教育培训,小学,浙江省,温州市,瑞安市,温州市瑞安市康康幼儿园东侧约230米,,1,0,120.527553,27.814152,,education,http://api.map.baidu.com/place/detail?uid=91718e00c947fd2a734b8719&output=html&source=placeapi_v2,,,0.0,,,,,,,,,,,,,,,120.52755302775,27.814151872291,0
6131947a79d0ece36e20b9f9,礁石小学,教育培训,小学,浙江省,温州市,瑞安市,温州市瑞安市礁石路1号,,1,0,120.609898,27.808385,,education,http://api.map.baidu.com/place/detail?uid=6131947a79d0ece36e20b9f9&output=html&source=placeapi_v2,,,0.0,,,,,,,,0,,,,,,,120.60972213045,27.808157253996,0
7fcbaf9df8a7206ebd48424d,士心小学,教育培训,小学,浙江省,温州市,瑞安市,温州市瑞安市云周繁荣村(云周中学侧门对面),7fcbaf9df8a7206ebd48424d,1,0,120.594153,27.793099,,education,http://api.map.baidu.com/place/detail?uid=7fcbaf9df8a7206ebd48424d&output=html&source=placeapi_v2,,,4.0,,,,,,,,1,,,,,,,120.59374443028,27.793220274597,0
f9fd60629295441c0f0e6b7a,瑞安市锦湖第二小学,教育培训,小学,浙江省,温州市,瑞安市,浙江省温州市瑞安市礁石路2-1号,,1,0,120.609281,27.808623,,education,http://api.map.baidu.com/place/detail?uid=f9fd60629295441c0f0e6b7a&output=html&source=placeapi_v2,,,0.0,,,,,,,,,,,,,,,120.60922059481,27.808360453033,0
22f357d7b17daade8505bfcd,河埭小学,教育培训,小学,浙江省,温州市,瑞安市,温州市瑞安市河埭桥路龙星小区东北侧约110米,22f357d7b17daade8505bfcd,1,0,120.63898,27.802763,,education,http://api.map.baidu.com/place/detail?uid=22f357d7b17daade8505bfcd&output=html&source=placeapi_v2,,,0.0,,,,,,,,1,,,,,,,,,0
cdef4edfac605c3328d7abfd,锦湖实验小学,教育培训,小学,浙江省,温州市,瑞安市,浙江省温州市瑞安市福泉东路18号,cdef4edfac605c3328d7abfd,1,1,120.639989,27.798296,(0577)66610118,education,http://api.map.baidu.com/place/detail?uid=cdef4edfac605c3328d7abfd&output=html&source=placeapi_v2,,,5,,,,,,,,2,,,,,,,120.63993259749,27.798832583792,1
c19f26cad7b02fd70b1cc7cc,新纪元小学,教育培训,小学,浙江省,温州市,瑞安市,浙江省温州市瑞安市院士路928号,c19f26cad7b02fd70b1cc7cc,1,4,120.658319,27.799985,(0577)65607606,education,http://api.map.baidu.com/place/detail?uid=c19f26cad7b02fd70b1cc7cc&output=html&source=placeapi_v2,,,3,,,,,,,,1,,,,,,,120.65854006727,27.799043813183,4
d7e22585662882743913fd41,红旗实验小学(河埭校区),教育培训,小学,浙江省,温州市,瑞安市,温州市瑞安市同心路龙星小区东北侧约50米,d7e22585662882743913fd41,1,1,120.638441,27.802854,,education,http://api.map.baidu.com/place/detail?uid=d7e22585662882743913fd41&output=html&source=placeapi_v2,,,0.0,,,,,,,,,,,,,,,120.63898101078,27.802827360956,1
4edf9fbf3482df97cc06a472,瑞安市红旗实验小学,教育培训,小学,浙江省,温州市,瑞安市,温州市瑞安市康大路与瑞湖路交叉口西南150米,4edf9fbf3482df97cc06a472,1,1,120.634425,27.793834,,education,http://api.map.baidu.com/place/detail?uid=4edf9fbf3482df97cc06a472&output=html&source=placeapi_v2,,,0,,,,,,,,1,,,,,,,120.6333628114,27.793758007406,1
0dc3d82d8ee77f6f75e5b672,莘塍七小,教育培训,小学,浙江省,温州市,瑞安市,浙江省温州市瑞安市华南二路63号,0dc3d82d8ee77f6f75e5b672,1,1,120.692675,27.794909,,education,http://api.map.baidu.com/place/detail?uid=0dc3d82d8ee77f6f75e5b672&output=html&source=placeapi_v2,,,0.0,,,,,,,,1,,,,,,,120.69279213926,27.795067938632,1
d9b14868d090cb2e441a3292,瑞安市莘塍第二小学,教育培训,小学,浙江省,温州市,瑞安市,温州市瑞安市富民北路36号-62号,d9b14868d090cb2e441a3292,1,1,120.684017,27.790029,(0577)65532379,education,http://api.map.baidu.com/place/detail?uid=d9b14868d090cb2e441a3292&output=html&source=placeapi_v2,,,4.5,,,,,,,,2,,,,,,,120.68310888735,27.789892774587,1
c6543c6e280e10ac0d3dda69,瑞安市汀田实验小学,教育培训,小学,浙江省,温州市,瑞安市,浙江省温州市瑞安市镇府北路1号,c6543c6e280e10ac0d3dda69,1,1,120.700848,27.805215,,education,http://api.map.baidu.com/place/detail?uid=c6543c6e280e10ac0d3dda69&output=html&source=placeapi_v2,,,0,,,,,,,,2,,,,,,,120.70063116725,27.805239780981,1
c26de0ddb204ddedd3ff2384,汀田镇第五小学,教育培训,小学,浙江省,温州市,瑞安市,浙江省温州市瑞安市汀田镇第五小学,,1,0,120.693226,27.812358,,education,http://api.map.baidu.com/place/detail?uid=c26de0ddb204ddedd3ff2384&output=html&source=placeapi_v2,,,4.0,,,,,,,,2,,,,,,,120.69342436398,27.812566423108,0
aa4e20afb682c2a18bdb7364,瑞安市上山根村艺嘉鞋模,教育培训,小学,浙江省,温州市,瑞安市,温州市瑞安市华山路瑞安市人民医院(瑞祥院区)东侧约180米,,1,0,120.681636,27.80094,,education,http://api.map.baidu.com/place/detail?uid=aa4e20afb682c2a18bdb7364&output=html&source=placeapi_v2,,,,,,,,,,,,,,,,,,120.68187389424,27.801108224846,0
15ed53ce2b7c4c579322e0b6,瑞安市汀田第三小学,教育培训,小学,浙江省,温州市,瑞安市,浙江省温州市瑞安市校48号,15ed53ce2b7c4c579322e0b6,1,1,120.718281,27.810743,(0577)65500739,education,http://api.map.baidu.com/place/detail?uid=15ed53ce2b7c4c579322e0b6&output=html&source=placeapi_v2,,,4,,,,,,,,2,,,,,,,120.71749893187,27.810414163905,1
250ce1fed52215cecf06a496,塘下镇新华小学,教育培训,小学,浙江省,温州市,瑞安市,浙江省温州市瑞安市育英街91号,250ce1fed52215cecf06a496,1,1,120.719589,27.818277,(0577)65215868,education,http://api.map.baidu.com/place/detail?uid=250ce1fed52215cecf06a496&output=html&source=placeapi_v2,,,0,,,,,,,,1,,,,,,,120.71946846042,27.817389825788,1
28e700f1248b0e02095cb372,瑞安市汀田第二小学,教育培训,小学,浙江省,温州市,瑞安市,温州市瑞安市文华路与邮电中路交叉路口往东南约190米,28e700f1248b0e02095cb372,1,1,120.707614,27.80621,,education,http://api.map.baidu.com/place/detail?uid=28e700f1248b0e02095cb372&output=html&source=placeapi_v2,,,0.0,,,,,,,,1,,,,,,,120.70762482598,27.805977618045,1
699b3acea6fa84d64251c03e,上马小学,教育培训,小学,浙江省,温州市,瑞安市,浙江省温州市瑞安市逊河北街45号,699b3acea6fa84d64251c03e,1,1,120.71658,27.821652,(0577)65360756,education,http://api.map.baidu.com/place/detail?uid=699b3acea6fa84d64251c03e&output=html&source=placeapi_v2,,,0,,,,,,,,1,,,,,,,120.716437645,27.821535352775,1
7bfa08fc78af077c25d2bb72,瑞安市塘下镇鲍田中心小学,教育培训,小学,浙江省,温州市,瑞安市,浙江省温州市瑞安市塘下镇鲍川东路2号,7bfa08fc78af077c25d2bb72,1,0,120.734698,27.820011,"(0577)65225778,(0577)65265285",education,http://api.map.baidu.com/place/detail?uid=7bfa08fc78af077c25d2bb72&output=html&source=placeapi_v2,,,4,,,,,,,,1,,,,,,,120.73419840345,27.82059305125,0
01e0e378c664cfe545e274c7,塘下镇鲍七小学,教育培训,小学,浙江省,温州市,瑞安市,温州市瑞安市商业大街与西岸中路交叉口西150米,01e0e378c664cfe545e274c7,1,1,120.723508,27.823365,(0577)58917520,education,http://api.map.baidu.com/place/detail?uid=01e0e378c664cfe545e274c7&output=html&source=placeapi_v2,,,,,,,,,,,,,,,,,,120.7241249483,27.82336538659,1
7f49f89b6b9cc90debe58219,金海湖小学,教育培训,小学,浙江省,温州市,龙湾区,浙江省温州市龙湾区金海二道489号,7f49f89b6b9cc90debe58219,1,0,120.810413,27.820528,,education,http://api.map.baidu.com/place/detail?uid=7f49f89b6b9cc90debe58219&output=html&source=placeapi_v2,,,0.0,,,,,,,,,,,,,,,120.80983167299,27.820530481083,0
d720107c4cae24d132870a15,溅玉潭,教育培训,小学,浙江省,温州市,瑞安市,温州市瑞安市高楼镇红双林场花岩国家森林公园内,,1,0,120.349051,27.838514,,education,http://api.map.baidu.com/place/detail?uid=d720107c4cae24d132870a15&output=html&source=placeapi_v2,,,,,,,,,,,,,,,,,,,,0
54d24b8eec506511dc1e52a2,陶山镇第二小学,教育培训,小学,浙江省,温州市,瑞安市,浙江省温州市瑞安市陶山镇第二小学(河岩线南),,1,0,120.476448,27.843937,,education,http://api.map.baidu.com/place/detail?uid=54d24b8eec506511dc1e52a2&output=html&source=placeapi_v2,,,0.0,,,,,,,,0,,,,,,,,,0
c1a505f91542503d246e98b9,陶山镇中心小学,教育培训,小学,浙江省,温州市,瑞安市,温州市瑞安市陶山镇马陶线光裕集团对面,,1,2,120.498726,27.842755,(0577)65475061,education,http://api.map.baidu.com/place/detail?uid=c1a505f91542503d246e98b9&output=html&source=placeapi_v2,,,5.0,,,,,,,,1,,,,,,,120.49848221429,27.843461284548,2
5fb1cab98b23c943744ff197,山下小学,教育培训,小学,浙江省,温州市,瑞安市,浙江省温州市瑞安市山下村198号,,1,0,120.523999,27.841397,,education,http://api.map.baidu.com/place/detail?uid=5fb1cab98b23c943744ff197&output=html&source=placeapi_v2,,,,,,,,,,,,,,,,,,120.52398613415,27.841253271978,0
3b1f424927c9b3eb45e2740e,横塘小学,教育培训,小学,浙江省,温州市,瑞安市,浙江省温州市瑞安市桥下路4~5号,,1,0,120.539094,27.842852,(0577)65962808,education,http://api.map.baidu.com/place/detail?uid=3b1f424927c9b3eb45e2740e&output=html&source=placeapi_v2,,,0.0,,,,,,,,0,,,,,,,120.53930762574,27.842798580952,0
4ea3f2f1479312a9aecb667a,碧山镇小学,教育培训,小学,浙江省,温州市,瑞安市,浙江省温州市瑞安市前街118~120号,,1,1,120.542203,27.827553,(0577)65426300,education,http://api.map.baidu.com/place/detail?uid=4ea3f2f1479312a9aecb667a&output=html&source=placeapi_v2,,,0.0,,,,,,,,0,,,,,,,120.54317418417,27.827300382484,1
5ac8cde3d27bf687d7851ffc,后河小学,教育培训,小学,浙江省,温州市,瑞安市,浙江省温州市瑞安市后河小学(三桥路东210米),,1,0,120.546519,27.850843,,education,http://api.map.baidu.com/place/detail?uid=5ac8cde3d27bf687d7851ffc&output=html&source=placeapi_v2,,,0.0,,,,,,,,,,,,,,,120.54628285034,27.850926647827,0
5ad8515ade259051970319b5,瑞安市潘岱小学,教育培训,小学,浙江省,温州市,瑞安市,温州市瑞安市前进路与瑞枫线交叉路口往西南约200米,,1,0,120.596926,27.841742,(0577)58803350,education,http://api.map.baidu.com/place/detail?uid=5ad8515ade259051970319b5&output=html&source=placeapi_v2,,,5,,,,,,,,2,,,,,,,120.59631094841,27.841899471657,0
b8609a3e3784adb96018093c,瑞安市锦湖第三小学,教育培训,小学,浙江省,温州市,瑞安市,温州市瑞安市前进路瑞安市潘岱小学,,1,0,120.596433,27.841842,,education,http://api.map.baidu.com/place/detail?uid=b8609a3e3784adb96018093c&output=html&source=placeapi_v2,,,5.0,,,,,,,,1,,,,,,,120.59700264365,27.842386585912,0
750ec16533ae8f564c3a5931,塘下镇第二小学,教育培训,小学,浙江省,温州市,瑞安市,浙江省温州市瑞安市振兴街51号北90米,750ec16533ae8f564c3a5931,1,2,120.682262,27.838775,(0577)66006787,education,http://api.map.baidu.com/place/detail?uid=750ec16533ae8f564c3a5931&output=html&source=placeapi_v2,,,5,,,,,,,,3,,,,,,,120.68313255501,27.838800420162,2
dc0f0adca097c722f8221369,罗凤第三小学,教育培训,小学,浙江省,温州市,瑞安市,浙江省温州市瑞安市工商路与罗西南路交叉口西南50米,dc0f0adca097c722f8221369,1,1,120.686952,27.849498,,education,http://api.map.baidu.com/place/detail?uid=dc0f0adca097c722f8221369&output=html&source=placeapi_v2,,,3,,,,,,,,3,,,,,,,120.68758164571,27.849664197003,1
76543010bf5f9e511f3894d2,瑞安市塘下镇第四小学,教育培训,小学,浙江省,温州市,瑞安市,浙江省温州市瑞安市塘下北街158~160号,76543010bf5f9e511f3894d2,1,2,120.695799,27.837873,(0577)65353865,education,http://api.map.baidu.com/place/detail?uid=76543010bf5f9e511f3894d2&output=html&source=placeapi_v2,,,0.0,,,,,,,,2,,,,,,,120.69653485909,27.837755066075,2
f8637fc3516bdfa971455bf1,瑞安市塘下镇第三小学,教育培训,小学,浙江省,温州市,瑞安市,浙江省温州市瑞安市西南新陈东路塘下镇第三小学,f8637fc3516bdfa971455bf1,1,1,120.672037,27.832251,"(0577)58805860,(0577)58807068",education,http://api.map.baidu.com/place/detail?uid=f8637fc3516bdfa971455bf1&output=html&source=placeapi_v2,,,5,,,,,,,,2,,,,,,,120.67238964306,27.831725693427,1
f9abe4da5da1d8a9593ac890,前庄小学,教育培训,小学,浙江省,温州市,瑞安市,浙江省温州市瑞安市庄园路133~135号401室,f9abe4da5da1d8a9593ac890,1,0,120.696491,27.845563,,education,http://api.map.baidu.com/place/detail?uid=f9abe4da5da1d8a9593ac890&output=html&source=placeapi_v2,,,0.0,,,,,,,,0,,,,,,,120.6965044775,27.845350648146,0
1ed27d4b03c44cd68733045a,瑞安市罗凤第二小学,教育培训,小学,浙江省,温州市,瑞安市,浙江省温州市瑞安市凤都一路与罗凤西路交叉口西150米,1ed27d4b03c44cd68733045a,1,0,120.670162,27.846636,,education,http://api.map.baidu.com/place/detail?uid=1ed27d4b03c44cd68733045a&output=html&source=placeapi_v2,,,0,,,,,,,,4,,,,,,,120.67002397077,27.84740827058,0
133140a629d04f31dbd89179,瑞安市第二实验小学,教育培训,小学,浙江省,温州市,瑞安市,浙江省温州市瑞安市实验路1号,133140a629d04f31dbd89179,1,2,120.700503,27.839326,(0577)65395365,education,http://api.map.baidu.com/place/detail?uid=133140a629d04f31dbd89179&output=html&source=placeapi_v2,,,0.0,,,,,,,,,,,,,,,120.70047600025,27.838384528698,2
81d6a509968a02436e20b972,塘西小学,教育培训,小学,浙江省,温州市,瑞安市,浙江省温州市瑞安市中兴南街266号,81d6a509968a02436e20b972,1,0,120.694018,27.827935,,education,http://api.map.baidu.com/place/detail?uid=81d6a509968a02436e20b972&output=html&source=placeapi_v2,,,0.0,,,,,,,,1,,,,,,,120.69411845231,27.828291321171,0
cc0849a08e62962d95031987,罗凤第四小学,教育培训,小学,浙江省,温州市,瑞安市,浙江省温州市瑞安市庄园路121号,cc0849a08e62962d95031987,1,1,120.696736,27.84578,,education,http://api.map.baidu.com/place/detail?uid=cc0849a08e62962d95031987&output=html&source=placeapi_v2,,,0.0,,,,,,,,2,,,,,,,120.69718242957,27.845344503982,1
ea220b23fac80f773a13fdca,高思小学(赵宅校区),教育培训,小学,浙江省,温州市,瑞安市,浙江省温州市瑞安市塘川北街145号4楼,,1,0,120.699184,27.838286,,education,http://api.map.baidu.com/place/detail?uid=ea220b23fac80f773a13fdca&output=html&source=placeapi_v2,,,,,,,,,,,,,,,,,,,,0
060f5e53d836efd4091cc7b6,鲍二小学,教育培训,小学,浙江省,温州市,瑞安市,温州市瑞安市鲍二西大街与东裕西路交叉路口往西南约80米,060f5e53d836efd4091cc7b6,1,1,120.723413,27.830561,,education,http://api.map.baidu.com/place/detail?uid=060f5e53d836efd4091cc7b6&output=html&source=placeapi_v2,,,0.0,,,,,,,,1,,,,,,,120.72305560632,27.830764316432,1
c3dc2a9e897da0f79fec2b0b,瑞安市塘下实验小学,教育培训,小学,浙江省,温州市,瑞安市,天星路与西二大街交叉口北侧,c3dc2a9e897da0f79fec2b0b,1,3,120.721238,27.832488,(0577)66210008,education,http://api.map.baidu.com/place/detail?uid=c3dc2a9e897da0f79fec2b0b&output=html&source=placeapi_v2,0.0,,0,,,,,,,,1,,,,,,,120.72104928049,27.8318856143,3
251374c9aed6f03ca01de9b1,韩田小学,教育培训,小学,浙江省,温州市,瑞安市,温州市瑞安市东洋路与鑫东路交叉路口往西南约70米,251374c9aed6f03ca01de9b1,1,0,120.715532,27.844486,,education,http://api.map.baidu.com/place/detail?uid=251374c9aed6f03ca01de9b1&output=html&source=placeapi_v2,,,0.0,,,,,,,,2,,,,,,,120.71515011539,27.844341152272,0
c85cb4ec44b73de9ab059d73,塘下镇下林小学,教育培训,小学,浙江省,温州市,瑞安市,浙江省温州市瑞安市塘下镇海安办事处下林村(创新东街南180米),c85cb4ec44b73de9ab059d73,1,1,120.72766,27.848438,,education,http://api.map.baidu.com/place/detail?uid=c85cb4ec44b73de9ab059d73&output=html&source=placeapi_v2,,,,,,,,,,,,,,,,,,120.72816949699,27.848991253065,1
cd9d05dd3d2a30b585420e69,场桥第二小学,教育培训,小学,浙江省,温州市,瑞安市,瑞安市湖滨路与学前路交叉路口往北约80米,cd9d05dd3d2a30b585420e69,1,1,120.74447,27.843873,(0577)65292158,education,http://api.map.baidu.com/place/detail?uid=cd9d05dd3d2a30b585420e69&output=html&source=placeapi_v2,,,0.0,,,,,,,,,,,,,,,120.74486967374,27.843442608248,1
92b70ad962fae758d3ff2307,瑞安市第三实验小学,教育培训,小学,浙江省,温州市,瑞安市,浙江省温州市瑞安市凤翔东路与新街北路交叉路口往东约50米塘下中学东南侧约100米,92b70ad962fae758d3ff2307,1,3,120.713911,27.847826,,education,http://api.map.baidu.com/place/detail?uid=92b70ad962fae758d3ff2307&output=html&source=placeapi_v2,,,5,,,,,,,,1,,,,,,,120.7140603675,27.847066636117,3
39d43f82bfa30285a8059d72,鲍一小学,教育培训,小学,浙江省,温州市,瑞安市,温州市瑞安市鲍川西路与鲍二西大街交叉路口往西约100米,39d43f82bfa30285a8059d72,1,1,120.72063,27.826609,,education,http://api.map.baidu.com/place/detail?uid=39d43f82bfa30285a8059d72&output=html&source=placeapi_v2,,,0,,,,,,,,2,,,,,,,120.72078914289,27.82686971301,1
3f826ed3d84a5f45d1f49e72,鲍三小学,教育培训,小学,浙江省,温州市,瑞安市,浙江省温州市瑞安市鲍二昌荣路与东裕西路交叉口西南方向90米,3f826ed3d84a5f45d1f49e72,1,1,120.726252,27.828438,(0577)65201003,education,http://api.map.baidu.com/place/detail?uid=3f826ed3d84a5f45d1f49e72&output=html&source=placeapi_v2,,,0,,,,,,,,1,,,,,,,120.72657229632,27.828026798375,1
c604fa667bbb2cffc27da20c,鲍四小学,教育培训,小学,浙江省,温州市,瑞安市,浙江省温州市瑞安市塘下商业大街鲍田社区卫生服务中心,c604fa667bbb2cffc27da20c,1,0,120.732371,27.826782,,education,http://api.map.baidu.com/place/detail?uid=c604fa667bbb2cffc27da20c&output=html&source=placeapi_v2,,,0.0,,,,,,,,,,,,,,,120.73281745366,27.827181190565,0
01e0e378c664cfe545e274c7,塘下镇鲍七小学,教育培训,小学,浙江省,温州市,瑞安市,温州市瑞安市商业大街与西岸中路交叉口西150米,01e0e378c664cfe545e274c7,1,1,120.723508,27.823365,(0577)58917520,education,http://api.map.baidu.com/place/detail?uid=01e0e378c664cfe545e274c7&output=html&source=placeapi_v2,,,,,,,,,,,,,,,,,,120.7241249483,27.82336538659,1
db1f39d4edf2646cf5c59c72,场桥中心小学,教育培训,小学,浙江省,温州市,瑞安市,浙江省温州市瑞安市西街路1号,db1f39d4edf2646cf5c59c72,1,1,120.743902,27.837119,(0577)65263035,education,http://api.map.baidu.com/place/detail?uid=db1f39d4edf2646cf5c59c72&output=html&source=placeapi_v2,,,3,,,,,,,,3,,,,,,,120.74444361193,27.836687714992,1
16d986564d5590deb7265567,海安第二小学,教育培训,小学,浙江省,温州市,瑞安市,温州市瑞安市文化路塘下镇下林小学北侧约50米,16d986564d5590deb7265567,1,0,120.727688,27.849507,,education,http://api.map.baidu.com/place/detail?uid=16d986564d5590deb7265567&output=html&source=placeapi_v2,,,0.0,,,,,,,,0,,,,,,,,,0
058c45c591afeb4a81a12e9c,海城第二小学,教育培训,小学,浙江省,温州市,龙湾区,温州市龙湾区富强路25号,058c45c591afeb4a81a12e9c,1,1,120.779726,27.836444,,education,http://api.map.baidu.com/place/detail?uid=058c45c591afeb4a81a12e9c&output=html&source=placeapi_v2,0.0,,0.0,,,,,,,,,,,,,,,120.77997904628,27.83701116754,1
b7021bf83056fef9f4e73b6f,温州市龙湾区海城第一小学,教育培训,小学,浙江省,温州市,龙湾区,温州市龙湾区广场路201号,44229ed505e7506440afe6af,1,1,120.764607,27.833835,(0577)85233883,education,http://api.map.baidu.com/place/detail?uid=b7021bf83056fef9f4e73b6f&output=html&source=placeapi_v2,,,1,,,,,,,,1,,,,,,,120.76491635831,27.834203307009,1
4fdc5114cf312a889ff77974,大坑村小学,教育培训,小学,浙江省,温州市,瑞安市,温州市瑞安市大坑村附近,,1,0,120.246106,27.876985,,education,http://api.map.baidu.com/place/detail?uid=4fdc5114cf312a889ff77974&output=html&source=placeapi_v2,,,0.0,,,,,,,,0,,,,,,,,,0
26db3a800c4b61bf210262e9,东坑希望小学,教育培训,小学,浙江省,温州市,瑞安市,温州市瑞安市花岩国家森林公园,26db3a800c4b61bf210262e9,1,0,120.379091,27.88281,,education,http://api.map.baidu.com/place/detail?uid=26db3a800c4b61bf210262e9&output=html&source=placeapi_v2,,,0.0,,,,,,,,,,,,,,,,,0
59cdbd7c1d60abadae0457c9,鹿木乡小学,教育培训,小学,浙江省,温州市,瑞安市,温州市瑞安市岩松线瑞安市鹿木中学西南侧约40米,59cdbd7c1d60abadae0457c9,1,0,120.429359,27.864806,,education,http://api.map.baidu.com/place/detail?uid=59cdbd7c1d60abadae0457c9&output=html&source=placeapi_v2,,,0.0,,,,,,,,,,,,,,,120.42928530757,27.864609670057,0
08b3de111413c27b3617dc8e,湖岭镇鹿木第二小学,教育培训,小学,浙江省,温州市,瑞安市,浙江省温州市瑞安市亭东路66号,,1,0,120.415391,27.871229,,education,http://api.map.baidu.com/place/detail?uid=08b3de111413c27b3617dc8e&output=html&source=placeapi_v2,,,,,,,,,,,,,,,,,,120.41573357486,27.87082703006,0
af601464b63b72ef3786f456,瑞安市桐浦镇沙岙小学,教育培训,小学,浙江省,温州市,瑞安市,浙江温州市瑞安市桐浦乡第二小学后浦路西,,1,0,120.542116,27.861848,(0577)65437425,education,http://api.map.baidu.com/place/detail?uid=af601464b63b72ef3786f456&output=html&source=placeapi_v2,,,5.0,,,,,,,,2,,,,,,,120.54270666017,27.862151281819,0
844a750ecf113eba6268586e,桐浦乡第二小学,教育培训,小学,浙江省,温州市,瑞安市,浙江省温州市瑞安市后浦路陶山镇沙岙小学附近,,1,0,120.542566,27.86209,(0577)65437425,education,http://api.map.baidu.com/place/detail?uid=844a750ecf113eba6268586e&output=html&source=placeapi_v2,,,0.0,,,,,,,,0,,,,,,,120.54272425079,27.862166701538,0
341c35ded104bdbde70738b1,桐善小学,教育培训,小学,浙江省,温州市,瑞安市,温州市瑞安市陶山镇桐浦大路村,,1,0,120.594618,27.880527,,education,http://api.map.baidu.com/place/detail?uid=341c35ded104bdbde70738b1&output=html&source=placeapi_v2,,,0.0,,,,,,,,0,,,,,,,120.59432569324,27.880047396596,0
1829a1e4b45cea24246e9837,仙岩卓上小学,教育培训,小学,浙江省,温州市,瓯海区,浙江省温州市瓯海区沿溪路1号,,1,0,120.656695,27.878875,(0577)55571075,education,http://api.map.baidu.com/place/detail?uid=1829a1e4b45cea24246e9837&output=html&source=placeapi_v2,,,4,,,,,,,,1,,,,,,,120.65665911255,27.878618491294,0
f0db3c4a11c072b4a1046447,上坦小学,教育培训,小学,浙江省,温州市,瓯海区,浙江省温州市瓯海区下沈线上田小学附近,,1,0,120.637516,27.888099,,education,http://api.map.baidu.com/place/detail?uid=f0db3c4a11c072b4a1046447&output=html&source=placeapi_v2,,,,,,,,,,,,,,,,,,120.63760355361,27.887903135949,0
580ad214dec173bde50738d4,瓯海区仙岩实验小学,教育培训,小学,浙江省,温州市,瓯海区,温州市瓯海区仙岩镇穗丰村穗豪佳苑2栋附近,,1,1,120.682016,27.87015,,education,http://api.map.baidu.com/place/detail?uid=580ad214dec173bde50738d4&output=html&source=placeapi_v2,,,,,,,,,,,,,,,,,,120.68118317187,27.869899934127,1
6f3108bf471a4ab8ede4a50d,穗丰小学,教育培训,小学,浙江省,温州市,瓯海区,温州市瓯海区北山路1弄17号,6f3108bf471a4ab8ede4a50d,1,1,120.686246,27.865684,,education,http://api.map.baidu.com/place/detail?uid=6f3108bf471a4ab8ede4a50d&output=html&source=placeapi_v2,,,0,,,,,,,,2,,,,,,,120.68570481511,27.865698972996,1
a3981dc44a682071bca82222,仙岩镇中心小学,教育培训,小学,浙江省,温州市,瓯海区,温州市瓯海区虎溪路与温霞路交叉路口往西南约50米,,1,0,120.698002,27.881686,(0577)85301161,education,http://api.map.baidu.com/place/detail?uid=a3981dc44a682071bca82222&output=html&source=placeapi_v2,,,0.0,,,,,,,,0,,,,,,,120.69796936586,27.881340914494,0
d4c57f25afea02f62b02e1f2,盛才教育仙岩实验小学校区,教育培训,小学,浙江省,温州市,瓯海区,浙江省温州市瓯海区穗新路穗豪佳苑3楼,,1,0,120.682154,27.867722,4006190607,education,http://api.map.baidu.com/place/detail?uid=d4c57f25afea02f62b02e1f2&output=html&source=placeapi_v2,,,0.0,,,,,,,,1,,,,,,,,,0
78bd50f7ed33945831870a69,河口塘小学,教育培训,小学,浙江省,温州市,瓯海区,温州市瓯海区繁荣中路171号,78bd50f7ed33945831870a69,1,0,120.683108,27.881528,(0577)56612128,education,http://api.map.baidu.com/place/detail?uid=78bd50f7ed33945831870a69&output=html&source=placeapi_v2,,,0.0,,,,,,,,2,,,,,,,120.68298641148,27.880806965923,0
67c83e06d9bd085a09b93af6,仙岩镇第一小学,教育培训,小学,浙江省,温州市,瓯海区,浙江省温州市瓯海区文化路1号,67c83e06d9bd085a09b93af6,1,1,120.682991,27.881545,"(0577)56612128,(0577)56612130",education,http://api.map.baidu.com/place/detail?uid=67c83e06d9bd085a09b93af6&output=html&source=placeapi_v2,,,0,,,,,,,,1,,,,,,,120.68296149788,27.88087758981,1
0002ae1621948051a5da3906,温州瓯海仙岩卓上小学,教育培训,小学,浙江省,温州市,瓯海区,浙江省温州市瓯海区盛丰路1号,0002ae1621948051a5da3906,1,1,120.681037,27.862201,(0577)55571070,education,http://api.map.baidu.com/place/detail?uid=0002ae1621948051a5da3906&output=html&source=placeapi_v2,,,0.0,,,,,,,,,,,,,,,120.6810971672,27.861937048862,1
05dd7d5f057f7202ad080f69,沈岙小学,教育培训,小学,浙江省,温州市,瓯海区,瓯海区龙呈路与东沈街交叉路口往西南约50米宗申鞋业东南侧约50米,05dd7d5f057f7202ad080f69,1,2,120.66784,27.863284,,education,http://api.map.baidu.com/place/detail?uid=05dd7d5f057f7202ad080f69&output=html&source=placeapi_v2,,,5,,,,,,,,1,,,,,,,120.6673748822,27.863661549354,2
3a3831a7d6b51b53ad04572f,龙湾区沙城镇第二小学,教育培训,小学,浙江省,温州市,龙湾区,浙江省温州市龙湾区沧兴路14号,3a3831a7d6b51b53ad04572f,1,1,120.809961,27.88122,(0577)86810258,education,http://api.map.baidu.com/place/detail?uid=3a3831a7d6b51b53ad04572f&output=html&source=placeapi_v2,,,0,,,,,,,,2,,,,,,,120.81084442564,27.880701172215,1
35debf29da751147a6da396b,沙城镇第三小学,教育培训,小学,浙江省,温州市,龙湾区,浙江省温州市龙湾区大昌路88号,35debf29da751147a6da396b,1,2,120.802754,27.877012,(0577)85826871,education,http://api.map.baidu.com/place/detail?uid=35debf29da751147a6da396b&output=html&source=placeapi_v2,,,5,,,,,,,,6,,,,,,,120.80289629125,27.877611655774,2
a3e8341c5aa9b5964afd3f6b,天河第一小学,教育培训,小学,浙江省,温州市,龙湾区,浙江省温州市龙湾区繁荣南路15号,a3e8341c5aa9b5964afd3f6b,1,1,120.794826,27.864477,(0577)86816815,education,http://api.map.baidu.com/place/detail?uid=a3e8341c5aa9b5964afd3f6b&output=html&source=placeapi_v2,,,3,,,,,,,,5,,,,,,,120.79524107273,27.863665011164,1
72f5a7ae766e7ee954bfff75,桂峰乡小学,教育培训,小学,浙江省,温州市,瑞安市,温州市瑞安市瑞枫线金峰公园(西南门)附近,72f5a7ae766e7ee954bfff75,1,0,120.289162,27.91347,,education,http://api.map.baidu.com/place/detail?uid=72f5a7ae766e7ee954bfff75&output=html&source=placeapi_v2,,,0.0,,,,,,,,0,,,,,,,,,0
a54d242c49a46fc2764ff1b3,吴小学,教育培训,小学,浙江省,温州市,瑞安市,宅呈线与宅雅路交叉口西北50米,a54d242c49a46fc2764ff1b3,1,0,120.364195,27.912896,,education,http://api.map.baidu.com/place/detail?uid=a54d242c49a46fc2764ff1b3&output=html&source=placeapi_v2,,,,,,,,,,,,,,,,,,,,0
c879fa014f446b49c909f06f,永安乡小学,教育培训,小学,浙江省,温州市,瑞安市,温州市瑞安市永胜路湖岭镇中心幼儿园永安园区西侧,,1,0,120.364105,27.899066,,education,http://api.map.baidu.com/place/detail?uid=c879fa014f446b49c909f06f&output=html&source=placeapi_v2,,,0.0,,,,,,,,0,,,,,,,,,0
929c8dc028decb35a90dd85c,湖岭中心小学,教育培训,小学,浙江省,温州市,瑞安市,浙江省温州市瑞安市湖松路48号,,1,0,120.392007,27.907712,(0577)65486014,education,http://api.map.baidu.com/place/detail?uid=929c8dc028decb35a90dd85c&output=html&source=placeapi_v2,,,0.0,,,,,,,,,,,,,,,120.39229678411,27.907097209152,0
4bb049d907dee23a990050f5,湖岭第三小学,教育培训,小学,浙江省,温州市,瑞安市,浙江省温州市瑞安市湖岭镇中心小学坑源校区(新源线南),,1,0,120.393094,27.89332,,education,http://api.map.baidu.com/place/detail?uid=4bb049d907dee23a990050f5&output=html&source=placeapi_v2,,,0.0,,,,,,,,0,,,,,,,120.39327433364,27.89353061395,0
d9e94c9c0aee125640e192dd,镇二小,教育培训,小学,浙江省,温州市,瑞安市,温州市瑞安市湖岭镇大岭南宫路13号,d9e94c9c0aee125640e192dd,1,0,120.413437,27.905296,,education,http://api.map.baidu.com/place/detail?uid=d9e94c9c0aee125640e192dd&output=html&source=placeapi_v2,,,,,,,,,,,,,,,,,,120.41338656666,27.905334220487,0
d1f350c9ade1605c9a68b4e7,桐溪小学,教育培训,小学,浙江省,温州市,瑞安市,浙江省温州市瑞安市桐溪小学(高桐线北),d1f350c9ade1605c9a68b4e7,1,0,120.560877,27.891123,(0577)65437092,education,http://api.map.baidu.com/place/detail?uid=d1f350c9ade1605c9a68b4e7&output=html&source=placeapi_v2,,,0.0,,,,,,,,,,,,,,,120.56069523609,27.89122585408,0
92ae6a461f5b8bc3b11e3634,温州市瓯海区丽岙镇茶堂小学,教育培训,小学,浙江省,温州市,瓯海区,温州市瓯海区茶堂西街任岩松中学北侧约80米,,1,0,120.642358,27.901798,,education,http://api.map.baidu.com/place/detail?uid=92ae6a461f5b8bc3b11e3634&output=html&source=placeapi_v2,,,,,,,,,,,,,,,,,,120.64251552586,27.901812761836,0
490d0cfdcb10faffddee8b5b,温州市瓯海区丽岙华侨小学,教育培训,小学,浙江省,温州市,瓯海区,浙江省温州市瓯海区岩中路473号,,1,0,120.64285,27.893913,,education,http://api.map.baidu.com/place/detail?uid=490d0cfdcb10faffddee8b5b&output=html&source=placeapi_v2,,,5,,,,,,,,1,,,,,,,120.64284973594,27.893923791312,0
e4b7c3dc450ec3ce17c8f66f,丽岙第二小学,教育培训,小学,浙江省,温州市,瓯海区,浙江省温州市瓯海区育才路432号,,1,0,120.652451,27.918263,,education,http://api.map.baidu.com/place/detail?uid=e4b7c3dc450ec3ce17c8f66f&output=html&source=placeapi_v2,,,0.0,,,,,,,,0,,,,,,,120.65258053605,27.918076892381,0
3f9337d63b8fc3cdf72310d6,温州大学附属茶山实验小学,教育培训,小学,浙江省,温州市,瓯海区,浙江省温州市瓯海区贾岙路88号,3f9337d63b8fc3cdf72310d6,1,0,120.699098,27.917661,,education,http://api.map.baidu.com/place/detail?uid=3f9337d63b8fc3cdf72310d6&output=html&source=placeapi_v2,,,0,,,,,,,,1,,,,,,,120.69847523403,27.917048607381,0
62f20071657931aa88f15d94,茶山镇第三小学,教育培训,小学,浙江省,温州市,瓯海区,温州市瓯海区新洲路,,1,0,120.698158,27.917697,,education,http://api.map.baidu.com/place/detail?uid=62f20071657931aa88f15d94&output=html&source=placeapi_v2,,,4,,,,,,,,1,,,,,,,120.69786510493,27.917291662656,0
6398192a68cd17bde5e9652f,戴在鹏小学,教育培训,小学,浙江省,温州市,瓯海区,浙江省温州市瓯海区育英路1号,,1,0,120.670164,27.916977,,education,http://api.map.baidu.com/place/detail?uid=6398192a68cd17bde5e9652f&output=html&source=placeapi_v2,,,0.0,,,,,,,,0,,,,,,,120.67014142063,27.916921806691,0
027b4979570ad32f4afc8d97,龙湾区第三小学,教育培训,小学,浙江省,温州市,龙湾区,浙江省温州市龙湾区永青公路北50米,027b4979570ad32f4afc8d97,1,2,120.811168,27.916466,(0577)56676689,education,http://api.map.baidu.com/place/detail?uid=027b4979570ad32f4afc8d97&output=html&source=placeapi_v2,,,5,,,,,,,,1,,,,,,,120.81077283866,27.915749934341,2
341c35ded15ebdbde607386b,沙城镇第一小学,教育培训,小学,浙江省,温州市,龙湾区,浙江省温州市龙湾区沙城街1123号,341c35ded15ebdbde607386b,1,1,120.822209,27.891948,(0577)86825565,education,http://api.map.baidu.com/place/detail?uid=341c35ded15ebdbde607386b&output=html&source=placeapi_v2,,,0,,,,,,,,2,,,,,,,120.82246190178,27.89130167397,1
8d96925c82d66738c1f1cfc6,龙湾区永昌第一小学,教育培训,小学,浙江省,温州市,龙湾区,浙江省温州市龙湾区罗东南街338号,8d96925c82d66738c1f1cfc6,1,2,120.825686,27.912677,"(0577)86920283,(0577)86935216",education,http://api.map.baidu.com/place/detail?uid=8d96925c82d66738c1f1cfc6&output=html&source=placeapi_v2,,,0.0,,,,,,,,,,,,,,,120.82529252802,27.912247354408,2
5b25f446ec93d29710293510,龙湾区永兴第二小学,教育培训,小学,浙江省,温州市,龙湾区,浙江省温州市龙湾区纪兴路3号,5b25f446ec93d29710293510,1,3,120.830688,27.907584,,education,http://api.map.baidu.com/place/detail?uid=5b25f446ec93d29710293510&output=html&source=placeapi_v2,,,5.0,,,,,,,,3,,,,,,,120.83114604213,27.907505085831,3
fd9d3d677d4cd4a79d82ea58,龙湾区永昌第五小学,教育培训,小学,浙江省,温州市,龙湾区,浙江省温州市龙湾区白水路207号,fd9d3d677d4cd4a79d82ea58,1,1,120.806049,27.891689,,education,http://api.map.baidu.com/place/detail?uid=fd9d3d677d4cd4a79d82ea58&output=html&source=placeapi_v2,,,0.0,,,,,,,,,,,,,,,120.80582247474,27.892007826967,1
f5ca6b30d7e4c9b703ff2dcc,永兴利民学校,教育培训,小学,浙江省,温州市,龙湾区,浙江省温州市龙湾区富康路118号,f5ca6b30d7e4c9b703ff2dcc,1,1,120.825021,27.899551,,education,http://api.map.baidu.com/place/detail?uid=f5ca6b30d7e4c9b703ff2dcc&output=html&source=placeapi_v2,,,0,,,,,,,,0,,,,,,,120.82473778035,27.899679915625,1
5c56edd6ae6a8227a1d23010,龙湾区海滨第三小学,教育培训,小学,浙江省,温州市,龙湾区,浙江省温州市龙湾区沙前街2号,5c56edd6ae6a8227a1d23010,1,1,120.841708,27.91175,(0577)55889286,education,http://api.map.baidu.com/place/detail?uid=5c56edd6ae6a8227a1d23010&output=html&source=placeapi_v2,,,0.0,,,,,,,,,,,,,,,120.8411733118,27.912156407037,1
5c7ee4a825f61db1bbbd6342,龙湾区海滨第一小学,教育培训,小学,浙江省,温州市,龙湾区,浙江省温州市龙湾区沙村路27号,5c7ee4a825f61db1bbbd6342,1,2,120.844526,27.91848,,education,http://api.map.baidu.com/place/detail?uid=5c7ee4a825f61db1bbbd6342&output=html&source=placeapi_v2,,,,,,,,,,,,,,,,,,120.84441917707,27.918459883006,2
a74481d64b717145f503b86a,河上小学,教育培训,小学,浙江省,温州市,瑞安市,温州市瑞安市湖岭镇金鸡山路,a74481d64b717145f503b86a,1,0,120.267874,27.934001,,education,http://api.map.baidu.com/place/detail?uid=a74481d64b717145f503b86a&output=html&source=placeapi_v2,,,0.0,,,,,,,,0,,,,,,,,,0
ffc931796a08244f59bbbcf0,金川中心小学,教育培训,小学,浙江省,温州市,瑞安市,温州市瑞安市陶金线金川乡政府西北侧约280米,ffc931796a08244f59bbbcf0,1,0,120.423274,27.942361,,education,http://api.map.baidu.com/place/detail?uid=ffc931796a08244f59bbbcf0&output=html&source=placeapi_v2,,,0.0,,,,,,,,0,,,,,,,120.42337815474,27.94242168043,0
f633606a3daa5c4d0b69d964,岷岗小学,教育培训,小学,浙江省,温州市,瓯海区,浙江省温州市瓯海区潘桥街道西路17号,,1,0,120.548647,27.942791,,education,http://api.map.baidu.com/place/detail?uid=f633606a3daa5c4d0b69d964&output=html&source=placeapi_v2,,,0.0,,,,,,,,,,,,,,,120.54881916744,27.942980696256,0
2cc3c8e879496ad54d2fdf64,潘桥镇第二小学,教育培训,小学,浙江省,温州市,瓯海区,浙江省温州市瓯海区新培路3号,2cc3c8e879496ad54d2fdf64,1,0,120.566722,27.926049,,education,http://api.map.baidu.com/place/detail?uid=2cc3c8e879496ad54d2fdf64&output=html&source=placeapi_v2,,,0.0,,,,,,,,,,,,,,,120.56705346615,27.925803364684,0
a7a78920d95eeee9f02d8378,潘桥行知小学,教育培训,小学,浙江省,温州市,瓯海区,潘桥街道焦下村东花路54弄1-2号,,1,0,120.60134,27.936482,(0577)56892788,education,http://api.map.baidu.com/place/detail?uid=a7a78920d95eeee9f02d8378&output=html&source=placeapi_v2,,,0.0,,,,,,,,,,,,,,,120.60166928329,27.936186227624,0
cbc0ec2a9ce8a38c16a1907e,娄桥河庄小学,教育培训,小学,浙江省,温州市,瓯海区,浙江省温州市瓯海区育童路27号,,1,1,120.604868,27.947608,,education,http://api.map.baidu.com/place/detail?uid=cbc0ec2a9ce8a38c16a1907e&output=html&source=placeapi_v2,,,5,,,,,,,,3,,,,,,,120.60515600132,27.947335233677,1
f757e6eea9a8b414260bd064,陈庄小学,教育培训,小学,浙江省,温州市,瓯海区,浙江省温州市瓯海区潘桥街道后岸西路3号,f757e6eea9a8b414260bd064,1,2,120.589599,27.942295,(0577)55591209,education,http://api.map.baidu.com/place/detail?uid=f757e6eea9a8b414260bd064&output=html&source=placeapi_v2,,,0.0,,,,,,,,,,,,,,,120.58918765521,27.942593765907,2
81f00b41b84f5b7a88fc06a5,潘桥老竹小学,教育培训,小学,浙江省,温州市,瓯海区,浙江省温州市瓯海区潘桥街道东边,,1,0,120.589546,27.929044,(0577)55592339,education,http://api.map.baidu.com/place/detail?uid=81f00b41b84f5b7a88fc06a5&output=html&source=placeapi_v2,,,,,,,,,,,,,,,,,,120.58991362979,27.928762557887,0
f91c85a3165f93ff0d0a709d,银河湾小区(学员路),教育培训,小学,浙江省,温州市,瓯海区,浙江省温州市瓯海区学员路银河湾2幢,f91c85a3165f93ff0d0a709d,1,2,120.606014,27.947555,,education,http://api.map.baidu.com/place/detail?uid=f91c85a3165f93ff0d0a709d&output=html&source=placeapi_v2,,,,,,,,,,,,,,,,,,120.60574173964,27.947797169252,2
fa7da3e8449e3f6142d63e1c,南村小学,教育培训,小学,浙江省,温州市,瓯海区,浙江省温州市瓯海区聚心路50号,,1,0,120.659669,27.943814,(0577)56585261,education,http://api.map.baidu.com/place/detail?uid=fa7da3e8449e3f6142d63e1c&output=html&source=placeapi_v2,,,1,,,,,,,,2,,,,,,,120.6594708088,27.9435066839,0
25893f5dda45d714e115f9dc,娄桥第三小学,教育培训,小学,浙江省,温州市,瓯海区,浙江省温州市瓯海区吹台西路1号,,1,0,120.625723,27.949817,(0577)86288869,education,http://api.map.baidu.com/place/detail?uid=25893f5dda45d714e115f9dc&output=html&source=placeapi_v2,0.0,,0,,,,,,,,1,,,,,,,120.62469129943,27.94933527475,0
76c162fb149a26e62a02e135,南白象镇中心小学,教育培训,小学,浙江省,温州市,瓯海区,温州市瓯海区温丽高速与温瑞大道交叉路口往西南约180米,a5e6787f47733e8c02ff2d48,1,0,120.691943,27.937028,,education,http://api.map.baidu.com/place/detail?uid=76c162fb149a26e62a02e135&output=html&source=placeapi_v2,,,0.0,,,,,,,,1,,,,,,,120.69185771108,27.936887335594,0
bff8fa7dd26a3ea3c8213d1c,鹅湖小学,教育培训,小学,浙江省,温州市,瓯海区,浙江省温州市瓯海区南白象镇花园浃路49号,bff8fa7dd26a3ea3c8213d1c,1,1,120.687798,27.928739,,education,http://api.map.baidu.com/place/detail?uid=bff8fa7dd26a3ea3c8213d1c&output=html&source=placeapi_v2,,,0,,,,,,,,2,,,,,,,120.68737550076,27.928570997807,1
85c2b1419ac5c9161c389467,金竹小学,教育培训,小学,浙江省,温州市,瓯海区,浙江省温州市瓯海区一零四国道南白象段1639号,85c2b1419ac5c9161c389467,1,0,120.67316,27.940915,,education,http://api.map.baidu.com/place/detail?uid=85c2b1419ac5c9161c389467&output=html&source=placeapi_v2,,,,,,,,,,,,,,,,,,,,0
116f2d54a0aef7e18c55ec62,温州大学附属南白象实验小学,教育培训,小学,浙江省,温州市,瓯海区,浙江省温州市瓯海区霞坊北路1号,116f2d54a0aef7e18c55ec62,1,1,120.689029,27.944514,(0577)56691218,education,http://api.map.baidu.com/place/detail?uid=116f2d54a0aef7e18c55ec62&output=html&source=placeapi_v2,,,5,,,,,,,,1,,,,,,,120.68916878895,27.945205968672,1
00902473779a876db8bd6345,北京外国语大学温州附属学校-小学部,教育培训,小学,浙江省,温州市,瓯海区,浙江省温州市瓯海区泽汇路300号,,1,0,120.683132,27.955353,,education,http://api.map.baidu.com/place/detail?uid=00902473779a876db8bd6345&output=html&source=placeapi_v2,,,,,,,,,,,,,,,,,,120.68333801994,27.955002572178,0
e56bf5e3d171ae390782c2fd,茶山镇第二小学,教育培训,小学,浙江省,温州市,瓯海区,温州市瓯海区后京路大罗山,,1,0,120.72357,27.935594,,education,http://api.map.baidu.com/place/detail?uid=e56bf5e3d171ae390782c2fd&output=html&source=placeapi_v2,,,0.0,,,,,,,,,,,,,,,120.72332982395,27.935520977163,0
960d209eeb8f95d69cec2b25,啸秋小学,教育培训,小学,浙江省,温州市,瓯海区,浙江省温州市瓯海区三茶路268号,,1,0,120.709812,27.950657,,education,http://api.map.baidu.com/place/detail?uid=960d209eeb8f95d69cec2b25&output=html&source=placeapi_v2,,,0,,,,,,,,1,,,,,,,120.70957427291,27.950216608537,0
2a180327a5d9089e9e95ded3,温州城市大学附属小学,教育培训,小学,浙江省,温州市,龙湾区,浙江省温州市龙湾区龙永路瑶溪第一小学,2a180327a5d9089e9e95ded3,1,0,120.777409,27.943068,,education,http://api.map.baidu.com/place/detail?uid=2a180327a5d9089e9e95ded3&output=html&source=placeapi_v2,,,,,,,,,,,,,,,,,,120.77732531167,27.943070298903,0
0f52db1a12f5f9d946e2749c,温州市龙湾区少年艺术国际学校,教育培训,小学,浙江省,温州市,龙湾区,浙江省温州市龙湾区孚敬路202号,0f52db1a12f5f9d946e2749c,1,0,120.786089,27.94252,(0577)86605051,education,http://api.map.baidu.com/place/detail?uid=0f52db1a12f5f9d946e2749c&output=html&source=placeapi_v2,,,,,,,,,,,,,,,,,,120.78625881982,27.942420068713,0
e3aa7d68c4cda8b9b75f1e7a,温州市龙湾区外国语小学,教育培训,小学,浙江省,温州市,龙湾区,浙江省温州市龙湾区永中街道永中西路1158号万康御园7号,e3aa7d68c4cda8b9b75f1e7a,1,3,120.813654,27.930271,,education,http://api.map.baidu.com/place/detail?uid=e3aa7d68c4cda8b9b75f1e7a&output=html&source=placeapi_v2,,,0.0,,,,,,,,,,,,,,,120.81301056541,27.930281899667,3
c4487e5bd5a7ee239a0050ae,温州市龙湾区第一小学,教育培训,小学,浙江省,温州市,龙湾区,浙江省温州市龙湾区龙祥路2999号,c4487e5bd5a7ee239a0050ae,1,3,120.823379,27.945486,(0577)85882035,education,http://api.map.baidu.com/place/detail?uid=c4487e5bd5a7ee239a0050ae&output=html&source=placeapi_v2,,,0.0,,,,,,,,,,,,,,,120.82350866306,27.945112064587,3
50fb64ff38ce285ee8f853b3,龙湾区龙水第一小学,教育培训,小学,浙江省,温州市,龙湾区,浙江省温州市龙湾区青龙路8号,50fb64ff38ce285ee8f853b3,1,1,120.804144,27.945001,(0577)86617208,education,http://api.map.baidu.com/place/detail?uid=50fb64ff38ce285ee8f853b3&output=html&source=placeapi_v2,,,0,,,,,,,,1,,,,,,,120.80361638912,27.94535417853,1
7bfa08fc43a6280125d2bb66,温州市龙湾区第二小学,教育培训,小学,浙江省,温州市,龙湾区,浙江省温州市龙湾区古浦路6号,7bfa08fc43a6280125d2bb66,1,2,120.820084,27.931969,,education,http://api.map.baidu.com/place/detail?uid=7bfa08fc43a6280125d2bb66&output=html&source=placeapi_v2,,,5,,,,,,,,3,,,,,,,120.81936220969,27.932467277858,2
8d96925cb6ca7344c1f1cfde,龙湾区龙水第三小学,教育培训,小学,浙江省,温州市,龙湾区,浙江省温州市龙湾区青龙路258号,8d96925cb6ca7344c1f1cfde,1,1,120.801762,27.93539,,education,http://api.map.baidu.com/place/detail?uid=8d96925cb6ca7344c1f1cfde&output=html&source=placeapi_v2,,,5,,,,,,,,2,,,,,,,120.80230434116,27.935274737185,1
49a02a7aed7de73d2b201a0e,龙湾区第二小学集团校(河滨校区),教育培训,小学,浙江省,温州市,龙湾区,浙江省温州市龙湾区首辅路2号,49a02a7aed7de73d2b201a0e,1,1,120.791811,27.940566,,education,http://api.map.baidu.com/place/detail?uid=49a02a7aed7de73d2b201a0e&output=html&source=placeapi_v2,,,0.0,,,,,,,,0,,,,,,,120.79133239904,27.940704532388,1
93df0dc331a56c28882fb51a,海滨二小,教育培训,小学,浙江省,温州市,龙湾区,浙江省温州市龙湾区宁城横街6号,93df0dc331a56c28882fb51a,1,1,120.856011,27.932219,(0577)86890001,education,http://api.map.baidu.com/place/detail?uid=93df0dc331a56c28882fb51a&output=html&source=placeapi_v2,,,5,,,,,,,,2,,,,,,,120.85616408862,27.931342908725,1
d6cecbfb272f6b2b38221ce3,龙湾区瑶溪第六小学,教育培训,小学,浙江省,温州市,龙湾区,温州市龙湾区机场大道与金水路交叉路口往西约170米,d6cecbfb272f6b2b38221ce3,1,2,120.838457,27.95261,,education,http://api.map.baidu.com/place/detail?uid=d6cecbfb272f6b2b38221ce3&output=html&source=placeapi_v2,,,0.0,,,,,,,,,,,,,,,120.83914811617,27.952342593966,2
e1d213812efe3c48b21e3629,温州市龙湾区瑶溪杰英希望学校,教育培训,小学,浙江省,温州市,龙湾区,浙江省温州市龙湾区文华路70号,e1d213812efe3c48b21e3629,1,1,120.838623,27.949038,(0577)86871399,education,http://api.map.baidu.com/place/detail?uid=e1d213812efe3c48b21e3629&output=html&source=placeapi_v2,,,0.0,,,,,,,,0,,,,,,,120.83913453648,27.949257522902,1
30a1fb039072afb4bbbd63b5,瑞安金山村小学,教育培训,小学,浙江省,温州市,瑞安市,温州市瑞安市林陈线泽雅风景名胜区,30a1fb039072afb4bbbd63b5,1,0,120.465951,27.972971,,education,http://api.map.baidu.com/place/detail?uid=30a1fb039072afb4bbbd63b5&output=html&source=placeapi_v2,,,0.0,,,,,,,,,,,,,,,120.46598649724,27.972783295886,0
2848ffd6287b440c48cc4a65,瑞安市岭雅小学,教育培训,小学,浙江省,温州市,瑞安市,浙江省温州市瑞安市泽雅风景区瑞安市岭雅小学(金山路南),,1,0,120.465608,27.973338,,education,http://api.map.baidu.com/place/detail?uid=2848ffd6287b440c48cc4a65&output=html&source=placeapi_v2,,,0.0,,,,,,,,0,,,,,,,120.46580512397,27.973363889331,0
b0d056f27decf97dcac3db64,燎原小学,教育培训,小学,浙江省,温州市,瓯海区,温州市瓯海区凤凰街288号,b0d056f27decf97dcac3db64,1,2,120.566901,27.985472,(0577)56776001,education,http://api.map.baidu.com/place/detail?uid=b0d056f27decf97dcac3db64&output=html&source=placeapi_v2,,,0.0,,,,,,,,0,,,,,,,120.56745190476,27.984938863486,2
4b0a45b25af978064f3a5937,翟溪华阳小学,教育培训,小学,浙江省,温州市,瓯海区,浙江省温州市瓯海区万超路2号,4b0a45b25af978064f3a5937,1,0,120.548727,27.984962,,education,http://api.map.baidu.com/place/detail?uid=4b0a45b25af978064f3a5937&output=html&source=placeapi_v2,,,0.0,,,,,,,,,,,,,,,120.54878784802,27.984866559492,0
a6f043781719120cb9df8f45,温州市瓯海区瞿溪华阳小学,教育培训,小学,浙江省,温州市,瓯海区,浙江省温州市瓯海区瞿雄路51号,,1,0,120.546903,27.971245,,education,http://api.map.baidu.com/place/detail?uid=a6f043781719120cb9df8f45&output=html&source=placeapi_v2,,,,,,,,,,,1,,,,,,,120.54642225927,27.970969633593,0
d7fd2ad3bdb9c2570bccdd64,温州市瓯海区瞿溪第四小学,教育培训,小学,浙江省,温州市,瓯海区,浙江省温州市瓯海区瞿雄路27号,d7fd2ad3bdb9c2570bccdd64,1,0,120.546903,27.971245,,education,http://api.map.baidu.com/place/detail?uid=d7fd2ad3bdb9c2570bccdd64&output=html&source=placeapi_v2,,,5,,,,,,,,1,,,,,,,120.54747007785,27.970739852921,0
f696f3c2be46fde81b11d564,古岸头小学,教育培训,小学,浙江省,温州市,瓯海区,温州市瓯海区金湖街1号,f696f3c2be46fde81b11d564,1,1,120.604404,27.977537,,education,http://api.map.baidu.com/place/detail?uid=f696f3c2be46fde81b11d564&output=html&source=placeapi_v2,,,0,,,,,,,,1,,,,,,,120.60468315576,27.977622826317,1
af003718f5b672bbc61e51d1,温州市瓯海区实验小学(娄桥校区),教育培训,小学,浙江省,温州市,瓯海区,浙江省温州市瓯海区环山路21号,af003718f5b672bbc61e51d1,1,0,120.636613,27.968737,(0577)55591133,education,http://api.map.baidu.com/place/detail?uid=af003718f5b672bbc61e51d1&output=html&source=placeapi_v2,,,0.0,,,,,,,,,,,,,,,120.63746857242,27.968290317824,0
1f4a60120e7fbd4d110daad2,瓯海区外国语学校小学分校,教育培训,小学,浙江省,温州市,瓯海区,浙江省温州市瓯海区娄桥街道安居二路1号,1f4a60120e7fbd4d110daad2,1,1,120.63126,27.960943,(0577)56559251,education,http://api.map.baidu.com/place/detail?uid=1f4a60120e7fbd4d110daad2&output=html&source=placeapi_v2,,,5,,,,,,,,3,,,,,,,120.63120115776,27.960753025153,1
f19b4688170a1f952fb96d3b,娄桥南山小学,教育培训,小学,浙江省,温州市,瓯海区,温州市瓯海区环山路娄桥街道东风村老人临时周转房东南侧约80米,f19b4688170a1f952fb96d3b,1,0,120.635082,27.964542,,education,http://api.map.baidu.com/place/detail?uid=f19b4688170a1f952fb96d3b&output=html&source=placeapi_v2,,,,,,,,,,,,,,,,,,120.63511450445,27.964540231767,0
cdfd32beadcec1790782c288,鹿城区瓯越小学春蕾校区,教育培训,小学,浙江省,温州市,瓯海区,浙江省温州市瓯海区炬科路43号,cdfd32beadcec1790782c288,1,1,120.659136,27.976363,(0577)88636696,education,http://api.map.baidu.com/place/detail?uid=cdfd32beadcec1790782c288&output=html&source=placeapi_v2,,,0,,,,,,,,2,,,,,,,120.65903372478,27.976559744726,1
d7f6023205d97834ac045786,温州市未来小学教育集团(南瓯校区),教育培训,小学,浙江省,温州市,瓯海区,浙江省温州市瓯海区梧田街道南瓯明园16幢,d7f6023205d97834ac045786,1,0,120.69858,27.980736,,education,http://api.map.baidu.com/place/detail?uid=d7f6023205d97834ac045786&output=html&source=placeapi_v2,,,5,,,,,,,,2,,,,,,,120.69938096403,27.980775533889,0
e96b44200a55385883288a8d,温州市未来小学教育集团(龙霞校区),教育培训,小学,浙江省,温州市,瓯海区,浙江省温州市瓯海区横塘中路40号,e96b44200a55385883288a8d,1,1,120.679311,27.983729,,education,http://api.map.baidu.com/place/detail?uid=e96b44200a55385883288a8d&output=html&source=placeapi_v2,,,5,,,,,,,,2,,,,,,,120.67908121602,27.983029088759,1
e56bf5e3c82cb5470782c21c,温州市瓯海区实验小学(前汇校区),教育培训,小学,浙江省,温州市,瓯海区,浙江省温州市瓯海区前汇路2号,e56bf5e3c82cb5470782c21c,1,1,120.690146,27.971436,(0577)55886868,education,http://api.map.baidu.com/place/detail?uid=e56bf5e3c82cb5470782c21c&output=html&source=placeapi_v2,,,0.0,,,,,,,,1,,,,,,,120.68928943946,27.971193130229,1
d3b045f3bbc15272d12dd629,新生小学,教育培训,小学,浙江省,温州市,瓯海区,温州市瓯海区横港头路华润悦府北侧约140米,d3b045f3bbc15272d12dd629,1,0,120.689819,27.960899,,education,http://api.map.baidu.com/place/detail?uid=d3b045f3bbc15272d12dd629&output=html&source=placeapi_v2,,,,,,,,,,,,,,,,,,,,0
a10716f0c05c562d4251c018,新瓯小学,教育培训,小学,浙江省,温州市,瓯海区,浙江省温州市瓯海区前王路1号,,1,0,120.673699,27.965684,,education,http://api.map.baidu.com/place/detail?uid=a10716f0c05c562d4251c018&output=html&source=placeapi_v2,,,,,,,,,,,,,,,,,,120.67385673226,27.965784821716,0
00902473779a876db8bd6345,北京外国语大学温州附属学校-小学部,教育培训,小学,浙江省,温州市,瓯海区,浙江省温州市瓯海区泽汇路300号,,1,0,120.683132,27.955353,,education,http://api.map.baidu.com/place/detail?uid=00902473779a876db8bd6345&output=html&source=placeapi_v2,,,,,,,,,,,,,,,,,,120.68333801994,27.955002572178,0
75d49b6514c16b2b21026284,瓯海区南瓯实验小学,教育培训,小学,浙江省,温州市,瓯海区,浙江省温州市瓯海区东东路b2区16幢,,1,0,120.698523,27.981003,(0577)56575801,education,http://api.map.baidu.com/place/detail?uid=75d49b6514c16b2b21026284&output=html&source=placeapi_v2,,,,,,,,,,,,,,,,,,120.69855608152,27.980477973563,0
525ba2a739d2082d51e5c5c3,温州市瓯海区梧埏镇中心学校,教育培训,小学,浙江省,温州市,瓯海区,浙江省温州市瓯海区盛新路2号,,1,1,120.692892,27.975509,(0577)56951066,education,http://api.map.baidu.com/place/detail?uid=525ba2a739d2082d51e5c5c3&output=html&source=placeapi_v2,,,,,,,,,,,,,,,,,,120.69285100791,27.97536495513,1
df9a8357ec067f5aa8175ade,三三小(上校区),教育培训,小学,浙江省,温州市,瓯海区,浙江省温州市瓯海区夏家牌路84号,df9a8357ec067f5aa8175ade,1,0,120.726987,27.968746,,education,http://api.map.baidu.com/place/detail?uid=df9a8357ec067f5aa8175ade&output=html&source=placeapi_v2,,,,,,,,,,,,,,,,,,,,0
59ffe8cef0a638701fe99952,瓯海区南仙实验小学,教育培训,小学,浙江省,温州市,瓯海区,温州市瓯海区三街道南仙家园1幢1号,59ffe8cef0a638701fe99952,1,0,120.719737,27.977061,(0577)56951786,education,http://api.map.baidu.com/place/detail?uid=59ffe8cef0a638701fe99952&output=html&source=placeapi_v2,,,,,,,,,,,,,,,,,,120.7198996255,27.977571236294,0
1eafd4eee21be84fcf06a44c,三第一小学,教育培训,小学,浙江省,温州市,瓯海区,浙江温州市瓯海区牡丹路103号,,1,1,120.714309,27.970113,,education,http://api.map.baidu.com/place/detail?uid=1eafd4eee21be84fcf06a44c&output=html&source=placeapi_v2,,,5,,,,,,,,1,,,,,,,120.71441117377,27.970420816741,1
f5e3bcaecc7af0c25e17c31c,三第三小学,教育培训,小学,浙江省,温州市,瓯海区,浙江省温州市瓯海区黄屿路3号,f5e3bcaecc7af0c25e17c31c,1,1,120.724822,27.98213,,education,http://api.map.baidu.com/place/detail?uid=f5e3bcaecc7af0c25e17c31c&output=html&source=placeapi_v2,,,5,,,,,,,,2,,,,,,,120.72528354501,27.982104815061,1
0cab39b948611ac80869d905,龙湾区状元第二小学,教育培训,小学,浙江省,温州市,龙湾区,浙江省温州市龙湾区小学路22号,0cab39b948611ac80869d905,1,0,120.737401,27.9599,(0577)55560078,education,http://api.map.baidu.com/place/detail?uid=0cab39b948611ac80869d905&output=html&source=placeapi_v2,,,4.5,,,,,,,,2,,,,,,,120.73754597397,27.960337102467,0
080ad58631ef6fc5d7851fef,三郎桥小学,教育培训,小学,浙江省,温州市,龙湾区,温州市龙湾区大岙路与小学路交叉路口往西北约130米,080ad58631ef6fc5d7851fef,1,0,120.737554,27.960628,,education,http://api.map.baidu.com/place/detail?uid=080ad58631ef6fc5d7851fef&output=html&source=placeapi_v2,,,0.0,,,,,,,,,,,,,,,120.73749194987,27.960389731085,0
81d6a509967202436e20b91a,龙湾区实验小学,教育培训,小学,浙江省,温州市,龙湾区,浙江省温州市龙湾区耐宝路98号,81d6a509967202436e20b91a,1,1,120.774853,27.97577,(0577)86571906,education,http://api.map.baidu.com/place/detail?uid=81d6a509967202436e20b91a&output=html&source=placeapi_v2,,,5,,,,,,,,2,,,,,,,120.77480277996,27.975232553869,1
b3aa435d8962490815764315,龙湾区状元第三小学,教育培训,小学,浙江省,温州市,龙湾区,浙江省温州市龙湾区开元路2号,b3aa435d8962490815764315,1,1,120.763466,27.967505,,education,http://api.map.baidu.com/place/detail?uid=b3aa435d8962490815764315&output=html&source=placeapi_v2,,,0,,,,,,,,1,,,,,,,120.76274001019,27.967477663019,1
cea2fb16db4f3bfe96ca0790,龙湾区雅德小学,教育培训,小学,浙江省,温州市,龙湾区,浙江省温州市龙湾区机场大道2078号,cea2fb16db4f3bfe96ca0790,1,1,120.759366,27.97978,(0577)86558585,education,http://api.map.baidu.com/place/detail?uid=cea2fb16db4f3bfe96ca0790&output=html&source=placeapi_v2,,,0,,,,,,,,2,,,,,,,120.7593222353,27.979710426652,1
e8e77156b441ac6816c9052e,龙湾区状元第一小学,教育培训,小学,浙江省,温州市,龙湾区,浙江省温州市龙湾区龙飞西路50号,e8e77156b441ac6816c9052e,1,0,120.760821,27.980961,(0577)56579055,education,http://api.map.baidu.com/place/detail?uid=e8e77156b441ac6816c9052e&output=html&source=placeapi_v2,,,5,,,,,,,,3,,,,,,,120.76036536742,27.98058887264,0
c1653405168a3c78aa175a86,龙湾区横街学校,教育培训,小学,浙江省,温州市,龙湾区,浙江省温州市龙湾区龙飞西路50号,c1653405168a3c78aa175a86,1,1,120.760652,27.980975,(0577)56579055,education,http://api.map.baidu.com/place/detail?uid=c1653405168a3c78aa175a86&output=html&source=placeapi_v2,,,5,,,,,,,,2,,,,,,,120.76039334695,27.98053334472,1
4eb3b5330b6e1f0b420245ba,瑶溪镇第三小学,教育培训,小学,浙江省,温州市,龙湾区,浙江省温州市龙湾区东河路48号,4eb3b5330b6e1f0b420245ba,1,2,120.813952,27.968357,,education,http://api.map.baidu.com/place/detail?uid=4eb3b5330b6e1f0b420245ba&output=html&source=placeapi_v2,,,0.0,,,,,,,,0,,,,,,,120.81483878062,27.968376891947,2
c3c2d7a90f23811388f15d42,灵昆第一小学,教育培训,小学,浙江省,温州市,洞头区,温州市洞头区兴灵路附近,c3c2d7a90f23811388f15d42,1,0,120.898811,27.970059,,education,http://api.map.baidu.com/place/detail?uid=c3c2d7a90f23811388f15d42&output=html&source=placeapi_v2,,,5.0,,,,,,,,1,,,,,,,120.89891911722,27.969503012849,0
db1f39d47110e012f5c59c0e,灵南小学,教育培训,小学,浙江省,温州市,洞头区,温州市洞头区南单千路180号,db1f39d47110e012f5c59c0e,1,0,120.883181,27.967424,(0577)86980197,education,http://api.map.baidu.com/place/detail?uid=db1f39d47110e012f5c59c0e&output=html&source=placeapi_v2,,,0.0,,,,,,,,0,,,,,,,120.88347876724,27.967174341372,0
9846f14817e1c5c701294f3f,后坑小学,教育培训,小学,浙江省,温州市,瓯海区,温州市瓯海区龙西线泽雅风景名胜区,9846f14817e1c5c701294f3f,1,0,120.426736,28.005576,,education,http://api.map.baidu.com/place/detail?uid=9846f14817e1c5c701294f3f&output=html&source=placeapi_v2,,,0.0,,,,,,,,0,,,,,,,,,0
ed8c0b7eab37b5e3d6b74ef1,郭西旧小学,教育培训,小学,浙江省,温州市,瓯海区,岭根西路与郑山头路交叉口西100米,,1,0,120.531497,28.014643,,education,http://api.map.baidu.com/place/detail?uid=ed8c0b7eab37b5e3d6b74ef1&output=html&source=placeapi_v2,,,0.0,,,,,,,,0,,,,,,,,,0
8d955858a053b4d09d82ea5e,瓯海区郭溪第五小学,教育培训,小学,浙江省,温州市,瓯海区,浙江省温州市瓯海区金前路44号,,1,0,120.558962,28.006766,,education,http://api.map.baidu.com/place/detail?uid=8d955858a053b4d09d82ea5e&output=html&source=placeapi_v2,,,0.0,,,,,,,,,,,,,,,120.5585641509,28.006689120449,0
a8bab7c6325da022f6c59cd5,郭溪二小,教育培训,小学,浙江省,温州市,瓯海区,浙江省温州市瓯海区温瞿西路1454号,a8bab7c6325da022f6c59cd5,1,0,120.542812,28.00693,,education,http://api.map.baidu.com/place/detail?uid=a8bab7c6325da022f6c59cd5&output=html&source=placeapi_v2,,,0.0,,,,,,,,1,,,,,,,120.54298449619,28.007258556004,0
c67ea2ed238c35c982a12e33,郭溪实验小学,教育培训,小学,浙江省,温州市,瓯海区,浙江省温州市瓯海区沿河路1号,,1,0,120.544977,28.003878,,education,http://api.map.baidu.com/place/detail?uid=c67ea2ed238c35c982a12e33&output=html&source=placeapi_v2,,,,,,,,,,,,,,,,,,120.54482533977,28.003854056352,0
cc788fdee92a59f788fc06f5,温州市双屿小学(宁波路校区),教育培训,小学,浙江省,温州市,鹿城区,浙江省温州市鹿城区岭头中路35号1栋,,1,0,120.602755,28.010867,,education,http://api.map.baidu.com/place/detail?uid=cc788fdee92a59f788fc06f5&output=html&source=placeapi_v2,,,2,,,,,,,,2,,,,,,,120.60233857838,28.010747404707,0
bff8fa7d4e64baddc8213d13,郭溪镇第六小学,教育培训,小学,浙江省,温州市,瓯海区,浙江省温州市瓯海区渚浦路289号,bff8fa7d4e64baddc8213d13,1,1,120.609448,28.002884,,education,http://api.map.baidu.com/place/detail?uid=bff8fa7d4e64baddc8213d13&output=html&source=placeapi_v2,,,4,,,,,,,,1,,,,,,,120.60974590141,28.002691389096,1
f0fcef7fc1ddf0c788db733c,渚浦小学,教育培训,小学,浙江省,温州市,瓯海区,浙江省温州市瓯海区渚浦路297号,f0fcef7fc1ddf0c788db733c,1,0,120.610136,28.003061,,education,http://api.map.baidu.com/place/detail?uid=f0fcef7fc1ddf0c788db733c&output=html&source=placeapi_v2,,,0.0,,,,,,,,,,,,,,,,,0
56f2f69679b83d830aa8d464,瓯海区郭溪第三小学,教育培训,小学,浙江省,温州市,瓯海区,浙江省温州市瓯海区景德东路188号,56f2f69679b83d830aa8d464,1,2,120.589611,27.996431,(0577)86101606,education,http://api.map.baidu.com/place/detail?uid=56f2f69679b83d830aa8d464&output=html&source=placeapi_v2,,,0.0,,,,,,,,,,,,,,,120.58947939071,27.995840160739,2
060f5e53d82befd4091cc7ad,温州市黄龙第一小学,教育培训,小学,浙江省,温州市,鹿城区,浙江省温州市鹿城区映翠路23号,060f5e53d82befd4091cc7ad,1,2,120.609358,28.018247,(0577)88750198,education,http://api.map.baidu.com/place/detail?uid=060f5e53d82befd4091cc7ad&output=html&source=placeapi_v2,,,0,,,,,,,,2,,,,,,,120.61001567693,28.017990380374,2
f59e82de001419ddf70e7778,温州市瓯越小学(双岙校区),教育培训,小学,浙江省,温州市,鹿城区,浙江省温州市鹿城区上岙路62号,,1,0,120.593332,28.017285,,education,http://api.map.baidu.com/place/detail?uid=f59e82de001419ddf70e7778&output=html&source=placeapi_v2,,,0.0,,,,,,,,0,,,,,,,120.59354235646,28.017183389298,0
d305db1fea59353d932ca311,温州市黄龙第二小学,教育培训,小学,浙江省,温州市,鹿城区,浙江省温州市鹿城区康强路1号四区,d305db1fea59353d932ca311,1,2,120.612749,28.014618,,education,http://api.map.baidu.com/place/detail?uid=d305db1fea59353d932ca311&output=html&source=placeapi_v2,,,0,,,,,,,,2,,,,,,,120.61210219898,28.014232660509,2
28a3568376a713d122022097,郭溪第三小学警务联系点,教育培训,小学,浙江省,温州市,瓯海区,温州市瓯海区景德东路瓯海区郭溪第三小学,,1,0,120.589604,27.99592,,education,http://api.map.baidu.com/place/detail?uid=28a3568376a713d122022097&output=html&source=placeapi_v2,,,,,,,,,,,,,,,,,,120.58948018121,27.995720064326,0
0ce65c2dfe9f885b2d47331d,瓯海区景山小学,教育培训,小学,浙江省,温州市,瓯海区,浙江省温州市瓯海区雪山路景山组团25号,0ce65c2dfe9f885b2d47331d,1,1,120.644681,28.00692,,education,http://api.map.baidu.com/place/detail?uid=0ce65c2dfe9f885b2d47331d&output=html&source=placeapi_v2,,,0,,,,,,,,2,,,,,,,120.64416067179,28.007338269263,1
d28bde0c0f4ccb57dbeceda6,温州市双桥小学,教育培训,小学,浙江省,温州市,鹿城区,温州市鹿城区广化南路将军公寓(将工区10座楼西北)西侧约140米,d28bde0c0f4ccb57dbeceda6,1,0,120.636602,28.01138,(0577)56961200,education,http://api.map.baidu.com/place/detail?uid=d28bde0c0f4ccb57dbeceda6&output=html&source=placeapi_v2,,,,,,,,,,,,,,,,,,,,0
50ca81808601c9d242d63e17,温州市沁园小学,教育培训,小学,浙江省,温州市,鹿城区,浙江省温州市鹿城区水心路416号,50ca81808601c9d242d63e17,1,1,120.648781,28.004871,(0577)56573835,education,http://api.map.baidu.com/place/detail?uid=50ca81808601c9d242d63e17&output=html&source=placeapi_v2,,,0.0,,,,,,,,,,,,,,,120.64872348168,28.004952542184,1
ba8cfca94f06c921213bf2c1,温州市瓯海区新桥第一小学,教育培训,小学,浙江省,温州市,瓯海区,浙江省温州市瓯海区靖宁街108号,ba8cfca94f06c921213bf2c1,1,1,120.632328,27.991993,,education,http://api.map.baidu.com/place/detail?uid=ba8cfca94f06c921213bf2c1&output=html&source=placeapi_v2,,,0,,,,,,,,2,,,,,,,120.63267818133,27.991311348789,1
f2acd70e2f08218217b54ba9,温州市会昌小学,教育培训,小学,浙江省,温州市,瓯海区,浙江省温州市瓯海区西山西路52号,,1,0,120.636318,27.995891,,education,http://api.map.baidu.com/place/detail?uid=f2acd70e2f08218217b54ba9&output=html&source=placeapi_v2,,,,,,,,,,,,,,,,,,,,0
96bb0e170f89485b9122e0e1,温州市百里路小学(勤奋路校区),教育培训,小学,浙江省,温州市,鹿城区,浙江省温州市鹿城区涌金花园大门西首,96bb0e170f89485b9122e0e1,1,2,120.644326,28.016559,,education,http://api.map.baidu.com/place/detail?uid=96bb0e170f89485b9122e0e1&output=html&source=placeapi_v2,,,0.0,,,,,,,,,,,,,,,120.64406457646,28.016233321225,2
65f628c2056bbc8ab75f1ec1,温州市籀园小学,教育培训,小学,浙江省,温州市,鹿城区,温州市鹿城区胜昔桥路54号,65f628c2056bbc8ab75f1ec1,1,1,120.653337,28.018507,"(0577)56966256,(0577)56966271",education,http://api.map.baidu.com/place/detail?uid=65f628c2056bbc8ab75f1ec1&output=html&source=placeapi_v2,,,4.2,,,,,,,,8,,,,,,,120.65377508565,28.017955468048,1
2fd2beab5f6edc517adbd204,石坦巷小学,教育培训,小学,浙江省,温州市,鹿城区,浙江省温州市鹿城区信河街胜昔桥7号,2fd2beab5f6edc517adbd204,1,2,120.656438,28.016889,,education,http://api.map.baidu.com/place/detail?uid=2fd2beab5f6edc517adbd204&output=html&source=placeapi_v2,,,0,,,,,,,,1,,,,,,,120.6569106381,28.017747382567,2
c61bd3050f92336bc27da211,温州市黄龙第三小学,教育培训,小学,浙江省,温州市,鹿城区,浙江省温州市鹿城区瓯浦路黄龙康城五组团1号,c61bd3050f92336bc27da211,1,1,120.625117,28.013776,(0577)55882627,education,http://api.map.baidu.com/place/detail?uid=c61bd3050f92336bc27da211&output=html&source=placeapi_v2,,,0,,,,,,,,1,,,,,,,120.62540840684,28.014286624592,1
1f5ba281e0e0781a57bfff06,温州市城南小学(会昌河校区),教育培训,小学,浙江省,温州市,鹿城区,浙江省温州市鹿城区前黄路59号,1f5ba281e0e0781a57bfff06,1,1,120.65235,27.99519,,education,http://api.map.baidu.com/place/detail?uid=1f5ba281e0e0781a57bfff06&output=html&source=placeapi_v2,,,0,,,,,,,,1,,,,,,,120.65181756925,27.994831413281,1
498387cdebb8e338873304cb,温州市水心小学(新村校区),教育培训,小学,浙江省,温州市,鹿城区,浙江省温州市鹿城区人民路120号,498387cdebb8e338873304cb,1,2,120.656576,28.012071,,education,http://api.map.baidu.com/place/detail?uid=498387cdebb8e338873304cb&output=html&source=placeapi_v2,,,3,,,,,,,,1,,,,,,,120.65592107103,28.011990983323,2
2a19229618327a0e3ce23163,温州市百里路小学(鹿城路校区),教育培训,小学,浙江省,温州市,鹿城区,浙江省温州市鹿城区鹿城路706号,,1,1,120.634367,28.021637,,education,http://api.map.baidu.com/place/detail?uid=2a19229618327a0e3ce23163&output=html&source=placeapi_v2,,,0,,,,,,,,1,,,,,,,120.63492525034,28.020804292796,1
fd007c5e15892e6fa8f7291c,温州市蒲鞋市小学,教育培训,小学,浙江省,温州市,鹿城区,浙江省温州市鹿城区龟湖路34号附3号,1f015ec5419724f304fef534,1,0,120.678907,28.008628,(0577)55576802,education,http://api.map.baidu.com/place/detail?uid=fd007c5e15892e6fa8f7291c&output=html&source=placeapi_v2,,,5,,,,,,,,3,,,,,,,120.67855551327,28.008176398388,0
d219bb1d2928a0f5f50e77d3,温州市蒲鞋市小学,教育培训,小学,浙江省,温州市,鹿城区,浙江省温州市鹿城区龟湖路34号附3号,1f015ec5419724f304fef534,1,0,120.678907,28.008628,(0577)55576802,education,http://api.map.baidu.com/place/detail?uid=d219bb1d2928a0f5f50e77d3&output=html&source=placeapi_v2,,,5,,,,,,,,3,,,,,,,120.67855551327,28.008176398388,0
f88dec3781cff563c7f025ac,温州市上陡门小学,教育培训,小学,浙江省,温州市,鹿城区,浙江省温州市鹿城区前庄路上陡门住宅区八组团23幢,f88dec3781cff563c7f025ac,1,2,120.69604,28.009061,,education,http://api.map.baidu.com/place/detail?uid=f88dec3781cff563c7f025ac&output=html&source=placeapi_v2,,,0,,,,,,,,1,,,,,,,120.69630930895,28.008592644194,2
373cf7576174256d4354d704,温州市鹿城区育才小学,教育培训,小学,浙江省,温州市,鹿城区,浙江省温州市鹿城区高田路21号,373cf7576174256d4354d704,1,1,120.691097,28.020361,(0577)88325930,education,http://api.map.baidu.com/place/detail?uid=373cf7576174256d4354d704&output=html&source=placeapi_v2,,,5,,,,,,,,3,,,,,,,120.69145376735,28.020234258437,1
d5f93c0e732ddc21eddfcaf7,温州市马鞍池小学,教育培训,小学,浙江省,温州市,鹿城区,浙江省温州市鹿城区山前街157号,d5f93c0e732ddc21eddfcaf7,1,1,120.671476,28.008072,(0577)55565195,education,http://api.map.baidu.com/place/detail?uid=d5f93c0e732ddc21eddfcaf7&output=html&source=placeapi_v2,,,5,,,,,,,,2,,,,,,,120.67121337578,28.0075671927,1
b533ea4a4959303c4f6d460f,温州市南浦小学(南校区),教育培训,小学,浙江省,温州市,鹿城区,温州市鹿城区划龙桥路329号,b533ea4a4959303c4f6d460f,1,9,120.681504,27.994154,,education,http://api.map.baidu.com/place/detail?uid=b533ea4a4959303c4f6d460f&output=html&source=placeapi_v2,,,5,,,,,,,,4,,,,,,,120.68196464466,27.994304954211,9
c21db9e5b13a988000ff2d1c,温州市南浦小学(南校区),教育培训,小学,浙江省,温州市,鹿城区,温州市鹿城区划龙桥路329号,b533ea4a4959303c4f6d460f,1,0,120.681504,27.994154,,education,http://api.map.baidu.com/place/detail?uid=c21db9e5b13a988000ff2d1c&output=html&source=placeapi_v2,,,5,,,,,,,,4,,,,,,,120.68196464466,27.994304954211,0
687faf243a2754c7f12d834f,温州市南浦小学(南校区),教育培训,小学,浙江省,温州市,鹿城区,温州市鹿城区划龙桥路329号,b533ea4a4959303c4f6d460f,1,0,120.681504,27.994154,,education,http://api.map.baidu.com/place/detail?uid=687faf243a2754c7f12d834f&output=html&source=placeapi_v2,,,5,,,,,,,,4,,,,,,,120.68196464466,27.994304954211,0
d0b8923fa28276e1b5f42f1c,温州市光明小学,教育培训,小学,浙江省,温州市,鹿城区,府西路,d0b8923fa28276e1b5f42f1c,1,2,120.70289,28.003636,(0577)56690557,education,http://api.map.baidu.com/place/detail?uid=d0b8923fa28276e1b5f42f1c&output=html&source=placeapi_v2,,,4.5,,,,,,,,2,,,,,,,120.70267032076,28.003842648145,2
9884a7396a2f9e8f6849f370,温州绣山小学,教育培训,小学,浙江省,温州市,鹿城区,浙江省温州市鹿城区锦源路1号,9884a7396a2f9e8f6849f370,1,2,120.695656,27.991913,,education,http://api.map.baidu.com/place/detail?uid=9884a7396a2f9e8f6849f370&output=html&source=placeapi_v2,,,5,,,,,,,,4,,,,,,,120.69590064013,27.991350609164,2
106085f00e01ed4500ff2d9a,瓦市小学(江滨校区),教育培训,小学,浙江省,温州市,鹿城区,温州市鹿城区江滨路302号,637df60a855c417040afe632,1,0,120.682799,28.024283,(0577)56611315,education,http://api.map.baidu.com/place/detail?uid=106085f00e01ed4500ff2d9a&output=html&source=placeapi_v2,,,4,,,,,,,,6,,,,,,,120.68335794076,28.024423591581,0
5d15885cf166bed495f08c27,温州市城南小学城南校区(花柳塘校区),教育培训,小学,浙江省,温州市,鹿城区,浙江省温州市鹿城区土地堂巷1号,5d15885cf166bed495f08c27,1,0,120.672664,28.015413,(0577)55885186,education,http://api.map.baidu.com/place/detail?uid=5d15885cf166bed495f08c27&output=html&source=placeapi_v2,,,4.0,,,,,,,,3,,,,,,,120.67310878513,28.015702538695,0
1f015ec5419724f304fef534,温州市蒲鞋市小学,教育培训,小学,浙江省,温州市,鹿城区,浙江省温州市鹿城区龟湖路34号附3号,1f015ec5419724f304fef534,1,9,120.678907,28.008628,(0577)55576802,education,http://api.map.baidu.com/place/detail?uid=1f015ec5419724f304fef534&output=html&source=placeapi_v2,,,5,,,,,,,,3,,,,,,,120.67855551327,28.008176398388,9
af30cb8e0f00133779dbd28b,南浦小学西校区服务站自行车租赁点,教育培训,小学,浙江省,温州市,鹿城区,浙江省温州市鹿城区南浦划龙桥路南塘社区宏业小区南门,af30cb8e0f00133779dbd28b,1,0,120.680932,27.996159,,life,http://api.map.baidu.com/place/detail?uid=af30cb8e0f00133779dbd28b&output=html&source=placeapi_v2,,,,,,,,,,,,,,,,,,120.68092854807,27.996104832137,0
a811d34123a1356643e192a7,提摩太,教育培训,小学,浙江省,温州市,鹿城区,浙江温州市鹿城区温迪路109号,a811d34123a1356643e192a7,1,0,120.670984,28.015028,,education,http://api.map.baidu.com/place/detail?uid=a811d34123a1356643e192a7&output=html&source=placeapi_v2,,,,,,,,,,,,,,,,,,,,0
b7021bf830a7fef9f4e73b1c,温州育英学校,教育培训,小学,浙江省,温州市,龙湾区,浙江省温州市龙湾区清江路155号,b7021bf830a7fef9f4e73b1c,1,2,120.725662,27.994545,(0577)86525653,education,http://api.map.baidu.com/place/detail?uid=b7021bf830a7fef9f4e73b1c&output=html&source=placeapi_v2,,,4.7,,,,,,,,4,,,,,,,120.72641929692,27.994224743509,2
47278801e80abf7a95f08c14,温州市鹿城第二实验小学,教育培训,小学,浙江省,温州市,鹿城区,浙江省温州市鹿城区学院路609号,,1,0,120.726784,28.009014,,education,http://api.map.baidu.com/place/detail?uid=47278801e80abf7a95f08c14&output=html&source=placeapi_v2,,,4.0,,,,,,,,2,,,,,,,120.72596891619,28.008953757078,0
66f9969a5a951f3221026209,新田园小学(会展校区),教育培训,小学,浙江省,温州市,鹿城区,温州市鹿城区会展路与新田路交叉口西南100米,8659bf944248a2ab0c0a70d2,1,1,120.73432,28.007381,(0577)56967728,education,http://api.map.baidu.com/place/detail?uid=66f9969a5a951f3221026209&output=html&source=placeapi_v2,,,5,,,,,,,,1,,,,,,,120.73430948252,28.007735176495,1
9f7a018886dad0c016764313,浙江师范大学附属小学,教育培训,小学,浙江省,温州市,龙湾区,浙江省温州市龙湾区清江路155号,,1,0,120.726103,27.994579,,education,http://api.map.baidu.com/place/detail?uid=9f7a018886dad0c016764313&output=html&source=placeapi_v2,,,,,,,,,,,,,,,,,,120.72651541561,27.99439264506,0
