[{"address":"74 Pike Slip","boro":"1","borocd":"103","city":"New York","fid":"218","globalid":"{216646C2-C766-4F61-988A-4FBD76389D12}","name":"DSNY Special Waste Drop-Off Site","state":"NY","type":"Drop Off","zip":"10002","point":{"type":"Point","coordinates":[-73.99232338399997,40.70990700600004]},":@computed_region_efsh_h5xi":"11723",":@computed_region_f5dn_yrer":"70",":@computed_region_yeji_bk3q":"4",":@computed_region_92fq_4b7q":"32",":@computed_region_sbqj_enih":"2"}
,{"address":"12015 31 Ave","boro":"4","borocd":"407","city":"Flushing","fid":"204","globalid":"{B5D6625A-D870-43DF-8AA2-1F954B23C0E6}","name":"DSNY Special Waste Drop-Off Site","state":"NY","type":"Drop Off","zip":"11354","point":{"type":"Point","coordinates":[-73.84714946299994,40.77100135300003]},":@computed_region_efsh_h5xi":"13832",":@computed_region_f5dn_yrer":"22",":@computed_region_yeji_bk3q":"3",":@computed_region_92fq_4b7q":"20",":@computed_region_sbqj_enih":"67"}
,{"address":"1000 West Service Rd","boro":"5","borocd":"503","city":"Staten Island","fid":"135","globalid":"{549BFD05-2B74-48A4-BB47-50ACCD0D667C}","name":"DSNY Special Waste Drop-Off Site","state":"NY","type":"Drop Off","zip":"10312","point":{"type":"Point","coordinates":[-74.19481926499998,40.57012962400006]},":@computed_region_efsh_h5xi":"10699",":@computed_region_f5dn_yrer":"15",":@computed_region_yeji_bk3q":"1",":@computed_region_92fq_4b7q":"9",":@computed_region_sbqj_enih":"77"}
,{"address":"459 N Henry St","boro":"3","borocd":"301","city":"Brooklyn","fid":"121","globalid":"{CEA70FD8-437A-4E59-8A5C-15E0379C960B}","name":"DSNY Special Waste Drop-Off Site","state":"NY","type":"Drop Off","zip":"11222","point":{"type":"Point","coordinates":[-73.94613805399996,40.73565554100003]},":@computed_region_efsh_h5xi":"18182",":@computed_region_f5dn_yrer":"36",":@computed_region_yeji_bk3q":"2",":@computed_region_92fq_4b7q":"38",":@computed_region_sbqj_enih":"57"}
,{"address":"2 Farragut St","boro":"2","borocd":"202","city":"Bronx","fid":"52","globalid":"{C9265578-AB16-4119-9F06-8CAE234B97DE}","name":"DSNY Special Waste Drop-Off Site","state":"NY","type":"Drop Off","zip":"10474","point":{"type":"Point","coordinates":[-73.87485887299994,40.80306136000007]},":@computed_region_efsh_h5xi":"12343",":@computed_region_f5dn_yrer":"8",":@computed_region_yeji_bk3q":"5",":@computed_region_92fq_4b7q":"43",":@computed_region_sbqj_enih":"24"}]
