uid,name,cat_L1,cat_L2,province,city,area,address,street_id,detail,child_num,loc_lng,loc_lat,telephone,type,detail_url,price,shop_hours,overall_rating,taste_rating,service_rating,environment_rating,facility_rating,hygiene_rating,technology_rating,image_num,comment_num,groupon_num,discount_num,favorite_num,checkin_num,brand,content_tag,naviloc_lng,naviloc_lat,child_num
cba210826652b5a915a19033,蚌埠市宏运液化气有限公司,生活服务,公用事业,安徽省,蚌埠市,禹会区,安徽省蚌埠市禹会区天河科技园206国道西侧,,1,0,117.202896,32.758507,,life,http://api.map.baidu.com/place/detail?uid=cba210826652b5a915a19033&output=html&source=placeapi_v2,,,,,,,,,,,,,,,,,,,,0
d13c8d8d449a05dbc91b95ce,村村通数字电视站,生活服务,公用事业,安徽省,蚌埠市,禹会区,蚌埠市禹会区X046孝仪中学西南侧约80米,d13c8d8d449a05dbc91b95ce,1,0,117.162459,32.814615,13956388884,life,http://api.map.baidu.com/place/detail?uid=d13c8d8d449a05dbc91b95ce&output=html&source=placeapi_v2,,,,,,,,,,8,,,,,,,,,,0
8c1e360ac25280ed2fb17ea7,安徽高速ECT服务点,生活服务,公用事业,安徽省,蚌埠市,禹会区,蚌埠市禹会区S207与迎宾大道辅路交叉路口往西约50米,8c1e360ac25280ed2fb17ea7,1,0,117.307316,32.833926,,life,http://api.map.baidu.com/place/detail?uid=8c1e360ac25280ed2fb17ea7&output=html&source=placeapi_v2,,,,,,,,,,,,,,,,,,,,0
579ad2b056da902631870a91,国家电网(马城镇农业技术推广站北),生活服务,公用事业,安徽省,蚌埠市,禹会区,蚌埠市禹会区206国道西50米,,1,0,117.21643,32.866289,,life,http://api.map.baidu.com/place/detail?uid=579ad2b056da902631870a91&output=html&source=placeapi_v2,,,,,,,,,,8,,,,,,,,117.21669430042,32.866335325259,0
28d8ddf10811b6421b94c6cc,天宝换气站,生活服务,公用事业,安徽省,蚌埠市,禹会区,蚌埠市禹会区威汕线马城中学西南侧约70米,,1,0,117.214506,32.871784,,life,http://api.map.baidu.com/place/detail?uid=28d8ddf10811b6421b94c6cc&output=html&source=placeapi_v2,,,,,,,,,,1,,,,,,,,,,0
a504671388265648f8f0cb4d,营业服务大厅,生活服务,公用事业,安徽省,蚌埠市,禹会区,蚌埠市禹会区天河路九龙社区东周嘉苑东南侧,a504671388265648f8f0cb4d,1,0,117.298819,32.911144,,life,http://api.map.baidu.com/place/detail?uid=a504671388265648f8f0cb4d&output=html&source=placeapi_v2,,,,,,,,,,1,,,,,,,,,,0
bd356a85f23473c2e2110326,蚌埠供电公司,生活服务,公用事业,安徽省,蚌埠市,禹会区,蚌埠市禹会区长青南路姜桥派出所西南侧约190米,,1,0,117.305975,32.888896,,life,http://api.map.baidu.com/place/detail?uid=bd356a85f23473c2e2110326&output=html&source=placeapi_v2,,,,,,,,,,,,,,,,,,,,0
90d5caf17fed2a5b2b201af7,国家电网(蚌埠秦集供电营业厅),生活服务,公用事业,安徽省,蚌埠市,禹会区,蚌埠市禹会区秦仁路秦集镇中心小学北侧约190米,90d5caf17fed2a5b2b201af7,1,0,117.282964,32.906267,,life,http://api.map.baidu.com/place/detail?uid=90d5caf17fed2a5b2b201af7&output=html&source=placeapi_v2,,,,,,,,,,2,,,,,,,,,,0
78922288c80af5bea2d2303a,安液能源秦集换气站,生活服务,公用事业,安徽省,蚌埠市,禹会区,秦仁路秦家山西行100米旁,,1,0,117.283129,32.907041,"(0552)2871521,18955275018",life,http://api.map.baidu.com/place/detail?uid=78922288c80af5bea2d2303a&output=html&source=placeapi_v2,,00:00-24:00,,,,,,,,2,,,,,,,,,,0
f81d26018788f6e317b54b87,蚌埠新奥燃气有限公司天然气门站,生活服务,公用事业,安徽省,蚌埠市,禹会区,蚌埠市禹会区柳工大道燕山国际城西北侧约140米,f81d26018788f6e317b54b87,1,0,117.32468,32.895029,,life,http://api.map.baidu.com/place/detail?uid=f81d26018788f6e317b54b87&output=html&source=placeapi_v2,,,,,,,,,,1,,,,,,,,117.32468647691,32.895067555134,0
9ee7cc780c6bb97016c9052f,蚌埠市李楼供电营业厅,生活服务,公用事业,安徽省,蚌埠市,龙子湖区,蚌埠市龙子湖区安徽省蚌埠十六中学东侧约190米,,1,0,117.467154,32.897288,(0552)2811100,life,http://api.map.baidu.com/place/detail?uid=9ee7cc780c6bb97016c9052f&output=html&source=placeapi_v2,,09:00-17:00,0.0,,,,,,,2,1,,,,,,,117.46756431645,32.897238653985,0
b8c656da2a6e087bf503b82a,安徽联畅电力科技有限公司,生活服务,公用事业,安徽省,蚌埠市,龙子湖区,安徽省蚌埠市龙子湖区凤安东路星宇文化产业园D区,,1,0,117.470592,32.908248,13003028255,life,http://api.map.baidu.com/place/detail?uid=b8c656da2a6e087bf503b82a&output=html&source=placeapi_v2,,,,,,,,,,1,,,,,,,,117.47052219754,32.908450603745,0
15eb260fdae85d4616948e5e,国家电网(上洪营业部),生活服务,公用事业,安徽省,蚌埠市,禹会区,安徽省蚌埠市禹会区秦集镇S225(旧)涂山风景区,15eb260fdae85d4616948e5e,1,0,117.226291,32.930248,95598,life,http://api.map.baidu.com/place/detail?uid=15eb260fdae85d4616948e5e&output=html&source=placeapi_v2,,,,,,,,,,1,,,,,,,,117.22638771755,32.930216598856,0
eb615a94b0a5a0af78f7963d,蚌埠市鑫源气体有限公司大庆换气站,生活服务,公用事业,安徽省,蚌埠市,禹会区,安徽省蚌埠市禹会区涂山路1382号,,1,0,117.30963,32.93203,13855204360,life,http://api.map.baidu.com/place/detail?uid=eb615a94b0a5a0af78f7963d&output=html&source=placeapi_v2,,,0.0,,,,,,,,1,,,,,,,,,0
65aa7fdd8b5bc0decb213d34,蚌埠中环水务营业服务(第六分所),生活服务,公用事业,安徽省,蚌埠市,禹会区,安徽省蚌埠市禹会区吴湾路594号,65aa7fdd8b5bc0decb213d34,1,0,117.34017,32.92887,(0552)4099479,life,http://api.map.baidu.com/place/detail?uid=65aa7fdd8b5bc0decb213d34&output=html&source=placeapi_v2,,,0,,,,,,,8,1,,,,,,,117.3400468319,32.928879403638,0
699186b0e3a0924a4054d726,蚌埠中环水务营业服务第五分所,生活服务,公用事业,安徽省,蚌埠市,禹会区,安徽省蚌埠市禹会区涂山路849号,699186b0e3a0924a4054d726,1,0,117.331219,32.934229,(0552)4072389,life,http://api.map.baidu.com/place/detail?uid=699186b0e3a0924a4054d726&output=html&source=placeapi_v2,,08:00-17:30,0,,,,,,,20,2,,,,,,,117.33120609085,32.934090453638,0
034528538aaac60804026fb6,张公山换气站,生活服务,公用事业,安徽省,蚌埠市,禹会区,安徽省蚌埠市禹会区长兴路101号,,1,0,117.339168,32.927464,(0552)4197777,life,http://api.map.baidu.com/place/detail?uid=034528538aaac60804026fb6&output=html&source=placeapi_v2,,,,,,,,,,6,,,,,,,,117.33922387086,32.927324742827,0
906aabf4fc8499d825e0a0a2,蚌埠新奥燃气新怡绿洲营业厅(涂山路店),生活服务,公用事业,安徽省,蚌埠市,禹会区,安徽省蚌埠市禹会区涂山路406号,906aabf4fc8499d825e0a0a2,1,0,117.349108,32.934806,,life,http://api.map.baidu.com/place/detail?uid=906aabf4fc8499d825e0a0a2&output=html&source=placeapi_v2,,09:00-18:00,,,,,,,,10,,,,,,,,117.34909099423,32.934956480451,0
6861308cb19ec04fad31e5f6,国家电网蚌埠供电公司生产基地,生活服务,公用事业,安徽省,蚌埠市,禹会区,安徽省蚌埠市禹会区涂山路1072号,6861308cb19ec04fad31e5f6,1,1,117.32107,32.93356,,life,http://api.map.baidu.com/place/detail?uid=6861308cb19ec04fad31e5f6&output=html&source=placeapi_v2,,08:00-18:00,,,,,,,,,,,,,,,,117.32128185532,32.934123303455,1
fafa648d731470ef29fc486d,新奥综合服务营业厅,生活服务,公用事业,安徽省,蚌埠市,禹会区,安徽省蚌埠市禹会区华光大道1279号,fafa648d731470ef29fc486d,1,0,117.32897,32.916577,(0552)95158,life,http://api.map.baidu.com/place/detail?uid=fafa648d731470ef29fc486d&output=html&source=placeapi_v2,,08:00-20:00,,,,,,,,2,,,,,,,,117.3289903709,32.916541962673,0
4291a1e053e2d2002b3a9f1d,蚌埠新奥燃气有限公司,生活服务,公用事业,安徽省,蚌埠市,禹会区,安徽蚌埠市禹会区华光大道1239号,4291a1e053e2d2002b3a9f1d,1,3,117.329091,32.916496,,life,http://api.map.baidu.com/place/detail?uid=4291a1e053e2d2002b3a9f1d&output=html&source=placeapi_v2,,,0,,,,,,,6,1,,,,,,,117.32930857137,32.916452454733,3
4d47a40821c53b087ec87671,蚌埠供电,生活服务,公用事业,安徽省,蚌埠市,禹会区,安徽省蚌埠市禹会区涂山路1072号,4d47a40821c53b087ec87671,1,1,117.321456,32.933691,,life,http://api.map.baidu.com/place/detail?uid=4d47a40821c53b087ec87671&output=html&source=placeapi_v2,,,0.0,,,,,,,2,1,,,,,,,117.321282447,32.934127074274,1
f7868260accd5aee0782c2b7,珠城电力,生活服务,公用事业,安徽省,蚌埠市,禹会区,安徽省蚌埠市禹会区东海大道君临天下天下墅小区3号楼4单元,f7868260accd5aee0782c2b7,1,0,117.347966,32.923302,,life,http://api.map.baidu.com/place/detail?uid=f7868260accd5aee0782c2b7&output=html&source=placeapi_v2,,,,,,,,,,,,,,,,,,,,0
6650f598f61f4227f4b9163a,瀚林银座广东电白有限公司,生活服务,公用事业,安徽省,蚌埠市,蚌山区,安徽省蚌埠市蚌山区东海大道淮河社区行政事务管理中心西区6号楼,,1,0,117.381258,32.925264,,life,http://api.map.baidu.com/place/detail?uid=6650f598f61f4227f4b9163a&output=html&source=placeapi_v2,,,,,,,,,,,,,,,,,,,,0
3c45a7a53f077417b11e3689,蚌埠中环水务营业服务总所,生活服务,公用事业,安徽省,蚌埠市,蚌山区,安徽省蚌埠市蚌山区中平街12号,3c45a7a53f077417b11e3689,1,0,117.369688,32.946674,(0552)2061060,life,http://api.map.baidu.com/place/detail?uid=3c45a7a53f077417b11e3689&output=html&source=placeapi_v2,,08:00-17:30,0,,,,,,,18,1,,,,,,,117.36970808843,32.946762513807,0
edc1f3dcf652c0ad45572679,蚌埠中环水务营业服务(第四分所),生活服务,公用事业,安徽省,蚌埠市,蚌山区,安徽省蚌埠市蚌山区中平街12号,edc1f3dcf652c0ad45572679,1,0,117.365049,32.94525,(0552)3062527,life,http://api.map.baidu.com/place/detail?uid=edc1f3dcf652c0ad45572679&output=html&source=placeapi_v2,,08:00-14:30,0.0,,,,,,,13,,,,,,,,117.3650415018,32.945373026311,0
fd6660de8a8f0b696168580e,蚌埠中环水务有限公司大客户营业服务所,生活服务,公用事业,安徽省,蚌埠市,蚌山区,安徽省蚌埠市蚌山区胜利东路1510正西方向40米,,1,0,117.385788,32.945799,,life,http://api.map.baidu.com/place/detail?uid=fd6660de8a8f0b696168580e&output=html&source=placeapi_v2,,,,,,,,,,2,,,,,,,,,,0
8b1c10c1a15f9877c9e33cf0,国网蚌埠供电公司,生活服务,公用事业,安徽省,蚌埠市,蚌山区,安徽省蚌埠市蚌山区东海大道3850号,8b1c10c1a15f9877c9e33cf0,1,3,117.380882,32.922613,(0552)2882679,life,http://api.map.baidu.com/place/detail?uid=8b1c10c1a15f9877c9e33cf0&output=html&source=placeapi_v2,,,4.5,,,,,,,3,2,,,,,,,117.38097910431,32.923400439371,3
2c68bd8f9c55f0965cd4fed7,国家电网24小时自助服务(蚌埠雪华供电营业厅),生活服务,公用事业,安徽省,蚌埠市,蚌山区,安徽省蚌埠市蚌山区东海大道3850号,2c68bd8f9c55f0965cd4fed7,1,0,117.388335,32.925863,95598,life,http://api.map.baidu.com/place/detail?uid=2c68bd8f9c55f0965cd4fed7&output=html&source=placeapi_v2,,00:00-24:00,0.0,,,,,,,6,,,,,,,,,,0
5a082bae5c1065a05fbe8679,安徽亿道电力安装有限公司,生活服务,公用事业,安徽省,蚌埠市,蚌山区,安徽省蚌埠市蚌山区延安南路350号,,1,0,117.374009,32.916868,,life,http://api.map.baidu.com/place/detail?uid=5a082bae5c1065a05fbe8679&output=html&source=placeapi_v2,,08:00-18:00,,,,,,,,,,,,,,,,,,0
25aa92588e44624190114ca6,燃气具维修,生活服务,公用事业,安徽省,蚌埠市,蚌山区,蚌埠市蚌山区南山路古玩生活小区东侧,25aa92588e44624190114ca6,1,0,117.377803,32.949267,,life,http://api.map.baidu.com/place/detail?uid=25aa92588e44624190114ca6&output=html&source=placeapi_v2,,,,,,,,,,2,,,,,,,,,,0
eef9f30e767a8d5795f08cb0,蚌埠供电公司,生活服务,公用事业,安徽省,蚌埠市,龙子湖区,蚌埠市龙子湖区曹山路与望湖路交叉路口往北约230米,eef9f30e767a8d5795f08cb0,1,0,117.427015,32.927345,,life,http://api.map.baidu.com/place/detail?uid=eef9f30e767a8d5795f08cb0&output=html&source=placeapi_v2,,,,,,,,,,,,,,,,,,,,0
1117789e25c29f287ec87667,新奥燃气工程有限公司,生活服务,公用事业,安徽省,蚌埠市,蚌山区,安徽省蚌埠市蚌山区财院路18号,1117789e25c29f287ec87667,1,0,117.40561,32.929394,,life,http://api.map.baidu.com/place/detail?uid=1117789e25c29f287ec87667&output=html&source=placeapi_v2,,,,,,,,,,,,,,,,,,117.4056155677,32.92952327729,0
5322e0c4732332aa16764354,蚌埠供电公司,生活服务,公用事业,安徽省,蚌埠市,蚌山区,安徽蚌埠市蚌山区东海大道3850号,5322e0c4732332aa16764354,1,0,117.400328,32.925969,,life,http://api.map.baidu.com/place/detail?uid=5322e0c4732332aa16764354&output=html&source=placeapi_v2,,,,,,,,,,,,,,,,,,117.4003680981,32.926198324902,0
fd30f35e848285ba4d776ed7,蚌埠市安液清洁能源有限公司,生活服务,公用事业,安徽省,蚌埠市,龙子湖区,安徽省蚌埠市龙子湖区胜利东路267号,,1,0,117.461683,32.929769,(0552)3162945,life,http://api.map.baidu.com/place/detail?uid=fd30f35e848285ba4d776ed7&output=html&source=placeapi_v2,,,,,,,,,,2,1,,,,,,,,,0
7f417b253447b7ab5e0d02b6,安液清洁能源东郊换气站,生活服务,公用事业,安徽省,蚌埠市,龙子湖区,安徽省蚌埠市龙子湖区胜利东路267号,,1,0,117.461836,32.929558,(0552)3162945,life,http://api.map.baidu.com/place/detail?uid=7f417b253447b7ab5e0d02b6&output=html&source=placeapi_v2,,,,,,,,,,2,,,,,,,,,,0
6d905a04b76164a726d2bbd9,国家电网24小时自助服务厅(蚌埠淮光供电营业厅),生活服务,公用事业,安徽省,蚌埠市,龙子湖区,蚌埠市龙子湖区胜利东路汇丰朝阳家园南侧约70米,6d905a04b76164a726d2bbd9,1,0,117.472553,32.927265,(0552)3151126,life,http://api.map.baidu.com/place/detail?uid=6d905a04b76164a726d2bbd9&output=html&source=placeapi_v2,,07:00-19:00,0,,,,,,,15,1,,,,,,,117.47259676585,32.927441454039,0
9ef1fea24ee5cee3ca09f04e,怀远到老城区污水提升改造项目部,生活服务,公用事业,安徽省,蚌埠市,怀远县,蚌埠市怀远县禹风路怀远嘉富新城西南侧约40米,,1,0,117.172891,32.967458,,life,http://api.map.baidu.com/place/detail?uid=9ef1fea24ee5cee3ca09f04e&output=html&source=placeapi_v2,,,,,,,,,,1,,,,,,,,117.17310994538,32.967457981489,0
e64333f82297a98995f08cb6,供电公司营业大厅,生活服务,公用事业,安徽省,蚌埠市,怀远县,安徽省蚌埠市怀远县禹王路19号,,1,0,117.191787,32.967653,,life,http://api.map.baidu.com/place/detail?uid=e64333f82297a98995f08cb6&output=html&source=placeapi_v2,,,,,,,,,,,,,,,,,,117.19193646428,32.967572374822,0
a3dca82c02b4a8e0c26c14d3,怀远供电有限责任公司,生活服务,公用事业,安徽省,蚌埠市,怀远县,蚌埠市怀远县禹王中路泰古・新天地北侧约80米,a3dca82c02b4a8e0c26c14d3,1,0,117.191928,32.967736,,life,http://api.map.baidu.com/place/detail?uid=a3dca82c02b4a8e0c26c14d3&output=html&source=placeapi_v2,,09:00-18:30,3,,,,,,,2,1,,,,,,,117.19196081105,32.967785710712,0
4f23572fa1a664a9a8f0cda2,天源山泉售水处,生活服务,公用事业,安徽省,蚌埠市,怀远县,安徽省蚌埠市怀远县大庆路8号正北方向140米城关镇靠山社区,,1,0,117.18341,32.952326,18955228756,life,http://api.map.baidu.com/place/detail?uid=4f23572fa1a664a9a8f0cda2&output=html&source=placeapi_v2,,,,,,,,,,3,,,,,,,,,,0
287189c724b3ee361b94c67b,老供电公司,生活服务,公用事业,安徽省,蚌埠市,怀远县,安徽省蚌埠市怀远县禹王路19号,,1,0,117.191788,32.967657,,life,http://api.map.baidu.com/place/detail?uid=287189c724b3ee361b94c67b&output=html&source=placeapi_v2,,,,,,,,,,,,,,,,,,117.19189404,32.967817167352,0
e8162a390470b094dbecedf4,怀远中环水务城南营业服务所,生活服务,公用事业,安徽省,蚌埠市,怀远县,蚌埠市怀远县淮海路长兴安居苑南侧约90米,,1,0,117.209419,32.95759,(0552)8021787,life,http://api.map.baidu.com/place/detail?uid=e8162a390470b094dbecedf4&output=html&source=placeapi_v2,,,,,,,,,,9,,,,,,,,,,0
b84263008fb675a86140a96a,怀远中环水务城南营业服务所,生活服务,公用事业,安徽省,蚌埠市,怀远县,安徽省蚌埠市怀远县淮海南路48号,,1,0,117.209484,32.957742,,life,http://api.map.baidu.com/place/detail?uid=b84263008fb675a86140a96a&output=html&source=placeapi_v2,,,,,,,,,,5,,,,,,,,117.20929232051,32.95775996134,0
a01ddf1774a39a2d081cc70a,怀远中环水务新城营业服务所,生活服务,公用事业,安徽省,蚌埠市,怀远县,蚌埠市怀远县榴花路新河花园小区-A区,a01ddf1774a39a2d081cc70a,1,0,117.227822,32.973575,(0552)8502511,life,http://api.map.baidu.com/place/detail?uid=a01ddf1774a39a2d081cc70a&output=html&source=placeapi_v2,,,,,,,,,,7,,,,,,,,117.22796489949,32.973575162888,0
a0884dfb453b71c4b04c49b4,怀远自来水公司营业厅,生活服务,公用事业,安徽省,蚌埠市,怀远县,安徽省蚌埠市怀远县淮海南路137号,a0884dfb453b71c4b04c49b4,1,0,117.209407,32.957678,(0552)8051000,life,http://api.map.baidu.com/place/detail?uid=a0884dfb453b71c4b04c49b4&output=html&source=placeapi_v2,,08:00-17:30,3.0,,,,,,,1,,,,,,,,117.20929072063,32.957748422365,0
b4472edd2acca1303310af41,海特燃气客户服务中心,生活服务,公用事业,安徽省,蚌埠市,怀远县,安徽省蚌埠市怀远县庙山路盛世豪庭,b4472edd2acca1303310af41,1,0,117.19785,32.964855,"(0552)8215466,(0552)8756777",life,http://api.map.baidu.com/place/detail?uid=b4472edd2acca1303310af41&output=html&source=placeapi_v2,,06:00-14:30,,,,,,,,10,,,,,,,,,,0
e9fb218675b68994b6f42f23,液化气公司换气点,生活服务,公用事业,安徽省,蚌埠市,怀远县,蚌埠市怀远县健康路健康小区西南侧,,1,0,117.203411,32.962207,"(0552)8026194,13665620098",life,http://api.map.baidu.com/place/detail?uid=e9fb218675b68994b6f42f23&output=html&source=placeapi_v2,,,,,,,,,,9,,,,,,,,,,0
3be122e1aee93c511ef74df3,怀远县自来水公司,生活服务,公用事业,安徽省,蚌埠市,怀远县,安徽省蚌埠市怀远县淮海南路48号,3be122e1aee93c511ef74df3,1,0,117.209471,32.957575,(0552)8051000,life,http://api.map.baidu.com/place/detail?uid=3be122e1aee93c511ef74df3&output=html&source=placeapi_v2,,08:00-18:00,,,,,,,,1,,,,,,,,,,0
ef7207acef721fe707fef5c2,怀远县国祯污水处理有限公司,生活服务,公用事业,安徽省,蚌埠市,怀远县,安徽省蚌埠市怀远县乳泉路70号,,1,0,117.20525,32.953823,(0552)7211608,life,http://api.map.baidu.com/place/detail?uid=ef7207acef721fe707fef5c2&output=html&source=placeapi_v2,,,,,,,,,,1,,,,,,,,117.20516861942,32.953869774029,0
ba114b37522e620384154128,安广网络怀远分公司有线电视营业厅,生活服务,公用事业,安徽省,蚌埠市,怀远县,安徽省蚌埠市怀远县禹都大道528-8号,fe3c793ce834a6cd774ff11b,1,0,117.208758,32.975451,(0552)8011599,life,http://api.map.baidu.com/place/detail?uid=ba114b37522e620384154128&output=html&source=placeapi_v2,,,,,,,,,,3,,,,,,,,117.20869468684,32.975445677804,0
7c4e0203d4e7ff343062127a,怀远中环水务有限公司,生活服务,公用事业,安徽省,蚌埠市,怀远县,蚌埠市怀远县迎宾花园-B区东侧约250米,,1,0,117.251324,32.971455,(0552)8502511,life,http://api.map.baidu.com/place/detail?uid=7c4e0203d4e7ff343062127a&output=html&source=placeapi_v2,,,,,,,,,,,,,,,,,,117.25134156216,32.971597644099,0
00c24e80db8c035215a190fc,中旺电力设备有限公司,生活服务,公用事业,安徽省,蚌埠市,淮上区,安徽省蚌埠市淮上区果园路376号,,1,0,117.332918,32.967389,"13721188504,13965279477",life,http://api.map.baidu.com/place/detail?uid=00c24e80db8c035215a190fc&output=html&source=placeapi_v2,,,,,,,,,,1,,,,,,,,117.33268126031,32.967454282653,0
cace90eed0ec47309e82ea03,蚌埠鸿申天然气成套设备有限公司,生活服务,公用事业,安徽省,蚌埠市,淮上区,安徽省蚌埠市淮上区长征北路815号,cace90eed0ec47309e82ea03,1,0,117.33829,32.979485,,life,http://api.map.baidu.com/place/detail?uid=cace90eed0ec47309e82ea03&output=html&source=placeapi_v2,,,,,,,,,,,,,,,,,,117.33865276325,32.979405938731,0
45cb02e34987698878f7960a,中广客服大厅,生活服务,公用事业,安徽省,蚌埠市,蚌山区,安徽省蚌埠市蚌山区南山路96号,,1,0,117.373785,32.949615,,life,http://api.map.baidu.com/place/detail?uid=45cb02e34987698878f7960a&output=html&source=placeapi_v2,,,,,,,,,,1,,,,,,,,117.3737869479,32.949828259097,0
fdbde434fbe034eed618b705,安徽巍弘电力工程安装有限责任公司,生活服务,公用事业,安徽省,蚌埠市,淮上区,蚌埠市淮上区永昌国际大厦5层,,1,0,117.367532,32.968616,,life,http://api.map.baidu.com/place/detail?uid=fdbde434fbe034eed618b705&output=html&source=placeapi_v2,,,,,,,,,,,,,,,,,,,,0
25aa92588e44624190114ca6,燃气具维修,生活服务,公用事业,安徽省,蚌埠市,蚌山区,蚌埠市蚌山区南山路古玩生活小区东侧,25aa92588e44624190114ca6,1,0,117.377803,32.949267,,life,http://api.map.baidu.com/place/detail?uid=25aa92588e44624190114ca6&output=html&source=placeapi_v2,,,,,,,,,,2,,,,,,,,,,0
c6dadf6819274a279ce3217d,顺利换气点,生活服务,公用事业,安徽省,蚌埠市,龙子湖区,安徽省蚌埠市龙子湖区凤阳东路185号,c6dadf6819274a279ce3217d,1,0,117.409009,32.952613,"(0552)3023733,13085523705",life,http://api.map.baidu.com/place/detail?uid=c6dadf6819274a279ce3217d&output=html&source=placeapi_v2,,,,,,,,,,6,,,,,,,,,,0
0be856c827a693cbeb12e46f,铁塔换电,生活服务,公用事业,安徽省,蚌埠市,淮上区,蚌埠市淮上区五蚌路槐花园-C区,,1,0,117.408543,32.97909,13865033960,life,http://api.map.baidu.com/place/detail?uid=0be856c827a693cbeb12e46f&output=html&source=placeapi_v2,,,,,,,,,,6,,,,,,,,117.40857187317,32.978931185043,0
e3d0f68f3dbe01e640024519,蚌埠长淮供电营业厅,生活服务,公用事业,安徽省,蚌埠市,龙子湖区,蚌埠市龙子湖区X003,,1,0,117.470539,32.964075,,life,http://api.map.baidu.com/place/detail?uid=e3d0f68f3dbe01e640024519&output=html&source=placeapi_v2,,,,,,,,,,,,,,,,,,,,0
05fe62dc5325cc50d6b74e43,国家电网,生活服务,公用事业,安徽省,蚌埠市,龙子湖区,安徽省蚌埠市龙子湖区003县道与005县道交叉口西460米,,1,0,117.470313,32.963995,95598,life,http://api.map.baidu.com/place/detail?uid=05fe62dc5325cc50d6b74e43&output=html&source=placeapi_v2,,,,,,,,,,,,,,,,,,117.47034253375,32.963830983323,0
38e9ecf7a73085b981a12e79,国安电力,生活服务,公用事业,安徽省,蚌埠市,怀远县,蚌埠市怀远县,,1,0,117.212187,32.999058,,life,http://api.map.baidu.com/place/detail?uid=38e9ecf7a73085b981a12e79&output=html&source=placeapi_v2,,,,,,,,,,,,,,,,,,,,0
cef77f38a8970d88d5b74e0c,安徽万联电力有限公司,生活服务,公用事业,安徽省,蚌埠市,怀远县,安徽省蚌埠市怀远县城关镇禹王路西段路南汽修厂门口,,1,0,117.221486,33.010337,,life,http://api.map.baidu.com/place/detail?uid=cef77f38a8970d88d5b74e0c&output=html&source=placeapi_v2,,,,,,,,,,,,,,,,,,,,0
071d85bc24f88dfcb320a839,国网怀远县供电公司,生活服务,公用事业,安徽省,蚌埠市,怀远县,安徽省蚌埠市怀远县榴城路180号,071d85bc24f88dfcb320a839,1,1,117.2136,32.984764,,life,http://api.map.baidu.com/place/detail?uid=071d85bc24f88dfcb320a839&output=html&source=placeapi_v2,,09:00-18:30,,,,,,,,3,,,,,,,,117.21369609529,32.985335134037,1
3d3669ed17171dcc1e1d11e9,中石油昆仑燃气怀远输配站,生活服务,公用事业,安徽省,蚌埠市,淮上区,安徽省蚌埠市淮上区金河路20号,,1,0,117.264466,32.996887,,life,http://api.map.baidu.com/place/detail?uid=3d3669ed17171dcc1e1d11e9&output=html&source=placeapi_v2,,,,,,,,,,7,,,,,,,,117.26464022156,32.996922256638,0
d738b2e07b62044ce31103d8,新奥燃气(淮上加油加气站),生活服务,公用事业,安徽省,蚌埠市,淮上区,蚌埠市淮上区朝阳北路与中环线交叉路口往南约200米,,1,0,117.35213,32.987122,18196637602,life,http://api.map.baidu.com/place/detail?uid=d738b2e07b62044ce31103d8&output=html&source=placeapi_v2,,00:00-24:00,3,,,,,,,,4,,,,,,,117.35183437614,32.987086490724,0
fc7e430dcf72fe63b8bd63cf,国家电网(丰康路),生活服务,公用事业,安徽省,蚌埠市,淮上区,安徽省蚌埠市淮上区槐花园E区(丰康路南),fc7e430dcf72fe63b8bd63cf,1,0,117.405063,32.986092,95598,life,http://api.map.baidu.com/place/detail?uid=fc7e430dcf72fe63b8bd63cf&output=html&source=placeapi_v2,,,,,,,,,,9,,,,,,,,117.40499047822,32.986294158817,0
004d26aa9c221861abf72940,力源港务集团,生活服务,公用事业,安徽省,蚌埠市,淮上区,安徽省蚌埠市淮上区306省道南150米,004d26aa9c221861abf72940,1,0,117.474717,32.995267,,life,http://api.map.baidu.com/place/detail?uid=004d26aa9c221861abf72940&output=html&source=placeapi_v2,,,,,,,,,,,,,,,,,,117.47491074784,32.995241308961,0
38b10388e5a36488be4842fa,蚌埠新奥燃气营业厅,生活服务,公用事业,安徽省,蚌埠市,淮上区,安徽省蚌埠市淮上区３０６省道与益民路交叉口东约60米,,1,0,117.552668,32.994075,"(0552)3392777,13805525612",life,http://api.map.baidu.com/place/detail?uid=38b10388e5a36488be4842fa&output=html&source=placeapi_v2,,09:00-18:00,,,,,,,,7,,,,,,,,,,0
f1f5cac52780249b36b06ceb,五河沫河口供电营业厅(五河沫河口供电营业厅),生活服务,公用事业,安徽省,蚌埠市,淮上区,蚌埠市淮上区五蚌路水晶华府南侧约50米,,1,0,117.551649,32.994682,(0552)5885163,life,http://api.map.baidu.com/place/detail?uid=f1f5cac52780249b36b06ceb&output=html&source=placeapi_v2,,,,,,,,,,1,,,,,,,,117.55184777163,32.994642826535,0
a2440dd4cadff083b320a8b7,众德燃气,生活服务,公用事业,安徽省,蚌埠市,淮上区,安徽省蚌埠市淮上区沫口精细化工园开源大道13号,a2440dd4cadff083b320a8b7,1,0,117.571086,32.999597,,life,http://api.map.baidu.com/place/detail?uid=a2440dd4cadff083b320a8b7&output=html&source=placeapi_v2,,,,,,,,,,,,,,,,,,,,0
68f8809145d2a6ad0f0e6b65,蚌埠市油品燃气有限公司,生活服务,公用事业,安徽省,蚌埠市,淮上区,安徽省蚌埠市淮上区金沱路8号,,1,0,117.595869,32.996912,,life,http://api.map.baidu.com/place/detail?uid=68f8809145d2a6ad0f0e6b65&output=html&source=placeapi_v2,,,,,,,,,,1,,,,,,,,,,0
a58a1620e56057c599005096,国家电网(曹老集供电营业厅),生活服务,公用事业,安徽省,蚌埠市,淮上区,安徽省蚌埠市淮上区路东社区退役军人服务站西北侧150米,,1,0,117.381773,33.061206,95598,life,http://api.map.baidu.com/place/detail?uid=a58a1620e56057c599005096&output=html&source=placeapi_v2,,,,,,,,,,1,,,,,,,,,,0
