uid,name,cat_L1,cat_L2,province,city,area,address,street_id,detail,child_num,loc_lng,loc_lat,telephone,type,detail_url,price,shop_hours,overall_rating,taste_rating,service_rating,environment_rating,facility_rating,hygiene_rating,technology_rating,image_num,comment_num,groupon_num,discount_num,favorite_num,checkin_num,brand,content_tag,naviloc_lng,naviloc_lat,child_num
1b22eed4c3771044b54f5438,蚌埠市水上运动训练中心-码头,交通设施,港口,安徽省,蚌埠市,蚌山区,蚌埠市蚌山区翰林华俯对面蚌埠市水上运动训练中心,,1,0,117.407837,32.911438,,life,http://api.map.baidu.com/place/detail?uid=1b22eed4c3771044b54f5438&output=html&source=placeapi_v2,,,,,,,,,,,,,,,,,,,,0
6d7f086e9c826c53f7b916ba,安澜码头,交通设施,港口,安徽省,蚌埠市,怀远县,蚌埠市怀远县荆山镇靠山村,,1,0,117.181971,32.938449,18096505488,life,http://api.map.baidu.com/place/detail?uid=6d7f086e9c826c53f7b916ba&output=html&source=placeapi_v2,,,,,,,,,,,,,,,,,,,,0
c59513f880075e8cbe484246,海之鲜码头,交通设施,港口,安徽省,蚌埠市,怀远县,蚌埠市怀远县城关镇健康路富康花园S101102103,,1,0,117.195226,32.963849,17718232558,life,http://api.map.baidu.com/place/detail?uid=c59513f880075e8cbe484246&output=html&source=placeapi_v2,,,,,,,,,,,,,,,,,,,,0
e116be54de5d227bc91b952d,蚌埠港,交通设施,港口,安徽省,蚌埠市,禹会区,安徽省蚌埠市禹会区宋家滩路,e116be54de5d227bc91b952d,1,0,117.333539,32.952487,,life,http://api.map.baidu.com/place/detail?uid=e116be54de5d227bc91b952d&output=html&source=placeapi_v2,,,3.0,,,,,,,2,1,,,,,,,117.33262461047,32.951337411222,0
ca46d413addb2e7d52e5c580,汽渡码头,交通设施,港口,安徽省,蚌埠市,淮上区,蚌埠市淮上区淮上大道与昌明街交叉路口往南约200米,ca46d413addb2e7d52e5c580,1,0,117.382327,32.970313,,life,http://api.map.baidu.com/place/detail?uid=ca46d413addb2e7d52e5c580&output=html&source=placeapi_v2,,,,,,,,,,,,,,,,,,,,0
