uid,name,cat_L1,cat_L2,province,city,area,address,street_id,detail,child_num,loc_lng,loc_lat,telephone,type,detail_url,price,shop_hours,overall_rating,taste_rating,service_rating,environment_rating,facility_rating,hygiene_rating,technology_rating,image_num,comment_num,groupon_num,discount_num,favorite_num,checkin_num,brand,content_tag,naviloc_lng,naviloc_lat,child_num
eee0d0a70e429d8d43e192ab,淑女坊养生SPA会所,休闲娱乐,洗浴按摩,安徽省,蚌埠市,禹会区,206国道东200米,,1,0,117.214306,32.866851,,life,http://api.map.baidu.com/place/detail?uid=eee0d0a70e429d8d43e192ab&output=html&source=placeapi_v2,,,,,,,,,,4,,,,,,,,,,0
af1ae56b4a547c124207c129,海丰休闲大浴场,休闲娱乐,洗浴按摩,安徽省,蚌埠市,禹会区,安徽省蚌埠市禹会区长丰路273号,af1ae56b4a547c124207c129,1,0,117.334202,32.931911,(0552)4075588,life,http://api.map.baidu.com/place/detail?uid=af1ae56b4a547c124207c129&output=html&source=placeapi_v2,55,00:00-23:00,5,,,,,,,11,0,,,,,,,117.33418367717,32.931810022111,0
10a49a1fbb6547b5c909f0cc,天寿桑拿洗浴,休闲娱乐,洗浴按摩,安徽省,蚌埠市,禹会区,安徽省蚌埠市禹会区涂山路2楼,10a49a1fbb6547b5c909f0cc,1,0,117.320886,32.934464,,life,http://api.map.baidu.com/place/detail?uid=10a49a1fbb6547b5c909f0cc&output=html&source=placeapi_v2,,00:00-24:00,0,,,,,,,8,0,,,,,,,,,0
fd5e38a86879d93e6318092d,蓝色多瑙河商务洗浴休闲会所,休闲娱乐,洗浴按摩,安徽省,蚌埠市,禹会区,蚌埠市禹会区东海大道5397-18号,fd5e38a86879d93e6318092d,1,0,117.341919,32.922656,(0552)3336333,life,http://api.map.baidu.com/place/detail?uid=fd5e38a86879d93e6318092d&output=html&source=placeapi_v2,1500,12:00-02:00,0,,,,,,,1,0,,,,,,,,,0
2a2ead39ffbdd429fbdc85fc,徽韵足浴会所(山水华庭店),休闲娱乐,洗浴按摩,安徽省,蚌埠市,禹会区,安徽省蚌埠市禹会区兴中路475号,2a2ead39ffbdd429fbdc85fc,1,0,117.340537,32.918723,(0552)2837399,life,http://api.map.baidu.com/place/detail?uid=2a2ead39ffbdd429fbdc85fc&output=html&source=placeapi_v2,,10:00-21:00,0,,,,,,,14,0,,,,,,,117.34043781129,32.918564889141,0
78425c885b60f03621022019,长隆休闲浴池,休闲娱乐,洗浴按摩,安徽省,蚌埠市,禹会区,安徽省蚌埠市禹会区大庆三路232号,78425c885b60f03621022019,1,0,117.325718,32.93926,,life,http://api.map.baidu.com/place/detail?uid=78425c885b60f03621022019&output=html&source=placeapi_v2,,,0,,,,,,,16,0,,,,,,,117.32572232647,32.939389064578,0
5bccb5357caba53ead080ffc,如果艾大澡堂(兴光尚庭店),休闲娱乐,洗浴按摩,安徽省,蚌埠市,禹会区,安徽省蚌埠市禹会区纬四路376号,5bccb5357caba53ead080ffc,1,0,117.357192,32.934898,,life,http://api.map.baidu.com/place/detail?uid=5bccb5357caba53ead080ffc&output=html&source=placeapi_v2,37,12:00-24:00,3,,,,,,,11,3,,,,,,,117.35701384312,32.934846348257,0
2b6d913b9c225e761811d568,赵氏推拿(张公山店),休闲娱乐,洗浴按摩,安徽省,蚌埠市,禹会区,安徽省蚌埠市禹会区长丰路金域名城14栋3号,2b6d913b9c225e761811d568,1,0,117.341738,32.932518,13965250820,life,http://api.map.baidu.com/place/detail?uid=2b6d913b9c225e761811d568&output=html&source=placeapi_v2,,08:00-17:30,0,,,,,,,9,0,,,,,,,117.34175818115,32.932333014902,0
710e692d20791735306212b5,尚美阁美容SPA会所,休闲娱乐,洗浴按摩,安徽省,蚌埠市,禹会区,蚌埠市禹会区长青南路如意嘉园-A区东侧约30米,,1,0,117.323908,32.927107,,life,http://api.map.baidu.com/place/detail?uid=710e692d20791735306212b5&output=html&source=placeapi_v2,,08:00-20:30,,,,,,,,9,,,,,,,,,,0
b34b885a3e9dbc861ce9992e,宝岛足浴尊享会所(宝龙店),休闲娱乐,洗浴按摩,安徽省,蚌埠市,蚌山区,安徽省蚌埠市蚌山区兴业街3号楼1-2楼,b34b885a3e9dbc861ce9992e,1,0,117.382218,32.933045,(0552)3193333,life,http://api.map.baidu.com/place/detail?uid=b34b885a3e9dbc861ce9992e&output=html&source=placeapi_v2,161,00:00-24:00,0,,,,,,,10,0,,,,,,,117.38213302535,32.932994434565,0
897cc268f85c0908047ce886,名爵足浴养生会所(总店),休闲娱乐,洗浴按摩,安徽省,蚌埠市,蚌山区,安徽省蚌埠市蚌山区太平街2楼,897cc268f85c0908047ce886,1,0,117.362698,32.943097,(0552)3915555,life,http://api.map.baidu.com/place/detail?uid=897cc268f85c0908047ce886&output=html&source=placeapi_v2,99,00:00-24:00,0,,,,,,,15,0,,,,,,,117.36275394166,32.943406599068,0
a1e1e273c64a031cb817e706,水世界浴场(兰凌路店),休闲娱乐,洗浴按摩,安徽省,蚌埠市,蚌山区,安徽省蚌埠市蚌山区兰凌路1089号,a1e1e273c64a031cb817e706,1,0,117.387638,32.928396,,life,http://api.map.baidu.com/place/detail?uid=a1e1e273c64a031cb817e706&output=html&source=placeapi_v2,,,4.0,,,,,,,3,0,,,,,,,,,0
5bccb5357caba53ead080ffc,如果艾大澡堂(兴光尚庭店),休闲娱乐,洗浴按摩,安徽省,蚌埠市,禹会区,安徽省蚌埠市禹会区纬四路376号,5bccb5357caba53ead080ffc,1,0,117.357192,32.934898,,life,http://api.map.baidu.com/place/detail?uid=5bccb5357caba53ead080ffc&output=html&source=placeapi_v2,37,12:00-24:00,3,,,,,,,11,3,,,,,,,117.35701384312,32.934846348257,0
2bd41af6132cfc9842d63e62,金陵春梦・尊享会(工农路店),休闲娱乐,洗浴按摩,安徽省,蚌埠市,蚌山区,蚌埠市蚌山区工农路香园小区东北侧约30米,,1,0,117.364991,32.932388,(0552)2888999,life,http://api.map.baidu.com/place/detail?uid=2bd41af6132cfc9842d63e62&output=html&source=placeapi_v2,,00:00-24:00,0,,,,,,,5,0,,,,,,,117.36531364435,32.9323779807,0
20c01b0d36ff908422022043,忘不了推拿店,休闲娱乐,洗浴按摩,安徽省,蚌埠市,蚌山区,安徽省蚌埠市蚌山区红旗四路19号,20c01b0d36ff908422022043,1,0,117.364701,32.932755,15178306088,life,http://api.map.baidu.com/place/detail?uid=20c01b0d36ff908422022043&output=html&source=placeapi_v2,50,08:00-23:00,0,,,,,,,18,0,,,,,,,,,0
d05de6b9cc4d263842d63ef4,吉康养生,休闲娱乐,洗浴按摩,安徽省,蚌埠市,蚌山区,安徽省蚌埠市蚌山区兴业街272号,d05de6b9cc4d263842d63ef4,1,0,117.384679,32.943335,(0552)3932616,life,http://api.map.baidu.com/place/detail?uid=d05de6b9cc4d263842d63ef4&output=html&source=placeapi_v2,26,08:00-19:30,0,,,,,,,13,0,,,,,,,117.38448145017,32.943324065074,0
e98a6f36453fc2d9a7da3989,青木SPA养生会所,休闲娱乐,洗浴按摩,安徽省,蚌埠市,蚌山区,蚌埠市蚌山区延安路830号中信银行北30米,e98a6f36453fc2d9a7da3989,1,0,117.378514,32.937911,,life,http://api.map.baidu.com/place/detail?uid=e98a6f36453fc2d9a7da3989&output=html&source=placeapi_v2,,00:00-24:00,5.0,,,,,,,2,1,,,,,,,,,0
a9f917843f571ef6d3ff2385,龙海足浴,休闲娱乐,洗浴按摩,安徽省,蚌埠市,蚌山区,安徽省蚌埠市蚌山区行政中路光彩大市场十区1栋1号,a9f917843f571ef6d3ff2385,1,0,117.362998,32.918279,,life,http://api.map.baidu.com/place/detail?uid=a9f917843f571ef6d3ff2385&output=html&source=placeapi_v2,,,0,,,,,,,13,0,,,,,,,117.36280218336,32.918351252385,0
a5097bfaad0dc260f03cbaed,罗马大众浴池(中平街),休闲娱乐,洗浴按摩,安徽省,蚌埠市,蚌山区,安徽省蚌埠市蚌山区奋勇街59号,a5097bfaad0dc260f03cbaed,1,0,117.36813,32.947392,,life,http://api.map.baidu.com/place/detail?uid=a5097bfaad0dc260f03cbaed&output=html&source=placeapi_v2,,,0,,,,,,,8,0,,,,,,,117.36826649583,32.947377109772,0
594ea8698ab70d483fe23185,来康盲人推拿(NO.2),休闲娱乐,洗浴按摩,安徽省,蚌埠市,蚌山区,安徽省蚌埠市蚌山区广场五街393号,594ea8698ab70d483fe23185,1,0,117.37156,32.934007,(0552)2863718,life,http://api.map.baidu.com/place/detail?uid=594ea8698ab70d483fe23185&output=html&source=placeapi_v2,,10:00-23:00,0.0,,,,,,,19,,,,,,,,117.37166838599,32.933784185739,0
c7fb04bd6add700cfa0cad7e,必松阁盲人推拿(紫荆名流店),休闲娱乐,洗浴按摩,安徽省,蚌埠市,蚌山区,安徽省蚌埠市蚌山区广场一街紫荆名流南苑2幢1层112号(宝龙公寓对面),c7fb04bd6add700cfa0cad7e,1,0,117.385266,32.935043,(0552)2069899,life,http://api.map.baidu.com/place/detail?uid=c7fb04bd6add700cfa0cad7e&output=html&source=placeapi_v2,85,08:00-23:00,2,,,,,,,12,1,,,,,,,,,0
e1278a609db9b7205f0d0291,清水园普浴,休闲娱乐,洗浴按摩,安徽省,蚌埠市,蚌山区,蚌埠市蚌山区迎湖路兰庭书苑・南苑西北侧约70米,,1,0,117.395682,32.932809,,life,http://api.map.baidu.com/place/detail?uid=e1278a609db9b7205f0d0291&output=html&source=placeapi_v2,,,,,,,,,,4,,,,,,,,,,0
4eb3b533b336970843024563,森林足疗,休闲娱乐,洗浴按摩,安徽省,蚌埠市,蚌山区,安徽省蚌埠市蚌山区涂山路34号,4eb3b533b336970843024563,1,0,117.364942,32.936044,,life,http://api.map.baidu.com/place/detail?uid=4eb3b533b336970843024563&output=html&source=placeapi_v2,,,5.0,,,,,,,5,4,,,,,,,,,0
071128195b37f5dc2202202c,荀氏贵足(百合公馆店),休闲娱乐,洗浴按摩,安徽省,蚌埠市,蚌山区,兴业街百合公馆6号商铺101号,071128195b37f5dc2202202c,1,0,117.384397,32.945591,(0552)2818588,life,http://api.map.baidu.com/place/detail?uid=071128195b37f5dc2202202c&output=html&source=placeapi_v2,93,08:00-24:00,0,,,,,,,10,0,,,,,,,,,0
765b698846c7eaad0782c206,指压沐浴,休闲娱乐,洗浴按摩,安徽省,蚌埠市,龙子湖区,安徽省蚌埠市龙子湖区胜利东路与永业路交叉口东140米,765b698846c7eaad0782c206,1,0,117.406911,32.94374,,life,http://api.map.baidu.com/place/detail?uid=765b698846c7eaad0782c206&output=html&source=placeapi_v2,,,,,,,,,,5,,,,,,,,,,0
0a15c7ecc6defbffed74f8e9,湖滨休闲浴,休闲娱乐,洗浴按摩,安徽省,蚌埠市,蚌山区,安徽省蚌埠市蚌山区宏业路208号2楼,0a15c7ecc6defbffed74f8e9,1,1,117.405561,32.934391,,life,http://api.map.baidu.com/place/detail?uid=0a15c7ecc6defbffed74f8e9&output=html&source=placeapi_v2,,08:00-20:00,0,,,,,,,24,0,,,,,,,117.4053647105,32.93454636681,1
b0d056f2b278a27dcac3dbf0,梅苑大浴场,休闲娱乐,洗浴按摩,安徽省,蚌埠市,怀远县,蚌埠市怀远县禹王西路怀远汽车站北侧约60米,b0d056f2b278a27dcac3dbf0,1,0,117.187839,32.970041,,life,http://api.map.baidu.com/place/detail?uid=b0d056f2b278a27dcac3dbf0&output=html&source=placeapi_v2,,,0,,,,,,,15,0,,,,,,,,,0
4b005a6804be4d144afd3fa6,青龙休闲浴池,休闲娱乐,洗浴按摩,安徽省,蚌埠市,怀远县,安徽省蚌埠市怀远县钟楼街与淮海路交叉口西120米,4b005a6804be4d144afd3fa6,1,0,117.207897,32.957321,,life,http://api.map.baidu.com/place/detail?uid=4b005a6804be4d144afd3fa6&output=html&source=placeapi_v2,,,3.0,,,,,,,7,0,,,,,,,117.20790522811,32.957363571707,0
f2b12f2ecb7ca9762cb96d02,华庭浴池(怀远县阳光医院北),休闲娱乐,洗浴按摩,安徽省,蚌埠市,怀远县,怀远县圣泉路203-23号西南方向70米,f2b12f2ecb7ca9762cb96d02,1,0,117.21298,32.97988,(0552)8791111,life,http://api.map.baidu.com/place/detail?uid=f2b12f2ecb7ca9762cb96d02&output=html&source=placeapi_v2,,07:30-21:30,0,,,,,,,6,0,,,,,,,117.21286137184,32.979939071625,0
56f2f696b02c66830aa8d4f0,金港足浴城(圣泉路店),休闲娱乐,洗浴按摩,安徽省,蚌埠市,怀远县,安徽省蚌埠市怀远县圣泉路15号,56f2f696b02c66830aa8d4f0,1,0,117.20931,32.959281,,life,http://api.map.baidu.com/place/detail?uid=56f2f696b02c66830aa8d4f0&output=html&source=placeapi_v2,,00:00-24:00,0,,,,,,,13,0,,,,,,,117.20941714276,32.959222720825,0
ee831117f34a7c66eee4a57e,天之韵会所,休闲娱乐,洗浴按摩,安徽省,蚌埠市,怀远县,蚌埠市怀远县榴城镇307省道南侧中央花园商住小区A50号楼商铺A50-7号,ee831117f34a7c66eee4a57e,1,0,117.206236,32.972883,(0552)8678999,life,http://api.map.baidu.com/place/detail?uid=ee831117f34a7c66eee4a57e&output=html&source=placeapi_v2,97,00:00-24:00,3,,,,,,,22,1,,,,,,,117.20642932204,32.972830043183,0
b9fa04a0a8be64b440e192fb,许氏修脚堂(怀远分店),休闲娱乐,洗浴按摩,安徽省,蚌埠市,怀远县,安徽省蚌埠市怀远县健康路1号,b9fa04a0a8be64b440e192fb,1,0,117.203354,32.962178,15155208158,life,http://api.map.baidu.com/place/detail?uid=b9fa04a0a8be64b440e192fb&output=html&source=placeapi_v2,,,0,,,,,,,17,0,,,,,,,,,0
5366364a70a7ca6ea8f0cd06,水立方休闲会所(凤阳东路店),休闲娱乐,洗浴按摩,安徽省,蚌埠市,龙子湖区,安徽省蚌埠市龙子湖区解放一路292栋号,5366364a70a7ca6ea8f0cd06,1,0,117.387905,32.95174,(0552)3078198,life,http://api.map.baidu.com/place/detail?uid=5366364a70a7ca6ea8f0cd06&output=html&source=placeapi_v2,,00:00-24:00,0,,,,,,,10,0,,,,,,,117.38789582587,32.951638602996,0
72e57fd751e438acf8dc85e9,樱花休闲会馆(解放路店),休闲娱乐,洗浴按摩,安徽省,蚌埠市,龙子湖区,安徽省蚌埠市龙子湖区解放二路108号,72e57fd751e438acf8dc85e9,1,0,117.391992,32.95802,(0552)3855555,life,http://api.map.baidu.com/place/detail?uid=72e57fd751e438acf8dc85e9&output=html&source=placeapi_v2,67,00:00-24:00,2,,,,,,,14,1,,,,,,,117.39178737158,32.958005004965,0
9e3a8a283577d0491d58005b,龙凤浴池(沿淮路店),休闲娱乐,洗浴按摩,安徽省,蚌埠市,龙子湖区,安徽省蚌埠市龙子湖区沿淮路772号,9e3a8a283577d0491d58005b,1,0,117.386663,32.960271,,life,http://api.map.baidu.com/place/detail?uid=9e3a8a283577d0491d58005b&output=html&source=placeapi_v2,,,0,,,,,,,8,0,,,,,,,,,0
8de3bef7512d6f21a8059d9b,清泉浴池(凤阳西路店),休闲娱乐,洗浴按摩,安徽省,蚌埠市,龙子湖区,安徽省蚌埠市龙子湖区凤阳西路与国庆街交叉口东南方向40米,8de3bef7512d6f21a8059d9b,1,1,117.374056,32.953284,,life,http://api.map.baidu.com/place/detail?uid=8de3bef7512d6f21a8059d9b&output=html&source=placeapi_v2,,10:00-22:00,0,,,,,,,8,0,,,,,,,117.37406215188,32.953428793086,1
2d823ae773b43b556fa3cc88,玉龙池(光明街店),休闲娱乐,洗浴按摩,安徽省,蚌埠市,龙子湖区,光明街丝语发艺对面,2d823ae773b43b556fa3cc88,1,0,117.375842,32.95572,,life,http://api.map.baidu.com/place/detail?uid=2d823ae773b43b556fa3cc88&output=html&source=placeapi_v2,,00:00-24:00,0,,,,,,,4,0,,,,,,,117.3759753405,32.955712321349,0
b6147bf1167759e24207c1d7,祥洁桑拿普浴,休闲娱乐,洗浴按摩,安徽省,蚌埠市,淮上区,安徽省蚌埠市淮上区双墩路荷花园菜市场2楼,b6147bf1167759e24207c1d7,1,0,117.382667,32.977832,,life,http://api.map.baidu.com/place/detail?uid=b6147bf1167759e24207c1d7&output=html&source=placeapi_v2,,,,,,,,,,10,,,,,,,,,,0
457bdd3e85e0564279b55c93,领尚足道(延安路店),休闲娱乐,洗浴按摩,安徽省,蚌埠市,龙子湖区,安徽省蚌埠市龙子湖区延安路273号,457bdd3e85e0564279b55c93,1,1,117.378452,32.953438,(0552)3150000,life,http://api.map.baidu.com/place/detail?uid=457bdd3e85e0564279b55c93&output=html&source=placeapi_v2,188,00:00-24:00,0,,,,,,,19,0,,,,,,,117.37864447836,32.95332989118,1
896d4378335ffbd482a12e20,金都汗蒸足疗,休闲娱乐,洗浴按摩,安徽省,蚌埠市,龙子湖区,安徽省蚌埠市龙子湖区凤阳西路30号,896d4378335ffbd482a12e20,1,0,117.381555,32.952112,,life,http://api.map.baidu.com/place/detail?uid=896d4378335ffbd482a12e20&output=html&source=placeapi_v2,80,00:00-24:00,0,,,,,,,5,5,,,,,,,117.38158474817,32.952245344207,0
c4932070c308648c85420ec4,伊人仿SPA美容会所,休闲娱乐,洗浴按摩,安徽省,蚌埠市,蚌山区,蚌埠市蚌山区国货路南山社区国货路小区北侧约70米,,1,0,117.372175,32.951377,,life,http://api.map.baidu.com/place/detail?uid=c4932070c308648c85420ec4&output=html&source=placeapi_v2,,,,,,,,,,1,,,,,,,,117.3720319419,32.951854476574,0
fa19ba848d84ef0c4207c1a1,鸿昌浴池,休闲娱乐,洗浴按摩,安徽省,蚌埠市,龙子湖区,蚌埠市龙子湖区幸福村小沟北1号,fa19ba848d84ef0c4207c1a1,1,0,117.413491,32.956371,18109651735,life,http://api.map.baidu.com/place/detail?uid=fa19ba848d84ef0c4207c1a1&output=html&source=placeapi_v2,,08:00-20:00,0,,,,,,,6,0,,,,,,,117.41348122596,32.956237471641,0
c875c97a2a6b10fdafee7aa8,张家明点穴推拿按摩,休闲娱乐,洗浴按摩,安徽省,蚌埠市,龙子湖区,蚌埠市龙子湖区二刚眼睛烧烤对面,c875c97a2a6b10fdafee7aa8,1,0,117.40515,32.955283,,life,http://api.map.baidu.com/place/detail?uid=c875c97a2a6b10fdafee7aa8&output=html&source=placeapi_v2,,10:00-22:00,4.5,,,,,,,13,0,,,,,,,117.40509411572,32.955314690641,0
86a1534daed151dcc4f02545,大众浴池(治淮路店),休闲娱乐,洗浴按摩,安徽省,蚌埠市,龙子湖区,安徽省蚌埠市龙子湖区解放路211号,86a1534daed151dcc4f02545,1,0,117.39986,32.957027,,life,http://api.map.baidu.com/place/detail?uid=86a1534daed151dcc4f02545&output=html&source=placeapi_v2,31,00:00-24:00,0,,,,,,,15,0,,,,,,,117.40002150758,32.957039716307,0
6fc17aaafdffa68df603b82d,洪轩沐浴,休闲娱乐,洗浴按摩,安徽省,蚌埠市,龙子湖区,蚌埠市龙子湖区X003,,1,0,117.500649,32.968978,,life,http://api.map.baidu.com/place/detail?uid=6fc17aaafdffa68df603b82d&output=html&source=placeapi_v2,,,,,,,,,,,,,,,,,,,,0
