[{"community_board_number":"12","chair":"Shahabudeen (Shah) Ally","district_manager":"Ebenezer Smith","board_meeting_cabinet_meeting":"Fourth Tuesday, 7:00pm","address_1":"530 West 166th Street, New York, NY 10032","location_2":"6th Floor","phone_number":"212-568-8500","postcode":"10032","borough":"MANHATTAN","latitude":"40.839328","longitude":"-73.939339","community_council":"10","census_tract":"251","bin":"1062988","bbl":"1021240001","nta":"Washington Heights South                                                   ","location_1":{"latitude":"40.839328","longitude":"-73.939339"},":@computed_region_efsh_h5xi":"13090",":@computed_region_f5dn_yrer":"47",":@computed_region_yeji_bk3q":"4",":@computed_region_92fq_4b7q":"39",":@computed_region_sbqj_enih":"21"}
,{"community_board_number":"9","chair":"Padmore John","district_manager":"Eutha R. Prince","board_meeting_cabinet_meeting":"Third Thursday, 6:30pm","address_1":"16-18 Old Broadway, New York, NY 10027","phone_number":"212-864-6200","postcode":"10027","borough":"MANHATTAN","latitude":"40.815433","longitude":"-73.957204","community_council":"7","census_tract":"219","bin":"1059714","bbl":"1019820067","nta":"Manhattanville                                                             ","location_1":{"latitude":"40.815433","longitude":"-73.957204"},":@computed_region_efsh_h5xi":"12424",":@computed_region_f5dn_yrer":"37",":@computed_region_yeji_bk3q":"4",":@computed_region_92fq_4b7q":"23",":@computed_region_sbqj_enih":"17"}
,{"community_board_number":"5","chair":"Vikki Babero","district_manager":"Wally Rubin","board_meeting_cabinet_meeting":"Second Thursday, 6:00pm","address_1":"450 7th Avenue, New York, NY 10123","location_2":"Room 2109","phone_number":"212-465-0907","postcode":"10123","borough":"MANHATTAN","latitude":"40.751359","longitude":"-73.990367","community_council":"3","census_tract":"109","bin":"1014408","bbl":"1007840041","nta":"Midtown-Midtown South                                                      ","location_1":{"latitude":"40.751359","longitude":"-73.990367"},":@computed_region_efsh_h5xi":"11722",":@computed_region_f5dn_yrer":"11",":@computed_region_yeji_bk3q":"4",":@computed_region_92fq_4b7q":"10",":@computed_region_sbqj_enih":"8"}
,{"community_board_number":"1","chair":"Anthony Notaro, Jr.","district_manager":"Noah Pfefferblit","board_meeting_cabinet_meeting":"Fourth Tuesday, 6:00pm","address_1":"1 Centre Street, New York, NY 10007","location_2":"Room 2202-N","phone_number":"212-669-7970","postcode":"10007","borough":"MANHATTAN","latitude":"40.713001","longitude":"-74.004181","community_council":"1","census_tract":"29","bin":"1001394","bbl":"1001210001","nta":"Chinatown                                                                  ","location_1":{"latitude":"40.713001","longitude":"-74.004181"},":@computed_region_efsh_h5xi":"11728",":@computed_region_f5dn_yrer":"56",":@computed_region_yeji_bk3q":"4",":@computed_region_92fq_4b7q":"32",":@computed_region_sbqj_enih":"2"}
,{"community_board_number":"6","chair":"Richard Eggers","district_manager":"Jesus Perez","board_meeting_cabinet_meeting":"Second Wednesday, 7:00pm","address_1":"P.O. Box 1672, New York, NY 10159-1672","phone_number":"212-319-3750"}
,{"community_board_number":"11","chair":"Diane Collier","district_manager":"Angel D. Mescain","board_meeting_cabinet_meeting":"Third Tuesday, 6:30pm","address_1":"1664 Park Avenue, New York, NY 10035","location_2":"Ground Floor","phone_number":"212-831-8929","postcode":"10035","borough":"MANHATTAN","latitude":"40.800223","longitude":"-73.942564","community_council":"9","census_tract":"184","bin":"1051688","bbl":"1016230035","nta":"East Harlem North                                                          ","location_1":{"latitude":"40.800223","longitude":"-73.942564"},":@computed_region_efsh_h5xi":"13093",":@computed_region_f5dn_yrer":"7",":@computed_region_yeji_bk3q":"4",":@computed_region_92fq_4b7q":"36",":@computed_region_sbqj_enih":"16"}
,{"community_board_number":"2","chair":"Terri Cude","district_manager":"Bob Gormley","board_meeting_cabinet_meeting":"Second to last Thursday, 6:30pm","address_1":"3 Washington Square Village, \n New York, NY 10012","location_2":"#1A","phone_number":"212-979-2272","postcode":"10012","borough":"MANHATTAN","latitude":"40.727881","longitude":"-73.998557","community_council":"1","census_tract":"5501","bin":"1077835","bbl":"1005330001","nta":"West Village                                                               ","location_1":{"latitude":"40.727881","longitude":"-73.998557"},":@computed_region_efsh_h5xi":"12075",":@computed_region_f5dn_yrer":"57",":@computed_region_yeji_bk3q":"4",":@computed_region_92fq_4b7q":"32",":@computed_region_sbqj_enih":"3"}
,{"community_board_number":"7","chair":"Elizabeth R. Caputo","district_manager":"Penny Ryan","board_meeting_cabinet_meeting":"First Tuesday, 6:30pm","address_1":"250 W. 87th Street, New York, NY 10024","phone_number":"212-362-4008","postcode":"10024","borough":"MANHATTAN","latitude":"40.789078","longitude":"-73.976245","community_council":"6","census_tract":"175","bin":"1076251","bbl":"1012347501","nta":"Upper West Side                                                            ","location_1":{"latitude":"40.789078","longitude":"-73.976245"},":@computed_region_efsh_h5xi":"12421",":@computed_region_f5dn_yrer":"20",":@computed_region_yeji_bk3q":"4",":@computed_region_92fq_4b7q":"19",":@computed_region_sbqj_enih":"15"}
,{"community_board_number":"10","chair":"Henrietta Lyle","district_manager":"Andrew Lassalle","board_meeting_cabinet_meeting":"First Wednesday, 6:00pm","address_1":"215 West 125th Street, New York, NY 10027","location_2":"4th Floor","phone_number":"212-749-3105","postcode":"10027","borough":"MANHATTAN","latitude":"40.809259","longitude":"-73.948979","community_council":"9","census_tract":"222","bin":"1058659","bbl":"1019310021","nta":"Central Harlem South                                                       ","location_1":{"latitude":"40.809259","longitude":"-73.948979"},":@computed_region_efsh_h5xi":"12424",":@computed_region_f5dn_yrer":"18",":@computed_region_yeji_bk3q":"4",":@computed_region_92fq_4b7q":"36",":@computed_region_sbqj_enih":"18"}
,{"community_board_number":"3","chair":"Gigi Li","district_manager":"Susan Stetzer","board_meeting_cabinet_meeting":"Fourth Tuesday, 6:30pm","address_1":"59 East 4th Street, New York, NY 10003","phone_number":"212-533-5300","postcode":"10003","borough":"MANHATTAN","latitude":"40.726785","longitude":"-73.990807","community_council":"2","census_tract":"38","bin":"1082642","bbl":"1004600056","nta":"East Village                                                               ","location_1":{"latitude":"40.726785","longitude":"-73.990807"},":@computed_region_efsh_h5xi":"11724",":@computed_region_f5dn_yrer":"70",":@computed_region_yeji_bk3q":"4",":@computed_region_92fq_4b7q":"50",":@computed_region_sbqj_enih":"5"}
,{"community_board_number":"8","chair":"James Clynes","district_manager":"Latha Thompson","board_meeting_cabinet_meeting":"Third Wednesday, 6:30pm","address_1":"505 Park Avenue, \n New York, NY 10022","location_2":"Suite 620","phone_number":"212-758-4340","postcode":"10022","borough":"MANHATTAN","latitude":"40.763117","longitude":"-73.969641","community_council":"4","census_tract":"11402","bin":"1041900","bbl":"1013940001","nta":"Upper East Side-Carnegie Hill                                              ","location_1":{"latitude":"40.763117","longitude":"-73.969641"},":@computed_region_efsh_h5xi":"12419",":@computed_region_f5dn_yrer":"23",":@computed_region_yeji_bk3q":"4",":@computed_region_92fq_4b7q":"51",":@computed_region_sbqj_enih":"11"}
,{"community_board_number":"4","chair":"Delores Rubin","district_manager":"Jesse Bodine","board_meeting_cabinet_meeting":"First Wednesday, 6:30pm","address_1":"330 West 42nd Street,\n New York, NY 10036","location_2":"Suite 2618","phone_number":"212-736-4536","postcode":"10036","borough":"MANHATTAN","latitude":"40.757661","longitude":"-73.990832","community_council":"3","census_tract":"115","bin":"1024926","bbl":"1010320048","nta":"Clinton                                                                    ","location_1":{"latitude":"40.757661","longitude":"-73.990832"},":@computed_region_efsh_h5xi":"13094",":@computed_region_f5dn_yrer":"12",":@computed_region_yeji_bk3q":"4",":@computed_region_92fq_4b7q":"10",":@computed_region_sbqj_enih":"8"}]
