uid,name,cat_L1,cat_L2,province,city,area,address,street_id,detail,child_num,loc_lng,loc_lat,telephone,type,detail_url,price,shop_hours,overall_rating,taste_rating,service_rating,environment_rating,facility_rating,hygiene_rating,technology_rating,image_num,comment_num,groupon_num,discount_num,favorite_num,checkin_num,brand,content_tag,naviloc_lng,naviloc_lat,child_num
15cf7c8a9e036eaae812e489,宏利大厦,房地产,写字楼,福建省,福州市,闽侯县,福建省福州市闽侯县义溪路19号,15cf7c8a9e036eaae812e489,1,0,119.364073,25.890584,,house,http://api.map.baidu.com/place/detail?uid=15cf7c8a9e036eaae812e489&output=html&source=placeapi_v2,,,,,,,,,,,,,,,,,,119.36410421809,25.890518065632,0
9845ce4144eccbbf86420e83,海峡机械园西区9座,房地产,写字楼,福建省,福州市,闽侯县,福州市闽侯县东南公路港钢材物流园,,1,0,119.354928,25.926245,,house,http://api.map.baidu.com/place/detail?uid=9845ce4144eccbbf86420e83&output=html&source=placeapi_v2,,,,,,,,,,,,,,,,,,,,0
5cb81a924e803550970319c4,海峡机电园西区10座,房地产,写字楼,福建省,福州市,闽侯县,福州市闽侯县祥谦枢纽福州青口钢材市场,,1,0,119.354044,25.926554,,house,http://api.map.baidu.com/place/detail?uid=5cb81a924e803550970319c4&output=html&source=placeapi_v2,,,,,,,,,,,,,,,,,,,,0
274e12b5690de2c33913fdaf,营销中心,房地产,写字楼,福建省,福州市,闽侯县,福州市闽侯县奔驰大道龙恒凤凰城西北侧,274e12b5690de2c33913fdaf,1,0,119.368723,25.915843,(0591)22778999,house,http://api.map.baidu.com/place/detail?uid=274e12b5690de2c33913fdaf&output=html&source=placeapi_v2,,,,,,,,,,,,,,,,,,,,0
ee467d0f2fb4076e871541f6,华韵大厦,房地产,写字楼,福建省,福州市,闽侯县,福建省福州市闽侯县新城路66号,ee467d0f2fb4076e871541f6,1,0,119.380132,25.904866,(0591)22786859,house,http://api.map.baidu.com/place/detail?uid=ee467d0f2fb4076e871541f6&output=html&source=placeapi_v2,,,4,,,,,,,,,,,,,,,119.37967451066,25.904845009263,0
c094c2c63bdb0ab385420e3f,海峡汽车文化广场写字楼,房地产,写字楼,福建省,福州市,闽侯县,福州市闽侯县青口投资区新榕路1号,c094c2c63bdb0ab385420e3f,1,0,119.380727,25.924173,,house,http://api.map.baidu.com/place/detail?uid=c094c2c63bdb0ab385420e3f&output=html&source=placeapi_v2,,,,,,,,,,,,,,,,,,,,0
333f7bb799ed15b92e47339d,供销大厦,房地产,写字楼,福建省,福州市,闽侯县,福州市闽侯县新城路青口镇中央公园西北侧约30米,333f7bb799ed15b92e47339d,1,0,119.378986,25.904608,,house,http://api.map.baidu.com/place/detail?uid=333f7bb799ed15b92e47339d&output=html&source=placeapi_v2,,,,,,,,,,,,,,,,,,119.3791504518,25.904533257329,0
1eeed546922989f1b5147fcc,建设大厦,房地产,写字楼,福建省,福州市,闽侯县,福建省福州市闽侯县青口红旗路40-3号,1eeed546922989f1b5147fcc,1,0,119.387342,25.900438,,house,http://api.map.baidu.com/place/detail?uid=1eeed546922989f1b5147fcc&output=html&source=placeapi_v2,,,,,,,,,,,,,,,,,,119.38707455022,25.900605339886,0
5c48ab85f787c9965bf6be53,农光集资楼,房地产,写字楼,福建省,福州市,闽侯县,福建省福州市闽侯县新城路70号,5c48ab85f787c9965bf6be53,1,0,119.377562,25.90459,,house,http://api.map.baidu.com/place/detail?uid=5c48ab85f787c9965bf6be53&output=html&source=placeapi_v2,,,0.0,,,,,,,,,,,,,,,119.37778670546,25.904372535726,0
64f44f25054577a4ca1b9539,营销中心,房地产,写字楼,福建省,福州市,闽侯县,福州市闽侯县新城路华韵大厦,64f44f25054577a4ca1b9539,1,0,119.380336,25.904766,,house,http://api.map.baidu.com/place/detail?uid=64f44f25054577a4ca1b9539&output=html&source=placeapi_v2,,,,,,,,,,,,,,,,,,,,0
755aadc0417e2abac27da28b,老人协会综合大楼,房地产,写字楼,福建省,福州市,闽侯县,福建省福州市闽侯县福中巷18号,,1,0,119.380832,25.932199,,house,http://api.map.baidu.com/place/detail?uid=755aadc0417e2abac27da28b&output=html&source=placeapi_v2,,,,,,,,,,,,,,,,,,119.3809960564,25.932297096889,0
06361ce8529570751d1d118f,福建宏辉集团总部大厦,房地产,写字楼,福建省,福州市,长乐区,福州市长乐区G316,06361ce8529570751d1d118f,1,0,119.426792,25.952088,,house,http://api.map.baidu.com/place/detail?uid=06361ce8529570751d1d118f&output=html&source=placeapi_v2,,,,,,,,,,,,,,,,,,,,0
889f76f8364e403cd6b74e0e,粮食大厦,房地产,写字楼,福建省,福州市,长乐区,长乐区西洋南路,,1,0,119.512477,25.94327,,house,http://api.map.baidu.com/place/detail?uid=889f76f8364e403cd6b74e0e&output=html&source=placeapi_v2,,,,,,,,,,,,,,,,,,,,0
6c3a467f85b3f4760b69d95b,海晟・双益大厦,房地产,写字楼,福建省,福州市,长乐区,福州市长乐区和谐路长乐名城2期西南侧约40米,6c3a467f85b3f4760b69d95b,1,0,119.502073,25.942127,,house,http://api.map.baidu.com/place/detail?uid=6c3a467f85b3f4760b69d95b&output=html&source=placeapi_v2,,,,,,,,,,,,,,,,,,,,0
821d313750311e5b84154175,长乐新电力大楼,房地产,写字楼,福建省,福州市,长乐区,福州市长乐区广场路799号,821d313750311e5b84154175,1,1,119.498692,25.943005,,house,http://api.map.baidu.com/place/detail?uid=821d313750311e5b84154175&output=html&source=placeapi_v2,,,,,,,,,,,,,,,,,,119.49869345462,25.943353301222,1
c8595547f24699c04e5547f2,长乐区冶金大厦,房地产,写字楼,福建省,福州市,长乐区,福州市长乐区和谐路与广场南路交叉口西南100米,c8595547f24699c04e5547f2,1,4,119.496449,25.942943,,house,http://api.map.baidu.com/place/detail?uid=c8595547f24699c04e5547f2&output=html&source=placeapi_v2,,,,,,,,,,,,,,,,,,119.49601255165,25.943229923139,4
9a307ae01b162e1ea3acc461,中天恒基广场2座,房地产,写字楼,福建省,福州市,长乐区,福建省福州市长乐区首占镇中天恒基广场2座,9a307ae01b162e1ea3acc461,1,0,119.506018,25.940297,,house,http://api.map.baidu.com/place/detail?uid=9a307ae01b162e1ea3acc461&output=html&source=placeapi_v2,,,,,,,,,,,,,,,,,,119.50306804525,25.941834181968,0
c8ad06e190f3bd6ec7f50d71,恒基广场,房地产,写字楼,福建省,福州市,长乐区,福州市长乐区和谐路中天恒基,c8ad06e190f3bd6ec7f50d71,1,0,119.503953,25.941273,(0591)63188888,house,http://api.map.baidu.com/place/detail?uid=c8ad06e190f3bd6ec7f50d71&output=html&source=placeapi_v2,,,,,,,,,,,,,,,,,,119.50397628332,25.941429087124,0
03951fd3fb87297bbbbd63e2,校部办公楼,房地产,写字楼,福建省,福州市,长乐区,福州市长乐区青闸线福州外语外贸学院,,1,0,119.505061,25.931164,,house,http://api.map.baidu.com/place/detail?uid=03951fd3fb87297bbbbd63e2&output=html&source=placeapi_v2,,,,,,,,,,,,,,,,,,,,0
cd9d05dd928c61b585420ece,长乐物资大楼,房地产,写字楼,福建省,福州市,长乐区,福州市长乐区吴航路128号,cd9d05dd928c61b585420ece,1,0,119.520331,25.96158,(0591)28935073,house,http://api.map.baidu.com/place/detail?uid=cd9d05dd928c61b585420ece&output=html&source=placeapi_v2,,,,,,,,,,,,,,,,,,119.52062554231,25.961554108293,0
38e90dc02f3479c690114c93,长乐三瑞大厦,房地产,写字楼,福建省,福州市,长乐区,福州市长乐区和谐路长乐名城2期南侧约50米,,1,0,119.502998,25.941514,,house,http://api.map.baidu.com/place/detail?uid=38e90dc02f3479c690114c93&output=html&source=placeapi_v2,,,,,,,,,,,,,,,,,,119.50286124813,25.941340062734,0
3f743bc3c3e4af4104fef568,冶金大厦B座,房地产,写字楼,福建省,福州市,长乐区,福州市长乐区广场南路655号,3f743bc3c3e4af4104fef568,1,0,119.496705,25.943117,,house,http://api.map.baidu.com/place/detail?uid=3f743bc3c3e4af4104fef568&output=html&source=placeapi_v2,,,,,,,,,,,,,,,,,,,,0
f3d9f1f209bc315bb75f1e6a,中银大厦,房地产,写字楼,福建省,福州市,长乐区,福建省福州市长乐区吴航路69号,f3d9f1f209bc315bb75f1e6a,1,2,119.520081,25.960831,,house,http://api.map.baidu.com/place/detail?uid=f3d9f1f209bc315bb75f1e6a&output=html&source=placeapi_v2,,,,,,,,,,,,,,,,,,119.52031803707,25.961149351581,2
0f045a2b40c3acc94e776ec3,南商主楼,房地产,写字楼,福建省,福州市,长乐区,福州市长乐区西洋南路豪鑫花园东南侧约70米,,1,0,119.518793,25.959254,,house,http://api.map.baidu.com/place/detail?uid=0f045a2b40c3acc94e776ec3&output=html&source=placeapi_v2,,,,,,,,,,,,,,,,,,,,0
faf89bce52f6f10af603b899,冶金大厦A座,房地产,写字楼,福建省,福州市,长乐区,福州市长乐区振铎路长乐区冶金大厦,,1,0,119.496345,25.94267,,house,http://api.map.baidu.com/place/detail?uid=faf89bce52f6f10af603b899&output=html&source=placeapi_v2,,,,,,,,,,,,,,,,,,119.49619114198,25.94243110878,0
bbf5e5cf20e5f49b03ec01c1,宏利商住楼-2座,房地产,写字楼,福建省,福州市,长乐区,福建省福州市长乐区宏航新城14b座705号宏利商住楼,bbf5e5cf20e5f49b03ec01c1,1,0,119.515678,25.964,,house,http://api.map.baidu.com/place/detail?uid=bbf5e5cf20e5f49b03ec01c1&output=html&source=placeapi_v2,,,,,,,,,,,,,,,,,,119.51526997602,25.963994506756,0
5538193a6383570a4c3a59e7,长电朝阳楼-B座,房地产,写字楼,福建省,福州市,长乐区,福州市长乐区洞江巷新乐花园,5538193a6383570a4c3a59e7,1,0,119.514701,25.962414,,house,http://api.map.baidu.com/place/detail?uid=5538193a6383570a4c3a59e7&output=html&source=placeapi_v2,,,0,,,,,,,,,,,,,,,119.51460317641,25.962487692064,0
63c531a9ed82725b95ca07d0,长乐商贸大楼2座,房地产,写字楼,福建省,福州市,长乐区,福州市长乐区奎桥路220号长乐商贸大楼2座,,1,0,119.52191,25.960448,,house,http://api.map.baidu.com/place/detail?uid=63c531a9ed82725b95ca07d0&output=html&source=placeapi_v2,,,,,,,,,,,,,,,,,,,,0
79412b9be4c2ff4e5fd4fe43,印刷厂新村-A座,房地产,写字楼,福建省,福州市,长乐区,福建省福州市长乐区南山路22号,79412b9be4c2ff4e5fd4fe43,1,0,119.523291,25.96044,,house,http://api.map.baidu.com/place/detail?uid=79412b9be4c2ff4e5fd4fe43&output=html&source=placeapi_v2,,,,,,,,,,,,,,,,,,,,0
94f8d7606ba087b41de999a4,龙芝大厦1座,房地产,写字楼,福建省,福州市,长乐区,福州市长乐区吴航街道吴航路龙芝大厦1座,94f8d7606ba087b41de999a4,1,0,119.502213,25.958776,,house,http://api.map.baidu.com/place/detail?uid=94f8d7606ba087b41de999a4&output=html&source=placeapi_v2,,,,,,,,,,,,,,,,,,119.50249205967,25.958819772643,0
7fd72311901ccc9f5dbe8691,邮政大厦,房地产,写字楼,福建省,福州市,长乐区,福建省福州市长乐区西洋中路2号,7fd72311901ccc9f5dbe8691,1,2,119.519255,25.961685,,house,http://api.map.baidu.com/place/detail?uid=7fd72311901ccc9f5dbe8691&output=html&source=placeapi_v2,,,,,,,,,,,,,,,,,,119.51968288117,25.961571172971,2
8bc410217ab68bbf00ec01ed,得意大楼,房地产,写字楼,福建省,福州市,闽侯县,福建省福州市闽侯县中国银行(117县道西),8bc410217ab68bbf00ec01ed,1,0,119.224993,25.981288,,house,http://api.map.baidu.com/place/detail?uid=8bc410217ab68bbf00ec01ed&output=html&source=placeapi_v2,,,,,,,,,,,,,,,,,,119.22522105068,25.98136019733,0
55825b2208e2f3b30e0e6bad,蕉府行宫办公楼,房地产,写字楼,福建省,福州市,闽侯县,福州市闽侯县福州高新区第一中学东北侧约290米,,1,0,119.231174,25.984915,,house,http://api.map.baidu.com/place/detail?uid=55825b2208e2f3b30e0e6bad&output=html&source=placeapi_v2,,,,,,,,,,,,,,,,,,119.23135883895,25.984628076921,0
640c76288752c9a7c7f02526,高新区机关干部集资楼,房地产,写字楼,福建省,福州市,闽侯县,福州市闽侯县X117旗顶美新村西侧约30米,,1,0,119.225248,25.983337,,house,http://api.map.baidu.com/place/detail?uid=640c76288752c9a7c7f02526&output=html&source=placeapi_v2,,,,,,,,,,,,,,,,,,,,0
e8fb1409a26bfd38d52ce255,市场办公楼,房地产,写字楼,福建省,福州市,闽侯县,福州市闽侯县福州绕城高速南通水果批发市场东侧约40米,,1,0,119.281883,25.974083,,house,http://api.map.baidu.com/place/detail?uid=e8fb1409a26bfd38d52ce255&output=html&source=placeapi_v2,,,,,,,,,,,,,,,,,,,,0
79bfbadd1c550377095cb3a0,福润大厦,房地产,写字楼,福建省,福州市,闽侯县,福建省福州市闽侯县,49e9dcdd1fa92d5b970319b4,1,1,119.279426,25.969251,,house,http://api.map.baidu.com/place/detail?uid=79bfbadd1c550377095cb3a0&output=html&source=placeapi_v2,,,5,,,,,,,,,,,,,,,119.27966524648,25.969189846098,1
792ed22fa4bba2482806ceae,三迪创富广场,房地产,写字楼,福建省,福州市,仓山区,福州市仓山区浦道一路与庵前一路交叉路口往南约130米,792ed22fa4bba2482806ceae,1,0,119.384659,25.989873,,house,http://api.map.baidu.com/place/detail?uid=792ed22fa4bba2482806ceae&output=html&source=placeapi_v2,,,,,,,,,,,,,,,,,,,,0
69e3e21107b63097e9f85389,三迪创富广场-A区,房地产,写字楼,福建省,福州市,仓山区,福州市仓山区福峡路与庵前二路交叉路口往东南约110米,69e3e21107b63097e9f85389,1,0,119.384245,25.989694,,house,http://api.map.baidu.com/place/detail?uid=69e3e21107b63097e9f85389&output=html&source=placeapi_v2,,,,,,,,,,,,,,,,,,119.38402561958,25.989194275455,0
88a67cc16bfe0b81f7eafc1d,三迪创富广场-B区,房地产,写字楼,福建省,福州市,仓山区,福州市仓山区福峡路与胪中路交叉路口往东约120米,88a67cc16bfe0b81f7eafc1d,1,1,119.383202,25.992055,,house,http://api.map.baidu.com/place/detail?uid=88a67cc16bfe0b81f7eafc1d&output=html&source=placeapi_v2,,,,,,,,,,,,,,,,,,119.38411054448,25.990971617948,1
2fd49668cde53d1a2b06cee0,福建亚升总部大楼,房地产,写字楼,福建省,福州市,仓山区,福州市仓山区岐阳三路与南江滨东大道交界处,,1,0,119.433913,25.990939,,house,http://api.map.baidu.com/place/detail?uid=2fd49668cde53d1a2b06cee0&output=html&source=placeapi_v2,,,,,,,,,,,,,,,,,,119.4342818073,25.991199878575,0
c98bc7bd43a8f2a731870aed,福建水产大厦,房地产,写字楼,福建省,福州市,马尾区,福建省福州市马尾区青洲路66号,c98bc7bd43a8f2a731870aed,1,4,119.478732,25.995331,,house,http://api.map.baidu.com/place/detail?uid=c98bc7bd43a8f2a731870aed&output=html&source=placeapi_v2,,,5,,,,,,,,,,,,,,,119.47921402573,25.99560680728,4
17f1f11382017c940a5cb341,bx06东写字楼,房地产,写字楼,福建省,福州市,马尾区,福州市马尾区港口路贸盛大厦2楼1层bx06东写字楼,17f1f11382017c940a5cb341,1,0,119.463099,25.988893,,house,http://api.map.baidu.com/place/detail?uid=17f1f11382017c940a5cb341&output=html&source=placeapi_v2,,,,,,,,,,,,,,,,,,119.46283837891,25.988974663372,0
0e50c8b1b936eb5dbfa82262,长乐区营前街道企业大楼,房地产,写字楼,福建省,福州市,长乐区,福州市长乐区工商路,0e50c8b1b936eb5dbfa82262,1,0,119.469009,25.969933,,house,http://api.map.baidu.com/place/detail?uid=0e50c8b1b936eb5dbfa82262&output=html&source=placeapi_v2,,,,,,,,,,,,,,,,,,,,0
4a4aaa70f6674d1472455b88,卫检大楼,房地产,写字楼,福建省,福州市,马尾区,福建省福州市马尾区罗星西路21号,4a4aaa70f6674d1472455b88,1,0,119.466327,25.99094,,house,http://api.map.baidu.com/place/detail?uid=4a4aaa70f6674d1472455b88&output=html&source=placeapi_v2,,,,,,,,,,,,,,,,,,,,0
f5111b58cae3bcc5eddfcad7,青洲综合大楼,房地产,写字楼,福建省,福州市,马尾区,福州市马尾区罗星西路,f5111b58cae3bcc5eddfcad7,1,0,119.469756,25.994812,,house,http://api.map.baidu.com/place/detail?uid=f5111b58cae3bcc5eddfcad7&output=html&source=placeapi_v2,,,,,,,,,,,,,,,,,,,,0
28cc1da2bc938af79f82ead9,马尾IDC大楼,房地产,写字楼,福建省,福州市,马尾区,福州市马尾区罗星西路57号,28cc1da2bc938af79f82ead9,1,0,119.468187,25.99263,,house,http://api.map.baidu.com/place/detail?uid=28cc1da2bc938af79f82ead9&output=html&source=placeapi_v2,,,,,,,,,,,,,,,,,,119.46788837401,25.993059849742,0
5e05df4aa727d10d81288a7e,马尾工会大楼,房地产,写字楼,福建省,福州市,马尾区,福州市马尾区建星路1号,5e05df4aa727d10d81288a7e,1,1,119.460365,25.991434,,house,http://api.map.baidu.com/place/detail?uid=5e05df4aa727d10d81288a7e&output=html&source=placeapi_v2,,,4,,,,,,,,,,,,,,,119.46002591731,25.991377912722,1
7524cb4fb12d7a3404026f75,人力资源大厦,房地产,写字楼,福建省,福州市,马尾区,福州市马尾区罗星西路59号,7524cb4fb12d7a3404026f75,1,0,119.468582,25.993569,,house,http://api.map.baidu.com/place/detail?uid=7524cb4fb12d7a3404026f75&output=html&source=placeapi_v2,,,0,,,,,,,,,,,,,,,119.46842164679,25.993643559388,0
be7b6f8880768ef914b54b94,沙县小吃马尾商贸大楼,房地产,写字楼,福建省,福州市,马尾区,福建省福州市马尾区建星路47号沙县小吃马尾商贸大楼,be7b6f8880768ef914b54b94,1,0,119.464602,25.992435,,house,http://api.map.baidu.com/place/detail?uid=be7b6f8880768ef914b54b94&output=html&source=placeapi_v2,,,,,,,,,,,,,,,,,,119.46471804665,25.992343890601,0
5b90a6fd94f2fc84e507384c,观海国际广场,房地产,写字楼,福建省,福州市,马尾区,福州市马尾区罗星西路观海国际广场,,1,0,119.46548,25.989488,,house,http://api.map.baidu.com/place/detail?uid=5b90a6fd94f2fc84e507384c&output=html&source=placeapi_v2,,,,,,,,,,,,,,,,,,119.46607949753,25.989231170677,0
64ff768a92616faf6c3e1ba7,茂盛大厦一座,房地产,写字楼,福建省,福州市,马尾区,罗星街道福州市马尾区港口路茂盛大厦一座,64ff768a92616faf6c3e1ba7,1,0,119.463107,25.988916,,house,http://api.map.baidu.com/place/detail?uid=64ff768a92616faf6c3e1ba7&output=html&source=placeapi_v2,,,,,,,,,,,,,,,,,,,,0
4cead27041f855851e1d1199,海西提-10号楼,房地产,写字楼,福建省,福州市,马尾区,福建省福州市马尾区罗星西提城市广场10号楼(建星路),4cead27041f855851e1d1199,1,0,119.462145,25.992479,,house,http://api.map.baidu.com/place/detail?uid=4cead27041f855851e1d1199&output=html&source=placeapi_v2,,,,,,,,,,,,,,,,,,119.46192976265,25.992847090788,0
e6c1241fbbd1192532f71dad,西提城市广场-11号楼,房地产,写字楼,福建省,福州市,马尾区,福建省福州市马尾区西提城市广场11号楼(福州市马尾区委南),e6c1241fbbd1192532f71dad,1,0,119.462708,25.993825,,house,http://api.map.baidu.com/place/detail?uid=e6c1241fbbd1192532f71dad&output=html&source=placeapi_v2,,,,,,,,,,,,,,,,,,119.46248621351,25.993677042326,0
c0b4ed29460526e21e580028,马尾商贸大楼-B座,房地产,写字楼,福建省,福州市,马尾区,福州市马尾区建星路45号,c0b4ed29460526e21e580028,1,1,119.464042,25.992506,,house,http://api.map.baidu.com/place/detail?uid=c0b4ed29460526e21e580028&output=html&source=placeapi_v2,,,,,,,,,,,,,,,,,,119.46429362485,25.992291848272,1
359c9ced8a82d36adf1e5298,海西提-7号楼,房地产,写字楼,福建省,福州市,马尾区,福州市马尾区建星路,359c9ced8a82d36adf1e5298,1,0,119.46324,25.992668,,house,http://api.map.baidu.com/place/detail?uid=359c9ced8a82d36adf1e5298&output=html&source=placeapi_v2,,,,,,,,,,,,,,,,,,119.46338221037,25.992898734793,0
f9fd6062d596871f0f0e6b75,火炬创新大厦,房地产,写字楼,福建省,福州市,马尾区,福州市马尾区经济技术开发区星发路8号,f9fd6062d596871f0f0e6b75,1,0,119.465145,25.996279,,house,http://api.map.baidu.com/place/detail?uid=f9fd6062d596871f0f0e6b75&output=html&source=placeapi_v2,,,,,,,,,,,,,,,,,,119.46496800705,25.996271468616,0
c160cdbd819353b822f01749,海西提-5号楼,房地产,写字楼,福建省,福州市,马尾区,罗星船坞边路海西提,c160cdbd819353b822f01749,1,0,119.464172,25.993255,,house,http://api.map.baidu.com/place/detail?uid=c160cdbd819353b822f01749&output=html&source=placeapi_v2,,,,,,,,,,,,,,,,,,119.46402770666,25.993096972039,0
d146b388a796a9de74026975,贸盛大厦,房地产,写字楼,福建省,福州市,马尾区,福州市马尾区港口路25号,d146b388a796a9de74026975,1,4,119.463107,25.988916,,house,http://api.map.baidu.com/place/detail?uid=d146b388a796a9de74026975&output=html&source=placeapi_v2,,,3,,,,,,,,,,,,,,,119.46283762613,25.988982626132,4
2dc303416ad2c4e56f476021,马尾商贸大楼,房地产,写字楼,福建省,福州市,马尾区,福州市马尾区建星路45号,2dc303416ad2c4e56f476021,1,1,119.464646,25.992368,,house,http://api.map.baidu.com/place/detail?uid=2dc303416ad2c4e56f476021&output=html&source=placeapi_v2,,,0,,,,,,,,,,,,,,,119.46422142984,25.992140747427,1
08cd9afe5997e156ca291532,马尾商贸大楼-C座,房地产,写字楼,福建省,福州市,马尾区,福州市马尾区建星路45号,08cd9afe5997e156ca291532,1,1,119.464906,25.992782,,house,http://api.map.baidu.com/place/detail?uid=08cd9afe5997e156ca291532&output=html&source=placeapi_v2,,,0,,,,,,,,,,,,,,,119.46480532842,25.992798377591,1
09d67c9d62710cad45e27465,营前镇计生服务大楼,房地产,写字楼,福建省,福州市,长乐区,福州市长乐区瀛洲路长乐区营前镇人民政府东南侧,09d67c9d62710cad45e27465,1,0,119.475812,25.966811,,house,http://api.map.baidu.com/place/detail?uid=09d67c9d62710cad45e27465&output=html&source=placeapi_v2,,,,,,,,,,,,,,,,,,,,0
bd5b563c54326a43c16c14b5,海西提-1号楼,房地产,写字楼,福建省,福州市,马尾区,福州市马尾区建星路海西提,bd5b563c54326a43c16c14b5,1,0,119.463426,25.992147,,house,http://api.map.baidu.com/place/detail?uid=bd5b563c54326a43c16c14b5&output=html&source=placeapi_v2,,,,,,,,,,,,,,,,,,119.46332519851,25.992310816221,0
81daf7b3fbc4c49eb320a8cb,海西提-3号楼,房地产,写字楼,福建省,福州市,马尾区,福州市马尾区建星路,81daf7b3fbc4c49eb320a8cb,1,0,119.464493,25.993091,,house,http://api.map.baidu.com/place/detail?uid=81daf7b3fbc4c49eb320a8cb&output=html&source=placeapi_v2,,,,,,,,,,,,,,,,,,119.46432614172,25.992871064494,0
b8ca1decb4c5e7789f09f7de,海西提-2号楼,房地产,写字楼,福建省,福州市,马尾区,福州市马尾区建星路,b8ca1decb4c5e7789f09f7de,1,0,119.464109,25.992616,,house,http://api.map.baidu.com/place/detail?uid=b8ca1decb4c5e7789f09f7de&output=html&source=placeapi_v2,,,,,,,,,,,,,,,,,,119.46397193177,25.992732055351,0
04b4f7291ba85100fe0eb0eb,安福A座,房地产,写字楼,福建省,福州市,马尾区,福州市马尾区君竹路安福楼小区,04b4f7291ba85100fe0eb0eb,1,0,119.460225,25.992163,,house,http://api.map.baidu.com/place/detail?uid=04b4f7291ba85100fe0eb0eb&output=html&source=placeapi_v2,,,,,,,,,,,,,,,,,,,,0
ac85ed1dbaca7a73b34c492d,海西提-6号楼,房地产,写字楼,福建省,福州市,马尾区,罗星西路海西提,ac85ed1dbaca7a73b34c492d,1,0,119.463264,25.993242,,house,http://api.map.baidu.com/place/detail?uid=ac85ed1dbaca7a73b34c492d&output=html&source=placeapi_v2,,,,,,,,,,,,,,,,,,119.46339457016,25.992973969411,0
f76825666179947cc91b95a1,福建雪人股份有限公司-办公楼,房地产,写字楼,福建省,福州市,长乐区,福州市长乐区洞江西路福建雪人股份有限公司,f76825666179947cc91b95a1,1,0,119.511727,25.988805,,house,http://api.map.baidu.com/place/detail?uid=f76825666179947cc91b95a1&output=html&source=placeapi_v2,,,,,,,,,,,,,,,,,,119.51172696926,25.988804962609,0
3218f57dbee5be7ef4b916fe,长乐市人事局宿舍楼-B座,房地产,写字楼,福建省,福州市,长乐区,福州市长乐区公馆巷世纪公馆-B区东侧,3218f57dbee5be7ef4b916fe,1,0,119.513141,25.968667,,house,http://api.map.baidu.com/place/detail?uid=3218f57dbee5be7ef4b916fe&output=html&source=placeapi_v2,,,,,,,,,,,,,,,,,,,,0
ebd32492d21fc11ecae33c1d,长乐电信大楼,房地产,写字楼,福建省,福州市,长乐区,福建省福州市长乐区会堂路152号,ebd32492d21fc11ecae33c1d,1,1,119.510222,25.964967,,house,http://api.map.baidu.com/place/detail?uid=ebd32492d21fc11ecae33c1d&output=html&source=placeapi_v2,,,0,,,,,,,,,,,,,,,119.51067281852,25.965361992502,1
4b9f06c1384599c54c3a5995,大同园-5座,房地产,写字楼,福建省,福州市,长乐区,福州市长乐区爱心路大同园,4b9f06c1384599c54c3a5995,1,0,119.515766,25.97159,,house,http://api.map.baidu.com/place/detail?uid=4b9f06c1384599c54c3a5995&output=html&source=placeapi_v2,,,,,,,,,,,,,,,,,,119.51579338899,25.971775094485,0
0ff5e7fa5de2f9fcd618b703,西关村办公楼,房地产,写字楼,福建省,福州市,长乐区,福州市长乐区西洋北路乐升花园东侧约40米,0ff5e7fa5de2f9fcd618b703,1,0,119.519907,25.971809,,house,http://api.map.baidu.com/place/detail?uid=0ff5e7fa5de2f9fcd618b703&output=html&source=placeapi_v2,,,,,,,,,,,,,,,,,,,,0
c234bd894b8a7306e6e96530,长乐市人事局宿舍楼-A座,房地产,写字楼,福建省,福州市,长乐区,三峰路460-15号附近,c234bd894b8a7306e6e96530,1,0,119.513148,25.968412,,house,http://api.map.baidu.com/place/detail?uid=c234bd894b8a7306e6e96530&output=html&source=placeapi_v2,,,,,,,,,,,,,,,,,,119.51300993278,25.968398901068,0
3840bfa590c58a7f1df74d67,长乐区水利局办公大楼,房地产,写字楼,福建省,福州市,长乐区,福建省福州市长乐区西洋中路133号,3840bfa590c58a7f1df74d67,1,1,119.520321,25.965374,(0591)28922432,house,http://api.map.baidu.com/place/detail?uid=3840bfa590c58a7f1df74d67&output=html&source=placeapi_v2,,,,,,,,,,,,,,,,,,,,1
4086bfbd96c10fc803ff2d39,力恒大厦,房地产,写字楼,福建省,福州市,长乐区,福州市长乐区朝阳中路133号,4086bfbd96c10fc803ff2d39,1,3,119.515588,25.966318,,house,http://api.map.baidu.com/place/detail?uid=4086bfbd96c10fc803ff2d39&output=html&source=placeapi_v2,,,,,,,,,,,,,,,,,,119.51577518304,25.966051750793,3
86405cb320f790eebfa8227c,游泳中心大厦,房地产,写字楼,福建省,福州市,长乐区,福州市长乐区航城街道爱心路291号,86405cb320f790eebfa8227c,1,0,119.511657,25.971219,,house,http://api.map.baidu.com/place/detail?uid=86405cb320f790eebfa8227c&output=html&source=placeapi_v2,,,,,,,,,,,,,,,,,,,,0
8b32fe0fc81a8a1cfa42b2be,西关商贸大楼,房地产,写字楼,福建省,福州市,长乐区,爱心路67号,,1,0,119.521128,25.971143,,house,http://api.map.baidu.com/place/detail?uid=8b32fe0fc81a8a1cfa42b2be&output=html&source=placeapi_v2,,,,,,,,,,,,,,,,,,,,0
d8c9a65d19da341f5e0d02e3,外经贸大楼,房地产,写字楼,福建省,福州市,长乐区,福建省福州市长乐区郑和中路132号,d8c9a65d19da341f5e0d02e3,1,0,119.520891,25.964713,,house,http://api.map.baidu.com/place/detail?uid=d8c9a65d19da341f5e0d02e3&output=html&source=placeapi_v2,,,,,,,,,,,,,,,,,,,,0
a46fcbc737f91db6d13ce351,宏利商住楼-1座,房地产,写字楼,福建省,福州市,长乐区,福州市长乐区郑和中路宏航新城,a46fcbc737f91db6d13ce351,1,0,119.515771,25.964237,,house,http://api.map.baidu.com/place/detail?uid=a46fcbc737f91db6d13ce351&output=html&source=placeapi_v2,,,,,,,,,,,,,,,,,,119.515768894,25.964459661154,0
24dea49ce374f9f99f09f7ab,力恒大厦9座,房地产,写字楼,福建省,福州市,长乐区,福州市长乐区朝阳中路中信银行楼上力恒大厦9座,24dea49ce374f9f99f09f7ab,1,0,119.515509,25.96652,,house,http://api.map.baidu.com/place/detail?uid=24dea49ce374f9f99f09f7ab&output=html&source=placeapi_v2,,,,,,,,,,,,,,,,,,119.51550519282,25.966619995174,0
1881ca676398f9b700ff2d95,长乐区河下街市场楼上17座,房地产,写字楼,福建省,福州市,长乐区,福州市长乐区河下街兴隆楼(河下街)南侧,1881ca676398f9b700ff2d95,1,0,119.523846,25.969621,,house,http://api.map.baidu.com/place/detail?uid=1881ca676398f9b700ff2d95&output=html&source=placeapi_v2,,,,,,,,,,,,,,,,,,,,0
bbf5e5cf20e5f49b03ec01c1,宏利商住楼-2座,房地产,写字楼,福建省,福州市,长乐区,福建省福州市长乐区宏航新城14b座705号宏利商住楼,bbf5e5cf20e5f49b03ec01c1,1,0,119.515678,25.964,,house,http://api.map.baidu.com/place/detail?uid=bbf5e5cf20e5f49b03ec01c1&output=html&source=placeapi_v2,,,,,,,,,,,,,,,,,,119.51526997602,25.963994506756,0
3bb1c5f798868a40130daa28,联社大楼,房地产,写字楼,福建省,福州市,长乐区,福州市长乐区朝阳中路193号,3bb1c5f798868a40130daa28,1,0,119.515461,25.967974,,house,http://api.map.baidu.com/place/detail?uid=3bb1c5f798868a40130daa28&output=html&source=placeapi_v2,,,,,,,,,,,,,,,,,,,,0
dff4aff4d3e17725d5b74e1a,长乐工行大楼,房地产,写字楼,福建省,福州市,长乐区,福州市长乐区吴航街道郑和中路39号,dff4aff4d3e17725d5b74e1a,1,0,119.520024,25.964302,,house,http://api.map.baidu.com/place/detail?uid=dff4aff4d3e17725d5b74e1a&output=html&source=placeapi_v2,,,,,,,,,,,,,,,,,,119.5200271334,25.964509107921,0
41b5905e4b1d596379b55cc1,力恒大厦1座,房地产,写字楼,福建省,福州市,长乐区,福州市长乐区吴航街道朝阳中路力恒大厦1座,41b5905e4b1d596379b55cc1,1,0,119.515592,25.96633,,house,http://api.map.baidu.com/place/detail?uid=41b5905e4b1d596379b55cc1&output=html&source=placeapi_v2,,,,,,,,,,,,,,,,,,,,0
5538193a6383570a4c3a59e7,长电朝阳楼-B座,房地产,写字楼,福建省,福州市,长乐区,福州市长乐区洞江巷新乐花园,5538193a6383570a4c3a59e7,1,0,119.514701,25.962414,,house,http://api.map.baidu.com/place/detail?uid=5538193a6383570a4c3a59e7&output=html&source=placeapi_v2,,,0,,,,,,,,,,,,,,,119.51460317641,25.962487692064,0
ee190165bf03128a3c9a5e84,长山碧水-2座,房地产,写字楼,福建省,福州市,长乐区,福州市长乐区郑和西路,ee190165bf03128a3c9a5e84,1,0,119.505294,25.964733,,house,http://api.map.baidu.com/place/detail?uid=ee190165bf03128a3c9a5e84&output=html&source=placeapi_v2,,,,,,,,,,,,,,,,,,119.50529501467,25.964561435129,0
b7c6aa6436e65dccfb2d61c1,长山碧水-1座,房地产,写字楼,福建省,福州市,长乐区,福州市长乐区郑和西路长山碧水,b7c6aa6436e65dccfb2d61c1,1,0,119.50606,25.964746,,house,http://api.map.baidu.com/place/detail?uid=b7c6aa6436e65dccfb2d61c1&output=html&source=placeapi_v2,,,,,,,,,,,,,,,,,,119.50605699963,25.964844985335,0
fe0167702de76487b11e36ef,平政门鹤龄楼,房地产,写字楼,福建省,福州市,长乐区,福州市长乐区民主街兴隆楼(河下街)东南侧,fe0167702de76487b11e36ef,1,0,119.523838,25.969752,,house,http://api.map.baidu.com/place/detail?uid=fe0167702de76487b11e36ef&output=html&source=placeapi_v2,,,,,,,,,,,,,,,,,,119.52381067045,25.969860778024,0
2e32641774c711c1cafa5f61,凯捷花园7幢,房地产,写字楼,福建省,福州市,长乐区,吴航街道长乐区朝阳中路162号,2e32641774c711c1cafa5f61,1,0,119.514921,25.964884,,house,http://api.map.baidu.com/place/detail?uid=2e32641774c711c1cafa5f61&output=html&source=placeapi_v2,,,,,,,,,,,,,,,,,,119.51477173895,25.965118313281,0
58d4d35369d375376849f342,清华紫光(福州)科技园B座,房地产,写字楼,福建省,福州市,闽侯县,福建省福州市闽侯县高新区乌龙江南大道30号,,1,1,119.233024,26.015754,(0591)22897919,house,http://api.map.baidu.com/place/detail?uid=58d4d35369d375376849f342&output=html&source=placeapi_v2,,,,,,,,,,,,,,,,,,,,1
90ff769e73955ad981a00cf0,清华紫光(福州)科技园D座,房地产,写字楼,福建省,福州市,闽侯县,闽侯县高新区乌龙江南大道30号,,1,0,119.233694,26.016755,,house,http://api.map.baidu.com/place/detail?uid=90ff769e73955ad981a00cf0&output=html&source=placeapi_v2,,,,,,,,,,,,,,,,,,119.23361326778,26.016972217575,0
e6c82e913c0570db1e1d1155,万山大厦,房地产,写字楼,福建省,福州市,闽侯县,福建省福州市闽侯县上街镇乌龙江南大道28号,e6c82e913c0570db1e1d1155,1,1,119.23437,26.017837,,house,http://api.map.baidu.com/place/detail?uid=e6c82e913c0570db1e1d1155&output=html&source=placeapi_v2,,,,,,,,,,,,,,,,,,119.23401918599,26.017620132628,1
8af08ef8883fb959e5e96587,医工科技大楼,房地产,写字楼,福建省,福州市,闽侯县,福州市闽侯县紫光科技园南屿镇葛岐村委会医工科技大楼,8af08ef8883fb959e5e96587,1,1,119.232286,26.018847,,house,http://api.map.baidu.com/place/detail?uid=8af08ef8883fb959e5e96587&output=html&source=placeapi_v2,,,,,,,,,,,,,,,,,,119.23261493506,26.019175975871,1
2a628ca4bf4d167ee6073884,清华紫光(福州)科技园-C座,房地产,写字楼,福建省,福州市,闽侯县,福建省福州市高新区旗山大道(福州清华紫光科技园),,1,0,119.233038,26.016493,,house,http://api.map.baidu.com/place/detail?uid=2a628ca4bf4d167ee6073884&output=html&source=placeapi_v2,,,,,,,,,,,,,,,,,,,,0
440ecd38482da2414151c035,安里老人会第二排第一座,房地产,写字楼,福建省,福州市,闽侯县,福建省福州市闽侯县高岐村安里老人会,440ecd38482da2414151c035,1,0,119.226453,26.008757,,house,http://api.map.baidu.com/place/detail?uid=440ecd38482da2414151c035&output=html&source=placeapi_v2,,,,,,,,,,,,,,,,,,,,0
85e02995ec3140771e1d11ae,中元艺术大厦,房地产,写字楼,福建省,福州市,闽侯县,福建省福州市闽侯县南屿镇后山村中元艺术大厦,85e02995ec3140771e1d11ae,1,0,119.229492,26.001446,,house,http://api.map.baidu.com/place/detail?uid=85e02995ec3140771e1d11ae&output=html&source=placeapi_v2,,,,,,,,,,,,,,,,,,119.22994635864,26.001581724055,0
32b1fbff67d20691bb17e7f1,g3写字楼,房地产,写字楼,福建省,福州市,仓山区,福州市仓山区建新镇盘屿路3号阳光天地g3写字楼,,1,0,119.284983,26.024604,,house,http://api.map.baidu.com/place/detail?uid=32b1fbff67d20691bb17e7f1&output=html&source=placeapi_v2,,,,,,,,,,,,,,,,,,,,0
c39e95d11f39c4aac4f50dff,泰坤中心,房地产,写字楼,福建省,福州市,仓山区,福建省福州市仓山区冠浦路166号(劳动者公园斜对面),c39e95d11f39c4aac4f50dff,1,1,119.272063,26.025939,4009981735,house,http://api.map.baidu.com/place/detail?uid=c39e95d11f39c4aac4f50dff&output=html&source=placeapi_v2,,,5,,,,,,,,,,,,,,,119.27222538424,26.025791620758,1
7ed59ef3d052bc6fede4a521,佰捷商务中心,房地产,写字楼,福建省,福州市,仓山区,福建省福州市仓山区镜浦路3号,7ed59ef3d052bc6fede4a521,1,2,119.27303,26.030166,15205006383,house,http://api.map.baidu.com/place/detail?uid=7ed59ef3d052bc6fede4a521&output=html&source=placeapi_v2,,,3.5,,,,,,,,,,,,,,,119.27245079054,26.030326698275,2
4bfe0e08f7669bcc0f0a7002,金榕大厦,房地产,写字楼,福建省,福州市,仓山区,福州市仓山区建新镇台屿路95号,4bfe0e08f7669bcc0f0a7002,1,1,119.287527,26.008744,4009981735,house,http://api.map.baidu.com/place/detail?uid=4bfe0e08f7669bcc0f0a7002&output=html&source=placeapi_v2,,,0,,,,,,,,,,,,,,,119.28738373356,26.008863595746,1
fd4ae0f3836205cd28d7abb3,凤高综合大楼,房地产,写字楼,福建省,福州市,仓山区,福州市仓山区建新镇凤高村凤高140号,fd4ae0f3836205cd28d7abb3,1,2,119.277566,26.03005,18620028153,house,http://api.map.baidu.com/place/detail?uid=fd4ae0f3836205cd28d7abb3&output=html&source=placeapi_v2,,,5,,,,,,,,,,,,,,,119.27696927085,26.030253479739,2
cf0c599a8fb139ee16a1904c,阳光天地奥体SOHO5座,房地产,写字楼,福建省,福州市,仓山区,福建省福州市仓山区金山街道盘屿路3号,cf0c599a8fb139ee16a1904c,1,0,119.286383,26.024472,,house,http://api.map.baidu.com/place/detail?uid=cf0c599a8fb139ee16a1904c&output=html&source=placeapi_v2,,,,,,,,,,,,,,,,,,119.2856089307,26.023773573224,0
d6198cf1dabb042aad045707,君科楼,房地产,写字楼,福建省,福州市,仓山区,福州市仓山区宝山路,d6198cf1dabb042aad045707,1,1,119.267836,26.027499,,house,http://api.map.baidu.com/place/detail?uid=d6198cf1dabb042aad045707&output=html&source=placeapi_v2,,,,,,,,,,,,,,,,,,119.26777216572,26.027557520382,1
91d2d1c8c426d03eb5f42fb5,佰捷商务中心-B座,房地产,写字楼,福建省,福州市,仓山区,福建省福州市仓山区金山佰捷商务中心(镜浦路北),91d2d1c8c426d03eb5f42fb5,1,0,119.273355,26.029964,,house,http://api.map.baidu.com/place/detail?uid=91d2d1c8c426d03eb5f42fb5&output=html&source=placeapi_v2,,,,,,,,,,,,,,,,,,119.27338005166,26.030019091534,0
9381f9052ac556e588db73a8,泰禾红树林D1座,房地产,写字楼,福建省,福州市,仓山区,福州市仓山区花溪南路红树林-2期,,1,0,119.261296,26.02629,,house,http://api.map.baidu.com/place/detail?uid=9381f9052ac556e588db73a8&output=html&source=placeapi_v2,,,,,,,,,,,,,,,,,,,,0
1a661f687610840e8e1a89bf,佰捷商务中心A座,房地产,写字楼,福建省,福州市,仓山区,福建省-福州市-仓山区-杨周南路1号佰捷商务中心,1a661f687610840e8e1a89bf,1,0,119.272954,26.030188,,house,http://api.map.baidu.com/place/detail?uid=1a661f687610840e8e1a89bf&output=html&source=placeapi_v2,,,,,,,,,,,,,,,,,,119.27298559583,26.030248616482,0
ef7b68854fee70682e47339a,恒发楼,房地产,写字楼,福建省,福州市,仓山区,福州市仓山区盘屿路861号,ef7b68854fee70682e47339a,1,0,119.293721,26.008841,,house,http://api.map.baidu.com/place/detail?uid=ef7b68854fee70682e47339a&output=html&source=placeapi_v2,,,,,,,,,,,,,,,,,,119.29357914005,26.008597794314,0
b4752ca725fb4a0e02294fab,首山丽景一期商业综合楼,房地产,写字楼,福建省,福州市,仓山区,福州市仓山区先农路福州迎霞新城东南侧,b4752ca725fb4a0e02294fab,1,1,119.31646,26.026937,,house,http://api.map.baidu.com/place/detail?uid=b4752ca725fb4a0e02294fab&output=html&source=placeapi_v2,,,1,,,,,,,,,,,,,,,119.31647537096,26.026617520731,1
a0830fa5502269cb48fd3f5e,创驿时代大厦,房地产,写字楼,福建省,福州市,仓山区,福州市仓山区齐安路760号,a0830fa5502269cb48fd3f5e,1,0,119.299476,26.014341,18120875965,house,http://api.map.baidu.com/place/detail?uid=a0830fa5502269cb48fd3f5e&output=html&source=placeapi_v2,,,,,,,,,,,,,,,,,,119.2995803275,26.014417578249,0
b119a00b2ec2843d93114c72,淘帝楼,房地产,写字楼,福建省,福州市,仓山区,奇安路756号财茂服装城,,1,0,119.303196,26.018663,,house,http://api.map.baidu.com/place/detail?uid=b119a00b2ec2843d93114c72&output=html&source=placeapi_v2,,,5,,,,,,,,,,,,,,,119.30322083903,26.018624035468,0
d9f51ed5f9b4405afbf0cb86,创驿时代大厦12座,房地产,写字楼,福建省,福州市,仓山区,福州市仓山区齐安路760号国艺汽配城创驿时代大厦12座,d9f51ed5f9b4405afbf0cb86,1,0,119.299442,26.014416,,house,http://api.map.baidu.com/place/detail?uid=d9f51ed5f9b4405afbf0cb86&output=html&source=placeapi_v2,,,,,,,,,,,,,,,,,,,,0
476bc8802f3d1faf902ca37e,景泰大厦,房地产,写字楼,福建省,福州市,仓山区,福建省福州市仓山区东岭路8号,476bc8802f3d1faf902ca37e,1,0,119.299549,26.017824,18771626043,house,http://api.map.baidu.com/place/detail?uid=476bc8802f3d1faf902ca37e&output=html&source=placeapi_v2,,,,,,,,,,,,,,,,,,119.29942485866,26.017638970951,0
37494af69cc396ea3686f41e,博麟・商务中心,房地产,写字楼,福建省,福州市,仓山区,福州市仓山区盘屿路869号附近,37494af69cc396ea3686f41e,1,0,119.297003,26.007345,13799998782,house,http://api.map.baidu.com/place/detail?uid=37494af69cc396ea3686f41e&output=html&source=placeapi_v2,,,,,,,,,,,,,,,,,,119.2968191259,26.007510477149,0
a0d549955ecbeaeac91b9589,福建省陆海工程科技有限公司-综合楼,房地产,写字楼,福建省,福州市,仓山区,福州市仓山区照屿路鑫海商务宾馆(齐安路店)西北侧约260米,,1,0,119.298329,26.00938,,house,http://api.map.baidu.com/place/detail?uid=a0d549955ecbeaeac91b9589&output=html&source=placeapi_v2,,,,,,,,,,,,,,,,,,,,0
990d33e5cbe70ad790114c93,恒福办公楼,房地产,写字楼,福建省,福州市,仓山区,福州市仓山区福州市乾元小学北侧约170米,990d33e5cbe70ad790114c93,1,0,119.350516,26.008022,,house,http://api.map.baidu.com/place/detail?uid=990d33e5cbe70ad790114c93&output=html&source=placeapi_v2,,,,,,,,,,,,,,,,,,,,0
8c0ada57b47a3a79c9e33cb1,嘉宏大厦,房地产,写字楼,福建省,福州市,仓山区,高南路6号,8c0ada57b47a3a79c9e33cb1,1,0,119.356047,26.023792,,house,http://api.map.baidu.com/place/detail?uid=8c0ada57b47a3a79c9e33cb1&output=html&source=placeapi_v2,,,,,,,,,,,,,,,,,,,,0
abf6ab82a88ef5d3adcb6658,嘉成大厦,房地产,写字楼,福建省,福州市,仓山区,福州市仓山区盖山投资区高旺路3号,abf6ab82a88ef5d3adcb6658,1,2,119.352056,26.024199,,house,http://api.map.baidu.com/place/detail?uid=abf6ab82a88ef5d3adcb6658&output=html&source=placeapi_v2,,,,,,,,,,,,,,,,,,119.35210710097,26.024053110362,2
557fcc982076ae76744ff173,高仕路7号-B座,房地产,写字楼,福建省,福州市,仓山区,高仕路7号C座附近,557fcc982076ae76744ff173,1,0,119.358584,26.026314,,house,http://api.map.baidu.com/place/detail?uid=557fcc982076ae76744ff173&output=html&source=placeapi_v2,,,,,,,,,,,,,,,,,,119.35851046249,26.0264132632,0
6b5da6106ba998eab6f42f2e,兴福兴大厦,房地产,写字楼,福建省,福州市,仓山区,福州市仓山区高昌路a座3号,6b5da6106ba998eab6f42f2e,1,1,119.348393,26.030232,,house,http://api.map.baidu.com/place/detail?uid=6b5da6106ba998eab6f42f2e&output=html&source=placeapi_v2,,,4,,,,,,,,,,,,,,,119.34898259139,26.030585808782,1
c760c2445832ca2dd23ce3ad,供销电商大厦,房地产,写字楼,福建省,福州市,仓山区,福建省福州市仓山区高南路6号,c760c2445832ca2dd23ce3ad,1,0,119.35606,26.023795,,house,http://api.map.baidu.com/place/detail?uid=c760c2445832ca2dd23ce3ad&output=html&source=placeapi_v2,,,,,,,,,,,,,,,,,,,,0
74280adbb1ae78822fb96da9,融创公馆C地块项目部,房地产,写字楼,福建省,福州市,仓山区,福建省福州市仓山区盖山路28号,,1,0,119.336609,26.019824,,house,http://api.map.baidu.com/place/detail?uid=74280adbb1ae78822fb96da9&output=html&source=placeapi_v2,,,,,,,,,,,,,,,,,,119.33631509942,26.019672612205,0
c4aed994d0d29a55e507380d,浦口商贸楼,房地产,写字楼,福建省,福州市,仓山区,福州市仓山区南三环路浦口新城东侧,,1,0,119.342483,25.999756,13635250310,house,http://api.map.baidu.com/place/detail?uid=c4aed994d0d29a55e507380d&output=html&source=placeapi_v2,,,,,,,,,,,,,,,,,,,,0
5889d2a8e7ffe04d276e98df,安德大厦,房地产,写字楼,福建省,福州市,仓山区,福建省福州市仓山区城门镇大浦路2号,5889d2a8e7ffe04d276e98df,1,3,119.363667,26.002947,(0591)83575222,house,http://api.map.baidu.com/place/detail?uid=5889d2a8e7ffe04d276e98df&output=html&source=placeapi_v2,,,0,,,,,,,,,,,,,,,119.36334902073,26.002400199193,3
cc44e5a59f2912258936ee10,兴福兴大厦-A座,房地产,写字楼,福建省,福州市,仓山区,福建省福州市仓山区高昌路2号,cc44e5a59f2912258936ee10,1,0,119.348457,26.03035,,house,http://api.map.baidu.com/place/detail?uid=cc44e5a59f2912258936ee10&output=html&source=placeapi_v2,,,,,,,,,,,,,,,,,,119.34844573976,26.030369514706,0
9936e89a6baa7523abf0cd0e,安腾国际广场,房地产,写字楼,福建省,福州市,仓山区,福州市仓山区城峰路杜园新苑南侧约90米,,1,0,119.357506,26.002588,,house,http://api.map.baidu.com/place/detail?uid=9936e89a6baa7523abf0cd0e&output=html&source=placeapi_v2,,,,,,,,,,,,,,,,,,119.3573435843,26.002552278093,0
a82d3ddb2f2609111ee99951,桔子公寓3座,房地产,写字楼,福建省,福州市,仓山区,福建省福州市仓山区盖山镇高旺路6号桔子公寓3座,a82d3ddb2f2609111ee99951,1,0,119.355316,26.025206,"13559179009,18350054339",house,http://api.map.baidu.com/place/detail?uid=a82d3ddb2f2609111ee99951&output=html&source=placeapi_v2,,,,,,,,,,,,,,,,,,119.35535365883,26.025159905002,0
68f7731cc4c6a72009b93a1f,志禾楼,房地产,写字楼,福建省,福州市,仓山区,福建省福州市仓山区东塔路,68f7731cc4c6a72009b93a1f,1,1,119.388548,26.000131,,house,http://api.map.baidu.com/place/detail?uid=68f7731cc4c6a72009b93a1f&output=html&source=placeapi_v2,,,,,,,,,,,,,,,,,,119.38956081913,26.000271562742,1
add0ccf1933c529e4107c129,酒店商场写字楼,房地产,写字楼,福建省,福州市,马尾区,福州市马尾区儒江西路泊悦府,add0ccf1933c529e4107c129,1,0,119.404609,26.025232,,house,http://api.map.baidu.com/place/detail?uid=add0ccf1933c529e4107c129&output=html&source=placeapi_v2,,,,,,,,,,,,,,,,,,,,0
2b0f5abbb6876dc98e77278e,三江大厦,房地产,写字楼,福建省,福州市,仓山区,福州市仓山区南江滨东大道,,1,0,119.401651,26.012753,13960878441,house,http://api.map.baidu.com/place/detail?uid=2b0f5abbb6876dc98e77278e&output=html&source=placeapi_v2,,,,,,,,,,,,,,,,,,,,0
9bf590a34370214fad31e54e,海峡金融大厦,房地产,写字楼,福建省,福州市,马尾区,福建省福州市马尾区江滨东大道106号,9bf590a34370214fad31e54e,1,3,119.436486,26.012578,,house,http://api.map.baidu.com/place/detail?uid=9bf590a34370214fad31e54e&output=html&source=placeapi_v2,,,0,,,,,,,,,,,,,,,119.43640098815,26.012078713353,3
92d01225170e4a6f20026242,新日鲜大厦,房地产,写字楼,福建省,福州市,马尾区,江滨东大道98-1号,92d01225170e4a6f20026242,1,0,119.433887,26.014259,,house,http://api.map.baidu.com/place/detail?uid=92d01225170e4a6f20026242&output=html&source=placeapi_v2,,,5,,,,,,,,,,,,,,,119.43366717499,26.013902137739,0
1a5fe2e24f075955d6b74eb6,金澜大厦,房地产,写字楼,福建省,福州市,马尾区,福建省福州市马尾区马尾镇兆锵路33号,1a5fe2e24f075955d6b74eb6,1,3,119.437531,26.017186,(0591)38139988,house,http://api.map.baidu.com/place/detail?uid=1a5fe2e24f075955d6b74eb6&output=html&source=placeapi_v2,,,5,,,,,,,,,,,,,,,119.4365716653,26.017273816723,3
877a3080aedb67270bccdd9f,福州世创大厦,房地产,写字楼,福建省,福州市,马尾区,福州市马尾区江滨东大道100-1号,877a3080aedb67270bccdd9f,1,1,119.435454,26.013316,,house,http://api.map.baidu.com/place/detail?uid=877a3080aedb67270bccdd9f&output=html&source=placeapi_v2,,,0,,,,,,,,,,,,,,,119.43527077609,26.013038377392,1
6dba22a7b3d6487c07fef577,飞毛腿办公大楼,房地产,写字楼,福建省,福州市,马尾区,福建省福州市马尾区江滨东大道98号,6dba22a7b3d6487c07fef577,1,0,119.432942,26.014643,,house,http://api.map.baidu.com/place/detail?uid=6dba22a7b3d6487c07fef577&output=html&source=placeapi_v2,,,,,,,,,,,,,,,,,,119.43283377385,26.014508473296,0
e04ad8c855883b18b6f42fe5,世创大厦国隆中心,房地产,写字楼,福建省,福州市,马尾区,福建省福州市马尾区马尾镇江滨东大道100-1世创大厦国隆中心,,1,0,119.435308,26.013306,,house,http://api.map.baidu.com/place/detail?uid=e04ad8c855883b18b6f42fe5&output=html&source=placeapi_v2,,,,,,,,,,,,,,,,,,,,0
a5d69b680d88235e9c09f796,福建留学人员创业园-综合楼,房地产,写字楼,福建省,福州市,马尾区,福建福州市马尾区江滨东大道108号,a5d69b680d88235e9c09f796,1,0,119.437278,26.012119,,house,http://api.map.baidu.com/place/detail?uid=a5d69b680d88235e9c09f796&output=html&source=placeapi_v2,,,,,,,,,,,,,,,,,,119.43726211369,26.011838242265,0
30f965161c11d93ebda24069,海产电商大厦,房地产,写字楼,福建省,福州市,马尾区,兴业东路33号,30f965161c11d93ebda24069,1,1,119.43771,26.018851,,house,http://api.map.baidu.com/place/detail?uid=30f965161c11d93ebda24069&output=html&source=placeapi_v2,,,,,,,,,,,,,,,,,,119.43687701012,26.019222287952,1
4146667afb581dbdc42ba1e3,海西财富中心,房地产,写字楼,福建省,福州市,马尾区,东江滨儒江大道86号,4146667afb581dbdc42ba1e3,1,2,119.438359,26.014967,(0591)83293333,house,http://api.map.baidu.com/place/detail?uid=4146667afb581dbdc42ba1e3&output=html&source=placeapi_v2,,,0,,,,,,,,,,,,,,,119.43779891052,26.014805851257,2
c0e9486f700a68dfd1f49e20,马尾区国脉时代广场四座,房地产,写字楼,福建省,福州市,马尾区,福州市马尾区儒江东路海峡金融大厦东侧约240米,,1,0,119.439545,26.012866,,house,http://api.map.baidu.com/place/detail?uid=c0e9486f700a68dfd1f49e20&output=html&source=placeapi_v2,,,,,,,,,,,,,,,,,,,,0
1c4e2cadb0cc9c5688f15dc5,名城中心礼拜堂综合楼,房地产,写字楼,福建省,福州市,马尾区,福州市马尾区儒江东路名城港湾,1c4e2cadb0cc9c5688f15dc5,1,0,119.427705,26.020805,,house,http://api.map.baidu.com/place/detail?uid=1c4e2cadb0cc9c5688f15dc5&output=html&source=placeapi_v2,,,,,,,,,,,,,,,,,,,,0
bb49cf00db99d667601c67ca,福船大厦,房地产,写字楼,福建省,福州市,马尾区,福州市马尾区江滨东大道与钟瑛路交叉路口往东约50米,bb49cf00db99d667601c67ca,1,2,119.445244,26.005121,,house,http://api.map.baidu.com/place/detail?uid=bb49cf00db99d667601c67ca&output=html&source=placeapi_v2,,,,,,,,,,,,,,,,,,119.44533889351,26.005341629641,2
11f174a62685ba4b17b54b21,EFC东部金融中心,房地产,写字楼,福建省,福州市,马尾区,福建省福州市马尾区马尾镇下德兆锵路东部金融中心,11f174a62685ba4b17b54b21,1,0,119.438971,26.015399,,house,http://api.map.baidu.com/place/detail?uid=11f174a62685ba4b17b54b21&output=html&source=placeapi_v2,,,,,,,,,,,,,,,,,,119.43858379059,26.015496515327,0
0af24ad61b74ed40d5b74e9a,宝德郡商务广场,房地产,写字楼,福建省,福州市,马尾区,江滨东大道国光电子工业园,0af24ad61b74ed40d5b74e9a,1,0,119.443587,26.006441,,house,http://api.map.baidu.com/place/detail?uid=0af24ad61b74ed40d5b74e9a&output=html&source=placeapi_v2,,,,,,,,,,,,,,,,,,119.44343120882,26.006517924247,0
d3e877fce8c5f90ea3acc46c,华科电商大厦,房地产,写字楼,福建省,福州市,马尾区,福建省福州市马尾区兴业东路33号,d3e877fce8c5f90ea3acc46c,1,1,119.437862,26.018864,,house,http://api.map.baidu.com/place/detail?uid=d3e877fce8c5f90ea3acc46c&output=html&source=placeapi_v2,,,,,,,,,,,,,,,,,,119.43789367187,26.019102746974,1
825bdb33dfa8ee8517948e12,中铁福船大厦,房地产,写字楼,福建省,福州市,马尾区,福州市马尾区马尾镇儒江西路6号,825bdb33dfa8ee8517948e12,1,3,119.418558,26.022958,13763869223,house,http://api.map.baidu.com/place/detail?uid=825bdb33dfa8ee8517948e12&output=html&source=placeapi_v2,,,,,,,,,,,,,,,,,,119.41830005218,26.022923590735,3
5d702a43f89b031d4354d7f8,邮政大楼,房地产,写字楼,福建省,福州市,马尾区,福州市马尾区马尾镇快安路6号,5d702a43f89b031d4354d7f8,1,1,119.429856,26.028495,,house,http://api.map.baidu.com/place/detail?uid=5d702a43f89b031d4354d7f8&output=html&source=placeapi_v2,,,0,,,,,,,,,,,,,,,119.43022470389,26.028488807528,1
73f62a016fb69d2052e5c539,阳光城-SOHOB座,房地产,写字楼,福建省,福州市,马尾区,福州市马尾区儒江东路阳光城SOHO,73f62a016fb69d2052e5c539,1,0,119.444729,26.009956,,house,http://api.map.baidu.com/place/detail?uid=73f62a016fb69d2052e5c539&output=html&source=placeapi_v2,,,,,,,,,,,,,,,,,,,,0
c60bcbaedfd21ad30e3dda1b,阳光城-SOHOC座,房地产,写字楼,福建省,福州市,马尾区,福建省福州市马尾区儒江东路136号,c60bcbaedfd21ad30e3dda1b,1,0,119.445135,26.00958,,house,http://api.map.baidu.com/place/detail?uid=c60bcbaedfd21ad30e3dda1b&output=html&source=placeapi_v2,,,,,,,,,,,,,,,,,,,,0
bf35ea3bd1ac25cf8c55ec6d,冰路中国移动大厦,房地产,写字楼,福建省,福州市,马尾区,快安镇冰路中国移动大厦,,1,0,119.417087,26.022088,,house,http://api.map.baidu.com/place/detail?uid=bf35ea3bd1ac25cf8c55ec6d&output=html&source=placeapi_v2,,,,,,,,,,,,,,,,,,,,0
6c3fc882c1be406a601c6712,三木诺丁山,房地产,写字楼,福建省,福州市,马尾区,福州市马尾区登龙支路1号,6c3fc882c1be406a601c6712,1,0,119.469938,26.009733,,house,http://api.map.baidu.com/place/detail?uid=6c3fc882c1be406a601c6712&output=html&source=placeapi_v2,,,,,,,,,,,,,,,,,,119.46990617569,26.009818035592,0
5cb86e85b4227c7e240bd07c,福光综合楼,房地产,写字楼,福建省,福州市,马尾区,福建省福州市马尾区君竹路87号,5cb86e85b4227c7e240bd07c,1,0,119.466935,26.002924,,house,http://api.map.baidu.com/place/detail?uid=5cb86e85b4227c7e240bd07c&output=html&source=placeapi_v2,,,0,,,,,,,,,,,,,,,119.46664307015,26.002648194671,0
b388f9fd3d094041b35c6a75,马江大厦,房地产,写字楼,福建省,福州市,马尾区,福建省福州市马尾区君竹路81号,b388f9fd3d094041b35c6a75,1,2,119.465874,26.000656,,house,http://api.map.baidu.com/place/detail?uid=b388f9fd3d094041b35c6a75&output=html&source=placeapi_v2,,,0,,,,,,,,,,,,,,,119.46628726661,26.000770781733,2
d45709553cbf869c30621213,三鑫.财富中心,房地产,写字楼,福建省,福州市,马尾区,君竹路172号,d45709553cbf869c30621213,1,3,119.465082,26.00091,,house,http://api.map.baidu.com/place/detail?uid=d45709553cbf869c30621213&output=html&source=placeapi_v2,,,0,,,,,,,,,,,,,,,119.46560292359,26.001258787184,3
32a0e13edef600f851e5c559,埃特佛大厦,房地产,写字楼,福建省,福州市,马尾区,福州市马尾区罗星东路2号,32a0e13edef600f851e5c559,1,1,119.481491,26.010964,,house,http://api.map.baidu.com/place/detail?uid=32a0e13edef600f851e5c559&output=html&source=placeapi_v2,,,,,,,,,,,,,,,,,,119.48171871438,26.010771836451,1
27de44307c4ba4f97f29bd67,新世纪大厦,房地产,写字楼,福建省,福州市,马尾区,福州市马尾区君竹路89号,27de44307c4ba4f97f29bd67,1,2,119.467792,26.00344,,house,http://api.map.baidu.com/place/detail?uid=27de44307c4ba4f97f29bd67&output=html&source=placeapi_v2,,,,,,,,,,,,,,,,,,119.46787006205,26.003536019782,2
8d3b964ed0b527ea931fc98a,名成水产商务楼,房地产,写字楼,福建省,福州市,马尾区,福建省福州市马尾区青洲路66号,8d3b964ed0b527ea931fc98a,1,0,119.47755,25.998335,,house,http://api.map.baidu.com/place/detail?uid=8d3b964ed0b527ea931fc98a&output=html&source=placeapi_v2,,,,,,,,,,,,,,,,,,119.47825993634,25.998633080804,0
345fd1e7d58e05288b2fb55a,伊时代股份大厦,房地产,写字楼,福建省,福州市,马尾区,福州市马尾区罗星衔道星发路8号伊时代股份大厦,345fd1e7d58e05288b2fb55a,1,0,119.463648,25.996809,,house,http://api.map.baidu.com/place/detail?uid=345fd1e7d58e05288b2fb55a&output=html&source=placeapi_v2,,,,,,,,,,,,,,,,,,119.46438095542,25.996397836007,0
f1f5cac59f1dbc9836b06c75,庄信大楼,房地产,写字楼,福建省,福州市,马尾区,福建省福州市马尾区君竹路79号,f1f5cac59f1dbc9836b06c75,1,0,119.465583,26.000079,,house,http://api.map.baidu.com/place/detail?uid=f1f5cac59f1dbc9836b06c75&output=html&source=placeapi_v2,,,,,,,,,,,,,,,,,,119.46533604282,26.000211950768,0
f5111b58cae3bcc5eddfcad7,青洲综合大楼,房地产,写字楼,福建省,福州市,马尾区,福州市马尾区罗星西路,f5111b58cae3bcc5eddfcad7,1,0,119.469756,25.994812,,house,http://api.map.baidu.com/place/detail?uid=f5111b58cae3bcc5eddfcad7&output=html&source=placeapi_v2,,,,,,,,,,,,,,,,,,,,0
a2acb33744906244f219375f,渔业大厦,房地产,写字楼,福建省,福州市,马尾区,福州市马尾区罗星街道青洲路66号,a2acb33744906244f219375f,1,0,119.475969,25.998683,,house,http://api.map.baidu.com/place/detail?uid=a2acb33744906244f219375f&output=html&source=placeapi_v2,,,,,,,,,,,,,,,,,,,,0
fcba5b82d4d6ba1128d7aba3,税务大楼,房地产,写字楼,福建省,福州市,马尾区,福州市马尾区星达路新天地,fcba5b82d4d6ba1128d7aba3,1,0,119.466994,26.000897,,house,http://api.map.baidu.com/place/detail?uid=fcba5b82d4d6ba1128d7aba3&output=html&source=placeapi_v2,,,,,,,,,,,,,,,,,,119.46681097513,26.000895592742,0
f2d0a076d8c54d2228b97cbd,中钢科技楼,房地产,写字楼,福建省,福州市,马尾区,福州市马尾区罗星街道建设路9号,f2d0a076d8c54d2228b97cbd,1,0,119.480256,26.003042,,house,http://api.map.baidu.com/place/detail?uid=f2d0a076d8c54d2228b97cbd&output=html&source=placeapi_v2,,,,,,,,,,,,,,,,,,,,0
2c1eae6a267c0fba14c8f6ae,福建彭隆大厦,房地产,写字楼,福建省,福州市,马尾区,福建省福州市马尾区建设路16号,,1,0,119.48324,26.006399,,house,http://api.map.baidu.com/place/detail?uid=2c1eae6a267c0fba14c8f6ae&output=html&source=placeapi_v2,,,,,,,,,,,,,,,,,,119.48341980499,26.006240093416,0
f574a9c57bc10c691d580097,名成冻品大厦,房地产,写字楼,福建省,福州市,马尾区,福州市马尾区建设路与青洲路交叉路口往东约240米,f574a9c57bc10c691d580097,1,0,119.47799,25.998519,,house,http://api.map.baidu.com/place/detail?uid=f574a9c57bc10c691d580097&output=html&source=placeapi_v2,,,,,,,,,,,,,,,,,,,,0
0dfaca3fb588e64077026951,福建移动马尾通信大楼,房地产,写字楼,福建省,福州市,马尾区,福州市马尾区青洲路马尾城市中心广场东北侧约50米,0dfaca3fb588e64077026951,1,0,119.473256,26.000711,,house,http://api.map.baidu.com/place/detail?uid=0dfaca3fb588e64077026951&output=html&source=placeapi_v2,,,,,,,,,,,,,,,,,,119.47312310295,26.000576840155,0
2e00c5dd5c63801cd7851f75,海峡经贸广场,房地产,写字楼,福建省,福州市,马尾区,福建省福州市马尾区罗星东路2号,2e00c5dd5c63801cd7851f75,1,1,119.482462,26.010143,,shopping,http://api.map.baidu.com/place/detail?uid=2e00c5dd5c63801cd7851f75&output=html&source=placeapi_v2,,,2.0,,,,,,,,3,,,,,,,119.48264570009,26.009830021994,1
0525b87f0473881e7bf796ea,福裕新村C座1梯,房地产,写字楼,福建省,福州市,马尾区,福建省福州市马尾区沿山东路172号福裕新村C座1梯,,1,0,119.462303,25.997218,,house,http://api.map.baidu.com/place/detail?uid=0525b87f0473881e7bf796ea&output=html&source=placeapi_v2,,,,,,,,,,,,,,,,,,119.46209299374,25.996892042666,0
f9fd6062d596871f0f0e6b75,火炬创新大厦,房地产,写字楼,福建省,福州市,马尾区,福州市马尾区经济技术开发区星发路8号,f9fd6062d596871f0f0e6b75,1,0,119.465145,25.996279,,house,http://api.map.baidu.com/place/detail?uid=f9fd6062d596871f0f0e6b75&output=html&source=placeapi_v2,,,,,,,,,,,,,,,,,,119.46496800705,25.996271468616,0
e9fc55cff78aac1f5d0d026e,三鑫财富中心2座,房地产,写字楼,福建省,福州市,马尾区,福州市马尾区罗星街道君竹路172号三鑫财富中心2座,e9fc55cff78aac1f5d0d026e,1,0,119.465299,26.001157,,house,http://api.map.baidu.com/place/detail?uid=e9fc55cff78aac1f5d0d026e&output=html&source=placeapi_v2,,,,,,,,,,,,,,,,,,119.46535520098,26.001131183607,0
9110dd9a97cb080a0482c211,正荣财富中心12座,房地产,写字楼,福建省,福州市,马尾区,福州市马尾区罗星街道上岐路168号正荣财富中心12座,,1,0,119.466752,25.999524,,house,http://api.map.baidu.com/place/detail?uid=9110dd9a97cb080a0482c211&output=html&source=placeapi_v2,,,,,,,,,,,,,,,,,,119.46677404759,25.999444818466,0
643e2e05e50ce183d6b74e12,马尾正荣财富中心13座,房地产,写字楼,福建省,福州市,马尾区,福州市马尾区上岐路正荣・财富中心西侧,643e2e05e50ce183d6b74e12,1,0,119.466171,25.999409,,house,http://api.map.baidu.com/place/detail?uid=643e2e05e50ce183d6b74e12&output=html&source=placeapi_v2,,,,,,,,,,,,,,,,,,,,0
6e21178d8fb1fcf571210bd8,马尾亿载金城工程,房地产,写字楼,福建省,福州市,马尾区,福建省福州市马尾区上岐路1号,6e21178d8fb1fcf571210bd8,1,0,119.46485,25.998522,,house,http://api.map.baidu.com/place/detail?uid=6e21178d8fb1fcf571210bd8&output=html&source=placeapi_v2,,,5,,,,,,,,,,,,,,,119.4655008421,25.99829589807,0
6ee8eb1a4c2b233540ab9afd,万福中心,房地产,写字楼,福建省,福州市,闽侯县,福州市闽侯县创业路10号,6ee8eb1a4c2b233540ab9afd,1,2,119.223231,26.046298,,house,http://api.map.baidu.com/place/detail?uid=6ee8eb1a4c2b233540ab9afd&output=html&source=placeapi_v2,,,4.7,,,,,,,,,,,,,,,119.22378495391,26.045615146886,2
1a41e31ed098201e30169bb1,中国冶金地质写字楼,房地产,写字楼,福建省,福州市,闽侯县,福建省福州市闽侯县上街镇科技东路1号,,1,0,119.21676,26.045082,4009981735,house,http://api.map.baidu.com/place/detail?uid=1a41e31ed098201e30169bb1&output=html&source=placeapi_v2,,,,,,,,,,,,,,,,,,119.21670151134,26.044422232932,0
ca7d2353bb22ceaf9e95def8,网讯智慧中心大厦,房地产,写字楼,福建省,福州市,闽侯县,福建省福州市闽侯县科技东路b区00座6楼,ca7d2353bb22ceaf9e95def8,1,0,119.22518,26.04751,,house,http://api.map.baidu.com/place/detail?uid=ca7d2353bb22ceaf9e95def8&output=html&source=placeapi_v2,,,5,,,,,,,,,,,,,,,119.22476247021,26.047684404098,0
9e055bd97c364dcb9e95de95,久策大厦,房地产,写字楼,福建省,福州市,闽侯县,福州市闽侯县创业路5号,9e055bd97c364dcb9e95de95,1,2,119.2245,26.049614,(0591)87273333,house,http://api.map.baidu.com/place/detail?uid=9e055bd97c364dcb9e95de95&output=html&source=placeapi_v2,,,3.9,,,,,,,,,,,,,,,119.22541248767,26.050083987487,2
12a2494af8fcb7663c9a5eda,创业大厦,房地产,写字楼,福建省,福州市,闽侯县,福建省福州市闽侯县科技东路8号,12a2494af8fcb7663c9a5eda,1,4,119.22157,26.048023,,house,http://api.map.baidu.com/place/detail?uid=12a2494af8fcb7663c9a5eda&output=html&source=placeapi_v2,,,,,,,,,,,,,,,,,,119.22189453554,26.047709536669,4
9bbd787f29aa180d75e5b6b6,华建大厦,房地产,写字楼,福建省,福州市,闽侯县,科技东路12号,,1,2,119.224427,26.048312,18750166029,house,http://api.map.baidu.com/place/detail?uid=9bbd787f29aa180d75e5b6b6&output=html&source=placeapi_v2,,,,,,,,,,,,,,,,,,119.22584428246,26.049391130734,2
313699be24e114cd94ec8483,久策大厦A座,房地产,写字楼,福建省,福州市,闽侯县,福州市闽侯县创业路5号,,1,0,119.224776,26.0496,(0591)87273333,house,http://api.map.baidu.com/place/detail?uid=313699be24e114cd94ec8483&output=html&source=placeapi_v2,,,,,,,,,,,,,,,,,,119.22494159412,26.049334471923,0
db8a88c8c07fee9b1d58002d,万能大厦,房地产,写字楼,福建省,福州市,闽侯县,上街镇海西科技园万福中心万能大厦,,1,0,119.222975,26.046602,,house,http://api.map.baidu.com/place/detail?uid=db8a88c8c07fee9b1d58002d&output=html&source=placeapi_v2,,,,,,,,,,,,,,,,,,,,0
f05a842cd23b7255ae045790,中海创科技大厦,房地产,写字楼,福建省,福州市,闽侯县,福建省福州市闽侯县乌龙江中大道海西创新园18号楼,,1,0,119.216716,26.042897,,house,http://api.map.baidu.com/place/detail?uid=f05a842cd23b7255ae045790&output=html&source=placeapi_v2,,,,,,,,,,,,,,,,,,,,0
3165802e745e214495f08c6c,博思软件大厦,房地产,写字楼,福建省,福州市,闽侯县,福州市闽侯县海西高新科技产业园高新大道5号博思软件研发中心,3165802e745e214495f08c6c,1,1,119.221056,26.048661,,house,http://api.map.baidu.com/place/detail?uid=3165802e745e214495f08c6c&output=html&source=placeapi_v2,,,0,,,,,,,,,,,,,,,119.22052037515,26.048489087902,1
fd1fd9c6c15d5d894354d79e,中青大厦,房地产,写字楼,福建省,福州市,闽侯县,福建省福州市闽侯县上街镇科技东路10号海西高新技术产业园,fd1fd9c6c15d5d894354d79e,1,2,119.223001,26.048213,,house,http://api.map.baidu.com/place/detail?uid=fd1fd9c6c15d5d894354d79e&output=html&source=placeapi_v2,,,5,,,,,,,,,,,,,,,119.22332314314,26.048699883987,2
44484ee7f85d9b56fb221350,上街镇万福中心3座,房地产,写字楼,福建省,福州市,闽侯县,福建省福州市闽侯县上街镇万福中心3座,,1,0,119.222962,26.045878,,house,http://api.map.baidu.com/place/detail?uid=44484ee7f85d9b56fb221350&output=html&source=placeapi_v2,,,,,,,,,,,,,,,,,,119.2230174327,26.046298680983,0
415b4a71f6d285d4f42310bd,福州市规划设计研究院创意设计产业楼,房地产,写字楼,福建省,福州市,闽侯县,福建省福州市闽侯县上街镇南屿海西高新技术产业园内,415b4a71f6d285d4f42310bd,1,0,119.221317,26.050703,,house,http://api.map.baidu.com/place/detail?uid=415b4a71f6d285d4f42310bd&output=html&source=placeapi_v2,,,,,,,,,,,,,,,,,,119.2214621847,26.050313502598,0
4081e75e4186b937210262ca,创业大厦-附属楼,房地产,写字楼,福建省,福州市,闽侯县,福州市闽侯县科技东路8号,4081e75e4186b937210262ca,1,0,119.221231,26.048128,,house,http://api.map.baidu.com/place/detail?uid=4081e75e4186b937210262ca&output=html&source=placeapi_v2,,,0,,,,,,,,,,,,,,,119.22119385725,26.048245127336,0
dce536a09236debc0aa8d49e,歌航电子大厦,房地产,写字楼,福建省,福州市,闽侯县,福州市闽侯县上街镇高新技术产业园创新园13栋歌航电子大厦,eb32cdbaf7ef675f9cec2bc3,1,0,119.217755,26.042727,"(0591)87010001,(0591)87010018",house,http://api.map.baidu.com/place/detail?uid=dce536a09236debc0aa8d49e&output=html&source=placeapi_v2,,,,,,,,,,,,,,,,,,119.21771049797,26.042707649623,0
b8b7d8434f9b66235bf6befd,新开普大厦,房地产,写字楼,福建省,福州市,闽侯县,福建省福州市闽侯县上街镇高新区海西产业园创新园8号楼新开普大厦,b8b7d8434f9b66235bf6befd,1,0,119.21927,26.041815,,house,http://api.map.baidu.com/place/detail?uid=b8b7d8434f9b66235bf6befd&output=html&source=placeapi_v2,,,5,,,,,,,,,,,,,,,,,0
d796deefc6301ed16b49f34d,吉苑B座-1幢,房地产,写字楼,福建省,福州市,仓山区,福州市仓山区滨洲路15号,d796deefc6301ed16b49f34d,1,0,119.249226,26.051737,,house,http://api.map.baidu.com/place/detail?uid=d796deefc6301ed16b49f34d&output=html&source=placeapi_v2,,,,,,,,,,,,,,,,,,119.24906159202,26.05171079213,0
4374ab3f13467d2df7e73b50,海西高新技术产业园创新园三期E楼,房地产,写字楼,福建省,福州市,闽侯县,福建省福州市闽侯县高新区高新大道,,1,0,119.223663,26.037639,,house,http://api.map.baidu.com/place/detail?uid=4374ab3f13467d2df7e73b50&output=html&source=placeapi_v2,,,,,,,,,,,,,,,,,,,,0
c03842f667be24b42efaa729,创新园-10号楼,房地产,写字楼,福建省,福州市,闽侯县,福州市闽侯县上街镇科技东路以南福州高新区海西高新技术产业园创新园,c03842f667be24b42efaa729,1,1,119.218763,26.041259,,house,http://api.map.baidu.com/place/detail?uid=c03842f667be24b42efaa729&output=html&source=placeapi_v2,,,,,,,,,,,,,,,,,,119.21916340203,26.040819820303,1
e2cb0db144ce14609222e090,金山正祥广场,房地产,写字楼,福建省,福州市,仓山区,福建省福州市仓山区金山街道浦上大道306号,e2cb0db144ce14609222e090,1,0,119.273312,26.039828,(0591)88209678,house,http://api.map.baidu.com/place/detail?uid=e2cb0db144ce14609222e090&output=html&source=placeapi_v2,,,4.3,,,,,,,,,,,,,,,119.27380952524,26.039472967806,0
845a0ba91bdf57019122e0ca,仓山万达soho写字楼,房地产,写字楼,福建省,福州市,仓山区,福州市仓山区金榕南路仓山万达广场-SOHO区,845a0ba91bdf57019122e0ca,1,0,119.282943,26.043741,,house,http://api.map.baidu.com/place/detail?uid=845a0ba91bdf57019122e0ca&output=html&source=placeapi_v2,,,,,,,,,,,,,,,,,,119.28295016827,26.0434012732,0
81988af267045af2bbbd63f6,福建特检大楼,房地产,写字楼,福建省,福州市,仓山区,福州市仓山区卢滨路370号,81988af267045af2bbbd63f6,1,1,119.262949,26.048835,,house,http://api.map.baidu.com/place/detail?uid=81988af267045af2bbbd63f6&output=html&source=placeapi_v2,,,5,,,,,,,,,,,,,,,119.26294696618,26.048994525539,1
3f07d8c9db72bf8efd0eb026,仓山万达广场A1写字楼,房地产,写字楼,福建省,福州市,仓山区,福州市仓山区浦上大道274号,3f07d8c9db72bf8efd0eb026,1,0,119.280502,26.041717,,house,http://api.map.baidu.com/place/detail?uid=3f07d8c9db72bf8efd0eb026&output=html&source=placeapi_v2,,,0,,,,,,,,,,,,,,,119.28170107356,26.043215247362,0
88920dfa6cba4336eedfcae8,2期21座,房地产,写字楼,福建省,福州市,仓山区,福州市仓山区金洲南路550号,88920dfa6cba4336eedfcae8,1,0,119.275301,26.042697,,house,http://api.map.baidu.com/place/detail?uid=88920dfa6cba4336eedfcae8&output=html&source=placeapi_v2,,,,,,,,,,,,,,,,,,,,0
5e99d17f45a57c41157643c1,仓山区振源科技大厦,房地产,写字楼,福建省,福州市,仓山区,福建省福州市仓山区振源科技大厦,5e99d17f45a57c41157643c1,1,2,119.27914,26.039604,,house,http://api.map.baidu.com/place/detail?uid=5e99d17f45a57c41157643c1&output=html&source=placeapi_v2,,,,,,,,,,,,,,,,,,119.27956531449,26.039521629695,2
02689a452926e74326e0a02e,胜龙大厦,房地产,写字楼,福建省,福州市,仓山区,福州市仓山区百花洲路11号,02689a452926e74326e0a02e,1,1,119.27293,26.034042,,house,http://api.map.baidu.com/place/detail?uid=02689a452926e74326e0a02e&output=html&source=placeapi_v2,,,3,,,,,,,,,,,,,,,119.2722176102,26.034148530697,1
cb6a649d640611b9b2077d8c,御景商务中心,房地产,写字楼,福建省,福州市,仓山区,福建省福州市仓山区百花洲路12号,cb6a649d640611b9b2077d8c,1,1,119.272547,26.035503,(0591)83050055,house,http://api.map.baidu.com/place/detail?uid=cb6a649d640611b9b2077d8c&output=html&source=placeapi_v2,,,3.8,,,,,,,,,,,,,,,119.27225496174,26.035433364735,1
7ed59ef3d052bc6fede4a521,佰捷商务中心,房地产,写字楼,福建省,福州市,仓山区,福建省福州市仓山区镜浦路3号,7ed59ef3d052bc6fede4a521,1,2,119.27303,26.030166,15205006383,house,http://api.map.baidu.com/place/detail?uid=7ed59ef3d052bc6fede4a521&output=html&source=placeapi_v2,,,3.5,,,,,,,,,,,,,,,119.27245079054,26.030326698275,2
ac6eb70ec8fb26c528b97c46,2期14座,房地产,写字楼,福建省,福州市,仓山区,福州市仓山区金洲南路550号,ac6eb70ec8fb26c528b97c46,1,0,119.275412,26.042404,,house,http://api.map.baidu.com/place/detail?uid=ac6eb70ec8fb26c528b97c46&output=html&source=placeapi_v2,,,,,,,,,,,,,,,,,,,,0
1f850380ae91369f0ab93a0e,钱隆汇金中心,房地产,写字楼,福建省,福州市,仓山区,福州市仓山区杨周路21号,1f850380ae91369f0ab93a0e,1,2,119.276486,26.035381,(0591)83593721,house,http://api.map.baidu.com/place/detail?uid=1f850380ae91369f0ab93a0e&output=html&source=placeapi_v2,,,2,,,,,,,,,,,,,,,119.27613379642,26.035326019003,2
45ec1952a345699d97ec84dd,仓山万达广场A2写字楼,房地产,写字楼,福建省,福州市,仓山区,福州市仓山区浦上大道274号,45ec1952a345699d97ec84dd,1,0,119.281191,26.042142,,house,http://api.map.baidu.com/place/detail?uid=45ec1952a345699d97ec84dd&output=html&source=placeapi_v2,,,0,,,,,,,,,,,,,,,119.27992688964,26.040909128059,0
5083078f92ee6512d5b74e5b,点金财富中心,房地产,写字楼,福建省,福州市,仓山区,福州市仓山区浦上大道208号,5083078f92ee6512d5b74e5b,1,7,119.283868,26.045197,(0591)63516666,house,http://api.map.baidu.com/place/detail?uid=5083078f92ee6512d5b74e5b&output=html&source=placeapi_v2,,,0,,,,,,,,,,,,,,,119.2828890305,26.044642177501,7
4d8eec06bfb04f7e1ce999bb,2期11座,房地产,写字楼,福建省,福州市,仓山区,福州市仓山区金洲南路550号金建小区二期,4d8eec06bfb04f7e1ce999bb,1,0,119.275761,26.04157,,house,http://api.map.baidu.com/place/detail?uid=4d8eec06bfb04f7e1ce999bb&output=html&source=placeapi_v2,,,,,,,,,,,,,,,,,,,,0
4fa730d643389569e812e45c,2期17座,房地产,写字楼,福建省,福州市,仓山区,福州市仓山区金洲南路550号,4fa730d643389569e812e45c,1,0,119.27626,26.042457,,house,http://api.map.baidu.com/place/detail?uid=4fa730d643389569e812e45c&output=html&source=placeapi_v2,,,,,,,,,,,,,,,,,,,,0
6d3942a666f445855ebe866f,红星国际商务中心,房地产,写字楼,福建省,福州市,仓山区,福建省福州市仓山区浦上大道198号爱琴海购物公园,6d3942a666f445855ebe866f,1,0,119.285744,26.046718,,house,http://api.map.baidu.com/place/detail?uid=6d3942a666f445855ebe866f&output=html&source=placeapi_v2,,,0,,,,,,,,,,,,,,,119.28613703373,26.045777737963,0
2e7f22e11adb1e3e88f15d85,1期2座,房地产,写字楼,福建省,福州市,仓山区,福州市仓山区金洲南路550号,2e7f22e11adb1e3e88f15d85,1,0,119.274814,26.041307,,house,http://api.map.baidu.com/place/detail?uid=2e7f22e11adb1e3e88f15d85&output=html&source=placeapi_v2,,,,,,,,,,,,,,,,,,,,0
a7004102881c448c8a36ee92,1期8座,房地产,写字楼,福建省,福州市,仓山区,福州市仓山区谢宅路金建小区,a7004102881c448c8a36ee92,1,0,119.274815,26.04225,,house,http://api.map.baidu.com/place/detail?uid=a7004102881c448c8a36ee92&output=html&source=placeapi_v2,,,,,,,,,,,,,,,,,,,,0
3a480b00acd9f33332f71d2e,源聚兴创业大楼,房地产,写字楼,福建省,福州市,仓山区,福建省福州市仓山区百花洲路20号,3a480b00acd9f33332f71d2e,1,0,119.274463,26.034928,,house,http://api.map.baidu.com/place/detail?uid=3a480b00acd9f33332f71d2e&output=html&source=placeapi_v2,,,,,,,,,,,,,,,,,,,,0
de4fe859851f47fc6f47600d,融邦中心,房地产,写字楼,福建省,福州市,仓山区,福州市仓山区红江路69号,de4fe859851f47fc6f47600d,1,4,119.268047,26.032112,17605036924,house,http://api.map.baidu.com/place/detail?uid=de4fe859851f47fc6f47600d&output=html&source=placeapi_v2,,,5,,,,,,,,,,,,,,,119.26788250638,26.031668773871,4
a087bf35db22357b83a00cc5,恒荣大厦,房地产,写字楼,福建省,福州市,仓山区,福建省福州市仓山区浦上大道208号红星点金商务中心2号楼,a087bf35db22357b83a00cc5,1,0,119.28414,26.045742,,house,http://api.map.baidu.com/place/detail?uid=a087bf35db22357b83a00cc5&output=html&source=placeapi_v2,,,0,,,,,,,,,,,,,,,119.28416475817,26.045897924616,0
fd4ae0f3836205cd28d7abb3,凤高综合大楼,房地产,写字楼,福建省,福州市,仓山区,福州市仓山区建新镇凤高村凤高140号,fd4ae0f3836205cd28d7abb3,1,2,119.277566,26.03005,18620028153,house,http://api.map.baidu.com/place/detail?uid=fd4ae0f3836205cd28d7abb3&output=html&source=placeapi_v2,,,5,,,,,,,,,,,,,,,119.27696927085,26.030253479739,2
1d7bb36b940df47a38e4a67e,中庚城C区-27号楼,房地产,写字楼,福建省,福州市,仓山区,福建省福州市仓山区金山金洲南路中庚城2期,,1,0,119.269842,26.046349,,house,http://api.map.baidu.com/place/detail?uid=1d7bb36b940df47a38e4a67e&output=html&source=placeapi_v2,,,,,,,,,,,,,,,,,,,,0
7b7148a2dc8c1e076b49f386,静远大楼,房地产,写字楼,福建省,福州市,仓山区,福建省福州市仓山区百花洲路59号,7b7148a2dc8c1e076b49f386,1,1,119.278899,26.032787,,house,http://api.map.baidu.com/place/detail?uid=7b7148a2dc8c1e076b49f386&output=html&source=placeapi_v2,,,,,,,,,,,,,,,,,,119.27873897762,26.032848258411,1
199df2d98b11afc8256e98af,2期13座,房地产,写字楼,福建省,福州市,仓山区,福州市仓山区金洲南路550号金建小区二期,199df2d98b11afc8256e98af,1,0,119.276528,26.04202,,house,http://api.map.baidu.com/place/detail?uid=199df2d98b11afc8256e98af&output=html&source=placeapi_v2,,,,,,,,,,,,,,,,,,,,0
3812c131489217c38a36ee3b,御景商务中心-二期,房地产,写字楼,福建省,福州市,仓山区,福州市仓山区百花洲路16号,3812c131489217c38a36ee3b,1,3,119.273486,26.035111,(0591)85333997,house,http://api.map.baidu.com/place/detail?uid=3812c131489217c38a36ee3b&output=html&source=placeapi_v2,,,,,,,,,,,,,,,,,,119.2734572718,26.034489401258,3
ffba5fa914ede937e5e96566,龙凤苑-综合楼,房地产,写字楼,福建省,福州市,仓山区,福建省福州市仓山区金康路2号,ffba5fa914ede937e5e96566,1,0,119.266163,26.053016,,house,http://api.map.baidu.com/place/detail?uid=ffba5fa914ede937e5e96566&output=html&source=placeapi_v2,,,,,,,,,,,,,,,,,,119.26629777689,26.053016644072,0
cf0238b76ffc322b76e5b69f,红漫创业大厦,房地产,写字楼,福建省,福州市,仓山区,福州市仓山区建新中路建中小区东南侧,cf0238b76ffc322b76e5b69f,1,0,119.261446,26.045231,,house,http://api.map.baidu.com/place/detail?uid=cf0238b76ffc322b76e5b69f&output=html&source=placeapi_v2,,,,,,,,,,,,,,,,,,,,0
c3b7d487a1f25dc13586f48a,御景商务中心-1期,房地产,写字楼,福建省,福州市,仓山区,福州市仓山区百花洲路12号,c3b7d487a1f25dc13586f48a,1,2,119.272677,26.035912,(0591)83771155,house,http://api.map.baidu.com/place/detail?uid=c3b7d487a1f25dc13586f48a&output=html&source=placeapi_v2,,,,,,,,,,,,,,,,,,119.27229800854,26.035512818519,2
159244ac2e6bf9ad223bf2e7,维泓商务,房地产,写字楼,福建省,福州市,仓山区,福州市仓山区平潭园2号,159244ac2e6bf9ad223bf2e7,1,1,119.266798,26.032818,,house,http://api.map.baidu.com/place/detail?uid=159244ac2e6bf9ad223bf2e7&output=html&source=placeapi_v2,,,,,,,,,,,,,,,,,,119.2665762516,26.032744458068,1
31e50734ffeeacf7276e9898,仓山万达广场b区9座,房地产,写字楼,福建省,福州市,仓山区,福州市仓山区亭头路仓山万达广场-B1区,,1,0,119.278385,26.042765,,house,http://api.map.baidu.com/place/detail?uid=31e50734ffeeacf7276e9898&output=html&source=placeapi_v2,,,,,,,,,,,,,,,,,,,,0
bf30f3a9b1071569ec74f89d,红叶大厦,房地产,写字楼,福建省,福州市,仓山区,福州市仓山区金洲北路12号,bf30f3a9b1071569ec74f89d,1,2,119.263165,26.062126,,house,http://api.map.baidu.com/place/detail?uid=bf30f3a9b1071569ec74f89d&output=html&source=placeapi_v2,,,3.8,,,,,,,,,,,,,,,119.26285726679,26.061569177449,2
1bc11051a244b7c59f09f76c,仓山万达广场-A3座,房地产,写字楼,福建省,福州市,仓山区,福州市仓山区浦上大道万达广场(福州仓山浦上店),1bc11051a244b7c59f09f76c,1,0,119.279442,26.041331,,house,http://api.map.baidu.com/place/detail?uid=1bc11051a244b7c59f09f76c&output=html&source=placeapi_v2,,,,,,,,,,,,,,,,,,,,0
afed4bdf056aeb90c1f1cf90,龙华办公楼,房地产,写字楼,福建省,福州市,仓山区,福州市仓山区高宅路,afed4bdf056aeb90c1f1cf90,1,0,119.268208,26.03399,18906919396,house,http://api.map.baidu.com/place/detail?uid=afed4bdf056aeb90c1f1cf90&output=html&source=placeapi_v2,,,,,,,,,,,,,,,,,,119.26789263388,26.034235445886,0
c5bab8df27f5812dc3364409,万达广场B区5座,房地产,写字楼,福建省,福州市,仓山区,福州市仓山区亭头路仓山万达广场-B1区,,1,0,119.279179,26.042735,,house,http://api.map.baidu.com/place/detail?uid=c5bab8df27f5812dc3364409&output=html&source=placeapi_v2,,,,,,,,,,,,,,,,,,,,0
e01e61fea6a9f1c248fd3f66,综合楼,房地产,写字楼,福建省,福州市,仓山区,福州市仓山区金岩路与金洲北路交叉路口往东约180米,e01e61fea6a9f1c248fd3f66,1,0,119.265773,26.063227,,house,http://api.map.baidu.com/place/detail?uid=e01e61fea6a9f1c248fd3f66&output=html&source=placeapi_v2,,,4,,,,,,,,,,,,,,,,,0
22e114072ca32ab4d5b74e57,永兴综合楼,房地产,写字楼,福建省,福州市,仓山区,福建省福州市仓山区十字亭路6号,22e114072ca32ab4d5b74e57,1,2,119.28012,26.034919,,house,http://api.map.baidu.com/place/detail?uid=22e114072ca32ab4d5b74e57&output=html&source=placeapi_v2,,,3,,,,,,,,,,,,,,,119.28023579535,26.034674769494,2
f6332bcab928b463eaf85317,汇创名居-I期办公楼,房地产,写字楼,福建省,福州市,仓山区,福州市仓山区金山街道金山大道418号,f6332bcab928b463eaf85317,1,0,119.262004,26.057499,,house,http://api.map.baidu.com/place/detail?uid=f6332bcab928b463eaf85317&output=html&source=placeapi_v2,,,,,,,,,,,,,,,,,,119.2623373042,26.057732504718,0
26673dcd4f1cb4812fb17ed0,瑞邦大楼,房地产,写字楼,福建省,福州市,仓山区,福州市仓山区金岩路163号,26673dcd4f1cb4812fb17ed0,1,0,119.262812,26.061272,,house,http://api.map.baidu.com/place/detail?uid=26673dcd4f1cb4812fb17ed0&output=html&source=placeapi_v2,,,3,,,,,,,,,,,,,,,119.26270687517,26.06120145438,0
dc79a11dbf50e97bc03644e0,仓山万达广场c区3座,房地产,写字楼,福建省,福州市,仓山区,福州市仓山区金山街道浦上大道216号仓山万达广场c区3座,dc79a11dbf50e97bc03644e0,1,0,119.282389,26.044293,,house,http://api.map.baidu.com/place/detail?uid=dc79a11dbf50e97bc03644e0&output=html&source=placeapi_v2,,,,,,,,,,,,,,,,,,119.28252157773,26.0444599619,0
5a668a04cf3eb37231f71de1,国级办公楼,房地产,写字楼,福建省,福州市,仓山区,福建省福州市仓山区建新镇红江路67号,,1,0,119.268728,26.031553,,house,http://api.map.baidu.com/place/detail?uid=5a668a04cf3eb37231f71de1&output=html&source=placeapi_v2,,,,,,,,,,,,,,,,,,,,0
22408d94b12df8d526d2bb76,仓山区玫瑰天街3商业楼,房地产,写字楼,福建省,福州市,仓山区,福建省福州市仓山区玫瑰天街3号,,1,0,119.284861,26.046423,,house,http://api.map.baidu.com/place/detail?uid=22408d94b12df8d526d2bb76&output=html&source=placeapi_v2,,,,,,,,,,,,,,,,,,119.28435822713,26.046249712264,0
d7bee4e52dd109099e82ea89,恩特楼,房地产,写字楼,福建省,福州市,仓山区,福州市仓山区金榕北路52号3号楼,d7bee4e52dd109099e82ea89,1,1,119.270429,26.060862,(0591)83593016,house,http://api.map.baidu.com/place/detail?uid=d7bee4e52dd109099e82ea89&output=html&source=placeapi_v2,,,5,,,,,,,,,,,,,,,119.27043093713,26.061033981423,1
d596f6e0760f8cd2c61b752b,金山大厦,房地产,写字楼,福建省,福州市,仓山区,福州市仓山区金山街道闽江大道200号,d596f6e0760f8cd2c61b752b,1,4,119.277662,26.057408,13609590787,house,http://api.map.baidu.com/place/detail?uid=d596f6e0760f8cd2c61b752b&output=html&source=placeapi_v2,,,0.0,,,,,,,,,,,,,,,119.27753519973,26.057617988378,4
ac7280c38d665124f8dc8506,FAC协盛中心,房地产,写字楼,福建省,福州市,仓山区,福建省福州市仓山区后巷路12号,ac7280c38d665124f8dc8506,1,2,119.279841,26.036002,,house,http://api.map.baidu.com/place/detail?uid=ac7280c38d665124f8dc8506&output=html&source=placeapi_v2,,,5,,,,,,,,,,,,,,,119.27993405453,26.035958379597,2
4469690aa4d01972a80dd845,气象减灾大楼大探中心,房地产,写字楼,福建省,福州市,仓山区,福建省福州市仓山区建新镇建新中路98号气象减灾大楼大探中心,4469690aa4d01972a80dd845,1,0,119.26344,26.04934,,house,http://api.map.baidu.com/place/detail?uid=4469690aa4d01972a80dd845&output=html&source=placeapi_v2,,,,,,,,,,,,,,,,,,119.26373864283,26.049343352156,0
1f85cf03d699a6e7fb2d61f9,钱隆汇金中心一座,房地产,写字楼,福建省,福州市,仓山区,福建省福州市仓山区建新镇杨周路21号钱隆汇金中心一座,1f85cf03d699a6e7fb2d61f9,1,0,119.276219,26.035114,,house,http://api.map.baidu.com/place/detail?uid=1f85cf03d699a6e7fb2d61f9&output=html&source=placeapi_v2,,,,,,,,,,,,,,,,,,,,0
ca6adf39c9a7970a230220bb,信通大厦,房地产,写字楼,福建省,福州市,仓山区,福州市仓山区金山街道金洲北路金华路15号,ca6adf39c9a7970a230220bb,1,2,119.266768,26.061983,18659163112,house,http://api.map.baidu.com/place/detail?uid=ca6adf39c9a7970a230220bb&output=html&source=placeapi_v2,,,3,,,,,,,,,,,,,,,119.26654225433,26.062264149845,2
1546a148c7e1fc0c5fd4fe96,红星典金商务中心,房地产,写字楼,福建省,福州市,仓山区,福州市仓山区浦上大道208号,1546a148c7e1fc0c5fd4fe96,1,0,119.283788,26.044861,,house,http://api.map.baidu.com/place/detail?uid=1546a148c7e1fc0c5fd4fe96&output=html&source=placeapi_v2,,,,,,,,,,,,,,,,,,,,0
dd74958fa4cc5dc3a0acc487,新办公大楼,房地产,写字楼,福建省,福州市,仓山区,福州市仓山区金山街道闽江大道167号,dd74958fa4cc5dc3a0acc487,1,0,119.277625,26.060092,,house,http://api.map.baidu.com/place/detail?uid=dd74958fa4cc5dc3a0acc487&output=html&source=placeapi_v2,,,,,,,,,,,,,,,,,,,,0
c4607921dc59f3d04207c1a0,2期15座,房地产,写字楼,福建省,福州市,仓山区,福建省福州市仓山区金洲南路550号金建小区二期,c4607921dc59f3d04207c1a0,1,0,119.276468,26.042252,,house,http://api.map.baidu.com/place/detail?uid=c4607921dc59f3d04207c1a0&output=html&source=placeapi_v2,,,,,,,,,,,,,,,,,,,,0
220df1d08b7471a55b1093d4,物业中心,房地产,写字楼,福建省,福州市,仓山区,福州市仓山区万达广场c区c4栋二层物业中心,220df1d08b7471a55b1093d4,1,0,119.282728,26.043895,,house,http://api.map.baidu.com/place/detail?uid=220df1d08b7471a55b1093d4&output=html&source=placeapi_v2,,,,,,,,,,,,,,,,,,,,0
7a7d7f05b153bf1b9122e00f,红叶大厦-A区,房地产,写字楼,福建省,福州市,仓山区,福州市仓山区金洲北路12号,7a7d7f05b153bf1b9122e00f,1,0,119.262955,26.061694,,house,http://api.map.baidu.com/place/detail?uid=7a7d7f05b153bf1b9122e00f&output=html&source=placeapi_v2,,,0,,,,,,,,,,,,,,,119.26283675626,26.061602603114,0
e2854847503089a87ab55cd6,欧派特大楼,房地产,写字楼,福建省,福州市,仓山区,福建省福州市仓山区百花洲路46号,e2854847503089a87ab55cd6,1,1,119.279622,26.033184,,house,http://api.map.baidu.com/place/detail?uid=e2854847503089a87ab55cd6&output=html&source=placeapi_v2,,,,,,,,,,,,,,,,,,119.27964515076,26.033110559299,1
5ca845666fd308c7b5f42f8a,红叶大厦-B区,房地产,写字楼,福建省,福州市,仓山区,福建省福州市仓山区金岩路,5ca845666fd308c7b5f42f8a,1,1,119.26285,26.061684,,house,http://api.map.baidu.com/place/detail?uid=5ca845666fd308c7b5f42f8a&output=html&source=placeapi_v2,,,,,,,,,,,,,,,,,,119.26293721687,26.061535597575,1
54fc6edd3a83a7484d776e02,林盛中心,房地产,写字楼,福建省,福州市,仓山区,福州市仓山区杨周路FAC协盛中心,54fc6edd3a83a7484d776e02,1,0,119.279493,26.036268,,house,http://api.map.baidu.com/place/detail?uid=54fc6edd3a83a7484d776e02&output=html&source=placeapi_v2,,,,,,,,,,,,,,,,,,119.27939633783,26.036499544095,0
3bfeae1e909cc2612b201a8c,依强产业园C栋新办公楼,房地产,写字楼,福建省,福州市,仓山区,福州市仓山区金洲北路13号,3bfeae1e909cc2612b201a8c,1,0,119.265244,26.0616,(0591)83280182,house,http://api.map.baidu.com/place/detail?uid=3bfeae1e909cc2612b201a8c&output=html&source=placeapi_v2,,,,,,,,,,,,,,,,,,119.2644717823,26.062169496553,0
b531790dc1fdd5210a5cb328,怡景商务中心,房地产,写字楼,福建省,福州市,仓山区,福州市仓山区百花洲路16号,b531790dc1fdd5210a5cb328,1,0,119.273752,26.035456,,house,http://api.map.baidu.com/place/detail?uid=b531790dc1fdd5210a5cb328&output=html&source=placeapi_v2,,,,,,,,,,,,,,,,,,,,0
f7a1c0212aeb5cd26b49f3fc,恒荣大厦-二座,房地产,写字楼,福建省,福州市,仓山区,福州市仓山区浦上大道208号红星点金商务中心恒荣大厦二座,f7a1c0212aeb5cd26b49f3fc,1,0,119.284303,26.045756,,house,http://api.map.baidu.com/place/detail?uid=f7a1c0212aeb5cd26b49f3fc&output=html&source=placeapi_v2,,,,,,,,,,,,,,,,,,,,0
dc49f8d02179deeddbd8918c,融桥水乡别墅综合楼,房地产,写字楼,福建省,福州市,仓山区,福州市仓山区闽江大道169号,dc49f8d02179deeddbd8918c,1,0,119.277097,26.060127,,house,http://api.map.baidu.com/place/detail?uid=dc49f8d02179deeddbd8918c&output=html&source=placeapi_v2,,,,,,,,,,,,,,,,,,,,0
b6fd120ee197e8f9932ca394,浦上片平潭园1号综合楼,房地产,写字楼,福建省,福州市,仓山区,福州市仓山区红江路79号,b6fd120ee197e8f9932ca394,1,0,119.266648,26.03324,,house,http://api.map.baidu.com/place/detail?uid=b6fd120ee197e8f9932ca394&output=html&source=placeapi_v2,,,,,,,,,,,,,,,,,,119.26654545319,26.033352703118,0
9663bcaef8733f549ff7797c,QD创意园,房地产,写字楼,福建省,福州市,仓山区,福建省福州市仓山区百花洲路19-21号,9663bcaef8733f549ff7797c,1,0,119.273342,26.032933,,house,http://api.map.baidu.com/place/detail?uid=9663bcaef8733f549ff7797c&output=html&source=placeapi_v2,,,3,,,,,,,,,,,,,,,119.27295422072,26.032817502728,0
baddb971a4e55fe315764355,龙凤苑-6号楼,房地产,写字楼,福建省,福州市,仓山区,福州市仓山区金康路30号,baddb971a4e55fe315764355,1,0,119.265142,26.052738,,house,http://api.map.baidu.com/place/detail?uid=baddb971a4e55fe315764355&output=html&source=placeapi_v2,,,3.5,,,,,,,,,,,,,,,119.26538563388,26.052958445573,0
a7cf5961ed0449b91811d579,同拓伟业大厦,房地产,写字楼,福建省,福州市,仓山区,福州市仓山区红江路2号,a7cf5961ed0449b91811d579,1,1,119.266997,26.032671,,house,http://api.map.baidu.com/place/detail?uid=a7cf5961ed0449b91811d579&output=html&source=placeapi_v2,,,0,,,,,,,,,,,,,,,119.26712298369,26.032796999015,1
f9f58d4b3b0946797bf796f2,金山海悦园-2号楼,房地产,写字楼,福建省,福州市,仓山区,福州市仓山区金祥路517号,f9f58d4b3b0946797bf796f2,1,0,119.262433,26.052695,,house,http://api.map.baidu.com/place/detail?uid=f9f58d4b3b0946797bf796f2&output=html&source=placeapi_v2,,,4,,,,,,,,,,,,,,,119.26234614712,26.05298667883,0
b2127ddf16a61670da2f28dd,龙凤苑-3号楼,房地产,写字楼,福建省,福州市,仓山区,福州市仓山区金康路30号,b2127ddf16a61670da2f28dd,1,0,119.264371,26.053061,,house,http://api.map.baidu.com/place/detail?uid=b2127ddf16a61670da2f28dd&output=html&source=placeapi_v2,,,4,,,,,,,,,,,,,,,,,0
908daaded5b5846890114c2a,鸿博・新时代,房地产,写字楼,福建省,福州市,仓山区,福建省福州市仓山区金达路136号,908daaded5b5846890114c2a,1,0,119.266666,26.060563,(0591)88071088,house,http://api.map.baidu.com/place/detail?uid=908daaded5b5846890114c2a&output=html&source=placeapi_v2,,,0,,,,,,,,,,,,,,,119.26677327245,26.060636654876,0
41b2679e810da335c6effbd1,恩特楼-3号楼,房地产,写字楼,福建省,福州市,仓山区,福州市仓山区金榕北路52号,41b2679e810da335c6effbd1,1,0,119.270259,26.060731,,house,http://api.map.baidu.com/place/detail?uid=41b2679e810da335c6effbd1&output=html&source=placeapi_v2,,,,,,,,,,,,,,,,,,119.27046126572,26.060902363082,0
b533ea4a048477414f6d4657,汇利达商厦,房地产,写字楼,福建省,福州市,仓山区,福州市仓山区施埔路13号,b533ea4a048477414f6d4657,1,0,119.318999,26.042401,(0591)83538336,house,http://api.map.baidu.com/place/detail?uid=b533ea4a048477414f6d4657&output=html&source=placeapi_v2,,,0,,,,,,,,,,,,,,,119.31897443354,26.042507808246,0
3dc9befd85df7a16bea24057,滨海大厦,房地产,写字楼,福建省,福州市,仓山区,福州市仓山区首山路7号,3dc9befd85df7a16bea24057,1,2,119.321154,26.041312,,house,http://api.map.baidu.com/place/detail?uid=3dc9befd85df7a16bea24057&output=html&source=placeapi_v2,,,0,,,,,,,,,,,,,,,119.32102254854,26.04094140512,2
8b42e559200f4e25d618b701,华辰远祥大厦,房地产,写字楼,福建省,福州市,台江区,福州市台江区台江路47-4号,8b42e559200f4e25d618b701,1,3,119.320078,26.057855,13003889393,house,http://api.map.baidu.com/place/detail?uid=8b42e559200f4e25d618b701&output=html&source=placeapi_v2,,,1,,,,,,,,,,,,,,,119.3202500058,26.057714935494,3
14076deea345e1f402294f57,烟山大厦,房地产,写字楼,福建省,福州市,仓山区,福州市仓山区六一南路320号,14076deea345e1f402294f57,1,2,119.330326,26.043167,(0591)83211141,house,http://api.map.baidu.com/place/detail?uid=14076deea345e1f402294f57&output=html&source=placeapi_v2,,,4,,,,,,,,,,,,,,,119.33061645138,26.043148800779,2
7814a27c3d5a4f486c476029,国税大楼,房地产,写字楼,福建省,福州市,仓山区,福州市仓山区上三路71号,7814a27c3d5a4f486c476029,1,0,119.318502,26.043681,,house,http://api.map.baidu.com/place/detail?uid=7814a27c3d5a4f486c476029&output=html&source=placeapi_v2,,,,,,,,,,,,,,,,,,,,0
c5f4460252325037715e805d,半岛国际-一座,房地产,写字楼,福建省,福州市,台江区,福州市台江区江滨西大道233号,c5f4460252325037715e805d,1,0,119.315241,26.053198,,house,http://api.map.baidu.com/place/detail?uid=c5f4460252325037715e805d&output=html&source=placeapi_v2,,,,,,,,,,,,,,,,,,,,0
a82eb3df3586bd8f88fc0606,恒坤大厦,房地产,写字楼,福建省,福州市,台江区,福州市台江区江滨西大道233号,a82eb3df3586bd8f88fc0606,1,2,119.313886,26.052412,,house,http://api.map.baidu.com/place/detail?uid=a82eb3df3586bd8f88fc0606&output=html&source=placeapi_v2,,,,,,,,,,,,,,,,,,119.31385407057,26.052619025178,2
db1f39d4a4922f76f4c59ce8,藤山大厦,房地产,写字楼,福建省,福州市,仓山区,福州市仓山区上三路32号,db1f39d4a4922f76f4c59ce8,1,3,119.318204,26.042948,,house,http://api.map.baidu.com/place/detail?uid=db1f39d4a4922f76f4c59ce8&output=html&source=placeapi_v2,,,0,,,,,,,,,,,,,,,119.31790542842,26.043165031473,3
0437e7f1cb37cdcc2bb97c06,中国联通办公楼,房地产,写字楼,福建省,福州市,仓山区,福州市仓山区上三路福建农业职业技术学院(首山校区),0437e7f1cb37cdcc2bb97c06,1,0,119.322158,26.041165,,house,http://api.map.baidu.com/place/detail?uid=0437e7f1cb37cdcc2bb97c06&output=html&source=placeapi_v2,,,,,,,,,,,,,,,,,,,,0
ffd6d40372fe7c8f17b54b57,山亚大厦,房地产,写字楼,福建省,福州市,仓山区,福州市仓山区上三路216号,ffd6d40372fe7c8f17b54b57,1,3,119.325176,26.040759,(0591)88077363,house,http://api.map.baidu.com/place/detail?uid=ffd6d40372fe7c8f17b54b57&output=html&source=placeapi_v2,,,0,,,,,,,,,,,,,,,119.32566684012,26.040803979718,3
c8e8f63311009712ab0dd871,东南大厦,房地产,写字楼,福建省,福州市,仓山区,福州市仓山区上三路192号,c8e8f63311009712ab0dd871,1,2,119.323966,26.041172,,house,http://api.map.baidu.com/place/detail?uid=c8e8f63311009712ab0dd871&output=html&source=placeapi_v2,,,0,,,,,,,,,,,,,,,119.3239510245,26.041322833108,2
99816d64ac6e74d72a02e148,佳阳大厦,房地产,写字楼,福建省,福州市,台江区,福建省福州市台江区台江路86号,99816d64ac6e74d72a02e148,1,2,119.320834,26.057981,,house,http://api.map.baidu.com/place/detail?uid=99816d64ac6e74d72a02e148&output=html&source=placeapi_v2,,,,,,,,,,,,,,,,,,119.32048356523,26.057714935494,2
fa01e9378786fd4a774ff170,永恒商厦,房地产,写字楼,福建省,福州市,台江区,江滨路58号,fa01e9378786fd4a774ff170,1,0,119.318997,26.057114,,house,http://api.map.baidu.com/place/detail?uid=fa01e9378786fd4a774ff170&output=html&source=placeapi_v2,,,0,,,,,,,,,,,,,,,119.31946848001,26.057260532207,0
14e477ca7207aa7dfd0eb018,城投大厦,房地产,写字楼,福建省,福州市,台江区,福州市台江区台江路15号,14e477ca7207aa7dfd0eb018,1,3,119.318634,26.057515,,house,http://api.map.baidu.com/place/detail?uid=14e477ca7207aa7dfd0eb018&output=html&source=placeapi_v2,,,0,,,,,,,,,,,,,,,119.31821080378,26.057593554002,3
1cea15a9205c53c407fef554,广达大厦,房地产,写字楼,福建省,福州市,台江区,福州市台江区达道路23号,1cea15a9205c53c407fef554,1,2,119.315916,26.062328,,house,http://api.map.baidu.com/place/detail?uid=1cea15a9205c53c407fef554&output=html&source=placeapi_v2,,,,,,,,,,,,,,,,,,119.31583206834,26.062505974191,2
0bae6f969be87b4115764394,福州市美且有商业大楼,房地产,写字楼,福建省,福州市,台江区,福州市台江区下杭路苍霞新城社区-嘉和苑,0bae6f969be87b4115764394,1,0,119.31053,26.056952,,house,http://api.map.baidu.com/place/detail?uid=0bae6f969be87b4115764394&output=html&source=placeapi_v2,,,,,,,,,,,,,,,,,,,,0
b292b3aa762db356be484270,金安大厦,房地产,写字楼,福建省,福州市,台江区,福建省福州市台江区八一七中路798号,b292b3aa762db356be484270,1,1,119.312272,26.063917,,house,http://api.map.baidu.com/place/detail?uid=b292b3aa762db356be484270&output=html&source=placeapi_v2,,,,,,,,,,,,,,,,,,119.31230772747,26.063911357953,1
2d8b71c036e02358b35c6a34,中庚红鼎天下-1号楼,房地产,写字楼,福建省,福州市,仓山区,福州市仓山区朝阳路6号,2d8b71c036e02358b35c6a34,1,0,119.328481,26.054382,,house,http://api.map.baidu.com/place/detail?uid=2d8b71c036e02358b35c6a34&output=html&source=placeapi_v2,,,0,,,,,,,,,,,,,,,119.32847429188,26.054522680216,0
56f2f69638b2fe800aa8d470,金马大厦,房地产,写字楼,福建省,福州市,台江区,福州市台江区八一七中路888号,56f2f69638b2fe800aa8d470,1,2,119.314012,26.061114,,house,http://api.map.baidu.com/place/detail?uid=56f2f69638b2fe800aa8d470&output=html&source=placeapi_v2,,,5,,,,,,,,,,,,,,,119.31388615894,26.061390566433,2
572353673a9791d045e27467,阳光综合楼,房地产,写字楼,福建省,福州市,仓山区,福州市仓山区施埔路52号,572353673a9791d045e27467,1,0,119.317339,26.041964,,house,http://api.map.baidu.com/place/detail?uid=572353673a9791d045e27467&output=html&source=placeapi_v2,,,,,,,,,,,,,,,,,,,,0
5dc61ce28c7f825cf32d83e4,江南水都杰座13座,房地产,写字楼,福建省,福州市,仓山区,福州市仓山区上渡街道通江路江南水都杰座13座,5dc61ce28c7f825cf32d83e4,1,0,119.294711,26.045267,,house,http://api.map.baidu.com/place/detail?uid=5dc61ce28c7f825cf32d83e4&output=html&source=placeapi_v2,,,,,,,,,,,,,,,,,,,,0
99816d64ac6e74d72a02e148,佳阳大厦,房地产,写字楼,福建省,福州市,台江区,福建省福州市台江区台江路86号,99816d64ac6e74d72a02e148,1,2,119.320834,26.057981,,house,http://api.map.baidu.com/place/detail?uid=99816d64ac6e74d72a02e148&output=html&source=placeapi_v2,,,,,,,,,,,,,,,,,,119.32048356523,26.057714935494,2
dd46096ef25243286040a918,金星大楼,房地产,写字楼,福建省,福州市,仓山区,福州市仓山区上三路复园支路55号,dd46096ef25243286040a918,1,1,119.323785,26.042754,,house,http://api.map.baidu.com/place/detail?uid=dd46096ef25243286040a918&output=html&source=placeapi_v2,,,,,,,,,,,,,,,,,,119.32365937579,26.04279868769,1
96830289a347ff5f631809d5,鑫银座大厦,房地产,写字楼,福建省,福州市,仓山区,福州市仓山区北园路附近,96830289a347ff5f631809d5,1,0,119.303368,26.030692,,house,http://api.map.baidu.com/place/detail?uid=96830289a347ff5f631809d5&output=html&source=placeapi_v2,,,,,,,,,,,,,,,,,,119.30331715131,26.030488818729,0
ed84cfb8caa12868c9e33c9a,山亚大厦-B座,房地产,写字楼,福建省,福州市,仓山区,福州市仓山区上三路216号,ed84cfb8caa12868c9e33c9a,1,4,119.325046,26.040633,(0591)83765300,house,http://api.map.baidu.com/place/detail?uid=ed84cfb8caa12868c9e33c9a&output=html&source=placeapi_v2,,,0,,,,,,,,,,,,,,,119.32508050175,26.040582847304,4
a23f8d3b7ba5ddae0b69d96d,仓山区江南水都杰座23座,房地产,写字楼,福建省,福州市,仓山区,福州市仓山区通江路融侨江南水都杰座-东区,a23f8d3b7ba5ddae0b69d96d,1,0,119.29472,26.045275,,house,http://api.map.baidu.com/place/detail?uid=a23f8d3b7ba5ddae0b69d96d&output=html&source=placeapi_v2,,,,,,,,,,,,,,,,,,,,0
6f05ffc556f37a4516764309,古田会馆,房地产,写字楼,福建省,福州市,台江区,福州市台江区同德路2号,6f05ffc556f37a4516764309,1,0,119.307701,26.055662,,life,http://api.map.baidu.com/place/detail?uid=6f05ffc556f37a4516764309&output=html&source=placeapi_v2,,,4,,,,,,,17,3,,,,,,,119.30766811605,26.055577991804,0
dbf4d6ee4454442a6fa3cc70,鸿雁大厦,房地产,写字楼,福建省,福州市,台江区,五一南路303号,dbf4d6ee4454442a6fa3cc70,1,4,119.32119,26.061908,,house,http://api.map.baidu.com/place/detail?uid=dbf4d6ee4454442a6fa3cc70&output=html&source=placeapi_v2,,,0,,,,,,,,,,,,,,,119.3213116502,26.061592494249,4
b7f05f0e04830e94b3077d7d,台江区机关大楼,房地产,写字楼,福建省,福州市,台江区,福州市台江区台江路88号,b7f05f0e04830e94b3077d7d,1,3,119.32057,26.058771,,house,http://api.map.baidu.com/place/detail?uid=b7f05f0e04830e94b3077d7d&output=html&source=placeapi_v2,,,,,,,,,,,,,,,,,,119.32015119219,26.058761679145,3
bd5046e8baad1e41d72ce270,区委大厦,房地产,写字楼,福建省,福州市,台江区,福州市台江区台江路88号,bd5046e8baad1e41d72ce270,1,0,119.320505,26.058792,,house,http://api.map.baidu.com/place/detail?uid=bd5046e8baad1e41d72ce270&output=html&source=placeapi_v2,,,,,,,,,,,,,,,,,,119.32071195851,26.05841640417,0
925c550f6a89f5b25a3ac870,和平大厦,房地产,写字楼,福建省,福州市,台江区,福州市台江区五一南路186号,925c550f6a89f5b25a3ac870,1,4,119.320156,26.061987,,house,http://api.map.baidu.com/place/detail?uid=925c550f6a89f5b25a3ac870&output=html&source=placeapi_v2,,,,,,,,,,,,,,,,,,119.32056433997,26.061642768449,4
d5e154a9ebe4b67f4d55474f,商业大楼,房地产,写字楼,福建省,福州市,台江区,福州市台江区瀛洲街道台江路116号,d5e154a9ebe4b67f4d55474f,1,0,119.32204,26.059002,,house,http://api.map.baidu.com/place/detail?uid=d5e154a9ebe4b67f4d55474f&output=html&source=placeapi_v2,,,,,,,,,,,,,,,,,,,,0
be32d69d47ee3597283a9f64,山亚大厦-A座,房地产,写字楼,福建省,福州市,仓山区,福州市仓山区上三路216号,be32d69d47ee3597283a9f64,1,1,119.32584,26.040965,,house,http://api.map.baidu.com/place/detail?uid=be32d69d47ee3597283a9f64&output=html&source=placeapi_v2,,,,,,,,,,,,,,,,,,119.32535238109,26.041201100908,1
5bde8c53d906cb20fa22135f,苍霞新城社区-五座,房地产,写字楼,福建省,福州市,台江区,福州市台江区南园路19号,5bde8c53d906cb20fa22135f,1,0,119.309911,26.055923,,house,http://api.map.baidu.com/place/detail?uid=5bde8c53d906cb20fa22135f&output=html&source=placeapi_v2,,,,,,,,,,,,,,,,,,119.30995986908,26.055818568724,0
87248d96532c9cb32806ce70,红旗大厦,房地产,写字楼,福建省,福州市,台江区,宁化支路与河下街交叉口西南50米,87248d96532c9cb32806ce70,1,2,119.303249,26.062764,,house,http://api.map.baidu.com/place/detail?uid=87248d96532c9cb32806ce70&output=html&source=placeapi_v2,,,0,,,,,,,,,,,,,,,119.30348335219,26.063127158082,2
0b85d879cc21e03ffea778d4,文华富邑大楼,房地产,写字楼,福建省,福州市,台江区,福州市台江区五一南路台江・商都汇,,1,0,119.321306,26.060162,,house,http://api.map.baidu.com/place/detail?uid=0b85d879cc21e03ffea778d4&output=html&source=placeapi_v2,,,,,,,,,,,,,,,,,,119.32170414952,26.060137165531,0
2cc3c8e82643a9d64d2fdf70,茂泰商贸大厦,房地产,写字楼,福建省,福州市,台江区,福建省福州市台江区台江路118号,2cc3c8e82643a9d64d2fdf70,1,2,119.322557,26.059089,,house,http://api.map.baidu.com/place/detail?uid=2cc3c8e82643a9d64d2fdf70&output=html&source=placeapi_v2,,,3,,,,,,,,,,,,,,,119.32253170179,26.058794136162,2
31ae81f6022345715e17c3d3,仓山城建大楼,房地产,写字楼,福建省,福州市,仓山区,福州市仓山区仓前街道梅坞路14号烟台山公园内,31ae81f6022345715e17c3d3,1,0,119.323085,26.051295,,house,http://api.map.baidu.com/place/detail?uid=31ae81f6022345715e17c3d3&output=html&source=placeapi_v2,,,,,,,,,,,,,,,,,,119.32331001165,26.051276054116,0
0d51782040914c631fe99940,福州市总工会综合楼,房地产,写字楼,福建省,福州市,台江区,八一七中路766号福州市工人文化宫附近,0d51782040914c631fe99940,1,0,119.310149,26.062952,,house,http://api.map.baidu.com/place/detail?uid=0d51782040914c631fe99940&output=html&source=placeapi_v2,,,0,,,,,,,,,,,,,,,,,0
b6d48bc1c0344f619f09f755,农行综合楼,房地产,写字楼,福建省,福州市,仓山区,福州市仓山区下渡街道六一南路121号,b6d48bc1c0344f619f09f755,1,0,119.328673,26.048306,,house,http://api.map.baidu.com/place/detail?uid=b6d48bc1c0344f619f09f755&output=html&source=placeapi_v2,,,0,,,,,,,,,,,,,,,119.32860871341,26.048331239697,0
d57686b03734f3feeb56fa7c,中平花园2座楼,房地产,写字楼,福建省,福州市,台江区,福建省福州市台江区苍霞街道中平花园2座,,1,0,119.311202,26.060684,,house,http://api.map.baidu.com/place/detail?uid=d57686b03734f3feeb56fa7c&output=html&source=placeapi_v2,,,,,,,,,,,,,,,,,,,,0
9b229d608571902e3310af35,国际金融中心中中区,房地产,写字楼,福建省,福州市,台江区,福州市台江区上游巷碧水芳洲,,1,0,119.300739,26.057196,,house,http://api.map.baidu.com/place/detail?uid=9b229d608571902e3310af35&output=html&source=placeapi_v2,,,,,,,,,,,,,,,,,,119.30094771287,26.05730120251,0
ae61540e2e5f1f01d22dd693,中洲岛内综合楼,房地产,写字楼,福建省,福州市,仓山区,福州市仓山区南江滨西大道中洲岛,ae61540e2e5f1f01d22dd693,1,0,119.32034,26.054023,,house,http://api.map.baidu.com/place/detail?uid=ae61540e2e5f1f01d22dd693&output=html&source=placeapi_v2,,,,,,,,,,,,,,,,,,,,0
a6b46e71c06d07fd54bfff7f,江南水都杰座4座,房地产,写字楼,福建省,福州市,仓山区,福州市仓山区燎原路融侨江南水都杰座-东区,a6b46e71c06d07fd54bfff7f,1,0,119.295262,26.045848,,house,http://api.map.baidu.com/place/detail?uid=a6b46e71c06d07fd54bfff7f&output=html&source=placeapi_v2,,,,,,,,,,,,,,,,,,,,0
a3e8341c85ae76954afd3f70,本色大厦,房地产,写字楼,福建省,福州市,台江区,福州市台江区八一七南路80号(中亭街),a3e8341c85ae76954afd3f70,1,4,119.31672,26.057916,(0591)63181863,house,http://api.map.baidu.com/place/detail?uid=a3e8341c85ae76954afd3f70&output=html&source=placeapi_v2,,,3,,,,,,,,,,,,,,,119.31580339353,26.05754453447,4
33d08e6e9c8298345e17c3ea,市工商联商会大厦,房地产,写字楼,福建省,福州市,台江区,福州市台江区后洲街道学军路95号,33d08e6e9c8298345e17c3ea,1,0,119.310399,26.060775,,house,http://api.map.baidu.com/place/detail?uid=33d08e6e9c8298345e17c3ea&output=html&source=placeapi_v2,,,0,,,,,,,,,,,,,,,119.31023836215,26.0606679818,0
2ccaa8dc088f86264f3a59e4,山亚大厦-C座,房地产,写字楼,福建省,福州市,仓山区,福州市仓山区牛眠山巷45号,2ccaa8dc088f86264f3a59e4,1,1,119.325455,26.039908,,house,http://api.map.baidu.com/place/detail?uid=2ccaa8dc088f86264f3a59e4&output=html&source=placeapi_v2,,,,,,,,,,,,,,,,,,119.32540030659,26.040205399673,1
88dd7196ee581f9a601809d2,金融财富中心,房地产,写字楼,福建省,福州市,台江区,福建省福州市台江区后洲街道金马大厦苏宁一楼金融财富中心,,1,0,119.313899,26.061018,,house,http://api.map.baidu.com/place/detail?uid=88dd7196ee581f9a601809d2&output=html&source=placeapi_v2,,,,,,,,,,,,,,,,,,,,0
53abd31ef3e5b3acca09f043,福州市东部新城商务办公中心区,房地产,写字楼,福建省,福州市,仓山区,福州市仓山区南江滨西大道193号,53abd31ef3e5b3acca09f043,1,0,119.360291,26.043946,,house,http://api.map.baidu.com/place/detail?uid=53abd31ef3e5b3acca09f043&output=html&source=placeapi_v2,,,4.5,,,,,,,,,,,,,,,119.36098426202,26.044563277912,0
4eb3b533d007f47543024557,金彩写字楼,房地产,写字楼,福建省,福州市,仓山区,福州市仓山区三高路156号,4eb3b533d007f47543024557,1,1,119.337016,26.042285,,house,http://api.map.baidu.com/place/detail?uid=4eb3b533d007f47543024557&output=html&source=placeapi_v2,,,0,,,,,,,,,,,,,,,119.33698685856,26.042114288772,1
7897b0c4160ad977ae31e597,升龙汇金中心,房地产,写字楼,福建省,福州市,台江区,光明南路1号,7897b0c4160ad977ae31e597,1,4,119.34639,26.059873,4008900000,house,http://api.map.baidu.com/place/detail?uid=7897b0c4160ad977ae31e597&output=html&source=placeapi_v2,,,3,,,,,,,,,,,,,,,119.34567555512,26.060235299669,4
f9d01c5562570e237bf796c5,华威大厦,房地产,写字楼,福建省,福州市,仓山区,福建省福州市仓山区南江滨西大道169号,f9d01c5562570e237bf796c5,1,2,119.35254,26.049165,(0591)87628802,house,http://api.map.baidu.com/place/detail?uid=f9d01c5562570e237bf796c5&output=html&source=placeapi_v2,,,,,,,,,,,,,,,,,,119.35260258184,26.049752299183,2
f7ff93321c665fb5fa42b2fd,联邦新城一座,房地产,写字楼,福建省,福州市,仓山区,福州市仓山区三叉街街道联邦新城一座,,1,0,119.350739,26.043502,,house,http://api.map.baidu.com/place/detail?uid=f7ff93321c665fb5fa42b2fd&output=html&source=placeapi_v2,,,,,,,,,,,,,,,,,,,,0
eace899701feda106268588d,申发大厦,房地产,写字楼,福建省,福州市,台江区,曙光路130号,eace899701feda106268588d,1,4,119.347351,26.058285,,house,http://api.map.baidu.com/place/detail?uid=eace899701feda106268588d&output=html&source=placeapi_v2,,,0,,,,,,,,,,,,,,,119.3475540916,26.057739765337,4
489dd2b7f178e2300482c2b4,福州市东部新城商务办公中心区-6号楼,房地产,写字楼,福建省,福州市,仓山区,福建省福州市仓山区南江滨西大道193号,489dd2b7f178e2300482c2b4,1,0,119.358006,26.046695,,house,http://api.map.baidu.com/place/detail?uid=489dd2b7f178e2300482c2b4&output=html&source=placeapi_v2,,,,,,,,,,,,,,,,,,,,0
187685b28f5852e6cac3db87,龙福商业广场写字楼,房地产,写字楼,福建省,福州市,仓山区,福州市仓山区连江南路15号,187685b28f5852e6cac3db87,1,0,119.341679,26.046156,,house,http://api.map.baidu.com/place/detail?uid=187685b28f5852e6cac3db87&output=html&source=placeapi_v2,,,,,,,,,,,,,,,,,,119.34175090188,26.046885627981,0
5dd44a1593953dd02102625b,联邦新城4座,房地产,写字楼,福建省,福州市,仓山区,福州市仓山区三叉街街道高湖联邦新城4座,,1,0,119.350738,26.043498,,house,http://api.map.baidu.com/place/detail?uid=5dd44a1593953dd02102625b&output=html&source=placeapi_v2,,,,,,,,,,,,,,,,,,,,0
404c403a8bb3dbbd4afd3f90,联邦新城2座,房地产,写字楼,福建省,福州市,仓山区,福州市仓山区三叉街街道联邦新城2座,,1,0,119.350739,26.043502,,house,http://api.map.baidu.com/place/detail?uid=404c403a8bb3dbbd4afd3f90&output=html&source=placeapi_v2,,,,,,,,,,,,,,,,,,,,0
79b0e289aa65dd54a4c756b2,活力大厦,房地产,写字楼,福建省,福州市,仓山区,福州市仓山区高盛路3号,79b0e289aa65dd54a4c756b2,1,2,119.353005,26.033793,13599448384,house,http://api.map.baidu.com/place/detail?uid=79b0e289aa65dd54a4c756b2&output=html&source=placeapi_v2,,,2,,,,,,,,,,,,,,,119.35347868952,26.03341773371,2
94875960fb3dff592bd7ab09,宇洋中央金座,房地产,写字楼,福建省,福州市,台江区,福州市台江区曙光路118号,94875960fb3dff592bd7ab09,1,2,119.347808,26.059312,(0591)88606666,house,http://api.map.baidu.com/place/detail?uid=94875960fb3dff592bd7ab09&output=html&source=placeapi_v2,,,5,,,,,,,,,,,,,,,119.3484567988,26.059589330223,2
2b4878ff8b3c87bdc056ac00,东部新城商务办公中心区-5栋,房地产,写字楼,福建省,福州市,仓山区,福州市仓山区南江滨西大道193号,2b4878ff8b3c87bdc056ac00,1,0,119.357586,26.045979,,house,http://api.map.baidu.com/place/detail?uid=2b4878ff8b3c87bdc056ac00&output=html&source=placeapi_v2,,,,,,,,,,,,,,,,,,,,0
f5bf762b2f78438aa21de946,福晟拓福广场,房地产,写字楼,福建省,福州市,仓山区,福建省福州市仓山区连江南路5号,f5bf762b2f78438aa21de946,1,0,119.342985,26.048273,(0591)83881111,house,http://api.map.baidu.com/place/detail?uid=f5bf762b2f78438aa21de946&output=html&source=placeapi_v2,,,3.8,,,,,,,,,,,,,,,119.34299135627,26.048074292116,0
200dd88d74b4ee6d3904b139,福州市东部办公区-1号楼,房地产,写字楼,福建省,福州市,仓山区,福州市仓山区南江滨西大道193号,200dd88d74b4ee6d3904b139,1,0,119.358615,26.045365,,house,http://api.map.baidu.com/place/detail?uid=200dd88d74b4ee6d3904b139&output=html&source=placeapi_v2,,,,,,,,,,,,,,,,,,119.3583512576,26.04527090104,0
a20c382100a7546126d2bbb3,海西科技金融大厦,房地产,写字楼,福建省,福州市,台江区,福州市台江区鳌峰路423号,a20c382100a7546126d2bbb3,1,4,119.357588,26.057265,,house,http://api.map.baidu.com/place/detail?uid=a20c382100a7546126d2bbb3&output=html&source=placeapi_v2,,,,,,,,,,,,,,,,,,119.3582397725,26.056440225737,4
4a0c65ad9e64ccf515c905e8,东部新城商务办公中心区-2栋,房地产,写字楼,福建省,福州市,仓山区,福州市仓山区南江滨西大道193号,4a0c65ad9e64ccf515c905e8,1,0,119.359306,26.04496,,house,http://api.map.baidu.com/place/detail?uid=4a0c65ad9e64ccf515c905e8&output=html&source=placeapi_v2,,,,,,,,,,,,,,,,,,119.35928354781,26.044870298232,0
4a6ef86df6b98f50e856fa3d,东部新城商务办公中心区-3栋,房地产,写字楼,福建省,福州市,仓山区,福州市仓山区南江滨西大道193号,4a6ef86df6b98f50e856fa3d,1,0,119.358785,26.046073,,house,http://api.map.baidu.com/place/detail?uid=4a6ef86df6b98f50e856fa3d&output=html&source=placeapi_v2,,,,,,,,,,,,,,,,,,119.35886386307,26.046275627202,0
922c69e36a159bbec5effbb6,兴业银行大厦,房地产,写字楼,福建省,福州市,台江区,福州市台江区江滨中大道398号,922c69e36a159bbec5effbb6,1,4,119.361096,26.053514,,house,http://api.map.baidu.com/place/detail?uid=922c69e36a159bbec5effbb6&output=html&source=placeapi_v2,,,5,,,,,,,,,,,,,,,119.36070968596,26.054185148849,4
10aa50caba67de1621f0179a,乾坤车城写字楼,房地产,写字楼,福建省,福州市,台江区,福州市台江区鳌江路3号,10aa50caba67de1621f0179a,1,0,119.351082,26.058353,,house,http://api.map.baidu.com/place/detail?uid=10aa50caba67de1621f0179a&output=html&source=placeapi_v2,,,,,,,,,,,,,,,,,,119.35099931331,26.058108550435,0
61d1f971887bc3ecabf0cd6f,VR智创中心,房地产,写字楼,福建省,福州市,仓山区,福建省福州市仓山区高盛路2号霸王1栋,61d1f971887bc3ecabf0cd6f,1,0,119.351012,26.035315,,house,http://api.map.baidu.com/place/detail?uid=61d1f971887bc3ecabf0cd6f&output=html&source=placeapi_v2,,,,,,,,,,,,,,,,,,119.3511947017,26.035271217292,0
1226225e5a362c03b5f42fc9,建总大厦,房地产,写字楼,福建省,福州市,仓山区,福建省福州市仓山区连江南路136号,1226225e5a362c03b5f42fc9,1,2,119.340689,26.045575,,house,http://api.map.baidu.com/place/detail?uid=1226225e5a362c03b5f42fc9&output=html&source=placeapi_v2,,,5,,,,,,,,,,,,,,,119.34119498689,26.045626065448,2
3986c31d204d49519cf779dc,东部新城商务办公中心区-4栋,房地产,写字楼,福建省,福州市,仓山区,福州市仓山区南江滨西大道193号,3986c31d204d49519cf779dc,1,0,119.359867,26.045493,,house,http://api.map.baidu.com/place/detail?uid=3986c31d204d49519cf779dc&output=html&source=placeapi_v2,,,,,,,,,,,,,,,,,,119.35994332805,26.045573973887,0
f74751a18a47a6d6631809f6,南台立业创意空间,房地产,写字楼,福建省,福州市,仓山区,福建省福州市仓山区则徐大道12号,f74751a18a47a6d6631809f6,1,0,119.337084,26.033922,13003842989,house,http://api.map.baidu.com/place/detail?uid=f74751a18a47a6d6631809f6&output=html&source=placeapi_v2,,,,,,,,,,,,,,,,,,119.33724105387,26.033986516516,0
a3c455e1df0410cc72455b43,东部新城商务办公中心区-7号楼,房地产,写字楼,福建省,福州市,仓山区,福建省福州市仓山区南江滨西大道193号,a3c455e1df0410cc72455b43,1,0,119.36045,26.044589,,house,http://api.map.baidu.com/place/detail?uid=a3c455e1df0410cc72455b43&output=html&source=placeapi_v2,,,0,,,,,,,,,,,,,,,119.36007296432,26.044838345006,0
b474ce11fb911d12f4eafcae,国资大厦,房地产,写字楼,福建省,福州市,台江区,福州市台江区江滨中大道386号,b474ce11fb911d12f4eafcae,1,2,119.358556,26.054135,,house,http://api.map.baidu.com/place/detail?uid=b474ce11fb911d12f4eafcae&output=html&source=placeapi_v2,,,5,,,,,,,,,,,,,,,119.35838462247,26.055017553794,2
6b5da6106ba998eab6f42f2e,兴福兴大厦,房地产,写字楼,福建省,福州市,仓山区,福州市仓山区高昌路a座3号,6b5da6106ba998eab6f42f2e,1,1,119.348393,26.030232,,house,http://api.map.baidu.com/place/detail?uid=6b5da6106ba998eab6f42f2e&output=html&source=placeapi_v2,,,4,,,,,,,,,,,,,,,119.34898259139,26.030585808782,1
6ca43babd32a25a4d22dd698,福州招商银行大厦,房地产,写字楼,福建省,福州市,台江区,福建省福州市台江区江滨中大道316号,6ca43babd32a25a4d22dd698,1,2,119.341963,26.058402,(0591)86270999,house,http://api.map.baidu.com/place/detail?uid=6ca43babd32a25a4d22dd698&output=html&source=placeapi_v2,,,5,,,,,,,,,,,,,,,119.34143077143,26.058083648778,2
672b6c1e1440206cb62655e1,恒丰大厦,房地产,写字楼,福建省,福州市,台江区,福州市台江区曙光支路16号,672b6c1e1440206cb62655e1,1,5,119.344685,26.059171,,house,http://api.map.baidu.com/place/detail?uid=672b6c1e1440206cb62655e1&output=html&source=placeapi_v2,,,1,,,,,,,,,,,,,,,119.34413281511,26.058654621073,5
61d3af649cb36e9f5a3ac88a,拓福美学中心三座,房地产,写字楼,福建省,福州市,仓山区,福州市仓山区下渡街道连江南路5号拓福美学中心三座,,1,0,119.344014,26.048408,,house,http://api.map.baidu.com/place/detail?uid=61d3af649cb36e9f5a3ac88a&output=html&source=placeapi_v2,,,,,,,,,,,,,,,,,,119.34285868643,26.048569420683,0
898c3f3e58732495a4c756a4,仓山科技园-办公大楼,房地产,写字楼,福建省,福州市,仓山区,福州市仓山区盖山镇高盛路1号,898c3f3e58732495a4c756a4,1,0,119.351954,26.032288,,house,http://api.map.baidu.com/place/detail?uid=898c3f3e58732495a4c756a4&output=html&source=placeapi_v2,,,5,,,,,,,,,,,,,,,119.35224764805,26.031908499243,0
3b3358f419b509507c29bd30,拓福美学中心-1座,房地产,写字楼,福建省,福州市,仓山区,福建省福州市仓山区盖山镇连江南路5号拓福美学中心,3b3358f419b509507c29bd30,1,0,119.342113,26.048268,,house,http://api.map.baidu.com/place/detail?uid=3b3358f419b509507c29bd30&output=html&source=placeapi_v2,,,,,,,,,,,,,,,,,,119.34302975793,26.048568796642,0
565188e02585960879b55cbd,海峡电子商务产业基地楼-3号楼,房地产,写字楼,福建省,福州市,台江区,福建省福州市台江区鳌峰路168号,565188e02585960879b55cbd,1,0,119.359892,26.057374,,house,http://api.map.baidu.com/place/detail?uid=565188e02585960879b55cbd&output=html&source=placeapi_v2,,,,,,,,,,,,,,,,,,,,0
39b02bb41c0d1edf40ab9ace,建行大厦,房地产,写字楼,福建省,福州市,台江区,福州市台江区江滨中大道298号,39b02bb41c0d1edf40ab9ace,1,5,119.33841,26.058794,(0591)87816277,house,http://api.map.baidu.com/place/detail?uid=39b02bb41c0d1edf40ab9ace&output=html&source=placeapi_v2,,,5,,,,,,,,,,,,,,,119.33916840966,26.0593546674,5
f6fd85a8f424babf0c0a70d2,福州华班大厦,房地产,写字楼,福建省,福州市,台江区,福州市台江区鳌峰街道江滨中大道363号,f6fd85a8f424babf0c0a70d2,1,0,119.346809,26.057425,(0591)83866666,house,http://api.map.baidu.com/place/detail?uid=f6fd85a8f424babf0c0a70d2&output=html&source=placeapi_v2,,,,,,,,,,,,,,,,,,119.34687578111,26.057650020848,0
1c93af5c7ab088e151e5c53f,富邦总部办公楼,房地产,写字楼,福建省,福州市,台江区,福建省福州市台江区江滨中大道399-6号,1c93af5c7ab088e151e5c53f,1,0,119.364431,26.051412,(0591)88313515,house,http://api.map.baidu.com/place/detail?uid=1c93af5c7ab088e151e5c53f&output=html&source=placeapi_v2,,,5,,,,,,,,,,,,,,,119.36424392615,26.051728165644,0
9b78554c1e4564024354d781,运营中心,房地产,写字楼,福建省,福州市,仓山区,福州市仓山区江边洲路临江新天地江景苑,9b78554c1e4564024354d781,1,0,119.346094,26.049932,,house,http://api.map.baidu.com/place/detail?uid=9b78554c1e4564024354d781&output=html&source=placeapi_v2,,,,,,,,,,,,,,,,,,,,0
f2a735887d074728e6073836,福州市东部新城商务办公中心区-9号楼,房地产,写字楼,福建省,福州市,仓山区,东部新城商务办公中心区东南,f2a735887d074728e6073836,1,0,119.361165,26.044031,,house,http://api.map.baidu.com/place/detail?uid=f2a735887d074728e6073836&output=html&source=placeapi_v2,,,,,,,,,,,,,,,,,,119.36111773674,26.044029692569,0
bc48d2f18bfb03e88bf15d5e,办公楼,房地产,写字楼,福建省,福州市,台江区,福州市台江区鳌祥路福州八中鳌峰初级中学,bc48d2f18bfb03e88bf15d5e,1,0,119.365137,26.058175,,house,http://api.map.baidu.com/place/detail?uid=bc48d2f18bfb03e88bf15d5e&output=html&source=placeapi_v2,,,,,,,,,,,,,,,,,,,,0
825c8ee93defb9c9b0077da6,世欧上江城A区-1座,房地产,写字楼,福建省,福州市,仓山区,福州市仓山区南江滨西大道世欧上江城,825c8ee93defb9c9b0077da6,1,0,119.342887,26.052483,,house,http://api.map.baidu.com/place/detail?uid=825c8ee93defb9c9b0077da6&output=html&source=placeapi_v2,,,,,,,,,,,,,,,,,,119.34295133676,26.052704603915,0
4072a0226122c02f10293532,万达中心,房地产,写字楼,福建省,福州市,台江区,福州市台江区鳌江路8号万达广场,4072a0226122c02f10293532,1,1,119.34945,26.05662,(0591)83256065,house,http://api.map.baidu.com/place/detail?uid=4072a0226122c02f10293532&output=html&source=placeapi_v2,,,0,,,,,,,,,,,,,,,119.34943659589,26.05656174338,1
2fc04e4d874db26803ec01d0,中国进出口银行福建省分行办公楼,房地产,写字楼,福建省,福州市,台江区,福州市江滨中大道350号,2fc04e4d874db26803ec01d0,1,0,119.343569,26.058289,(0591)88680988,house,http://api.map.baidu.com/place/detail?uid=2fc04e4d874db26803ec01d0&output=html&source=placeapi_v2,,,,,,,,,,,,,,,,,,119.34381821864,26.058661954906,0
7fbc52a79cd6c77aaaf72963,万达广场-C1座,房地产,写字楼,福建省,福州市,台江区,福州市台江区鳌江路8号万达广场F1,7fbc52a79cd6c77aaaf72963,1,1,119.34871,26.059276,,house,http://api.map.baidu.com/place/detail?uid=7fbc52a79cd6c77aaaf72963&output=html&source=placeapi_v2,,,,,,,,,,,,,,,,,,119.34842773323,26.059332220724,1
8a364ad3410df903b13c8159,福建福州农村商业银行股份有限公司办公大楼,房地产,写字楼,福建省,福州市,台江区,福建省福州市台江区鳌峰街道曙光支路128号,8a364ad3410df903b13c8159,1,1,119.346164,26.058257,,house,http://api.map.baidu.com/place/detail?uid=8a364ad3410df903b13c8159&output=html&source=placeapi_v2,,,0,,,,,,,,,,,,,,,119.34613028994,26.058088634043,1
b62936a05d87065d1894c689,福建交通集团物流信息大厦,房地产,写字楼,福建省,福州市,台江区,福建省福州市台江区江滨中大道356号,b62936a05d87065d1894c689,1,4,119.344263,26.058003,,house,http://api.map.baidu.com/place/detail?uid=b62936a05d87065d1894c689&output=html&source=placeapi_v2,,,5,,,,,,,,,,,,,,,119.34439670224,26.058421120189,4
a687b8cf0fd288d4a0acc462,金融街万达广场-5座,房地产,写字楼,福建省,福州市,台江区,福州市台江区鳌江路万达广场(福州金融街店),a687b8cf0fd288d4a0acc462,1,0,119.349598,26.056903,,house,http://api.map.baidu.com/place/detail?uid=a687b8cf0fd288d4a0acc462&output=html&source=placeapi_v2,,,,,,,,,,,,,,,,,,119.34957006882,26.056918673703,0
f8b63f793861424543afe60b,万达广场(福州金融街店)-A2座,房地产,写字楼,福建省,福州市,台江区,福州市台江区鳌江路8号万达广场F1,f8b63f793861424543afe60b,1,0,119.34995,26.057692,,house,http://api.map.baidu.com/place/detail?uid=f8b63f793861424543afe60b&output=html&source=placeapi_v2,,,0,,,,,,,,,,,,,,,119.34984018929,26.056473436584,0
4a0a42b8c7db23afb11e36a9,华浦・华尔街,房地产,写字楼,福建省,福州市,台江区,江滨中大道363号,4a0a42b8c7db23afb11e36a9,1,0,119.346974,26.057324,,house,http://api.map.baidu.com/place/detail?uid=4a0a42b8c7db23afb11e36a9&output=html&source=placeapi_v2,,,0,,,,,,,,,,,,,,,119.34637299951,26.057203812815,0
cdacf6b2351aa4c76f476012,升龙大厦,房地产,写字楼,福建省,福州市,台江区,福建省福州市台江区升龙汇金中心升龙大厦,cdacf6b2351aa4c76f476012,1,5,119.346233,26.05994,,house,http://api.map.baidu.com/place/detail?uid=cdacf6b2351aa4c76f476012&output=html&source=placeapi_v2,,,,,,,,,,,,,,,,,,,,5
f0def314f034dc882dfaa7fb,万科金融港,房地产,写字楼,福建省,福州市,台江区,鳌港路16号,f0def314f034dc882dfaa7fb,1,3,119.369249,26.051248,"15205051933,17720746488",house,http://api.map.baidu.com/place/detail?uid=f0def314f034dc882dfaa7fb&output=html&source=placeapi_v2,,,3.5,,,,,,,,,,,,,,,119.36800484207,26.050867763311,3
c45a54e789e6096745572658,万达广场-C2座,房地产,写字楼,福建省,福州市,台江区,福州市台江区鳌江路8号万达广场F1,c45a54e789e6096745572658,1,1,119.348478,26.058691,(0591)88355333,house,http://api.map.baidu.com/place/detail?uid=c45a54e789e6096745572658&output=html&source=placeapi_v2,,,0,,,,,,,,,,,,,,,119.34822726647,26.058768984571,1
853f90c038cf4b9731f71d88,世纪百联,房地产,写字楼,福建省,福州市,台江区,福建省福州市台江区曙光支路2号,853f90c038cf4b9731f71d88,1,0,119.343637,26.059366,15859089916,house,http://api.map.baidu.com/place/detail?uid=853f90c038cf4b9731f71d88&output=html&source=placeapi_v2,,,4,,,,,,,,,,,,,,,119.34381477274,26.058826465532,0
5ca7126391bf2e5e4acc4a12,拓福美学中心,房地产,写字楼,福建省,福州市,仓山区,福建省福州市仓山区盖山镇连江南路5号,5ca7126391bf2e5e4acc4a12,1,0,119.343061,26.048336,,house,http://api.map.baidu.com/place/detail?uid=5ca7126391bf2e5e4acc4a12&output=html&source=placeapi_v2,,09:00-21:00,,,,,,,,,,,,,,,,119.34437849179,26.048577841504,0
da76e3b57a79eea9d22dd6ee,三盛滨江国际-2号楼,房地产,写字楼,福建省,福州市,仓山区,福建省福州市仓山区南江滨西大道96号,da76e3b57a79eea9d22dd6ee,1,0,119.340517,26.051988,,house,http://api.map.baidu.com/place/detail?uid=da76e3b57a79eea9d22dd6ee&output=html&source=placeapi_v2,,,5,,,,,,,,,,,,,,,119.34085506809,26.051952858486,0
45213c73007c137afbf0cb81,先锋商住楼4座,房地产,写字楼,福建省,福州市,仓山区,福州市仓山区三高路先锋商住楼四座,45213c73007c137afbf0cb81,1,0,119.335592,26.041169,,house,http://api.map.baidu.com/place/detail?uid=45213c73007c137afbf0cb81&output=html&source=placeapi_v2,,,,,,,,,,,,,,,,,,119.33615663832,26.041596929975,0
ca5a9d60425f17211d1d115c,利信外滩188,房地产,写字楼,福建省,福州市,台江区,福建省福州市台江区瀛洲街道滨河路88号,ca5a9d60425f17211d1d115c,1,0,119.339374,26.059697,,house,http://api.map.baidu.com/place/detail?uid=ca5a9d60425f17211d1d115c&output=html&source=placeapi_v2,,,5,,,,,,,,,,,,,,,119.33936722264,26.059435297503,0
c2fff7707b7d5f7e6f3e1b18,福州市东部新城商务办公中心区附属楼,房地产,写字楼,福建省,福州市,仓山区,福州市仓山区滨西大道193号福州市东部新城商务办公中心区,c2fff7707b7d5f7e6f3e1b18,1,0,119.361383,26.044277,,house,http://api.map.baidu.com/place/detail?uid=c2fff7707b7d5f7e6f3e1b18&output=html&source=placeapi_v2,,,,,,,,,,,,,,,,,,,,0
e88b77567d7afb0039221cb3,万达广场-B1座,房地产,写字楼,福建省,福州市,台江区,福州市台江区鳌峰路8号万达广场,e88b77567d7afb0039221cb3,1,0,119.349327,26.05684,,house,http://api.map.baidu.com/place/detail?uid=e88b77567d7afb0039221cb3&output=html&source=placeapi_v2,,,,,,,,,,,,,,,,,,119.34927098339,26.056599802469,0
7f0c3266ba1937f68505bf2b,金融街万达广场-3座,房地产,写字楼,福建省,福州市,台江区,福州市台江区鳌江路万达广场(福州金融街店),7f0c3266ba1937f68505bf2b,1,0,119.349894,26.05773,,house,http://api.map.baidu.com/place/detail?uid=7f0c3266ba1937f68505bf2b&output=html&source=placeapi_v2,,,,,,,,,,,,,,,,,,,,0
b211533903ca2f4e14c8f6b8,金辉商业楼,房地产,写字楼,福建省,福州市,仓山区,福州市仓山区则徐大道金辉・伯爵山北2门东侧约70米,b211533903ca2f4e14c8f6b8,1,1,119.336695,26.035858,,house,http://api.map.baidu.com/place/detail?uid=b211533903ca2f4e14c8f6b8&output=html&source=placeapi_v2,,,,,,,,,,,,,,,,,,119.33688293001,26.035818860892,1
0eafde88262ca5de54bfff8d,临江新天地福江苑2期8座,房地产,写字楼,福建省,福州市,仓山区,福州市仓山区周厝巷福锦苑,,1,0,119.333213,26.046192,,house,http://api.map.baidu.com/place/detail?uid=0eafde88262ca5de54bfff8d&output=html&source=placeapi_v2,,,,,,,,,,,,,,,,,,,,0
ffde318b8b37dce5f02d83d4,金融街万达广场-6座,房地产,写字楼,福建省,福州市,台江区,福州市台江区台江金街万达广场(福州金融街店),ffde318b8b37dce5f02d83d4,1,0,119.348367,26.058027,,house,http://api.map.baidu.com/place/detail?uid=ffde318b8b37dce5f02d83d4&output=html&source=placeapi_v2,,,0,,,,,,,,,,,,,,,119.34827641906,26.057762891166,0
914f0e9012ab6658a5da39c8,金融街万达广场-4座,房地产,写字楼,福建省,福州市,台江区,福建省福州市台江区金融街万达广场4号楼,914f0e9012ab6658a5da39c8,1,0,119.349858,26.057382,,house,http://api.map.baidu.com/place/detail?uid=914f0e9012ab6658a5da39c8&output=html&source=placeapi_v2,,,,,,,,,,,,,,,,,,,,0
33b4e7b97aa3eaa12ce67bc0,鳌峰广场-2号楼,房地产,写字楼,福建省,福州市,台江区,福建省福州市台江区鳌峰路16号,33b4e7b97aa3eaa12ce67bc0,1,0,119.344623,26.062266,,house,http://api.map.baidu.com/place/detail?uid=33b4e7b97aa3eaa12ce67bc0&output=html&source=placeapi_v2,,,4,,,,,,,,,,,,,,,119.34473486037,26.062538356971,0
80e36f9621601e40f92d6149,瓜果城综合楼-2号楼,房地产,写字楼,福建省,福州市,台江区,福州市台江区瓜果城综合楼2座,80e36f9621601e40f92d6149,1,0,119.347396,26.063573,,house,http://api.map.baidu.com/place/detail?uid=80e36f9621601e40f92d6149&output=html&source=placeapi_v2,,,,,,,,,,,,,,,,,,119.3473900476,26.063525914884,0
db5a190319e8b411d42ce24a,浦口行政大楼,房地产,写字楼,福建省,福州市,闽侯县,福州市闽侯县浦口村浦南49号,db5a190319e8b411d42ce24a,1,1,119.216266,26.069278,,house,http://api.map.baidu.com/place/detail?uid=db5a190319e8b411d42ce24a&output=html&source=placeapi_v2,,,4,,,,,,,,,,,,,,,119.21646164131,26.069387684128,1
