uid,name,cat_L1,cat_L2,province,city,area,address,street_id,detail,child_num,loc_lng,loc_lat,telephone,type,detail_url,price,shop_hours,overall_rating,taste_rating,service_rating,environment_rating,facility_rating,hygiene_rating,technology_rating,image_num,comment_num,groupon_num,discount_num,favorite_num,checkin_num,brand,content_tag,naviloc_lng,naviloc_lat,child_num
117bb4354c100c372bb97ce2,十八重溪风景名胜区治安岗,政府机构,公检法机构,福建省,福州市,闽侯县,福秀路,,1,0,119.233486,25.89398,(0591)22249242,life,http://api.map.baidu.com/place/detail?uid=117bb4354c100c372bb97ce2&output=html&source=placeapi_v2,,,,,,,,,,,,,,,,,,119.2334777027,25.89401258357,0
574abb73a70017ff42d63e4d,福州高速公路支队一大队一中队,政府机构,公检法机构,福建省,福州市,闽侯县,福州市闽侯县,,1,0,119.360548,25.873358,,life,http://api.map.baidu.com/place/detail?uid=574abb73a70017ff42d63e4d&output=html&source=placeapi_v2,,,,,,,,,,1,,,,,,,,,,0
7b730d1275964eaf0f0a7038,青口服务区保安室,政府机构,公检法机构,福建省,福州市,闽侯县,福建省福州市闽侯县青口服务区配客站附近,,1,0,119.360717,25.874093,,life,http://api.map.baidu.com/place/detail?uid=7b730d1275964eaf0f0a7038&output=html&source=placeapi_v2,,,,,,,,,,,,,,,,,,,,0
3cbe7b317d6a479f4151c0ca,福州高速交警支队二大队二中队,政府机构,公检法机构,福建省,福州市,闽侯县,福州市闽侯县,3cbe7b317d6a479f4151c0ca,1,0,119.360462,25.87347,,life,http://api.map.baidu.com/place/detail?uid=3cbe7b317d6a479f4151c0ca&output=html&source=placeapi_v2,,,,,,,,,,1,,,,,,,,,,0
ce36ee9cc77fcf33d2f49e4e,闽侯县公安局青口分局宏屿治安联合社,政府机构,公检法机构,福建省,福州市,闽侯县,福州市闽侯县义溪路立智幼儿园西侧约130米,,1,0,119.362427,25.890765,,life,http://api.map.baidu.com/place/detail?uid=ce36ee9cc77fcf33d2f49e4e&output=html&source=placeapi_v2,,,,,,,,,,3,,,,,,,,119.362517153,25.890880915866,0
4cf8d24e943a5be79cf779cc,玉田派出所,政府机构,公检法机构,福建省,福州市,长乐区,福建省福州市长乐区玉田镇玉田村新街199号,4cf8d24e943a5be79cf779cc,1,0,119.467065,25.879225,(0591)28961614,life,http://api.map.baidu.com/place/detail?uid=4cf8d24e943a5be79cf779cc&output=html&source=placeapi_v2,,"08:00-12:00,14:30-17:30",,,,,,,,,,,,,,,,119.46714506213,25.879018984099,0
1cb93e76c474e36458f6bead,祥谦派出所中澳警务室,政府机构,公检法机构,福建省,福州市,闽侯县,福州市闽侯县中澳科技园,,1,0,119.348651,25.908389,,life,http://api.map.baidu.com/place/detail?uid=1cb93e76c474e36458f6bead&output=html&source=placeapi_v2,,,,,,,,,,,,,,,,,,119.34855027468,25.908421108272,0
b0d2d90f2bb70a064c6d46fd,闽侯县公安局尚干派出所,政府机构,公检法机构,福建省,福州市,闽侯县,福州市闽侯县良安路5号,b0d2d90f2bb70a064c6d46fd,1,1,119.380324,25.925421,(0591)22253110,life,http://api.map.baidu.com/place/detail?uid=b0d2d90f2bb70a064c6d46fd&output=html&source=placeapi_v2,,"08:30-12:00,16:00-18:00",,,,,,,,5,,,,,,,,119.38021229383,25.925459318305,1
31d344a444b43218d42ce243,医院警务室,政府机构,公检法机构,福建省,福州市,闽侯县,福州市闽侯县祥谦路祥谦派出所南侧约270米,31d344a444b43218d42ce243,1,0,119.394582,25.929837,,life,http://api.map.baidu.com/place/detail?uid=31d344a444b43218d42ce243&output=html&source=placeapi_v2,,,,,,,,,,,,,,,,,,119.39452362649,25.929971478162,0
a0bbc368735b51d2fd0eb001,闽侯公安局青口分局新城治安岗,政府机构,公检法机构,福建省,福州市,闽侯县,福建省福州市闽侯县青口镇商贸街7号,a0bbc368735b51d2fd0eb001,1,0,119.375478,25.903264,,life,http://api.map.baidu.com/place/detail?uid=a0bbc368735b51d2fd0eb001&output=html&source=placeapi_v2,,00:00-24:00,,,,,,,,,,,,,,,,119.37546370627,25.903322117925,0
6bd87d6ea32223a91811d545,闽侯县人民检察院生态资源巡回检察室,政府机构,公检法机构,福建省,福州市,闽侯县,福州市闽侯县京岚线青口镇人民政府东南侧约40米,,1,0,119.385469,25.900297,,life,http://api.map.baidu.com/place/detail?uid=6bd87d6ea32223a91811d545&output=html&source=placeapi_v2,,,,,,,,,,,,,,,,,,,,0
804ad587dd46ba9304fef54d,闽侯县公安局青口森林警务室,政府机构,公检法机构,福建省,福州市,闽侯县,福州市闽侯县京岚线青口镇人民政府东南侧约50米,,1,0,119.385445,25.900237,,life,http://api.map.baidu.com/place/detail?uid=804ad587dd46ba9304fef54d&output=html&source=placeapi_v2,,,,,,,,,,,,,,,,,,,,0
98a2442093274283601c674a,南屿派出所两园区警务室,政府机构,公检法机构,福建省,福州市,闽侯县,福州市闽侯县尧溪路阳光城丽景湾西侧约220米,,1,0,119.235025,25.94895,,life,http://api.map.baidu.com/place/detail?uid=98a2442093274283601c674a&output=html&source=placeapi_v2,,,,,,,,,,3,,,,,,,,119.23498591633,25.948813777578,0
0cf10cf309cc056159bbbc74,警务室,政府机构,公检法机构,福建省,福州市,闽侯县,福州市闽侯县,,1,0,119.27175,25.946991,,life,http://api.map.baidu.com/place/detail?uid=0cf10cf309cc056159bbbc74&output=html&source=placeapi_v2,,,,,,,,,,2,,,,,,,,,,0
46e4fd084dcc017116c90519,警务室,政府机构,公检法机构,福建省,福州市,闽侯县,福州市闽侯县福秀路闽侯南通中学南侧约190米,,1,0,119.260973,25.939968,,life,http://api.map.baidu.com/place/detail?uid=46e4fd084dcc017116c90519&output=html&source=placeapi_v2,,,,,,,,,,,,,,,,,,119.26101915765,25.939994282116,0
6865184332d1c94dc7f50dd8,洲头警务室,政府机构,公检法机构,福建省,福州市,闽侯县,福州市闽侯县南通双洲小学东侧约30米,,1,0,119.259129,25.949425,,life,http://api.map.baidu.com/place/detail?uid=6865184332d1c94dc7f50dd8&output=html&source=placeapi_v2,,,0,,,,,,,0,0,,,,,,,,,0
384536e6deca627c76e5b606,警务室,政府机构,公检法机构,福建省,福州市,闽侯县,福州市闽侯县盛洲路东南国际建材城东门北侧,,1,0,119.292626,25.952034,,life,http://api.map.baidu.com/place/detail?uid=384536e6deca627c76e5b606&output=html&source=placeapi_v2,,,,,,,,,,,,,,,,,,,,0
f89c95d6fcdd5efbda2f28b0,祥谦派出所g前警务室,政府机构,公检法机构,福建省,福州市,闽侯县,福州市闽侯县,,1,0,119.34719,25.930737,,life,http://api.map.baidu.com/place/detail?uid=f89c95d6fcdd5efbda2f28b0&output=html&source=placeapi_v2,,,,,,,,,,1,,,,,,,,,,0
f1f5cac59f40bc9837b06cae,闽侯县公安局祥谦派出所,政府机构,公检法机构,福建省,福州市,闽侯县,福建省福州市闽侯县福厦路,f1f5cac59f40bc9837b06cae,1,0,119.39381,25.932294,(0591)22253142,life,http://api.map.baidu.com/place/detail?uid=f1f5cac59f40bc9837b06cae&output=html&source=placeapi_v2,,00:00-24:00,,,,,,,,,,,,,,,,119.393665972,25.932220224171,0
b52a0e0f96cc3553cf06a43d,闽侯县司法局祥谦司法所,政府机构,公检法机构,福建省,福州市,闽侯县,福建省福州市闽侯县324国道21号附近,,1,0,119.393549,25.936442,(0591)22254148,life,http://api.map.baidu.com/place/detail?uid=b52a0e0f96cc3553cf06a43d&output=html&source=placeapi_v2,,,,,,,,,,,,,,,,,,119.39391229276,25.936451884434,0
31d344a444b43218d42ce243,医院警务室,政府机构,公检法机构,福建省,福州市,闽侯县,福州市闽侯县祥谦路祥谦派出所南侧约270米,31d344a444b43218d42ce243,1,0,119.394582,25.929837,,life,http://api.map.baidu.com/place/detail?uid=31d344a444b43218d42ce243&output=html&source=placeapi_v2,,,,,,,,,,,,,,,,,,119.39452362649,25.929971478162,0
b51706ccc62e649d3310af42,尚干派出所洋中警务室,政府机构,公检法机构,福建省,福州市,闽侯县,福州市闽侯县祥谦路洋中江滨公园南侧,b51706ccc62e649d3310af42,1,0,119.387941,25.931434,,life,http://api.map.baidu.com/place/detail?uid=b51706ccc62e649d3310af42&output=html&source=placeapi_v2,,,,,,,,,,,,,,,,,,119.3879343849,25.931341866176,0
4140b5e30549caee7369d328,营前派出所下洋警务室,政府机构,公检法机构,福建省,福州市,长乐区,福州市长乐区G316,,1,0,119.42879,25.951251,,life,http://api.map.baidu.com/place/detail?uid=4140b5e30549caee7369d328&output=html&source=placeapi_v2,,,,,,,,,,,,,,,,,,,,0
9a4e81f4029f2ead400245a2,航城派出所筹岐警务室,政府机构,公检法机构,福建省,福州市,长乐区,福州市长乐区,9a4e81f4029f2ead400245a2,1,0,119.5016,25.944907,,life,http://api.map.baidu.com/place/detail?uid=9a4e81f4029f2ead400245a2&output=html&source=placeapi_v2,,,,,,,,,,5,,,,,,,,119.50162530551,25.9450286911,0
ac26ad2a2ad0c7aaa8f729ac,长乐区公安局办证大厅,政府机构,公检法机构,福建省,福州市,长乐区,福州市长乐区龙景路与圆山路交叉路口往西北约50米(长乐区民政局),ac26ad2a2ad0c7aaa8f729ac,1,0,119.50787,25.958555,,life,http://api.map.baidu.com/place/detail?uid=ac26ad2a2ad0c7aaa8f729ac&output=html&source=placeapi_v2,,"08:30-12:00,14:00-18:00",0,,,,,,,8,0,,,,,,,119.50787863025,25.958510761251,0
0485d2af66c0e64312882487,长乐交警大队,政府机构,公检法机构,福建省,福州市,长乐区,福建省福州市长乐区龙景路,0485d2af66c0e64312882487,1,0,119.507852,25.958759,,life,http://api.map.baidu.com/place/detail?uid=0485d2af66c0e64312882487&output=html&source=placeapi_v2,,,,,,,,,,,,,,,,,,119.50811076946,25.958823124117,0
92b806d28cf28ffe78b55c91,长乐区人民法院,政府机构,公检法机构,福建省,福州市,长乐区,吴航路471号,92b806d28cf28ffe78b55c91,1,0,119.50728,25.960052,(0591)12368,life,http://api.map.baidu.com/place/detail?uid=92b806d28cf28ffe78b55c91&output=html&source=placeapi_v2,,08:00-17:30,,,,,,,,1,,,,,,,,119.50734912766,25.960294374255,0
745bd5efdb02e451213bf201,长乐区公安局出入境服务大厅,政府机构,公检法机构,福建省,福州市,长乐区,龙景路与圆山路交叉路口往西约50米(长乐区民政局),745bd5efdb02e451213bf201,1,0,119.507557,25.958441,(0591)28201690,life,http://api.map.baidu.com/place/detail?uid=745bd5efdb02e451213bf201&output=html&source=placeapi_v2,,"08:30-12:00,14:30-17:30",,,,,,,,,,,,,,,,119.50759232951,25.958319693884,0
43351ab384457fc3343a711c,福州市长乐区消防大队,政府机构,公检法机构,福建省,福州市,长乐区,福建省福州市长乐区凯歌路与海峡路交叉口西北100米,43351ab384457fc3343a711c,1,0,119.495633,25.950024,(0591)28924199,life,http://api.map.baidu.com/place/detail?uid=43351ab384457fc3343a711c&output=html&source=placeapi_v2,,,,,,,,,,3,,,,,,,,119.4956372441,25.949951216591,0
3f9337d68d4915b3f6231091,长乐区公安局,政府机构,公检法机构,福建省,福州市,长乐区,福建省福州市长乐区航城街道吴航路475号,3f9337d68d4915b3f6231091,1,0,119.507853,25.958673,(0591)28802904,life,http://api.map.baidu.com/place/detail?uid=3f9337d68d4915b3f6231091&output=html&source=placeapi_v2,,09:00-17:00,0,,,,,,,0,,,,,,,,119.50781277817,25.959046719413,0
40dd7e5fbe2348949fec2b37,长乐区人民检察院接待室,政府机构,公检法机构,福建省,福州市,长乐区,福州市长乐区凯歌路226号,40dd7e5fbe2348949fec2b37,1,0,119.497311,25.949695,,life,http://api.map.baidu.com/place/detail?uid=40dd7e5fbe2348949fec2b37&output=html&source=placeapi_v2,,,,,,,,,,,,,,,,,,119.49727622047,25.949653233265,0
313e113c9aeb64a94e5547e1,长乐区行政(市民)服务中心公安局分中心,政府机构,公检法机构,福建省,福州市,长乐区,福州市长乐区龙景路,313e113c9aeb64a94e5547e1,1,0,119.507952,25.958474,,life,http://api.map.baidu.com/place/detail?uid=313e113c9aeb64a94e5547e1&output=html&source=placeapi_v2,,"08:30-12:00,14:00-18:00",,,,,,,,2,,,,,,,,119.50791248938,25.958514277822,0
d85317513b7aaf3dfda77897,长乐区人民检察院,政府机构,公检法机构,福建省,福州市,长乐区,福建省福州市长乐区凯歌路226号,d85317513b7aaf3dfda77897,1,0,119.497188,25.949613,12309,life,http://api.map.baidu.com/place/detail?uid=d85317513b7aaf3dfda77897&output=html&source=placeapi_v2,,,,,,,,,,5,,,,,,,,119.49709574551,25.949447938212,0
99f0d9812eef7a39c2f1cfb9,福州市公安局长乐区分局治安管理大队,政府机构,公检法机构,福建省,福州市,长乐区,福州市长乐区公安分局2号楼,,1,0,119.507719,25.958794,,life,http://api.map.baidu.com/place/detail?uid=99f0d9812eef7a39c2f1cfb9&output=html&source=placeapi_v2,,,,,,,,,,,,,,,,,,,,0
aebf9cc1e57d238d42d63efd,长乐区人民法院安检大厅,政府机构,公检法机构,福建省,福州市,长乐区,福州市长乐区,aebf9cc1e57d238d42d63efd,1,0,119.507113,25.959998,,life,http://api.map.baidu.com/place/detail?uid=aebf9cc1e57d238d42d63efd&output=html&source=placeapi_v2,,,,,,,,,,9,,,,,,,,119.50708249172,25.960127158789,0
8eb48fa1bbccdfa6f22d8391,长乐法院审判综合大楼,政府机构,公检法机构,福建省,福州市,长乐区,福州市长乐区吴航路471号,8eb48fa1bbccdfa6f22d8391,1,0,119.507222,25.960101,,life,http://api.map.baidu.com/place/detail?uid=8eb48fa1bbccdfa6f22d8391&output=html&source=placeapi_v2,,00:00-24:00,,,,,,,,1,,,,,,,,119.50720808471,25.960158763209,0
bd6b3230f5d2e3290b69d9cd,长乐区人民法院-调解速裁中心,政府机构,公检法机构,福建省,福州市,长乐区,福州市长乐区吴航路471号,bd6b3230f5d2e3290b69d9cd,1,0,119.507476,25.959892,,life,http://api.map.baidu.com/place/detail?uid=bd6b3230f5d2e3290b69d9cd&output=html&source=placeapi_v2,,,,,,,,,,,,,,,,,,119.50747195208,25.959950471616,0
3c828fee5e5bc0acd3ff233d,福州市长乐区公安局人民来访接待室,政府机构,公检法机构,福建省,福州市,长乐区,航城街道吴航路27号,,1,0,119.506639,25.959734,,life,http://api.map.baidu.com/place/detail?uid=3c828fee5e5bc0acd3ff233d&output=html&source=placeapi_v2,,09:00-17:00,,,,,,,,1,,,,,,,,119.5065283037,25.960093534874,0
ecc7b0fad4fc32f4b75f1ef4,航城派出所殡仪馆治安岗,政府机构,公检法机构,福建省,福州市,长乐区,福州市长乐区G316长乐区殡仪馆,ecc7b0fad4fc32f4b75f1ef4,1,0,119.524906,25.946578,,life,http://api.map.baidu.com/place/detail?uid=ecc7b0fad4fc32f4b75f1ef4&output=html&source=placeapi_v2,,,,,,,,,,,,,,,,,,,,0
53896cf8b27e7c521f3894b1,长乐区公安局-2幢,政府机构,公检法机构,福建省,福州市,长乐区,福建省福州市长乐区公安局(龙景路北),53896cf8b27e7c521f3894b1,1,0,119.507703,25.958646,,life,http://api.map.baidu.com/place/detail?uid=53896cf8b27e7c521f3894b1&output=html&source=placeapi_v2,,,,,,,,,,3,,,,,,,,119.50782581061,25.958494937996,0
54342aca2a0f0cca9d9d6895,长乐区人民检察院控告申诉举报中心,政府机构,公检法机构,福建省,福州市,长乐区,朝阳中路1号长乐区人民检察院,54342aca2a0f0cca9d9d6895,1,0,119.5154,25.962091,,life,http://api.map.baidu.com/place/detail?uid=54342aca2a0f0cca9d9d6895&output=html&source=placeapi_v2,,,,,,,,,,1,,,,,,,,119.51529083467,25.962092384228,0
9ac0e77faf3d31fc3310af0f,长乐区公安局-1幢,政府机构,公检法机构,福建省,福州市,长乐区,福建省福州市长乐区长乐区政法小区(吴航路南),9ac0e77faf3d31fc3310af0f,1,0,119.506643,25.959735,,life,http://api.map.baidu.com/place/detail?uid=9ac0e77faf3d31fc3310af0f&output=html&source=placeapi_v2,,,,,,,,,,,,,,,,,,119.50653178283,25.96009441277,0
4b3df0c416c3398b5ebe8665,航城派出所航辉警务室,政府机构,公检法机构,福建省,福州市,长乐区,福州市长乐区郑和西路航辉花园,,1,0,119.512027,25.964173,,life,http://api.map.baidu.com/place/detail?uid=4b3df0c416c3398b5ebe8665&output=html&source=placeapi_v2,,,,,,,,,,6,,,,,,,,,,0
9ee392b852e41641babd63ae,闽侯县人民法院南屿人民法庭,政府机构,公检法机构,福建省,福州市,闽侯县,南屿镇南旗社区居委会北侧,,1,0,119.228342,25.98191,(0591)12368,life,http://api.map.baidu.com/place/detail?uid=9ee392b852e41641babd63ae&output=html&source=placeapi_v2,,08:00-18:00,,,,,,,,2,,,,,,,,119.22819751322,25.981843447709,0
3c26dda75d69b1bcf32d83b4,南屿派出所办证大厅,政府机构,公检法机构,福建省,福州市,闽侯县,福州市闽侯县,,1,0,119.224473,25.986871,,life,http://api.map.baidu.com/place/detail?uid=3c26dda75d69b1bcf32d83b4&output=html&source=placeapi_v2,,,,,,,,,,4,,,,,,,,119.22457388085,25.986980409226,0
c2acd36452c31784593ac87d,上街(高新区)公安分局南屿派出所,政府机构,公检法机构,福建省,福州市,闽侯县,福建省福州市闽侯县南屿镇南屿街3号,,1,0,119.224267,25.986692,(0591)22805142,life,http://api.map.baidu.com/place/detail?uid=c2acd36452c31784593ac87d&output=html&source=placeapi_v2,,"08:30-12:00,14:30-17:30",0,,,,,,,0,,,,,,,,119.22477414458,25.986649663623,0
561a2165cb30d74246e27471,福州高速交警支队五大队,政府机构,公检法机构,福建省,福州市,闽侯县,南屿镇柳浪村,,1,0,119.254141,25.986903,,life,http://api.map.baidu.com/place/detail?uid=561a2165cb30d74246e27471&output=html&source=placeapi_v2,,"08:30-12:00,14:00-18:00",0,,,,,,,,0,,,,,,,119.25818905602,25.987036513561,0
2776b7924d5b8cbbcafa5f1d,闽侯县公安局刑侦大队六中队,政府机构,公检法机构,福建省,福州市,闽侯县,福州市闽侯县S203海峡蔬菜批发市场西南侧约50米,2776b7924d5b8cbbcafa5f1d,1,0,119.285602,25.968358,,life,http://api.map.baidu.com/place/detail?uid=2776b7924d5b8cbbcafa5f1d&output=html&source=placeapi_v2,,,,,,,,,,1,,,,,,,,119.28581184444,25.96847661215,0
9a0289ce785df1142cb17e44,螺洲派出所治安岗,政府机构,公检法机构,福建省,福州市,仓山区,福州市仓山区螺江东路福州市螺洲中心小学东侧约40米,9a0289ce785df1142cb17e44,1,0,119.3587,25.986042,,life,http://api.map.baidu.com/place/detail?uid=9a0289ce785df1142cb17e44&output=html&source=placeapi_v2,,,,,,,,,,,,,,,,,,119.35860222214,25.986083026831,0
6d337f998581407c2afc48be,螺洲派出所螺洲社区警务室,政府机构,公检法机构,福建省,福州市,仓山区,螺洲街17-2号东南50米,6d337f998581407c2afc48be,1,0,119.357494,25.990346,,life,http://api.map.baidu.com/place/detail?uid=6d337f998581407c2afc48be&output=html&source=placeapi_v2,,,,,,,,,,1,,,,,,,,119.35738683681,25.990194200742,0
31780e28895b100efb2d61a4,螺洲派出所店前治安岗,政府机构,公检法机构,福建省,福州市,仓山区,福州市仓山区螺州镇螺排路5号,31780e28895b100efb2d61a4,1,0,119.35853,25.993989,,life,http://api.map.baidu.com/place/detail?uid=31780e28895b100efb2d61a4&output=html&source=placeapi_v2,,,,,,,,,,,,,,,,,,,,0
446ebd33e29849741811d5ef,龙江警务站,政府机构,公检法机构,福建省,福州市,仓山区,福州市仓山区福峡路诗韵家纺西南侧约220米,446ebd33e29849741811d5ef,1,0,119.392292,25.981229,,life,http://api.map.baidu.com/place/detail?uid=446ebd33e29849741811d5ef&output=html&source=placeapi_v2,,,,,,,,,,,,,,,,,,,,0
87cfc023a82035be3a04b132,城门派出所浚边村治安巡逻队,政府机构,公检法机构,福建省,福州市,仓山区,福州市仓山区福峡路,87cfc023a82035be3a04b132,1,0,119.393521,25.977473,,life,http://api.map.baidu.com/place/detail?uid=87cfc023a82035be3a04b132&output=html&source=placeapi_v2,,,,,,,,,,1,,,,,,,,,,0
109c9ae389121432581093c1,校园治安特别管护区,政府机构,公检法机构,福建省,福州市,仓山区,福州市仓山区,,1,0,119.388113,25.989307,,life,http://api.map.baidu.com/place/detail?uid=109c9ae389121432581093c1&output=html&source=placeapi_v2,,,,,,,,,,1,,,,,,,,,,0
64d79ea0fb7aec748bfc067b,警务室,政府机构,公检法机构,福建省,福州市,仓山区,福州市仓山区城门镇胪雷村东侧福州南站一层,64d79ea0fb7aec748bfc067b,1,0,119.396354,25.991563,,life,http://api.map.baidu.com/place/detail?uid=64d79ea0fb7aec748bfc067b&output=html&source=placeapi_v2,,,,,,,,,,,,,,,,,,,,0
c03c5e3d1de92a6032870ade,城门派出所龙江警务室,政府机构,公检法机构,福建省,福州市,仓山区,城门镇,c03c5e3d1de92a6032870ade,1,0,119.386186,25.985231,,life,http://api.map.baidu.com/place/detail?uid=c03c5e3d1de92a6032870ade&output=html&source=placeapi_v2,,,,,,,,,,2,,,,,,,,119.38625133048,25.985233039773,0
3a1cb9425a9a3f69c6f02591,城门派出所胪雷警务室,政府机构,公检法机构,福建省,福州市,仓山区,福州市仓山区,,1,0,119.386249,25.988991,(0591)83499067,life,http://api.map.baidu.com/place/detail?uid=3a1cb9425a9a3f69c6f02591&output=html&source=placeapi_v2,,,,,,,,,,3,,,,,,,,119.38623946656,25.988870473063,0
5fcd7cf0d45fe4341ef74d2c,福州南站派出所,政府机构,公检法机构,福建省,福州市,仓山区,福州市仓山区火车南站1层,5fcd7cf0d45fe4341ef74d2c,1,0,119.39638,25.991633,(0591)63580028,life,http://api.map.baidu.com/place/detail?uid=5fcd7cf0d45fe4341ef74d2c&output=html&source=placeapi_v2,,"08:30-12:00,14:00-18:00",,,,,,,,,,,,,,,,119.39624975197,25.990351588903,0
1cea15a9d27a01c507fef57a,福州海事局,政府机构,公检法机构,福建省,福州市,马尾区,福州市马尾区港口路35号,1cea15a9d27a01c507fef57a,1,0,119.462668,25.985831,(0591)83984030,life,http://api.map.baidu.com/place/detail?uid=1cea15a9d27a01c507fef57a&output=html&source=placeapi_v2,,"08:30-12:00,14:00-18:00",0.0,,,,,,,1,,,,,,,,119.46232103219,25.985727783253,0
b9af49a67c21200e100daa4e,长乐区公安局营前派出所,政府机构,公检法机构,福建省,福州市,长乐区,福建省福州市长乐区营前街道共和里188号,b9af49a67c21200e100daa4e,1,0,119.478768,25.9712,(0591)28991213,life,http://api.map.baidu.com/place/detail?uid=b9af49a67c21200e100daa4e&output=html&source=placeapi_v2,,"08:00-12:00,14:30-17:30",,,,,,,,4,,,,,,,,119.47864538576,25.971105730762,0
9f346b4ce71cacd84e776ec1,厦门海事法院福州法庭,政府机构,公检法机构,福建省,福州市,马尾区,福州市马尾区罗星西路21号卫检大楼,9f346b4ce71cacd84e776ec1,1,0,119.466347,25.990927,,life,http://api.map.baidu.com/place/detail?uid=9f346b4ce71cacd84e776ec1&output=html&source=placeapi_v2,,,,,,,,,,,,,,,,,,119.46619917967,25.991021357503,0
9f5711c7af1b95334054d78e,马尾区公安局罗星派出所,政府机构,公检法机构,福建省,福州市,马尾区,福建省福州市马尾区罗星西路366号,9f5711c7af1b95334054d78e,1,1,119.465544,25.990756,(0591)83681872,life,http://api.map.baidu.com/place/detail?uid=9f5711c7af1b95334054d78e&output=html&source=placeapi_v2,,"08:30-12:00,14:00-18:00",,,,,,,,10,,,,,,,,119.46558763037,25.99071836126,1
9cf125c999108007b817e708,港区派出所港区流动人口管理站,政府机构,公检法机构,福建省,福州市,马尾区,福州市马尾区港口支路江滨苑西门西北侧约30米,9cf125c999108007b817e708,1,0,119.463012,25.987714,,life,http://api.map.baidu.com/place/detail?uid=9cf125c999108007b817e708&output=html&source=placeapi_v2,,,,,,,,,,,,,,,,,,,,0
97e6c2de9195b05f9a68b4b9,岐头警务室,政府机构,公检法机构,福建省,福州市,长乐区,福州市长乐区G316,97e6c2de9195b05f9a68b4b9,1,0,119.468539,25.965922,,life,http://api.map.baidu.com/place/detail?uid=97e6c2de9195b05f9a68b4b9&output=html&source=placeapi_v2,,,,,,,,,,,,,,,,,,,,0
7b9460e4a64a594fad0457d3,罗星派出所罗星警务室,政府机构,公检法机构,福建省,福州市,马尾区,福州市马尾区济安西路福居新村南侧,7b9460e4a64a594fad0457d3,1,0,119.467478,25.990704,,life,http://api.map.baidu.com/place/detail?uid=7b9460e4a64a594fad0457d3&output=html&source=placeapi_v2,,,,,,,,,,,,,,,,,,119.46748243424,25.990710801095,0
59fd5c4502b36f688605bf60,罗星派出所马鲜警务室,政府机构,公检法机构,福建省,福州市,马尾区,福州市马尾区,59fd5c4502b36f688605bf60,1,0,119.461455,25.991426,,life,http://api.map.baidu.com/place/detail?uid=59fd5c4502b36f688605bf60&output=html&source=placeapi_v2,,,,,,,,,,3,,,,,,,,119.46146690804,25.991566003627,0
49bf99bba1d6c58a5abbbcc5,航城派出所霞洲村警务室,政府机构,公检法机构,福建省,福州市,长乐区,长乐区机场高速公路,49bf99bba1d6c58a5abbbcc5,1,0,119.505667,25.978875,,life,http://api.map.baidu.com/place/detail?uid=49bf99bba1d6c58a5abbbcc5&output=html&source=placeapi_v2,,,,,,,,,,13,,,,,,,,119.50553881748,25.978870178255,0
bcdcb9ee37e0546b2a02e1d2,航城派出所祥洲警务室,政府机构,公检法机构,福建省,福州市,长乐区,福州市长乐区霞祥路福州市长乐区航城红星幼儿园东南侧约60米,,1,0,119.507629,25.984935,,life,http://api.map.baidu.com/place/detail?uid=bcdcb9ee37e0546b2a02e1d2&output=html&source=placeapi_v2,,,,,,,,,,,,,,,,,,,,0
fbc8f7fdaa2536a32fb17e50,长乐区公安局航城派出所,政府机构,公检法机构,福建省,福州市,长乐区,福建省福州市长乐区航城爱心路393号,fbc8f7fdaa2536a32fb17e50,1,0,119.509693,25.968388,(0591)28923373,life,http://api.map.baidu.com/place/detail?uid=fbc8f7fdaa2536a32fb17e50&output=html&source=placeapi_v2,,"08:00-12:00,14:30-17:30",,,,,,,,1,,,,,,,,119.50977588832,25.96812055134,0
0f2b01ebb4385929a8175a84,老警察之家,政府机构,公检法机构,福建省,福州市,长乐区,西洋北路桥头老,0f2b01ebb4385929a8175a84,1,0,119.519476,25.974353,,life,http://api.map.baidu.com/place/detail?uid=0f2b01ebb4385929a8175a84&output=html&source=placeapi_v2,,,,,,,,,,8,,,,,,,,119.51957384755,25.974444842606,0
37d60a465a00c3601f1d1191,长乐区公安局森林分局,政府机构,公检法机构,福建省,福州市,长乐区,福州市长乐区三峰西路323号,37d60a465a00c3601f1d1191,1,0,119.513555,25.967954,(0591)28811805,life,http://api.map.baidu.com/place/detail?uid=37d60a465a00c3601f1d1191&output=html&source=placeapi_v2,,,,,,,,,,,,,,,,,,119.51362453275,25.967950111463,0
c5233edc8fc1c5a02fb9087a,长乐区巡特警反恐大队,政府机构,公检法机构,福建省,福州市,长乐区,福建省福州市长乐区西洋中路,,1,0,119.52018,25.965577,,life,http://api.map.baidu.com/place/detail?uid=c5233edc8fc1c5a02fb9087a&output=html&source=placeapi_v2,,,,,,,,,,1,,,,,,,,119.51979209985,25.965576864252,0
05241a48d5e3e5e532870a5d,长乐区城关派出所乐升花园治安岗,政府机构,公检法机构,福建省,福州市,长乐区,福州市长乐区西洋北路乐升花园,05241a48d5e3e5e532870a5d,1,0,119.519324,25.972016,,life,http://api.map.baidu.com/place/detail?uid=05241a48d5e3e5e532870a5d&output=html&source=placeapi_v2,,,,,,,,,,1,,,,,,,,119.51953523478,25.972013560894,0
15807123834b2244601c6745,航城派出所东安治安岗,政府机构,公检法机构,福建省,福州市,长乐区,福州市长乐区东安村附近,15807123834b2244601c6745,1,0,119.499689,25.990294,,life,http://api.map.baidu.com/place/detail?uid=15807123834b2244601c6745&output=html&source=placeapi_v2,,,,,,,,,,,,,,,,,,119.49983108758,25.990124701167,0
fdd32be1e81148ee31f71d96,治安巡逻岗,政府机构,公检法机构,福建省,福州市,长乐区,福州市长乐区民主街民主小区-南区,fdd32be1e81148ee31f71d96,1,0,119.524568,25.970005,,life,http://api.map.baidu.com/place/detail?uid=fdd32be1e81148ee31f71d96&output=html&source=placeapi_v2,,,,,,,,,,,,,,,,,,,,0
47a162c1c7fa43fbad31e558,公安蔚蓝国际治安警务室,政府机构,公检法机构,福建省,福州市,长乐区,福州市长乐区郑和西路294号附近,47a162c1c7fa43fbad31e558,1,0,119.507812,25.964721,,life,http://api.map.baidu.com/place/detail?uid=47a162c1c7fa43fbad31e558&output=html&source=placeapi_v2,,,,,,,,,,3,,,,,,,,,,0
4b3df0c416c3398b5ebe8665,航城派出所航辉警务室,政府机构,公检法机构,福建省,福州市,长乐区,福州市长乐区郑和西路航辉花园,,1,0,119.512027,25.964173,,life,http://api.map.baidu.com/place/detail?uid=4b3df0c416c3398b5ebe8665&output=html&source=placeapi_v2,,,,,,,,,,6,,,,,,,,,,0
997465ccfaa6800a3fe23165,城关派出所航华警务室,政府机构,公检法机构,福建省,福州市,长乐区,福州市长乐区航华路86号丙附近,997465ccfaa6800a3fe23165,1,0,119.517122,25.966029,"(0591)28622287,(0591)28801923",life,http://api.map.baidu.com/place/detail?uid=997465ccfaa6800a3fe23165&output=html&source=placeapi_v2,,,,,,,,,,5,,,,,,,,,,0
214f2dea1197d2aba11de94e,城关派出所妇幼保健院警务室,政府机构,公检法机构,福建省,福州市,长乐区,福州市长乐区六平路妇幼保健院,214f2dea1197d2aba11de94e,1,0,119.519966,25.966504,,life,http://api.map.baidu.com/place/detail?uid=214f2dea1197d2aba11de94e&output=html&source=placeapi_v2,,,,,,,,,,,,,,,,,,119.51996557882,25.966359562714,0
ca0b2a8304dcfdc7f90cad41,长乐城关派出所西关社区警务室,政府机构,公检法机构,福建省,福州市,长乐区,福州市长乐区,,1,0,119.525064,25.970405,(0591)28206923,life,http://api.map.baidu.com/place/detail?uid=ca0b2a8304dcfdc7f90cad41&output=html&source=placeapi_v2,,,,,,,,,,11,,,,,,,,119.52507033552,25.970178407722,0
0ebf0084b911431926d2bb38,城关派出所汉中治安岗,政府机构,公检法机构,福建省,福州市,长乐区,福州市长乐区河下街80号附近,0ebf0084b911431926d2bb38,1,0,119.523574,25.967376,,life,http://api.map.baidu.com/place/detail?uid=0ebf0084b911431926d2bb38&output=html&source=placeapi_v2,,,,,,,,,,0,,,,,,,,,,0
698ad6a7cc0a5e833010af35,城关派出所三峰社区警务室,政府机构,公检法机构,福建省,福州市,长乐区,福州市长乐区,,1,0,119.521596,25.965345,,life,http://api.map.baidu.com/place/detail?uid=698ad6a7cc0a5e833010af35&output=html&source=placeapi_v2,,,,,,,,,,1,,,,,,,,119.52169356918,25.965346038329,0
fd20d5ea915dfe634e776e01,南屿派出所三岐警务室,政府机构,公检法机构,福建省,福州市,闽侯县,福建省福州市闽侯县117县道西100米,,1,0,119.224046,26.007803,,life,http://api.map.baidu.com/place/detail?uid=fd20d5ea915dfe634e776e01&output=html&source=placeapi_v2,,,,,,,,,,,,,,,,,,,,0
c9956ed72c076b201a11d596,建新流动警务室,政府机构,公检法机构,福建省,福州市,仓山区,福州市仓山区洪湾南路西50米,c9956ed72c076b201a11d596,1,0,119.262103,26.028149,,life,http://api.map.baidu.com/place/detail?uid=c9956ed72c076b201a11d596&output=html&source=placeapi_v2,,,,,,,,,,2,,,,,,,,,,0
89fc1b296ff563b6b5147fd5,新西营里市场警务室,政府机构,公检法机构,福建省,福州市,仓山区,福州市仓山区,89fc1b296ff563b6b5147fd5,1,0,119.289662,26.010405,,life,http://api.map.baidu.com/place/detail?uid=89fc1b296ff563b6b5147fd5&output=html&source=placeapi_v2,,,,,,,,,,,,,,,,,,,,0
0b0496b7018cebd548cc4af9,盖山派出所国艺花鸟市场警务室,政府机构,公检法机构,福建省,福州市,仓山区,福州市仓山区齐安路福州国艺花鸟工艺品综合市场,0b0496b7018cebd548cc4af9,1,0,119.300301,26.011491,,life,http://api.map.baidu.com/place/detail?uid=0b0496b7018cebd548cc4af9&output=html&source=placeapi_v2,,,,,,,,,,1,,,,,,,,119.30032178078,26.01162007658,0
70b83875d420329f8bdb73c4,澳蓝治安岗,政府机构,公检法机构,福建省,福州市,仓山区,福州市仓山区盖山镇官洲路12号,70b83875d420329f8bdb73c4,1,0,119.309343,26.001467,,life,http://api.map.baidu.com/place/detail?uid=70b83875d420329f8bdb73c4&output=html&source=placeapi_v2,,,,,,,,,,,,,,,,,,,,0
5ccb29a701351e1f451a32db,盖山派出所北园警务室,政府机构,公检法机构,福建省,福州市,仓山区,福州市仓山区首山路431号附近,5ccb29a701351e1f451a32db,1,0,119.321715,26.024493,,life,http://api.map.baidu.com/place/detail?uid=5ccb29a701351e1f451a32db&output=html&source=placeapi_v2,,,,,,,,,,7,,,,,,,,119.32182414598,26.02429387556,0
15e4b84684e64a441b94c67f,校园治安特别管护区,政府机构,公检法机构,福建省,福州市,仓山区,福州市仓山区,15e4b84684e64a441b94c67f,1,0,119.349801,26.010563,,life,http://api.map.baidu.com/place/detail?uid=15e4b84684e64a441b94c67f&output=html&source=placeapi_v2,,,,,,,,,,1,,,,,,,,,,0
48d2ae6ac6dc6669dc1e5275,福州市公安局车辆管理所机动车查验,政府机构,公检法机构,福建省,福州市,仓山区,城门福峡路88号,48d2ae6ac6dc6669dc1e5275,1,0,119.367735,26.009838,12123,life,http://api.map.baidu.com/place/detail?uid=48d2ae6ac6dc6669dc1e5275&output=html&source=placeapi_v2,,,,,,,,,,,,,,,,,,119.36790298098,26.00948521267,0
7c5b713aa21acc30afee7a3f,福州高速交警支队一大队,政府机构,公检法机构,福建省,福州市,仓山区,福建省福州市仓山区高仕路2号,7c5b713aa21acc30afee7a3f,1,0,119.361025,26.022095,(0591)83535122,life,http://api.map.baidu.com/place/detail?uid=7c5b713aa21acc30afee7a3f&output=html&source=placeapi_v2,,"08:30-12:00,14:00-18:00",,,,,,,,,,,,,,,,119.36113203238,26.022531483391,0
fa835ce2b8373fb6e812e45a,福州市公安局仓山分局螺洲派出所,政府机构,公检法机构,福建省,福州市,仓山区,福州市仓山区螺洲镇杜园339号,fa835ce2b8373fb6e812e45a,1,0,119.359067,26.004432,(0591)88019163,life,http://api.map.baidu.com/place/detail?uid=fa835ce2b8373fb6e812e45a&output=html&source=placeapi_v2,,"08:30-12:00,14:30-18:00",,,,,,,,3,,,,,,,,119.3592813802,26.004399660831,0
37cd4cb88a1d00d86b49f30e,福州市公安局仓山分局巡特警反恐大队,政府机构,公检法机构,福建省,福州市,仓山区,福州市仓山区后坂林珠17号,37cd4cb88a1d00d86b49f30e,1,0,119.347595,26.026253,,life,http://api.map.baidu.com/place/detail?uid=37cd4cb88a1d00d86b49f30e&output=html&source=placeapi_v2,,,,,,,,,,,,,,,,,,119.3476112391,26.02605886591,0
77d0ba6f6db8f9bb2cb9081b,螺洲派出所治安岗,政府机构,公检法机构,福建省,福州市,仓山区,福州市仓山区南三环路福建信息职业技术学院(杜园校区)西北侧约270米,77d0ba6f6db8f9bb2cb9081b,1,0,119.351503,26.002267,,life,http://api.map.baidu.com/place/detail?uid=77d0ba6f6db8f9bb2cb9081b&output=html&source=placeapi_v2,,,,,,,,,,,,,,,,,,119.35189040094,26.00235692619,0
e539b1a0a1259350f7eafce3,治安巡逻岗,政府机构,公检法机构,福建省,福州市,仓山区,福州市仓山区刀石山路福州市乾元小学东南侧约120米,e539b1a0a1259350f7eafce3,1,0,119.351207,26.004983,,life,http://api.map.baidu.com/place/detail?uid=e539b1a0a1259350f7eafce3&output=html&source=placeapi_v2,,,,,,,,,,,,,,,,,,,,0
f801af5d02b2d253f1193760,盖山叶下派出所警务室,政府机构,公检法机构,福建省,福州市,仓山区,福州市仓山区郭宅路叶厦利福家园东北侧约70米,f801af5d02b2d253f1193760,1,0,119.345445,26.018565,,life,http://api.map.baidu.com/place/detail?uid=f801af5d02b2d253f1193760&output=html&source=placeapi_v2,,,,,,,,,,1,,,,,,,,119.34568864702,26.018578135252,0
a315be863cbb963946e274fa,盖山派出所叶下治安岗,政府机构,公检法机构,福建省,福州市,仓山区,福州市仓山区,a315be863cbb963946e274fa,1,0,119.342924,26.016972,,life,http://api.map.baidu.com/place/detail?uid=a315be863cbb963946e274fa&output=html&source=placeapi_v2,,,,,,,,,,1,,,,,,,,,,0
994600785b895a13047ce8dd,盖山派出所投资区警务室,政府机构,公检法机构,福建省,福州市,仓山区,福州市仓山区高台路与高旺路交叉口西南100米,994600785b895a13047ce8dd,1,0,119.352077,26.023637,,life,http://api.map.baidu.com/place/detail?uid=994600785b895a13047ce8dd&output=html&source=placeapi_v2,,,,,,,,,,11,,,,,,,,,,0
f4a33da927bf01093010af55,福建省公安厅交警总队福州高速公路支队,政府机构,公检法机构,福建省,福州市,仓山区,福州市仓山区高仕路2号,f4a33da927bf01093010af55,1,0,119.360937,26.022597,(0591)83535122,life,http://api.map.baidu.com/place/detail?uid=f4a33da927bf01093010af55&output=html&source=placeapi_v2,,"08:30-12:00,14:00-18:00",0.0,,,,,,,0,,,,,,,,119.36099546748,26.022664723671,0
5a5c872603d60433f5eafccd,城门派出所城门巡逻执勤点,政府机构,公检法机构,福建省,福州市,仓山区,福州市仓山区福峡路安德大厦北侧约90米,5a5c872603d60433f5eafccd,1,0,119.363529,26.00448,,life,http://api.map.baidu.com/place/detail?uid=5a5c872603d60433f5eafccd&output=html&source=placeapi_v2,,"08:30-12:00,14:00-18:00",,,,,,,,,,,,,,,,119.3636156396,26.004561295951,0
531ac192ac556b395b10933c,盖山派出所福州私立平民中学治安岗,政府机构,公检法机构,福建省,福州市,仓山区,福建省福州市仓山区高仕路与高旺路交叉口北50米,531ac192ac556b395b10933c,1,0,119.357483,26.027855,,life,http://api.map.baidu.com/place/detail?uid=531ac192ac556b395b10933c&output=html&source=placeapi_v2,,,0,,,,,,,0,0,,,,,,,119.3576877449,26.027588331678,0
531fcd0659fc3a40c16c14ce,城门派出所盛景黄山警务室,政府机构,公检法机构,福建省,福州市,仓山区,福州市仓山区,,1,0,119.362416,26.022633,(0591)83499067,life,http://api.map.baidu.com/place/detail?uid=531fcd0659fc3a40c16c14ce&output=html&source=placeapi_v2,,,,,,,,,,2,,,,,,,,119.36242631634,26.022509335104,0
e31a2d2eb83a2b57d92f2848,螺洲派出所杜园警务站,政府机构,公检法机构,福建省,福州市,仓山区,福州市仓山区螺洲街东50米杜园文化宫,e31a2d2eb83a2b57d92f2848,1,0,119.358805,26.000027,,life,http://api.map.baidu.com/place/detail?uid=e31a2d2eb83a2b57d92f2848&output=html&source=placeapi_v2,,,,,,,,,,2,,,,,,,,,,0
2606f0103db957904e554733,盖山派出所郭宅治安岗,政府机构,公检法机构,福建省,福州市,仓山区,福州市仓山区牛道一路郭宅新居东南侧约120米,2606f0103db957904e554733,1,0,119.339988,26.021017,,life,http://api.map.baidu.com/place/detail?uid=2606f0103db957904e554733&output=html&source=placeapi_v2,,,,,,,,,,,,,,,,,,,,0
f3bd91a5bdddbd41b45f1e87,盖山派出所后坂警务室,政府机构,公检法机构,福建省,福州市,仓山区,福州市仓山区高台路都会华彩东北侧约70米,f3bd91a5bdddbd41b45f1e87,1,0,119.351061,26.025353,,life,http://api.map.baidu.com/place/detail?uid=f3bd91a5bdddbd41b45f1e87&output=html&source=placeapi_v2,,,,,,,,,,6,,,,,,,,119.3511814196,26.025441946664,0
2ed43c69f54fbd1d250bd002,福州市仓山区金鹰学校-警务联络室,政府机构,公检法机构,福建省,福州市,仓山区,福建省福州市仓山区高旺路13号,2ed43c69f54fbd1d250bd002,1,0,119.357534,26.02777,,life,http://api.map.baidu.com/place/detail?uid=2ed43c69f54fbd1d250bd002&output=html&source=placeapi_v2,,,,,,,,,,,,,,,,,,119.35767813662,26.027582308145,0
001c795c6edb58eb2811d14c,校园治安特别管护区,政府机构,公检法机构,福建省,福州市,仓山区,福州市仓山区义序路福州市跃进童心幼儿园东侧约230米,001c795c6edb58eb2811d14c,1,0,119.335879,26.020476,,life,http://api.map.baidu.com/place/detail?uid=001c795c6edb58eb2811d14c&output=html&source=placeapi_v2,,,,,,,,,,,,,,,,,,,,0
37c8a8279031a5b031f71db9,城门派出所连坂治安岗,政府机构,公检法机构,福建省,福州市,仓山区,福州市仓山区黄山路北100米,37c8a8279031a5b031f71db9,1,0,119.370119,26.018557,,life,http://api.map.baidu.com/place/detail?uid=37c8a8279031a5b031f71db9&output=html&source=placeapi_v2,,,,,,,,,,1,,,,,,,,119.37010068584,26.018440861615,0
278aa64f4ab660031df74de5,仓山公安分局城门派出所,政府机构,公检法机构,福建省,福州市,仓山区,福建省福州市仓山区城门镇白云村城山路60号,278aa64f4ab660031df74de5,1,1,119.380673,25.998849,(0591)83499067,life,http://api.map.baidu.com/place/detail?uid=278aa64f4ab660031df74de5&output=html&source=placeapi_v2,,"08:30-12:00,14:30-18:00",,,,,,,,3,,,,,,,,119.38068794659,25.998555045487,1
3544cd8ea366e8670482c259,林浦警务室,政府机构,公检法机构,福建省,福州市,仓山区,福州市仓山区秀宅互通,,1,0,119.381826,26.020398,,life,http://api.map.baidu.com/place/detail?uid=3544cd8ea366e8670482c259&output=html&source=placeapi_v2,,,,,,,,,,,,,,,,,,,,0
e871b8d0f1d59c72c72ba12e,城门派出所永南中学治安岗,政府机构,公检法机构,福建省,福州市,仓山区,樟岚村樟岚107号福州市永南中学附近,e871b8d0f1d59c72c72ba12e,1,0,119.392598,26.001339,,life,http://api.map.baidu.com/place/detail?uid=e871b8d0f1d59c72c72ba12e&output=html&source=placeapi_v2,,,,,,,,,,,,,,,,,,119.39251963266,26.001309462489,0
a6ed7a21d5c0c9c14f6d46cd,公安局出入境大队,政府机构,公检法机构,福建省,福州市,马尾区,福州市马尾区马尾镇湖里路27号(自贸区福州片区综合服务大厅一楼),a6ed7a21d5c0c9c14f6d46cd,1,0,119.431763,26.017657,(0591)83984299,life,http://api.map.baidu.com/place/detail?uid=a6ed7a21d5c0c9c14f6d46cd&output=html&source=placeapi_v2,,,,,,,,,,,,,,,,,,,,0
43c480f4f1d443a5ad080fe1,福州市公安局马尾分局出入境服务大厅,政府机构,公检法机构,福建省,福州市,马尾区,福建省福州市马尾区马尾镇湖里路27号(自贸区福州片区综合服务大厅一楼),,1,0,119.431763,26.017657,,life,http://api.map.baidu.com/place/detail?uid=43c480f4f1d443a5ad080fe1&output=html&source=placeapi_v2,,14:30-17:00,,,,,,,,,,,,,,,,,,0
f4f12863bdf9eb54b45f1ed7,福建省公安厅交警总队福州高速公路支队二大队,政府机构,公检法机构,福建省,福州市,马尾区,福建省福州市马尾区S1513(机场快速),f4f12863bdf9eb54b45f1ed7,1,0,119.442091,26.019181,(0591)88626122,life,http://api.map.baidu.com/place/detail?uid=f4f12863bdf9eb54b45f1ed7&output=html&source=placeapi_v2,,"08:30-12:00,14:00-18:00",0,,,,,,,1,0,,,,,,,119.44203014956,26.019372346338,0
9e48952e710c64db3f9a5e63,快安派出所,政府机构,公检法机构,福建省,福州市,马尾区,福州市马尾区快安路1号,9e48952e710c64db3f9a5e63,1,3,119.432244,26.029942,(0591)83969715,life,http://api.map.baidu.com/place/detail?uid=9e48952e710c64db3f9a5e63&output=html&source=placeapi_v2,,"08:30-12:00,14:30-17:30",,,,,,,,0,,,,,,,,119.43199030361,26.030033037551,3
f8b20bc224a6ace7dbd8917c,福建省福州市马尾区人民检察院,政府机构,公检法机构,福建省,福州市,马尾区,福建省福州市马尾区儒江东路138号,f8b20bc224a6ace7dbd8917c,1,1,119.444711,26.008657,(0591)88029001,life,http://api.map.baidu.com/place/detail?uid=f8b20bc224a6ace7dbd8917c&output=html&source=placeapi_v2,,"08:30-12:00,14:00-18:00",,,,,,,,6,,,,,,,,119.44469625572,26.008596186834,1
bd0d925bd7c6ad6ac51e5151,儒江警务室,政府机构,公检法机构,福建省,福州市,马尾区,马尾镇快安茶山支路20号,bd0d925bd7c6ad6ac51e5151,1,0,119.428855,26.023924,,life,http://api.map.baidu.com/place/detail?uid=bd0d925bd7c6ad6ac51e5151&output=html&source=placeapi_v2,,,,,,,,,,1,,,,,,,,119.42878584214,26.02380509882,0
b99428b1c796b20025d2bb95,交通警察,政府机构,公检法机构,福建省,福州市,马尾区,福州市马尾区江滨东大道马尾区人民政府西北侧约180米,,1,0,119.444069,26.005852,,life,http://api.map.baidu.com/place/detail?uid=b99428b1c796b20025d2bb95&output=html&source=placeapi_v2,,,,,,,,,,,,,,,,,,119.44399812044,26.005790267066,0
092601b6896700de2806ce72,快安派出所中洲外口协管站,政府机构,公检法机构,福建省,福州市,马尾区,福州市马尾区仙芝路阳江瑞景,092601b6896700de2806ce72,1,0,119.448025,26.00647,,life,http://api.map.baidu.com/place/detail?uid=092601b6896700de2806ce72&output=html&source=placeapi_v2,,,,,,,,,,,,,,,,,,119.44807512761,26.006475531867,0
a31199dd2779f87bd23ce375,F头村警务室,政府机构,公检法机构,福建省,福州市,马尾区,福州市马尾区环岛路F头新村东南侧约120米,,1,0,119.448681,26.009205,,life,http://api.map.baidu.com/place/detail?uid=a31199dd2779f87bd23ce375&output=html&source=placeapi_v2,,,,,,,,,,1,,,,,,,,119.44858437071,26.009130484101,0
49c8a59f43f3b08f882fb536,马尾交警,政府机构,公检法机构,福建省,福州市,马尾区,福州市马尾区马尾枢纽罗星派出所东北侧,49c8a59f43f3b08f882fb536,1,0,119.472868,26.006867,,life,http://api.map.baidu.com/place/detail?uid=49c8a59f43f3b08f882fb536&output=html&source=placeapi_v2,,,,,,,,,,,,,,,,,,,,0
f6eafc4b96987ca7cd04ef6a,福州市马尾区人民法院,政府机构,公检法机构,福建省,福州市,马尾区,罗星西路76号,f6eafc4b96987ca7cd04ef6a,1,0,119.471239,25.997398,(0591)12368,life,http://api.map.baidu.com/place/detail?uid=f6eafc4b96987ca7cd04ef6a&output=html&source=placeapi_v2,,08:30-17:30,,,,,,,,1,,,,,,,,119.47149806558,25.997452026355,0
931aacedab6cdfea841541b9,福州马尾法院自由贸易区法庭,政府机构,公检法机构,福建省,福州市,马尾区,福建省福州市马尾区罗星东路2号,931aacedab6cdfea841541b9,1,0,119.482947,26.009879,(0591)83688337,life,http://api.map.baidu.com/place/detail?uid=931aacedab6cdfea841541b9&output=html&source=placeapi_v2,,00:00-24:00,,,,,,,,8,,,,,,,,119.48287704161,26.009931590093,0
f270013fccd07f66fbf0cbad,罗星派出所君竹警务室,政府机构,公检法机构,福建省,福州市,马尾区,福州市马尾区马尾枢纽罗星派出所西南侧,f270013fccd07f66fbf0cbad,1,0,119.47275,26.006737,,life,http://api.map.baidu.com/place/detail?uid=f270013fccd07f66fbf0cbad&output=html&source=placeapi_v2,,,,,,,,,,,,,,,,,,,,0
1a40537a0f724ede79dbd246,福州市马尾区公安局罗星派出所培英社区流动人口协管站,政府机构,公检法机构,福建省,福州市,马尾区,福州市马尾区建星路194号附近,1a40537a0f724ede79dbd246,1,0,119.468938,26.001282,,life,http://api.map.baidu.com/place/detail?uid=1a40537a0f724ede79dbd246&output=html&source=placeapi_v2,,,,,,,,,,1,,,,,,,,,,0
395b26b487b0a4094afd3fb7,马尾区罗星派出所上歧村警务室,政府机构,公检法机构,福建省,福州市,马尾区,福州市马尾区沿山东路336号附近,395b26b487b0a4094afd3fb7,1,0,119.465667,26.002401,,life,http://api.map.baidu.com/place/detail?uid=395b26b487b0a4094afd3fb7&output=html&source=placeapi_v2,,,,,,,,,,1,,,,,,,,119.46575417349,26.002443047192,0
d3f7a8e42cba4b95a5c75689,马尾交警,政府机构,公检法机构,福建省,福州市,马尾区,福州市马尾区青洲路城市渔人广场,,1,0,119.476727,25.998139,,life,http://api.map.baidu.com/place/detail?uid=d3f7a8e42cba4b95a5c75689&output=html&source=placeapi_v2,,,,,,,,,,,,,,,,,,119.47662400792,25.998034161117,0
cbb30a25950ba4e6c6effb8f,福州市马尾区公安局森林分局,政府机构,公检法机构,福建省,福州市,马尾区,福建省福州市马尾区星达路2号开发区税务大楼1楼,cbb30a25950ba4e6c6effb8f,1,0,119.466754,26.000869,,life,http://api.map.baidu.com/place/detail?uid=cbb30a25950ba4e6c6effb8f&output=html&source=placeapi_v2,,,,,,,,,,,,,,,,,,,,0
2612548fecc91d1b601c673a,罗星派出所正荣警务室,政府机构,公检法机构,福建省,福州市,马尾区,福州市马尾区建星路正荣・财富中心,,1,0,119.468066,25.998871,,life,http://api.map.baidu.com/place/detail?uid=2612548fecc91d1b601c673a&output=html&source=placeapi_v2,,,,,,,,,,1,,,,,,,,,,0
5b2bcb6a5aa61391b34c4917,罗星派出所罗建警务室,政府机构,公检法机构,福建省,福州市,马尾区,福州市马尾区上岐路福星新村北侧约50米,5b2bcb6a5aa61391b34c4917,1,0,119.462853,25.997952,,life,http://api.map.baidu.com/place/detail?uid=5b2bcb6a5aa61391b34c4917&output=html&source=placeapi_v2,,,,,,,,,,,,,,,,,,,,0
c91369f40f430bf195f08cc1,罗星派出所二十四中治安岗,政府机构,公检法机构,福建省,福州市,马尾区,福州市马尾区罗星街道罗建村罗建西1号,,1,0,119.461485,25.99727,,life,http://api.map.baidu.com/place/detail?uid=c91369f40f430bf195f08cc1&output=html&source=placeapi_v2,,,,,,,,,,,,,,,,,,,,0
d90762bd2db3359894031934,马尾港区派出所警务区,政府机构,公检法机构,福建省,福州市,马尾区,罗星东路79号附近,d90762bd2db3359894031934,1,0,119.490163,26.014685,,life,http://api.map.baidu.com/place/detail?uid=d90762bd2db3359894031934&output=html&source=placeapi_v2,,,,,,,,,,,,,,,,,,,,0
e1ebe9352caa1da13010af0f,上街高新区交警大队,政府机构,公检法机构,福建省,福州市,闽侯县,福州市闽侯县上街镇中青大厦1层,e1ebe9352caa1da13010af0f,1,0,119.22317,26.048284,(0591)87027594,life,http://api.map.baidu.com/place/detail?uid=e1ebe9352caa1da13010af0f&output=html&source=placeapi_v2,,,0,,,,,,,3,0,,,,,,,119.22323758582,26.048413787327,0
36d5209cbf3474792b11d1eb,上街(高新区)公安分局,政府机构,公检法机构,福建省,福州市,闽侯县,福州市闽侯县上街镇广贤路3号,36d5209cbf3474792b11d1eb,1,3,119.21169,26.043643,(0591)22883142,life,http://api.map.baidu.com/place/detail?uid=36d5209cbf3474792b11d1eb&output=html&source=placeapi_v2,,"08:00-12:00,14:30-17:30",0,,,,,,,2,0,,,,,,,119.21227379942,26.043287504734,3
c4e71efc66bed18240e192cf,金山派出所中天警务室,政府机构,公检法机构,福建省,福州市,仓山区,福州市仓山区西三环路东150米,c4e71efc66bed18240e192cf,1,0,119.246894,26.042529,,life,http://api.map.baidu.com/place/detail?uid=c4e71efc66bed18240e192cf&output=html&source=placeapi_v2,,,,,,,,,,1,,,,,,,,119.24680494079,26.042490820375,0
33bc5b0d78d3054b2bd7ab11,金山派出所彼岸警务室,政府机构,公检法机构,福建省,福州市,仓山区,福州市仓山区金榕南路金闽小区-一区,33bc5b0d78d3054b2bd7ab11,1,0,119.276731,26.05053,,life,http://api.map.baidu.com/place/detail?uid=33bc5b0d78d3054b2bd7ab11&output=html&source=placeapi_v2,,,0,,,,,,,1,0,,,,,,,119.27676746472,26.050410422878,0
97afddf477ca5585c5effbe6,福州市仓山区人民法院,政府机构,公检法机构,福建省,福州市,仓山区,福建省福州市仓山区金山街道石边路3号,97afddf477ca5585c5effbe6,1,0,119.261794,26.052731,(0591)12368,life,http://api.map.baidu.com/place/detail?uid=97afddf477ca5585c5effbe6&output=html&source=placeapi_v2,,08:30-18:00,0,,,,,,,0,0,,,,,,,119.26124929992,26.052797548116,0
6810cd55c07afd224354d7ee,福州市中级人民法院,政府机构,公检法机构,福建省,福州市,仓山区,福建省福州市仓山区金山街道闽江大道256号,6810cd55c07afd224354d7ee,1,0,119.283458,26.050893,(0591)87073008,life,http://api.map.baidu.com/place/detail?uid=6810cd55c07afd224354d7ee&output=html&source=placeapi_v2,,"08:30-12:00,14:30-18:00",0,,,,,,,9,0,,,,,,,119.28375146038,26.051223395111,0
61351f412a8cc4ceeee4a546,福州市公安局仓山区分局出入境服务大厅,政府机构,公检法机构,福建省,福州市,仓山区,福建省福州市仓山区闽江大道236-2号,61351f412a8cc4ceeee4a546,1,0,119.280391,26.051905,(0591)63117791,life,http://api.map.baidu.com/place/detail?uid=61351f412a8cc4ceeee4a546&output=html&source=placeapi_v2,,14:00-17:30,,,,,,,,,,,,,,,,119.28043513832,26.052011167445,0
275f5610baf1418bc9c3db7f,金山派出所,政府机构,公检法机构,福建省,福州市,仓山区,福建省福州市仓山区金山街道金祥路与石边路交叉口东南角(福州市仓山区人民法院北侧),275f5610baf1418bc9c3db7f,1,0,119.261789,26.053072,(0591)83058110,life,http://api.map.baidu.com/place/detail?uid=275f5610baf1418bc9c3db7f&output=html&source=placeapi_v2,,"08:30-12:00,14:30-17:30",0,,,,,,,2,0,,,,,,,119.26179590715,26.053469789351,0
5b88b3d83e4ffe82ed74f8a5,福州市公安局金山派出所办证大厅,政府机构,公检法机构,福建省,福州市,仓山区,福建省福州市仓山区石边路3号,5b88b3d83e4ffe82ed74f8a5,1,0,119.261519,26.053009,,life,http://api.map.baidu.com/place/detail?uid=5b88b3d83e4ffe82ed74f8a5&output=html&source=placeapi_v2,,,,,,,,,,2,,,,,,,,119.26124764165,26.052999746595,0
62d7e8b98b5c820384420ee0,仓山法院民2庭,政府机构,公检法机构,福建省,福州市,仓山区,福州市仓山区金山街道石边路3号,62d7e8b98b5c820384420ee0,1,0,119.261505,26.052808,,life,http://api.map.baidu.com/place/detail?uid=62d7e8b98b5c820384420ee0&output=html&source=placeapi_v2,,00:00-24:00,,,,,,,,,,,,,,,,119.26124742696,26.052780007843,0
f5953834d659651d9e9d68a2,福州市中级人民法院审判法庭,政府机构,公检法机构,福建省,福州市,仓山区,福州市仓山区闽江大道256号,f5953834d659651d9e9d68a2,1,0,119.28324,26.051148,,life,http://api.map.baidu.com/place/detail?uid=f5953834d659651d9e9d68a2&output=html&source=placeapi_v2,,"08:30-12:00,14:00-18:00",,,,,,,,0,,,,,,,,119.28336781206,26.051242317403,0
0bc0108e479bf452047ce85e,福州市中级人民法院立案大厅人民来访接待室,政府机构,公检法机构,福建省,福州市,仓山区,福州市仓山区亭头路与亭洲路交叉口东北200米,0bc0108e479bf452047ce85e,1,0,119.284233,26.050635,,life,http://api.map.baidu.com/place/detail?uid=0bc0108e479bf452047ce85e&output=html&source=placeapi_v2,,,,,,,,,,0,,,,,,,,119.28419245742,26.050688515102,0
e57dbcf8341f7a9efda7785e,金山派出所万达警务室,政府机构,公检法机构,福建省,福州市,仓山区,浦上大道与金榕南路交叉口西100米,e57dbcf8341f7a9efda7785e,1,0,119.283039,26.043592,,life,http://api.map.baidu.com/place/detail?uid=e57dbcf8341f7a9efda7785e&output=html&source=placeapi_v2,,"08:30-12:00,14:00-18:00",0,,,,,,,8,0,,,,,,,119.28309266558,26.043527237909,0
2833d54971965e90b64f5487,金山派出所鑫龙警务室,政府机构,公检法机构,福建省,福州市,仓山区,福州市仓山区卢滨路51号附近,2833d54971965e90b64f5487,1,0,119.260223,26.050835,,life,http://api.map.baidu.com/place/detail?uid=2833d54971965e90b64f5487&output=html&source=placeapi_v2,,,,,,,,,,13,,,,,,,,119.26020137804,26.051013513364,0
6e2e31f6426b6b3707fef5b0,金山派出所建华警务室,政府机构,公检法机构,福建省,福州市,仓山区,福州市仓山区后巷路11号附近,6e2e31f6426b6b3707fef5b0,1,0,119.280531,26.035467,,life,http://api.map.baidu.com/place/detail?uid=6e2e31f6426b6b3707fef5b0&output=html&source=placeapi_v2,,,,,,,,,,1,,,,,,,,119.28028744252,26.035555268309,0
786474cc3c653cbfa7c75662,金山派出所金洲警务室,政府机构,公检法机构,福建省,福州市,仓山区,福州市仓山区,786474cc3c653cbfa7c75662,1,0,119.27167,26.055751,,life,http://api.map.baidu.com/place/detail?uid=786474cc3c653cbfa7c75662&output=html&source=placeapi_v2,,,,,,,,,,1,,,,,,,,119.27164870344,26.055982639591,0
45452474fa8b26eddbd89161,金山派出所爱琴海流动警务室,政府机构,公检法机构,福建省,福州市,仓山区,南江滨立交桥,45452474fa8b26eddbd89161,1,0,119.286648,26.046819,,life,http://api.map.baidu.com/place/detail?uid=45452474fa8b26eddbd89161&output=html&source=placeapi_v2,,,,,,,,,,1,,,,,,,,119.28671508704,26.046816935081,0
65f59dcdb88dc8be2fb17e60,金山派出所金环警务室,政府机构,公检法机构,福建省,福州市,仓山区,福州市仓山区友兰路与金环路交叉口东100米,65f59dcdb88dc8be2fb17e60,1,0,119.277466,26.05757,,life,http://api.map.baidu.com/place/detail?uid=65f59dcdb88dc8be2fb17e60&output=html&source=placeapi_v2,,,,,,,,,,7,,,,,,,,119.27740869047,26.057637394215,0
081155fe535f205dc7f0251e,金山派出所吉龙警务室,政府机构,公检法机构,福建省,福州市,仓山区,福建省福州市仓山区滨州路15号吉苑C9底层吉龙社区,081155fe535f205dc7f0251e,1,0,119.252207,26.051236,,life,http://api.map.baidu.com/place/detail?uid=081155fe535f205dc7f0251e&output=html&source=placeapi_v2,,,,,,,,,,8,,,,,,,,119.25237954361,26.051239751834,0
765cb1ffd0a05aa12cb90831,微型消防站(福州爱琴海购物公园),政府机构,公检法机构,福建省,福州市,仓山区,福建省福州市仓山区金山街道浦上大道198号福州爱琴海购物公园F1,,1,0,119.285508,26.046701,,life,http://api.map.baidu.com/place/detail?uid=765cb1ffd0a05aa12cb90831&output=html&source=placeapi_v2,,,,,,,,,,,,,,,,,,,,0
c6d183af1d12a8e326e0a090,金山派出所大卫城刘宅警务室,政府机构,公检法机构,福建省,福州市,仓山区,福州市仓山区葛屿路12号附近,c6d183af1d12a8e326e0a090,1,0,119.256206,26.041644,,life,http://api.map.baidu.com/place/detail?uid=c6d183af1d12a8e326e0a090&output=html&source=placeapi_v2,,,,,,,,,,1,,,,,,,,,,0
9c5ad659f4a2ddc92b201afe,金山派出所钟发荣警务室,政府机构,公检法机构,福建省,福州市,仓山区,福州市仓山区闽江大道192号附近,9c5ad659f4a2ddc92b201afe,1,0,119.287471,26.04848,,life,http://api.map.baidu.com/place/detail?uid=9c5ad659f4a2ddc92b201afe&output=html&source=placeapi_v2,,,,,,,,,,4,,,,,,,,119.28735702873,26.048481142368,0
46ee5e3d4d6efc283686f461,福建省福州市中级人民法院诉讼服务中心,政府机构,公检法机构,福建省,福州市,仓山区,福州市仓山区闽江大道256号256号,46ee5e3d4d6efc283686f461,1,0,119.284148,26.049813,,life,http://api.map.baidu.com/place/detail?uid=46ee5e3d4d6efc283686f461&output=html&source=placeapi_v2,,,,,,,,,,7,,,,,,,,119.28445006898,26.050093445846,0
a0417e1a4f612a69ab175aba,上渡派出所福建师大附小警务室,政府机构,公检法机构,福建省,福州市,仓山区,福州市仓山区上三路福建师范大学-附属小学,,1,0,119.311906,26.046575,,life,http://api.map.baidu.com/place/detail?uid=a0417e1a4f612a69ab175aba&output=html&source=placeapi_v2,,,,,,,,,,4,,,,,,,,,,0
35a5ee0fbcc16e6f081cc7bb,福州市公安局仓山分局水上派出所,政府机构,公检法机构,福建省,福州市,仓山区,福州市仓山区仓前路150号,35a5ee0fbcc16e6f081cc7bb,1,0,119.316289,26.050446,(0591)83962553,life,http://api.map.baidu.com/place/detail?uid=35a5ee0fbcc16e6f081cc7bb&output=html&source=placeapi_v2,,09:00-17:00,,,,,,,,0,,,,,,,,119.31634237683,26.050233283174,0
101bc61bc54912a3c42ba155,福州市公安局仓山区分局,政府机构,公检法机构,福建省,福州市,仓山区,福州市仓山区朝阳路30号,101bc61bc54912a3c42ba155,1,0,119.329601,26.052818,"(0591)83416110,(0591)83417110",life,http://api.map.baidu.com/place/detail?uid=101bc61bc54912a3c42ba155&output=html&source=placeapi_v2,,09:00-17:00,0,,,,,,,4,,,,,,,,119.32947564021,26.052668564022,0
085245e5ee9c2080a2a93481,对湖派出所湖岭警务室,政府机构,公检法机构,福建省,福州市,仓山区,福州市仓山区兰庭新天地26号楼附近,085245e5ee9c2080a2a93481,1,0,119.313652,26.04319,,life,http://api.map.baidu.com/place/detail?uid=085245e5ee9c2080a2a93481&output=html&source=placeapi_v2,,,,,,,,,,3,,,,,,,,119.31343468946,26.04341110411,0
a70a17e87af42bc30782c25e,对湖派出所师大警务室,政府机构,公检法机构,福建省,福州市,仓山区,福州市仓山区对湖路与马厂后街交叉口北50米,a70a17e87af42bc30782c25e,1,0,119.316329,26.044119,,life,http://api.map.baidu.com/place/detail?uid=a70a17e87af42bc30782c25e&output=html&source=placeapi_v2,,,,,,,,,,1,,,,,,,,119.3163775949,26.044005926058,0
b2538dd1037412d5bbbd63b5,仓前派出所龙峰警务室(池后弄西),政府机构,公检法机构,福建省,福州市,仓山区,福州市仓山区仓前路191号,b2538dd1037412d5bbbd63b5,1,0,119.315647,26.049836,(0591)83442839,life,http://api.map.baidu.com/place/detail?uid=b2538dd1037412d5bbbd63b5&output=html&source=placeapi_v2,,,,,,,,,,,,,,,,,,119.315624381,26.049918266374,0
cccc28fff6167f6c8c55ec6a,福州市公安局仓山分局对湖派出所,政府机构,公检法机构,福建省,福州市,仓山区,福建省福州市仓山区首山路88号,cccc28fff6167f6c8c55ec6a,1,0,119.3204,26.039014,(0591)83442117,life,http://api.map.baidu.com/place/detail?uid=cccc28fff6167f6c8c55ec6a&output=html&source=placeapi_v2,,"08:30-12:00,14:30-18:00",0,,,,,,,10,0,,,,,,,119.32066481544,26.038880194212,0
09185c5645b9855df1193771,福州市公安局台江分局苍霞派出所,政府机构,公检法机构,福建省,福州市,台江区,福建省福州市台江区长寿支路23号,09185c5645b9855df1193771,1,0,119.302739,26.055267,(0591)83801709,life,http://api.map.baidu.com/place/detail?uid=09185c5645b9855df1193771&output=html&source=placeapi_v2,,"08:30-12:00,14:30-18:00",0,,,,,,,5,0,,,,,,,119.30253819512,26.055181052277,0
0adce3e2792f9d6080a00c2d,仓前派出所,政府机构,公检法机构,福建省,福州市,仓山区,福州市仓山区麦园路60号,0adce3e2792f9d6080a00c2d,1,0,119.321738,26.0491,(0591)83565110,life,http://api.map.baidu.com/place/detail?uid=0adce3e2792f9d6080a00c2d&output=html&source=placeapi_v2,,"08:30-12:00,14:30-17:30",,,,,,,,3,,,,,,,,119.32186062266,26.048921950047,0
bc713225fdc30c08a5da3930,福州市公安局台江分局经济犯罪侦查大队,政府机构,公检法机构,福建省,福州市,台江区,福州市台江区,bc713225fdc30c08a5da3930,1,0,119.302758,26.055241,,life,http://api.map.baidu.com/place/detail?uid=bc713225fdc30c08a5da3930&output=html&source=placeapi_v2,,,,,,,,,,3,,,,,,,,119.30257287061,26.055140290754,0
c9021b0bf0ac11d2d7851fad,对湖派出所福建师大附中警务室,政府机构,公检法机构,福建省,福州市,仓山区,福建省福州市仓山区对湖路15号,c9021b0bf0ac11d2d7851fad,1,0,119.318604,26.047037,,life,http://api.map.baidu.com/place/detail?uid=c9021b0bf0ac11d2d7851fad&output=html&source=placeapi_v2,,,,,,,,,,11,,,,,,,,119.31852025207,26.047033587854,0
5188f3d1701e4f1c871541f2,福州市公安局台江分局后洲派出所,政府机构,公检法机构,福建省,福州市,台江区,福州市台江区台江路47号,5188f3d1701e4f1c871541f2,1,0,119.320165,26.057626,(0591)83259335,life,http://api.map.baidu.com/place/detail?uid=5188f3d1701e4f1c871541f2&output=html&source=placeapi_v2,,"08:30-12:00,15:00-18:00",0,,,,,,,3,0,,,,,,,119.32017598902,26.057524430947,0
fa4e62bfed4dbfcbc2f1cf6c,苍霞派出所田警务室,政府机构,公检法机构,福建省,福州市,台江区,福州市台江区中平路158-1号附近,fa4e62bfed4dbfcbc2f1cf6c,1,0,119.312918,26.056914,,life,http://api.map.baidu.com/place/detail?uid=fa4e62bfed4dbfcbc2f1cf6c&output=html&source=placeapi_v2,,,,,,,,,,1,,,,,,,,,,0
d60d7cbff61c5c2015948ec6,福州市台江区人民法院医患纠纷巡回法庭,政府机构,公检法机构,福建省,福州市,台江区,福州市台江区支前路苍霞新城嘉盛苑(中平路),d60d7cbff61c5c2015948ec6,1,0,119.312464,26.054873,,life,http://api.map.baidu.com/place/detail?uid=d60d7cbff61c5c2015948ec6&output=html&source=placeapi_v2,,00:00-24:00,,,,,,,,1,,,,,,,,119.31240702975,26.054800843884,0
e635b4eb04471ebbbadf8f89,对湖派出所福建幼高专警务室,政府机构,公检法机构,福建省,福州市,仓山区,长安路60-14号附近,e635b4eb04471ebbbadf8f89,1,0,119.315408,26.036567,,life,http://api.map.baidu.com/place/detail?uid=e635b4eb04471ebbbadf8f89&output=html&source=placeapi_v2,,,,,,,,,,2,,,,,,,,,,0
20bb2b8723fa83d70782c2e4,下渡派出所,政府机构,公检法机构,福建省,福州市,仓山区,福州市仓山区五柱厅巷与下藤路交叉路口西侧(龙津花园北侧),20bb2b8723fa83d70782c2e4,1,0,119.330874,26.044973,(0591)83441246,life,http://api.map.baidu.com/place/detail?uid=20bb2b8723fa83d70782c2e4&output=html&source=placeapi_v2,,"08:30-12:00,14:30-17:30",,,,,,,,4,,,,,,,,119.3311272755,26.045052416454,0
6cfdd5c7f851ddffca29154b,福州市公安局仓山分局办证大厅,政府机构,公检法机构,福建省,福州市,仓山区,福州市仓山区朝阳路30号,6cfdd5c7f851ddffca29154b,1,0,119.329315,26.052748,,life,http://api.map.baidu.com/place/detail?uid=6cfdd5c7f851ddffca29154b&output=html&source=placeapi_v2,,"08:30-12:00,14:00-18:00",,,,,,,,4,,,,,,,,119.32928818901,26.052639123142,0
3f617056dd15bbdf14b54bfd,苍霞派出所同德警务室,政府机构,公检法机构,福建省,福州市,台江区,福州市台江区帮洲里美伦浩洋丽都-B区,3f617056dd15bbdf14b54bfd,1,0,119.30497,26.054368,,life,http://api.map.baidu.com/place/detail?uid=3f617056dd15bbdf14b54bfd&output=html&source=placeapi_v2,,,,,,,,,,,,,,,,,,,,0
06b1c284f9d8fddeb21e3676,后洲派出所警务室,政府机构,公检法机构,福建省,福州市,台江区,福州市台江区,06b1c284f9d8fddeb21e3676,1,0,119.316217,26.057147,,life,http://api.map.baidu.com/place/detail?uid=06b1c284f9d8fddeb21e3676&output=html&source=placeapi_v2,,,,,,,,,,1,,,,,,,,119.31613051417,26.057095427496,0
91c13f931d8b2d8421f01742,台江区司法局(义洲司法所),政府机构,公检法机构,福建省,福州市,台江区,福建省福州市台江区义洲街道北兴园6座2层,91c13f931d8b2d8421f01742,1,0,119.303563,26.058345,(0591)87905215,life,http://api.map.baidu.com/place/detail?uid=91c13f931d8b2d8421f01742&output=html&source=placeapi_v2,,,,,,,,,,,,,,,,,,119.30368404039,26.058280444794,0
2ccb78d9ec3be6d5f8dc8570,福州市中级人民法院医患纠纷诉调工作室,政府机构,公检法机构,福建省,福州市,台江区,福州市台江区支前路苍霞新城嘉盛苑(中平路),2ccb78d9ec3be6d5f8dc8570,1,0,119.312464,26.054873,,life,http://api.map.baidu.com/place/detail?uid=2ccb78d9ec3be6d5f8dc8570&output=html&source=placeapi_v2,,,,,,,,,,1,,,,,,,,119.31240702975,26.054800843884,0
ebe90dab6711f6370c0e6b02,福州市公安局交通警察支队台江大队上下杭中队,政府机构,公检法机构,福建省,福州市,台江区,福建省福州市台江区白马河新村6号楼,,1,0,119.303982,26.061594,,life,http://api.map.baidu.com/place/detail?uid=ebe90dab6711f6370c0e6b02&output=html&source=placeapi_v2,,,,,,,,,,1,,,,,,,,119.30399198221,26.061520437424,0
545151db88e4bc74a0acc44d,福州古厝与文化遗产保护巡回法庭,政府机构,公检法机构,福建省,福州市,台江区,福州市台江区v埕里20号,,1,0,119.313114,26.057898,,life,http://api.map.baidu.com/place/detail?uid=545151db88e4bc74a0acc44d&output=html&source=placeapi_v2,,,,,,,,,,,,,,,,,,,,0
8ae402322cd9f0b23517dcd8,苍霞派出所万侯警务室,政府机构,公检法机构,福建省,福州市,台江区,福州市台江区后田街52号附近,8ae402322cd9f0b23517dcd8,1,0,119.306256,26.056963,,life,http://api.map.baidu.com/place/detail?uid=8ae402322cd9f0b23517dcd8&output=html&source=placeapi_v2,,,,,,,,,,0,,,,,,,,119.30603322607,26.056834328543,0
75760a1cc0fda3e816a190f5,福州市仓山区郑安村治安岗,政府机构,公检法机构,福建省,福州市,仓山区,福州市仓山区,,1,0,119.315337,26.033868,,life,http://api.map.baidu.com/place/detail?uid=75760a1cc0fda3e816a190f5&output=html&source=placeapi_v2,,,,,,,,,,1,,,,,,,,119.31536678651,26.033819370524,0
9fdab862798c1b5de8e58260,福州市公安局对湖派出所福建船政交通职业学院警务室,政府机构,公检法机构,福建省,福州市,仓山区,福州市仓山区首山路福建船政交通职业学院,9fdab862798c1b5de8e58260,1,0,119.319798,26.032834,,life,http://api.map.baidu.com/place/detail?uid=9fdab862798c1b5de8e58260&output=html&source=placeapi_v2,,,,,,,,,,1,,,,,,,,119.31996510821,26.032857872706,0
939e230ea9263c88c4f50dbe,仓前派出所公园警务室,政府机构,公检法机构,福建省,福州市,仓山区,公园东路14号附近,939e230ea9263c88c4f50dbe,1,0,119.324894,26.046196,,life,http://api.map.baidu.com/place/detail?uid=939e230ea9263c88c4f50dbe&output=html&source=placeapi_v2,,,,,,,,,,7,,,,,,,,119.32502004578,26.046291033206,0
108d9ac2c073bd412811d15f,仓山交警,政府机构,公检法机构,福建省,福州市,仓山区,福州市仓山区万安路福建船政交通职业学院北侧约30米,108d9ac2c073bd412811d15f,1,0,119.319357,26.035727,,life,http://api.map.baidu.com/place/detail?uid=108d9ac2c073bd412811d15f&output=html&source=placeapi_v2,,,0,,,,,,,0,0,,,,,,,119.31934798939,26.035793469364,0
7c14554b8a652c7e306212b0,校园治安特别管护区,政府机构,公检法机构,福建省,福州市,仓山区,福州市仓山区进步路宝宝乐幼儿园(进步路),,1,0,119.322982,26.046905,,life,http://api.map.baidu.com/place/detail?uid=7c14554b8a652c7e306212b0&output=html&source=placeapi_v2,,,,,,,,,,,,,,,,,,119.32290762558,26.046867828541,0
7ace2b52c2723cd77bf79663,对湖派出所万里警务室,政府机构,公检法机构,福建省,福州市,仓山区,福州市仓山区首山路57号附近,7ace2b52c2723cd77bf79663,1,0,119.320966,26.037406,,life,http://api.map.baidu.com/place/detail?uid=7ace2b52c2723cd77bf79663&output=html&source=placeapi_v2,,,,,,,,,,9,,,,,,,,119.3208922646,26.037321823687,0
0c6a1f5529812acab5147fcb,公安执勤点,政府机构,公检法机构,福建省,福州市,仓山区,福州市仓山区首山路七街十二府东侧约30米,0c6a1f5529812acab5147fcb,1,0,119.321075,26.039746,,life,http://api.map.baidu.com/place/detail?uid=0c6a1f5529812acab5147fcb&output=html&source=placeapi_v2,,,,,,,,,,1,,,,,,,,119.32092954966,26.03976771063,0
ed1c2645808e47465fbe867f,对湖派出所长安警务室,政府机构,公检法机构,福建省,福州市,仓山区,福州市仓山区勤奋路与磐石路交叉口东50米,ed1c2645808e47465fbe867f,1,0,119.314689,26.036248,,life,http://api.map.baidu.com/place/detail?uid=ed1c2645808e47465fbe867f&output=html&source=placeapi_v2,,,,,,,,,,4,,,,,,,,119.31466410678,26.036191450617,0
e15c66f15902e3171d389454,后洲派出所水巷警务室,政府机构,公检法机构,福建省,福州市,台江区,福州市台江区八一七中路868号附近,e15c66f15902e3171d389454,1,0,119.313369,26.061553,,life,http://api.map.baidu.com/place/detail?uid=e15c66f15902e3171d389454&output=html&source=placeapi_v2,,,,,,,,,,1,,,,,,,,119.31343814434,26.061444422756,0
613cca8ed3076a5ac2f1cf74,仓前派出所劳工警务室,政府机构,公检法机构,福建省,福州市,仓山区,福州市仓山区公园路151号附近,613cca8ed3076a5ac2f1cf74,1,0,119.32523,26.046149,,life,http://api.map.baidu.com/place/detail?uid=613cca8ed3076a5ac2f1cf74&output=html&source=placeapi_v2,,,0.0,,,,,,,8,,,,,,,,119.32523578104,26.046216605203,0
2d4046d6181d5b118936eec2,临江派出所上藤警务室,政府机构,公检法机构,福建省,福州市,仓山区,福建省福州市仓山区六一南路84号,2d4046d6181d5b118936eec2,1,0,119.327418,26.050776,,life,http://api.map.baidu.com/place/detail?uid=2d4046d6181d5b118936eec2&output=html&source=placeapi_v2,,,,,,,,,,2,,,,,,,,119.32743742005,26.050793729137,0
c7d330df5c13d0d985420e2d,福建商贸学校-警务室,政府机构,公检法机构,福建省,福州市,仓山区,福州市仓山区首山路52号附近,c7d330df5c13d0d985420e2d,1,0,119.320956,26.037387,,life,http://api.map.baidu.com/place/detail?uid=c7d330df5c13d0d985420e2d&output=html&source=placeapi_v2,,,,,,,,,,3,,,,,,,,,,0
b51803101243cbfe83a00ce7,仓前派出所治安值勤点,政府机构,公检法机构,福建省,福州市,仓山区,福州市仓山区公园路1号,b51803101243cbfe83a00ce7,1,0,119.326133,26.044677,,life,http://api.map.baidu.com/place/detail?uid=b51803101243cbfe83a00ce7&output=html&source=placeapi_v2,,,,,,,,,,,,,,,,,,119.3260721933,26.044645330192,0
0ddb1bed811da4a8a20464bf,上渡派出所江南水都社区治安执勤点,政府机构,公检法机构,福建省,福州市,仓山区,福州市仓山区通江路融侨江南水都美域-B座,0ddb1bed811da4a8a20464bf,1,0,119.294489,26.04664,,life,http://api.map.baidu.com/place/detail?uid=0ddb1bed811da4a8a20464bf&output=html&source=placeapi_v2,,,,,,,,,,,,,,,,,,119.29461246627,26.046634882441,0
d42d698cbbddbd9945e2741a,对湖派出所程厝警务室,政府机构,公检法机构,福建省,福州市,仓山区,福州市仓山区对湖街道益群社区生活馆滨海嘉年华(四区),d42d698cbbddbd9945e2741a,1,0,119.320286,26.035215,,life,http://api.map.baidu.com/place/detail?uid=d42d698cbbddbd9945e2741a&output=html&source=placeapi_v2,,,,,,,,,,0,,,,,,,,119.31998977927,26.035271300001,0
fae7fd5f316d2b5a1ef74db9,上渡鹭岭派出所警务室,政府机构,公检法机构,福建省,福州市,仓山区,福州市仓山区鹭岭路南台新苑紫薇园,fae7fd5f316d2b5a1ef74db9,1,0,119.298037,26.03785,,life,http://api.map.baidu.com/place/detail?uid=fae7fd5f316d2b5a1ef74db9&output=html&source=placeapi_v2,,,,,,,,,,,,,,,,,,,,0
0f21b4d7bc17f052d42ce276,福州市公安局仓山区分局-人民来访接待室,政府机构,公检法机构,福建省,福州市,仓山区,福州市仓山区共和路与朝阳路交叉口北50米,0f21b4d7bc17f052d42ce276,1,0,119.329205,26.052775,,life,http://api.map.baidu.com/place/detail?uid=0f21b4d7bc17f052d42ce276&output=html&source=placeapi_v2,,,,,,,,,,4,,,,,,,,,,0
00b43bf1a0fe8e8828b97c34,洋中派出所金斗警务室,政府机构,公检法机构,福建省,福州市,台江区,福州市台江区学军路56号群升国际B区,00b43bf1a0fe8e8828b97c34,1,0,119.312527,26.062698,(0591)83228975,life,http://api.map.baidu.com/place/detail?uid=00b43bf1a0fe8e8828b97c34&output=html&source=placeapi_v2,,,,,,,,,,1,,,,,,,,,,0
5dc00b08e329e5cfcf06a4c5,福州市公安局台江分局巡特警反恐大队,政府机构,公检法机构,福建省,福州市,台江区,福州市台江区后洲街道达江路1号,,1,0,119.317148,26.062434,,life,http://api.map.baidu.com/place/detail?uid=5dc00b08e329e5cfcf06a4c5&output=html&source=placeapi_v2,,,,,,,,,,,,,,,,,,119.3169299917,26.062279859703,0
8a10565f47fb883f83a00c8e,福州市闽江下游水域综合执法支队,政府机构,公检法机构,福建省,福州市,台江区,福州市台江区江滨西大道196号,8a10565f47fb883f83a00c8e,1,0,119.30551,26.053676,,life,http://api.map.baidu.com/place/detail?uid=8a10565f47fb883f83a00c8e&output=html&source=placeapi_v2,,,,,,,,,,8,,,,,,,,119.30552487139,26.053406976288,0
bb8b2f5598308a38dd1e5251,上渡派出所福州肺科医院警务室,政府机构,公检法机构,福建省,福州市,仓山区,福建省福州市仓山区福建省福州肺科医院,bb8b2f5598308a38dd1e5251,1,0,119.301693,26.031539,,life,http://api.map.baidu.com/place/detail?uid=bb8b2f5598308a38dd1e5251&output=html&source=placeapi_v2,,,,,,,,,,0,,,,,,,,119.30170291562,26.031352412525,0
55d6416040fc312a6140a95e,治安岗亭,政府机构,公检法机构,福建省,福州市,仓山区,福州市仓山区,55d6416040fc312a6140a95e,1,0,119.329147,26.045595,,life,http://api.map.baidu.com/place/detail?uid=55d6416040fc312a6140a95e&output=html&source=placeapi_v2,,,,,,,,,,,,,,,,,,,,0
9225c3dc25f501a5d13ce313,义洲派出所南禅治安岗,政府机构,公检法机构,福建省,福州市,台江区,台江区南禅弄,9225c3dc25f501a5d13ce313,1,0,119.306849,26.063585,,life,http://api.map.baidu.com/place/detail?uid=9225c3dc25f501a5d13ce313&output=html&source=placeapi_v2,,,,,,,,,,,,,,,,,,119.30684981273,26.063651391316,0
1c73424ab4942bfdfe0eb07b,仓山镇东升村治安保卫委员会,政府机构,公检法机构,福建省,福州市,仓山区,福州市仓山区利民路北50米,1c73424ab4942bfdfe0eb07b,1,0,119.32888,26.038836,,life,http://api.map.baidu.com/place/detail?uid=1c73424ab4942bfdfe0eb07b&output=html&source=placeapi_v2,,,,,,,,,,2,,,,,,,,,,0
53df3c5e788c4dc4cd04ef57,上渡派出所江南警务室,政府机构,公检法机构,福建省,福州市,仓山区,福州市仓山区,53df3c5e788c4dc4cd04ef57,1,0,119.292577,26.050378,(0591)83441934,life,http://api.map.baidu.com/place/detail?uid=53df3c5e788c4dc4cd04ef57&output=html&source=placeapi_v2,,,,,,,,,,5,,,,,,,,119.29241185133,26.050632926865,0
68b02bb681bdbf8f7c29bd07,义洲派出所上游警务室,政府机构,公检法机构,福建省,福州市,台江区,福州市台江区新村一里附近,68b02bb681bdbf8f7c29bd07,1,0,119.299675,26.060735,,life,http://api.map.baidu.com/place/detail?uid=68b02bb681bdbf8f7c29bd07&output=html&source=placeapi_v2,,,,,,,,,,3,,,,,,,,119.2998000744,26.060746507477,0
dbb2551e05f0d73e4207c19f,瀛洲派出所报警点,政府机构,公检法机构,福建省,福州市,台江区,福州市台江区,,1,0,119.322959,26.060366,,life,http://api.map.baidu.com/place/detail?uid=dbb2551e05f0d73e4207c19f&output=html&source=placeapi_v2,,,,,,,,,,1,,,,,,,,119.32272301931,26.060457611318,0
b7554fb8d96018449d82ea34,仓前派出所航兴警务室,政府机构,公检法机构,福建省,福州市,仓山区,福州市仓山区六一南路320号,b7554fb8d96018449d82ea34,1,0,119.330249,26.043414,,life,http://api.map.baidu.com/place/detail?uid=b7554fb8d96018449d82ea34&output=html&source=placeapi_v2,,,,,,,,,,3,,,,,,,,119.33024501463,26.043489218352,0
55234452f4f091da5ebe8649,上渡派出所福泽园警务室,政府机构,公检法机构,福建省,福州市,仓山区,二环快速与双湖互通交叉口东北100米,55234452f4f091da5ebe8649,1,0,119.298044,26.033586,,life,http://api.map.baidu.com/place/detail?uid=55234452f4f091da5ebe8649&output=html&source=placeapi_v2,,,,,,,,,,1,,,,,,,,119.29804779943,26.033572604479,0
714673f5817a060aa2acc4a5,盖山派出所东部办公区警务室,政府机构,公检法机构,福建省,福州市,仓山区,福州市仓山区石碑兜路福州市东部新城商务办公中心区,714673f5817a060aa2acc4a5,1,0,119.360868,26.043823,,life,http://api.map.baidu.com/place/detail?uid=714673f5817a060aa2acc4a5&output=html&source=placeapi_v2,,,,,,,,,,1,,,,,,,,,,0
a2d65e0e8b22aedb9e82eaad,福州市仓山区人民检察院,政府机构,公检法机构,福建省,福州市,仓山区,福建省福州市仓山区大坪路326号,a2d65e0e8b22aedb9e82eaad,1,0,119.338982,26.048271,(0591)88372118,life,http://api.map.baidu.com/place/detail?uid=a2d65e0e8b22aedb9e82eaad&output=html&source=placeapi_v2,,"08:30-12:00,14:30-18:00",0,,,,,,,9,,,,,,,,119.33904277715,26.047888662078,0
0aea4013bc419dead13ce39b,福州市公安局交通警察支队台江大队,政府机构,公检法机构,福建省,福州市,台江区,福州市台江区鳌峰路182号,0aea4013bc419dead13ce39b,1,0,119.359108,26.057455,(0591)83296154,life,http://api.map.baidu.com/place/detail?uid=0aea4013bc419dead13ce39b&output=html&source=placeapi_v2,,"08:30-12:00,15:00-18:00",0,,,,,,,9,0,,,,,,,119.35908717822,26.057403218602,0
f295cd2ed1693bf02dfaa7ae,福州市公安局交通警察支队仓山大队,政府机构,公检法机构,福建省,福州市,仓山区,福州市仓山区湖畔路6号,f295cd2ed1693bf02dfaa7ae,1,0,119.33594,26.039792,(0591)83464112,life,http://api.map.baidu.com/place/detail?uid=f295cd2ed1693bf02dfaa7ae&output=html&source=placeapi_v2,,"08:30-12:00,14:30-17:30",0,,,,,,,6,0,,,,,,,119.3360705564,26.039673335027,0
1fe04b94ad8b626d28b97c91,福州市公安局海防支队,政府机构,公检法机构,福建省,福州市,仓山区,福建省福州市仓山区连江南路98号,1fe04b94ad8b626d28b97c91,1,0,119.34102,26.048036,,life,http://api.map.baidu.com/place/detail?uid=1fe04b94ad8b626d28b97c91&output=html&source=placeapi_v2,,,,,,,,,,2,,,,,,,,119.34107728102,26.04793290173,0
5f6ecb573f366ba5db1318d5,福州市公安局交通警察支队仓山大队案件调查中队,政府机构,公检法机构,福建省,福州市,仓山区,福州市仓山区三叉街街道湖畔路6号,,1,0,119.335931,26.040123,,life,http://api.map.baidu.com/place/detail?uid=5f6ecb573f366ba5db1318d5&output=html&source=placeapi_v2,,00:00-24:00,,,,,,,,0,,,,,,,,119.33586066462,26.040235504154,0
235a8dd0188b97fec056ac34,福州市仓山区人民检查院控告申诉举报接待室,政府机构,公检法机构,福建省,福州市,仓山区,福州市仓山区大坪路330号附近,235a8dd0188b97fec056ac34,1,0,119.338718,26.047908,,life,http://api.map.baidu.com/place/detail?uid=235a8dd0188b97fec056ac34&output=html&source=placeapi_v2,,,,,,,,,,3,,,,,,,,119.33872192757,26.047797021273,0
237cf5f182c4129aabf7291b,三叉街派出所治安岗,政府机构,公检法机构,福建省,福州市,仓山区,福州市仓山区三埔巷与展进路交叉口西南50米,237cf5f182c4129aabf7291b,1,0,119.334576,26.041618,,life,http://api.map.baidu.com/place/detail?uid=237cf5f182c4129aabf7291b&output=html&source=placeapi_v2,,,,,,,,,,2,,,,,,,,,,0
8597ea6a04f4e4f90bf5ebad,高湖警务站,政府机构,公检法机构,福建省,福州市,仓山区,福州市仓山区高湖路ABC双语幼儿园(连江南路)东侧约100米,8597ea6a04f4e4f90bf5ebad,1,0,119.342852,26.039598,,life,http://api.map.baidu.com/place/detail?uid=8597ea6a04f4e4f90bf5ebad&output=html&source=placeapi_v2,,,,,,,,,,,,,,,,,,,,0
ec0996dfefb76bc3b6f42fb8,福州市公安局交通警察支队台江大队金融街中队,政府机构,公检法机构,福建省,福州市,台江区,福光南路与鳌峰路交叉路口往东约50米(鳌峰公园),,1,0,119.361772,26.05775,,life,http://api.map.baidu.com/place/detail?uid=ec0996dfefb76bc3b6f42fb8&output=html&source=placeapi_v2,,,,,,,,,,2,,,,,,,,,,0
e81b3838f6c877a67f29bdf9,福州市公安局台江分局巡特警大队,政府机构,公检法机构,福建省,福州市,台江区,福州市台江区鳌峰街道鳌峰路与鳌江路交叉口东北50米,e81b3838f6c877a67f29bdf9,1,0,119.351236,26.059731,,life,http://api.map.baidu.com/place/detail?uid=e81b3838f6c877a67f29bdf9&output=html&source=placeapi_v2,,,,,,,,,,1,,,,,,,,,,0
e0478dfa1a33a0f9c27da2e8,鳌峰派出所鳌峰洲警务室,政府机构,公检法机构,福建省,福州市,台江区,福建省福州市台江区鳌峰路与鳌江路交叉口东南150米,e0478dfa1a33a0f9c27da2e8,1,0,119.351762,26.058922,,life,http://api.map.baidu.com/place/detail?uid=e0478dfa1a33a0f9c27da2e8&output=html&source=placeapi_v2,,,,,,,,,,8,,,,,,,,119.35177784056,26.058977832155,0
d9b188a5e8be3e4d43afe60e,林翔峰警务室,政府机构,公检法机构,福建省,福州市,台江区,福建省福州市台江区福光南路鳌峰苑23幢,,1,0,119.361032,26.058586,,life,http://api.map.baidu.com/place/detail?uid=d9b188a5e8be3e4d43afe60e&output=html&source=placeapi_v2,,,0.0,,,,,,,0,0,,,,,,,119.36087527959,26.058422398188,0
bb8c6948b8e7554145e27439,福州市公安局盖山派出所福州建筑职专治安岗,政府机构,公检法机构,福建省,福州市,仓山区,福州市仓山区高昌路3号附近,bb8c6948b8e7554145e27439,1,0,119.349912,26.03143,,life,http://api.map.baidu.com/place/detail?uid=bb8c6948b8e7554145e27439&output=html&source=placeapi_v2,,,,,,,,,,3,,,,,,,,119.34992301575,26.031288610945,0
08752fa7710ad53b29201a3d,鳌峰派出所万达警务室,政府机构,公检法机构,福建省,福州市,台江区,福州市台江区鳌江路8号万达广场F1,08752fa7710ad53b29201a3d,1,0,119.349706,26.057024,,life,http://api.map.baidu.com/place/detail?uid=08752fa7710ad53b29201a3d&output=html&source=placeapi_v2,,,,,,,,,,,,,,,,,,119.34984018929,26.056473436584,0
ab8b8ed2f8a8e7fece04eff4,鳌峰派出所福人警务室,政府机构,公检法机构,福建省,福州市,台江区,福州市台江区鳌峰路114号附近,ab8b8ed2f8a8e7fece04eff4,1,0,119.35442,26.058717,,life,http://api.map.baidu.com/place/detail?uid=ab8b8ed2f8a8e7fece04eff4&output=html&source=placeapi_v2,,,,,,,,,,2,,,,,,,,119.35446977921,26.058695604746,0
033a1c1a1060a864fb221325,三叉街派出所莱茵城治安岗,政府机构,公检法机构,福建省,福州市,仓山区,东园路,033a1c1a1060a864fb221325,1,0,119.3335,26.039578,,life,http://api.map.baidu.com/place/detail?uid=033a1c1a1060a864fb221325&output=html&source=placeapi_v2,,,,,,,,,,2,,,,,,,,119.33352982786,26.039540310989,0
db1f39d42ccea76ff5c59c55,福州市仓山区检察院司法警察大队,政府机构,公检法机构,福建省,福州市,仓山区,福州市仓山区大坪路326号,db1f39d42ccea76ff5c59c55,1,0,119.339091,26.047962,,life,http://api.map.baidu.com/place/detail?uid=db1f39d42ccea76ff5c59c55&output=html&source=placeapi_v2,,"08:30-12:00,14:00-18:00",,,,,,,,0,,,,,,,,119.3390964518,26.047807737322,0
5c0e6a5b2fa6a628e856fa6c,盖山派出所仓山科技园第二治安岗,政府机构,公检法机构,福建省,福州市,仓山区,福建省福州市仓山区高盛路2号,5c0e6a5b2fa6a628e856fa6c,1,0,119.350976,26.035183,,life,http://api.map.baidu.com/place/detail?uid=5c0e6a5b2fa6a628e856fa6c&output=html&source=placeapi_v2,,,,,,,,,,0,,,,,,,,119.3509759421,26.035272664771,0
d52a8bdc527d9ce0ede4a56f,福州市仓山区检察院反贪局,政府机构,公检法机构,福建省,福州市,仓山区,福州市仓山区大坪路326号,d52a8bdc527d9ce0ede4a56f,1,0,119.339091,26.047962,,life,http://api.map.baidu.com/place/detail?uid=d52a8bdc527d9ce0ede4a56f&output=html&source=placeapi_v2,,"08:30-12:00,14:00-18:00",,,,,,,,0,,,,,,,,119.33902906721,26.047950221926,0
3c96cad0696ab6cc980050e7,鳌峰派出所亚峰警务室,政府机构,公检法机构,福建省,福州市,台江区,福州市台江区,,1,0,119.349608,26.061865,(0591)83631605,life,http://api.map.baidu.com/place/detail?uid=3c96cad0696ab6cc980050e7&output=html&source=placeapi_v2,,,,,,,,,,2,,,,,,,,,,0
1721036dac1fc88808a8d43c,福州市公安局盖山派出所福州第六中学治安岗,政府机构,公检法机构,福建省,福州市,仓山区,福州市仓山区双湖三路福建省福州第六中学,1721036dac1fc88808a8d43c,1,0,119.349968,26.03156,,life,http://api.map.baidu.com/place/detail?uid=1721036dac1fc88808a8d43c&output=html&source=placeapi_v2,,,,,,,,,,1,,,,,,,,119.34995372163,26.031705748615,0
40fe17ef2746198d8c1a89e9,鳌峰派出所曙光警务室,政府机构,公检法机构,福建省,福州市,台江区,福州市台江区光明路2号榕江新天地3座,40fe17ef2746198d8c1a89e9,1,0,119.34562,26.061849,,life,http://api.map.baidu.com/place/detail?uid=40fe17ef2746198d8c1a89e9&output=html&source=placeapi_v2,,,,,,,,,,9,,,,,,,,119.34609915287,26.06174279724,0
914b8cdb0986bffa3686f456,下渡派出所三高警务室,政府机构,公检法机构,福建省,福州市,仓山区,福州市仓山区展进巷200号附近,914b8cdb0986bffa3686f456,1,0,119.334684,26.042771,,life,http://api.map.baidu.com/place/detail?uid=914b8cdb0986bffa3686f456&output=html&source=placeapi_v2,,,,,,,,,,3,,,,,,,,119.33479804826,26.042793501129,0
305bc6de35b988ca940319e1,福州市台江区人民法院金融巡回法庭,政府机构,公检法机构,福建省,福州市,台江区,福州市台江区曙光支路16号,,1,0,119.344475,26.059283,,life,http://api.map.baidu.com/place/detail?uid=305bc6de35b988ca940319e1&output=html&source=placeapi_v2,,,,,,,,,,,,,,,,,,,,0
b0c50ccbab5f776a3fe23163,福州市公安局仓山分局交通巡逻警察大队,政府机构,公检法机构,福建省,福州市,仓山区,福州市仓山区湖畔路6号,,1,0,119.335936,26.040053,,life,http://api.map.baidu.com/place/detail?uid=b0c50ccbab5f776a3fe23163&output=html&source=placeapi_v2,,,,,,,,,,,,,,,,,,119.33608767451,26.039757186583,0
a852be1da7c649a34f6d467a,下渡派出所金彩警务室,政府机构,公检法机构,福建省,福州市,仓山区,福建省福州市仓山区三高路156号,a852be1da7c649a34f6d467a,1,0,119.337538,26.042764,(0591)83441246,life,http://api.map.baidu.com/place/detail?uid=a852be1da7c649a34f6d467a&output=html&source=placeapi_v2,,,,,,,,,,2,,,,,,,,,,0
e9af392b29aa647d4d2fdfbc,下渡派出所银桥警务室,政府机构,公检法机构,福建省,福州市,仓山区,福州市仓山区先锋路金彩新村,e9af392b29aa647d4d2fdfbc,1,0,119.337626,26.042758,,life,http://api.map.baidu.com/place/detail?uid=e9af392b29aa647d4d2fdfbc&output=html&source=placeapi_v2,,,,,,,,,,6,,,,,,,,119.33774463765,26.04277271571,0
7a8d64275b8d389d9ff77957,盖山派出所金色康城小区警务室,政府机构,公检法机构,福建省,福州市,仓山区,福州市仓山区双湖二路金色康城,7a8d64275b8d389d9ff77957,1,0,119.343986,26.032676,,life,http://api.map.baidu.com/place/detail?uid=7a8d64275b8d389d9ff77957&output=html&source=placeapi_v2,,,,,,,,,,,,,,,,,,119.34412321852,26.03252561729,0
227522d21cd9a9ccc36c1486,垄山派出所执勤点,政府机构,公检法机构,福建省,福州市,仓山区,福州市仓山区合浦支路福州市麦顶小学(金源浦下分校)南侧,227522d21cd9a9ccc36c1486,1,0,119.361271,26.034709,,life,http://api.map.baidu.com/place/detail?uid=227522d21cd9a9ccc36c1486&output=html&source=placeapi_v2,,,,,,,,,,,,,,,,,,,,0
c91f28c404199f64213bf240,下藤社区治安保卫委员会,政府机构,公检法机构,福建省,福州市,仓山区,福州市仓山区下藤路311号,c91f28c404199f64213bf240,1,0,119.332019,26.044417,,life,http://api.map.baidu.com/place/detail?uid=c91f28c404199f64213bf240&output=html&source=placeapi_v2,,,,,,,,,,,,,,,,,,119.33178080983,26.04441001338,0
8a621a425b585a1238221c42,福州市公安局仓山森林分局,政府机构,公检法机构,福建省,福州市,仓山区,福建省福州市仓山区下藤路272号,8a621a425b585a1238221c42,1,0,119.331443,26.045462,,life,http://api.map.baidu.com/place/detail?uid=8a621a425b585a1238221c42&output=html&source=placeapi_v2,,"08:30-12:00,14:00-18:00",,,,,,,,6,,,,,,,,119.33152527785,26.045410439701,0
ce9a1982d6b50024ca1b95ff,临江派出所下池警务室,政府机构,公检法机构,福建省,福州市,仓山区,福州市仓山区六一南路69号,ce9a1982d6b50024ca1b95ff,1,0,119.333339,26.051202,(0591)83429495,life,http://api.map.baidu.com/place/detail?uid=ce9a1982d6b50024ca1b95ff&output=html&source=placeapi_v2,,,,,,,,,,3,,,,,,,,119.333206568,26.051112894842,0
f2f4ac68d63031736cc02cad,福州东站派出所魁岐警务区,政府机构,公检法机构,福建省,福州市,晋安区,福州市晋安区江滨东大道,,1,0,119.384297,26.037356,,life,http://api.map.baidu.com/place/detail?uid=f2f4ac68d63031736cc02cad&output=html&source=placeapi_v2,,,,,,,,,,3,,,,,,,,,,0
be98e63452f1469a471a32ed,鼓涌派出所,政府机构,公检法机构,福建省,福州市,晋安区,福州市晋安区鼓山风景区11号,be98e63452f1469a471a32ed,1,0,119.402095,26.059815,(0591)83921041,life,http://api.map.baidu.com/place/detail?uid=be98e63452f1469a471a32ed&output=html&source=placeapi_v2,,09:00-17:00,,,,,,,,,,,,,,,,119.40187278783,26.059898774217,0
9e48952e710c64db3f9a5e63,快安派出所,政府机构,公检法机构,福建省,福州市,马尾区,福州市马尾区快安路1号,9e48952e710c64db3f9a5e63,1,3,119.432244,26.029942,(0591)83969715,life,http://api.map.baidu.com/place/detail?uid=9e48952e710c64db3f9a5e63&output=html&source=placeapi_v2,,"08:30-12:00,14:30-17:30",,,,,,,,0,,,,,,,,119.43199030361,26.030033037551,3
68a4e3e7878a8907e215f936,福州经济技术开发区公安局交通巡逻警察大队,政府机构,公检法机构,福建省,福州市,马尾区,福建省福州市马尾区马江路1号,68a4e3e7878a8907e215f936,1,0,119.422148,26.031842,,life,http://api.map.baidu.com/place/detail?uid=68a4e3e7878a8907e215f936&output=html&source=placeapi_v2,,,,,,,,,,,,,,,,,,119.4221835338,26.031806839665,0
bc72c70d9e9a50ee71455b2a,亭江派出所东盛警务室,政府机构,公检法机构,福建省,福州市,马尾区,福州市马尾区沈海高速,,1,0,119.503358,26.058032,,life,http://api.map.baidu.com/place/detail?uid=bc72c70d9e9a50ee71455b2a&output=html&source=placeapi_v2,,,,,,,,,,,,,,,,,,,,0
6b8b0a07624fe13a213bf2ac,福州市公安局仓山分局建新派出所,政府机构,公检法机构,福建省,福州市,仓山区,福州市仓山区建新镇洪光村园亭里17号,6b8b0a07624fe13a213bf2ac,1,1,119.245662,26.070689,(0591)83589876,life,http://api.map.baidu.com/place/detail?uid=6b8b0a07624fe13a213bf2ac&output=html&source=placeapi_v2,,"08:30-12:00,14:30-18:00",,,,,,,,2,,,,,,,,119.24555059728,26.071193136675,1
b703e96bba6abffa8f1a895a,淮安派出所,政府机构,公检法机构,福建省,福州市,仓山区,福州市仓山区福建农林大学校内,b703e96bba6abffa8f1a895a,1,0,119.244099,26.087019,(0591)86393576,life,http://api.map.baidu.com/place/detail?uid=b703e96bba6abffa8f1a895a&output=html&source=placeapi_v2,,09:00-17:00,,,,,,,,1,,,,,,,,119.24401041655,26.087134063926,0
9eeb55c188343e00210220d2,福州市鼓楼区人民检察院行贿犯罪查询中心,政府机构,公检法机构,福建省,福州市,鼓楼区,福州市鼓楼区江滨西大道58号附近,9eeb55c188343e00210220d2,1,0,119.271472,26.07782,,life,http://api.map.baidu.com/place/detail?uid=9eeb55c188343e00210220d2&output=html&source=placeapi_v2,,,,,,,,,,1,,,,,,,,119.27156014489,26.077923997419,0
31f9101bf35878c426e0a059,福州市鼓楼区人民法院,政府机构,公检法机构,福建省,福州市,鼓楼区,福州市鼓楼区江滨西大道58号,31f9101bf35878c426e0a059,1,0,119.271248,26.077301,(0591)86320373,life,http://api.map.baidu.com/place/detail?uid=31f9101bf35878c426e0a059&output=html&source=placeapi_v2,,"08:30-12:00,14:30-18:00",0,,,,,,,7,0,,,,,,,119.27150787249,26.078129257916,0
50fb64ffda880e5ce9f8537a,福州市鼓楼区人民检察院,政府机构,公检法机构,福建省,福州市,鼓楼区,福建省福州市鼓楼区江滨西大道56号,50fb64ffda880e5ce9f8537a,1,0,119.271167,26.077754,(0591)63036507,life,http://api.map.baidu.com/place/detail?uid=50fb64ffda880e5ce9f8537a&output=html&source=placeapi_v2,,"08:30-12:00,14:30-18:00",0,,,,,,,8,0,,,,,,,119.27150787249,26.078129257916,0
8295fd07bb6b9a574657263f,鼓楼区人民法院执行局,政府机构,公检法机构,福建省,福州市,鼓楼区,福州市鼓楼区江滨西大道58号,8295fd07bb6b9a574657263f,1,0,119.271468,26.077496,,life,http://api.map.baidu.com/place/detail?uid=8295fd07bb6b9a574657263f&output=html&source=placeapi_v2,,,,,,,,,,,,,,,,,,119.27168357296,26.077270151396,0
e9fbe5fdb031d1485cd4fe87,福州市鼓楼区人民法院洪山法庭,政府机构,公检法机构,福建省,福州市,鼓楼区,江滨西大道58号,,1,0,119.271742,26.07755,,life,http://api.map.baidu.com/place/detail?uid=e9fbe5fdb031d1485cd4fe87&output=html&source=placeapi_v2,,"08:30-12:00,14:00-18:00",,,,,,,,0,,,,,,,,119.27093748083,26.077829626027,0
682a012cd42fc5654c3a59d6,福州市鼓楼区人民法院民事审判第二庭,政府机构,公检法机构,福建省,福州市,鼓楼区,福建省福州市鼓楼区江滨西大道58号,682a012cd42fc5654c3a59d6,1,0,119.271089,26.076952,,life,http://api.map.baidu.com/place/detail?uid=682a012cd42fc5654c3a59d6&output=html&source=placeapi_v2,,,,,,,,,,,,,,,,,,119.2711144524,26.076979090918,0
baafb3b00855110b3a13fde1,厦门海事法院福州法庭,政府机构,公检法机构,福建省,福州市,鼓楼区,福建省福州市鼓楼区江滨西大道58号,baafb3b00855110b3a13fde1,1,0,119.271333,26.077334,(0591)88028066,life,http://api.map.baidu.com/place/detail?uid=baafb3b00855110b3a13fde1&output=html&source=placeapi_v2,,,,,,,,,,,,,,,,,,119.2715530321,26.07712181907,0
e4d03f41b269487152e5c547,福建省质量技术监督职业技能鉴定总站,政府机构,公检法机构,福建省,福州市,鼓楼区,福州市鼓楼区西河路山头角121号,e4d03f41b269487152e5c547,1,0,119.275846,26.081208,,life,http://api.map.baidu.com/place/detail?uid=e4d03f41b269487152e5c547&output=html&source=placeapi_v2,,,,,,,,,,,,,,,,,,119.275918045,26.081096010308,0
c39353107178be5c93114c0e,国家塑料制品质量监督检验中心,政府机构,公检法机构,福建省,福州市,鼓楼区,福建省福州市鼓楼区洪山镇福建省产品质量检验研究院,c39353107178be5c93114c0e,1,0,119.276097,26.077878,,life,http://api.map.baidu.com/place/detail?uid=c39353107178be5c93114c0e&output=html&source=placeapi_v2,,,,,,,,,,4,,,,,,,,119.27634572645,26.077952483476,0
b0d056f23a883a7ecbc3db86,福州市洪山派出所,政府机构,公检法机构,福建省,福州市,鼓楼区,福建省福州市鼓楼区洪甘路21号,b0d056f23a883a7ecbc3db86,1,0,119.261253,26.086252,"(0591)63038350,(0591)63038370",life,http://api.map.baidu.com/place/detail?uid=b0d056f23a883a7ecbc3db86&output=html&source=placeapi_v2,,"08:30-12:00,14:30-18:00",0,,,,,,,1,0,,,,,,,119.26104973776,26.086393645865,0
c94dd00fef29aa9acd04ef72,福州市公安局鼓楼分局巡特警反恐大队,政府机构,公检法机构,福建省,福州市,鼓楼区,福州市鼓楼区洪甘路-绰蘼咖啡酒店4楼,c94dd00fef29aa9acd04ef72,1,0,119.261285,26.085978,,life,http://api.map.baidu.com/place/detail?uid=c94dd00fef29aa9acd04ef72&output=html&source=placeapi_v2,,,,,,,,,,,,,,,,,,,,0
3ad54265ff5e6c8a3310af6d,洪山派出所锦江警务室,政府机构,公检法机构,福建省,福州市,鼓楼区,福州市鼓楼区凤湖路西150米,3ad54265ff5e6c8a3310af6d,1,0,119.27847,26.073035,,life,http://api.map.baidu.com/place/detail?uid=3ad54265ff5e6c8a3310af6d&output=html&source=placeapi_v2,,,,,,,,,,1,,,,,,,,,,0
470610cfdd6f4a3609b93af5,福州市公安局洪山派出所办证大厅,政府机构,公检法机构,福建省,福州市,鼓楼区,福州市鼓楼区,470610cfdd6f4a3609b93af5,1,0,119.261142,26.086266,,life,http://api.map.baidu.com/place/detail?uid=470610cfdd6f4a3609b93af5&output=html&source=placeapi_v2,,,,,,,,,,6,,,,,,,,,,0
159a6e5f9e0f321a7dc876bf,鼓楼公安分局交巡警大队电动自行车报牌点,政府机构,公检法机构,福建省,福州市,鼓楼区,福建省福州市鼓楼区南街西二环中路欣泰花园,159a6e5f9e0f321a7dc876bf,1,0,119.29013,26.084042,(0591)87027000,life,http://api.map.baidu.com/place/detail?uid=159a6e5f9e0f321a7dc876bf&output=html&source=placeapi_v2,,"08:30-12:00,14:00-18:00",,,,,,,,1,,,,,,,,119.29014344396,26.084002969547,0
7705d90b1ac9b7f9a1d23025,洪山派出所国光警务室,政府机构,公检法机构,福建省,福州市,鼓楼区,梁厝路169号西北60米,7705d90b1ac9b7f9a1d23025,1,0,119.267176,26.094729,,life,http://api.map.baidu.com/place/detail?uid=7705d90b1ac9b7f9a1d23025&output=html&source=placeapi_v2,,00:00-24:00,,,,,,,,5,,,,,,,,119.26754447492,26.094516669365,0
611ff3df9539310588f15de6,福州市鼓楼区洪山派出所凤湖治安岗,政府机构,公检法机构,福建省,福州市,鼓楼区,上埔路100号-1附近,611ff3df9539310588f15de6,1,0,119.285057,26.069933,,life,http://api.map.baidu.com/place/detail?uid=611ff3df9539310588f15de6&output=html&source=placeapi_v2,,,,,,,,,,1,,,,,,,,119.28520132547,26.069683467804,0
b9a3e5d9d427f282df1e52a6,洪山派出所福屿警务室,政府机构,公检法机构,福建省,福州市,鼓楼区,福州市鼓楼区福二路与福屿后路交叉口西100米,b9a3e5d9d427f282df1e52a6,1,0,119.28618,26.082303,,life,http://api.map.baidu.com/place/detail?uid=b9a3e5d9d427f282df1e52a6&output=html&source=placeapi_v2,,,,,,,,,,4,,,,,,,,,,0
e6155d537dbe0e0c0e3ddab7,建新派出所马榕警务室,政府机构,公检法机构,福建省,福州市,仓山区,闽江大道,,1,0,119.267646,26.06775,,life,http://api.map.baidu.com/place/detail?uid=e6155d537dbe0e0c0e3ddab7&output=html&source=placeapi_v2,,,,,,,,,,6,,,,,,,,119.26760237547,26.067651616574,0
2b33e8c9c6ed6a9f9122e047,洪山派出所西凤警务室,政府机构,公检法机构,福建省,福州市,鼓楼区,福州市鼓楼区文林路靠近洪山派出所西,2b33e8c9c6ed6a9f9122e047,1,0,119.28478,26.091138,,life,http://api.map.baidu.com/place/detail?uid=2b33e8c9c6ed6a9f9122e047&output=html&source=placeapi_v2,,,,,,,,,,,,,,,,,,119.28470332556,26.091085374593,0
06a2d3bc78c9b4302fb908ad,洪山派出所大凰山警务室,政府机构,公检法机构,福建省,福州市,鼓楼区,福州市鼓楼区,06a2d3bc78c9b4302fb908ad,1,0,119.286389,26.076221,(0591)63038350,life,http://api.map.baidu.com/place/detail?uid=06a2d3bc78c9b4302fb908ad&output=html&source=placeapi_v2,,,,,,,,,,11,,,,,,,,119.28643499897,26.07611965175,0
a5f0e38096865e508c772700,建新派出所阵坂警务站,政府机构,公检法机构,福建省,福州市,仓山区,福建省福州市仓山区金工路与金榕北路交叉口西北50米,a5f0e38096865e508c772700,1,0,119.26063,26.070924,,life,http://api.map.baidu.com/place/detail?uid=a5f0e38096865e508c772700&output=html&source=placeapi_v2,,,,,,,,,,,,,,,,,,119.26073902969,26.070936664747,0
67a8864e1734f0ad26e0a023,建新派出所金山学区警务站,政府机构,公检法机构,福建省,福州市,仓山区,福建省福州市仓山区上下店路56号附近,67a8864e1734f0ad26e0a023,1,0,119.254469,26.086108,,life,http://api.map.baidu.com/place/detail?uid=67a8864e1734f0ad26e0a023&output=html&source=placeapi_v2,,,,,,,,,,0,,,,,,,,119.25427998258,26.086243053369,0
2fb3f5c98dfa09ef344aaeba,福建省公安厅交警总队福州高速公路支队,政府机构,公检法机构,福建省,福州市,鼓楼区,福建省福州市鼓楼区杨桥中路120号3楼,2fb3f5c98dfa09ef344aaeba,1,0,119.288992,26.085873,(0591)83535122,life,http://api.map.baidu.com/place/detail?uid=2fb3f5c98dfa09ef344aaeba&output=html&source=placeapi_v2,,"08:30-12:00,14:00-18:00",,,,,,,,,,,,,,,,,,0
06956dd60a80dbe8eddfcace,凤湖社区警务室,政府机构,公检法机构,福建省,福州市,鼓楼区,上埔路100号-1附近,06956dd60a80dbe8eddfcace,1,0,119.285248,26.069955,,life,http://api.map.baidu.com/place/detail?uid=06956dd60a80dbe8eddfcace&output=html&source=placeapi_v2,,,,,,,,,,4,,,,,,,,119.28536106486,26.069760087363,0
4faae7b6be8ef5a61c389459,洪山派出所凤凰池警务室,政府机构,公检法机构,福建省,福州市,鼓楼区,福州市鼓楼区文林路大王里西洪新村北侧,4faae7b6be8ef5a61c389459,1,0,119.284196,26.091462,,life,http://api.map.baidu.com/place/detail?uid=4faae7b6be8ef5a61c389459&output=html&source=placeapi_v2,,,,,,,,,,3,,,,,,,,,,0
1b44d305da792e0db54f5480,建新派出所江滨警务室,政府机构,公检法机构,福建省,福州市,仓山区,建新镇金榕北路35号,1b44d305da792e0db54f5480,1,0,119.268288,26.064843,,life,http://api.map.baidu.com/place/detail?uid=1b44d305da792e0db54f5480&output=html&source=placeapi_v2,,,,,,,,,,7,,,,,,,,119.26792195457,26.064702942187,0
9f13277a5b510027d3ff23bc,安泰派出所儿童医院警务室,政府机构,公检法机构,福建省,福州市,鼓楼区,福建省福州市鼓楼区福建省福州儿童医院,9f13277a5b510027d3ff23bc,1,0,119.310113,26.078517,,life,http://api.map.baidu.com/place/detail?uid=9f13277a5b510027d3ff23bc&output=html&source=placeapi_v2,,,,,,,,,,1,,,,,,,,119.31020166727,26.078541002295,0
700fbcf03ab5a4533904b1e0,台江区人民法院,政府机构,公检法机构,福建省,福州市,台江区,福州市台江区广达路89号,700fbcf03ab5a4533904b1e0,1,0,119.314562,26.076358,(0591)62727701,life,http://api.map.baidu.com/place/detail?uid=700fbcf03ab5a4533904b1e0&output=html&source=placeapi_v2,,"08:30-12:00,14:30-18:00",,,,,,,,2,,,,,,,,119.3143189832,26.076189340873,0
e56bf5e36b7318450782c2c6,福州市公证处,政府机构,公检法机构,福建省,福州市,台江区,福建省福州市台江区高桥路69号福州市民服务中心5楼,e56bf5e36b7318450782c2c6,1,0,119.314497,26.078303,(0591)86211391,life,http://api.map.baidu.com/place/detail?uid=e56bf5e36b7318450782c2c6&output=html&source=placeapi_v2,,"09:00-12:00,14:00-17:30",0,,,,,,,,0,,,,,,,119.31433995504,26.077708221959,0
9a4112c0e98df1513913fd5c,福州仲裁委员会(广达路),政府机构,公检法机构,福建省,福州市,台江区,福州市台江区广达路68号金源大广场东区16层D、E,9a4112c0e98df1513913fd5c,1,0,119.312955,26.077476,,life,http://api.map.baidu.com/place/detail?uid=9a4112c0e98df1513913fd5c&output=html&source=placeapi_v2,,,,,,,,,,,,,,,,,,119.31330242385,26.077494307369,0
023789cb4271b69eab059d2e,安泰派出所五一广场警务室,政府机构,公检法机构,福建省,福州市,鼓楼区,福州市鼓楼区,,1,0,119.309774,26.081369,,life,http://api.map.baidu.com/place/detail?uid=023789cb4271b69eab059d2e&output=html&source=placeapi_v2,,,,,,,,,,,,,,,,,,,,0
b67f3ab135b0a15d4e554797,茶亭派出所治安岗,政府机构,公检法机构,福建省,福州市,台江区,台江区仁德路与帮边巷交叉口东100米,b67f3ab135b0a15d4e554797,1,0,119.312261,26.078061,,life,http://api.map.baidu.com/place/detail?uid=b67f3ab135b0a15d4e554797&output=html&source=placeapi_v2,,,,,,,,,,1,,,,,,,,,,0
a1be62eccddad1e6871541b3,福州市公安局交通警察支队鼓楼大队,政府机构,公检法机构,福建省,福州市,鼓楼区,福州市鼓楼区五一北路121号,a1be62eccddad1e6871541b3,1,0,119.316667,26.086641,(0591)87545666,life,http://api.map.baidu.com/place/detail?uid=a1be62eccddad1e6871541b3&output=html&source=placeapi_v2,,"08:30-12:00,14:30-17:30",,,,,,,,4,,,,,,,,119.31647346386,26.086540432276,0
ec94256c7274529af6c59cdf,福州市安泰派出所,政府机构,公检法机构,福建省,福州市,鼓楼区,福州市鼓楼区福涧街20号,ec94256c7274529af6c59cdf,1,0,119.30942,26.085503,(0591)87551283,life,http://api.map.baidu.com/place/detail?uid=ec94256c7274529af6c59cdf&output=html&source=placeapi_v2,,"08:30-12:00,14:30-18:00",,,,,,,,2,,,,,,,,119.30941098145,26.085328401143,0
69099f1a8821be7f09b93a30,茶亭派出所仁德警务室,政府机构,公检法机构,福建省,福州市,台江区,福州市台江区八一七中路199号附近,69099f1a8821be7f09b93a30,1,0,119.310923,26.076038,,life,http://api.map.baidu.com/place/detail?uid=69099f1a8821be7f09b93a30&output=html&source=placeapi_v2,,,,,,,,,,2,,,,,,,,119.31070691651,26.075961644841,0
606ab0d09bec3f2a0f3dda86,福州市公安局水部派出所,政府机构,公检法机构,福建省,福州市,鼓楼区,福建省福州市鼓楼区五一中路通天镜巷18号,606ab0d09bec3f2a0f3dda86,1,0,119.319254,26.080776,(0591)83324576,life,http://api.map.baidu.com/place/detail?uid=606ab0d09bec3f2a0f3dda86&output=html&source=placeapi_v2,,"08:30-12:00,15:00-18:00",,,,,,,,0,,,,,,,,119.31835688173,26.080884264905,0
307b15f7bb792f0304026fbe,福州市公安局,政府机构,公检法机构,福建省,福州市,鼓楼区,福建省福州市鼓楼区津门路11号,307b15f7bb792f0304026fbe,1,0,119.313192,26.087876,(0591)87557705,life,http://api.map.baidu.com/place/detail?uid=307b15f7bb792f0304026fbe&output=html&source=placeapi_v2,,"08:30-12:00,14:30-18:00",0.0,,,,,,,1,0,,,,,,,119.31291986877,26.087742197111,0
f696f3c2da2051961a11d583,福州市公安局鼓楼分局(福新路),政府机构,公检法机构,福建省,福州市,鼓楼区,福建省福州市鼓楼区福新路230号,f696f3c2da2051961a11d583,1,0,119.323111,26.086787,(0591)87551039,life,http://api.map.baidu.com/place/detail?uid=f696f3c2da2051961a11d583&output=html&source=placeapi_v2,,"08:30-12:00,14:30-18:00",0,,,,,,,4,0,,,,,,,119.32290048944,26.086829395056,0
6330640af4ed86ec1f389421,阳光e警务室,政府机构,公检法机构,福建省,福州市,台江区,粉干巷与高桥路交叉口西南100米,6330640af4ed86ec1f389421,1,0,119.31438,26.078384,,life,http://api.map.baidu.com/place/detail?uid=6330640af4ed86ec1f389421&output=html&source=placeapi_v2,,,,,,,,,,1,,,,,,,,119.31451827497,26.078571001575,0
20c58a4659379eceaeb22aca,办证大厅,政府机构,公检法机构,福建省,福州市,鼓楼区,福州市鼓楼区柳宅巷福州市公安局水部派出所,20c58a4659379eceaeb22aca,1,0,119.31929,26.080956,,life,http://api.map.baidu.com/place/detail?uid=20c58a4659379eceaeb22aca&output=html&source=placeapi_v2,,,,,,,,,,1,,,,,,,,119.31909734598,26.081006127336,0
156fbc03101a464fc52ba1a1,福州市台江区治安大队,政府机构,公检法机构,福建省,福州市,台江区,福建省福州市台江区广达路349号,156fbc03101a464fc52ba1a1,1,0,119.315018,26.068303,,life,http://api.map.baidu.com/place/detail?uid=156fbc03101a464fc52ba1a1&output=html&source=placeapi_v2,,,0.0,,,,,,,0,0,,,,,,,119.31482926564,26.068291412875,0
eecc87aca2f0467457bfff09,上海派出所附属第一医院警务室,政府机构,公检法机构,福建省,福州市,台江区,福州市台江区上河里与茶中路交叉口东南50米,eecc87aca2f0467457bfff09,1,0,119.309627,26.075966,,life,http://api.map.baidu.com/place/detail?uid=eecc87aca2f0467457bfff09&output=html&source=placeapi_v2,,,,,,,,,,1,,,,,,,,119.30954928726,26.075953610405,0
97448262c0504ef26140a927,福州市公安局南街派出所三坊七巷警务室,政府机构,公检法机构,福建省,福州市,鼓楼区,福州市鼓楼区南后街7号附近,97448262c0504ef26140a927,1,0,119.303896,26.087027,,life,http://api.map.baidu.com/place/detail?uid=97448262c0504ef26140a927&output=html&source=placeapi_v2,,,,,,,,,,3,,,,,,,,,,0
3db8b36aaa4b7711c16c140d,福州市公安局鼓楼分局南街派出所,政府机构,公检法机构,福建省,福州市,鼓楼区,福州市鼓楼区营房里8号,3db8b36aaa4b7711c16c140d,1,0,119.303281,26.085061,(0591)87551285,life,http://api.map.baidu.com/place/detail?uid=3db8b36aaa4b7711c16c140d&output=html&source=placeapi_v2,,"08:30-12:00,14:30-18:00",0,,,,,,,4,1,,,,,,,119.30327870338,26.084948792057,0
5c2402bbd3e859f2e3110377,福州市公安局安泰派出所服务大厅,政府机构,公检法机构,福建省,福州市,鼓楼区,福州市鼓楼区,5c2402bbd3e859f2e3110377,1,0,119.309542,26.085445,,life,http://api.map.baidu.com/place/detail?uid=5c2402bbd3e859f2e3110377&output=html&source=placeapi_v2,,,,,,,,,,6,,,,,,,,,,0
b3ad118b6737ab47f92d6112,福州市于山风景区保安中队,政府机构,公检法机构,福建省,福州市,鼓楼区,福州市鼓楼区于山路10号于山风景区内,b3ad118b6737ab47f92d6112,1,0,119.313656,26.083182,,life,http://api.map.baidu.com/place/detail?uid=b3ad118b6737ab47f92d6112&output=html&source=placeapi_v2,,,,,,,,,,,,,,,,,,,,0
cbc60737660341bd631c67ff,福州市公安局交通警察支队鼓楼大队案件调查中队,政府机构,公检法机构,福建省,福州市,鼓楼区,洪山镇兴园路89号,,1,0,119.29361,26.077368,,life,http://api.map.baidu.com/place/detail?uid=cbc60737660341bd631c67ff&output=html&source=placeapi_v2,,,,,,,,,,1,,,,,,,,119.29344649715,26.07727034635,0
c879fa010e17a84ac809f080,福州市公安局鼓楼分局东街派出所,政府机构,公检法机构,福建省,福州市,鼓楼区,福州市鼓楼区仙塔街80号,c879fa010e17a84ac809f080,1,0,119.311629,26.090037,(0591)83323653,life,http://api.map.baidu.com/place/detail?uid=c879fa010e17a84ac809f080&output=html&source=placeapi_v2,,"08:30-12:00,14:30-18:00",0.0,,,,,,,13,,,,,,,,119.31171610346,26.090037910727,0
2e00c5dd043ad861d6851fa9,福州市台江区人民检察院,政府机构,公检法机构,福建省,福州市,台江区,福建省福州市台江区象园路35号,2e00c5dd043ad861d6851fa9,1,0,119.32825,26.071498,12309,life,http://api.map.baidu.com/place/detail?uid=2e00c5dd043ad861d6851fa9&output=html&source=placeapi_v2,,"08:30-12:00,14:00-18:00",,,,,,,,0,,,,,,,,119.32823307439,26.071643947743,0
4ef8e263895461799b68b4f1,茶亭派出所吴奋华警务室,政府机构,公检法机构,福建省,福州市,台江区,福州市台江区广达支路与粉干巷交叉口东北50米,4ef8e263895461799b68b4f1,1,0,119.315603,26.07738,,life,http://api.map.baidu.com/place/detail?uid=4ef8e263895461799b68b4f1&output=html&source=placeapi_v2,,,,,,,,,,2,,,,,,,,119.31565102474,26.077385495062,0
803a4bff9dcf2ea2cac3dbec,福州市公安局鼓楼分局交通巡逻警察大队,政府机构,公检法机构,福建省,福州市,鼓楼区,福建省福州市鼓楼区五一北路与鳌峰坊交叉口东北50米,803a4bff9dcf2ea2cac3dbec,1,0,119.316759,26.086773,,life,http://api.map.baidu.com/place/detail?uid=803a4bff9dcf2ea2cac3dbec&output=html&source=placeapi_v2,,,,,,,,,,,,,,,,,,119.31644289722,26.086706879224,0
50f7d146ce7239c572210b0e,福建省丽兴司法鉴定中心,政府机构,公检法机构,福建省,福州市,鼓楼区,福州市鼓楼区黎明街5号丽兴大厦,50f7d146ce7239c572210b0e,1,0,119.296171,26.078017,,life,http://api.map.baidu.com/place/detail?uid=50f7d146ce7239c572210b0e&output=html&source=placeapi_v2,,,,,,,,,,,,,,,,,,119.29606110876,26.078013439331,0
e5f15648897642a0b3077d41,安泰派出所警务室,政府机构,公检法机构,福建省,福州市,鼓楼区,福州市鼓楼区道山路与道山铺巷交叉口西北50米,e5f15648897642a0b3077d41,1,0,119.305203,26.084591,,life,http://api.map.baidu.com/place/detail?uid=e5f15648897642a0b3077d41&output=html&source=placeapi_v2,,,,,,,,,,1,,,,,,,,119.30522837668,26.084465771905,0
ebff8537ff27e851eb12e45a,上海派出所交一警务室,政府机构,公检法机构,福建省,福州市,台江区,福州市台江区交通路9号附近,ebff8537ff27e851eb12e45a,1,0,119.309424,26.072639,,life,http://api.map.baidu.com/place/detail?uid=ebff8537ff27e851eb12e45a&output=html&source=placeapi_v2,,,,,,,,,,2,,,,,,,,,,0
c828e4c579d43108223bf270,省妇幼保健院警务室,政府机构,公检法机构,福建省,福州市,鼓楼区,福州市鼓楼区道山路11号附近,c828e4c579d43108223bf270,1,0,119.306954,26.084937,,life,http://api.map.baidu.com/place/detail?uid=c828e4c579d43108223bf270&output=html&source=placeapi_v2,,,,,,,,,,,,,,,,,,119.30698343837,26.084819923907,0
14fadcb8197c4a0dcb1b9564,福州市公安局交通警察支队,政府机构,公检法机构,福建省,福州市,鼓楼区,福州市鼓楼区杨桥东路20号畅安大厦1层、4-6层、11-20层,14fadcb8197c4a0dcb1b9564,1,0,119.303775,26.092273,(0591)87027000,life,http://api.map.baidu.com/place/detail?uid=14fadcb8197c4a0dcb1b9564&output=html&source=placeapi_v2,,,0,,,,,,,5,0,,,,,,,119.30407066928,26.092357131636,0
b7021bf8f74a3dfaf4e73b71,福州市公安局台江分局上海派出所,政府机构,公检法机构,福建省,福州市,台江区,福建省福州市台江区白马支路上海西新村130座,b7021bf8f74a3dfaf4e73b71,1,0,119.298215,26.073426,(0591)83712080,life,http://api.map.baidu.com/place/detail?uid=b7021bf8f74a3dfaf4e73b71&output=html&source=placeapi_v2,,"08:30-12:00,14:30-18:00",0,,,,,,,1,0,,,,,,,119.29887873383,26.07370333399,0
af0381c580ed541411882414,福州市森林公安局,政府机构,公检法机构,福建省,福州市,鼓楼区,福州市鼓楼区五一中路通天境巷18号,af0381c580ed541411882414,1,0,119.319279,26.080799,,life,http://api.map.baidu.com/place/detail?uid=af0381c580ed541411882414&output=html&source=placeapi_v2,,,,,,,,,,,,,,,,,,119.31909734598,26.081006127336,0
89e8ad4325b2fac93b221c79,鼓楼交警大队杨桥中队,政府机构,公检法机构,福建省,福州市,鼓楼区,福州市鼓楼区杨桥东路158号后面二楼,89e8ad4325b2fac93b221c79,1,0,119.297718,26.091392,,life,http://api.map.baidu.com/place/detail?uid=89e8ad4325b2fac93b221c79&output=html&source=placeapi_v2,,,,,,,,,,,,,,,,,,119.29772886774,26.091230269424,0
680840cd2c5d9de7dad8917a,交通运输部东海航海保障中心福州航标处,政府机构,公检法机构,福建省,福州市,台江区,福建省福州市台江区西洋路60号,680840cd2c5d9de7dad8917a,1,0,119.300061,26.076511,(0591)83377466,life,http://api.map.baidu.com/place/detail?uid=680840cd2c5d9de7dad8917a&output=html&source=placeapi_v2,,,,,,,,,,9,,,,,,,,119.30011648114,26.076538486013,0
892ef5ff2290e199e856fa0e,茶亭派出所广安警务室,政府机构,公检法机构,福建省,福州市,台江区,福州市台江区安淡巷水松小区,892ef5ff2290e199e856fa0e,1,0,119.316333,26.071488,,life,http://api.map.baidu.com/place/detail?uid=892ef5ff2290e199e856fa0e&output=html&source=placeapi_v2,,,,,,,,,,1,,,,,,,,,,0
36e97b1ca89573fb59bbbc62,福建省劳动能力鉴定委员会办公室,政府机构,公检法机构,福建省,福州市,鼓楼区,福州市鼓楼区东大路36号福建人才大厦12层,36e97b1ca89573fb59bbbc62,1,0,119.317349,26.093354,,life,http://api.map.baidu.com/place/detail?uid=36e97b1ca89573fb59bbbc62&output=html&source=placeapi_v2,,,,,,,,,,2,,,,,,,,,,0
23be1319d68347d107026f4d,福州市公安局洋中派出所治安岗,政府机构,公检法机构,福建省,福州市,台江区,福州市台江区八一七中路130号附近,23be1319d68347d107026f4d,1,0,119.310947,26.068771,,life,http://api.map.baidu.com/place/detail?uid=23be1319d68347d107026f4d&output=html&source=placeapi_v2,,,,,,,,,,1,,,,,,,,119.31091044918,26.068657407973,0
9292c632e83c2462b5147fbf,水部派出所福新警务室,政府机构,公检法机构,福建省,福州市,鼓楼区,福州市鼓楼区福新西路与福新路交叉口西南50米,9292c632e83c2462b5147fbf,1,0,119.321193,26.083264,(0591)83324576,life,http://api.map.baidu.com/place/detail?uid=9292c632e83c2462b5147fbf&output=html&source=placeapi_v2,,,,,,,,,,6,,,,,,,,119.32119442596,26.083220919789,0
589787e870046b48ca09f094,安泰派出所乌塔警务室,政府机构,公检法机构,福建省,福州市,鼓楼区,福州市鼓楼区,589787e870046b48ca09f094,1,0,119.306937,26.084911,,life,http://api.map.baidu.com/place/detail?uid=589787e870046b48ca09f094&output=html&source=placeapi_v2,,,,,,,,,,2,,,,,,,,119.30696116309,26.084815167345,0
842766b819c78da99f09f703,东街派出所竹林境警务室,政府机构,公检法机构,福建省,福州市,鼓楼区,仙塔街90-2号附近,842766b819c78da99f09f703,1,0,119.31145,26.089412,,life,http://api.map.baidu.com/place/detail?uid=842766b819c78da99f09f703&output=html&source=placeapi_v2,,,,,,,,,,1,,,,,,,,119.31195501589,26.089627249557,0
d66193b8b2742bb23617dc47,水部街道社会治安综合治理工作服务中心,政府机构,公检法机构,福建省,福州市,台江区,福州市台江区龙庭路39号,d66193b8b2742bb23617dc47,1,0,119.320008,26.077204,,life,http://api.map.baidu.com/place/detail?uid=d66193b8b2742bb23617dc47&output=html&source=placeapi_v2,,,,,,,,,,0,,,,,,,,119.32016025071,26.07728069808,0
bd8ef3e028b2e3127169d391,新港派出所南公警务室,政府机构,公检法机构,福建省,福州市,台江区,福州市台江区五一中路233号耀和・51公馆附近,bd8ef3e028b2e3127169d391,1,0,119.32034,26.071143,(0591)83273645,life,http://api.map.baidu.com/place/detail?uid=bd8ef3e028b2e3127169d391&output=html&source=placeapi_v2,,,,,,,,,,3,,,,,,,,119.32049103554,26.071095845062,0
ad84b3867742fe2b725e80bd,上海派出所交二治安岗,政府机构,公检法机构,福建省,福州市,台江区,福州市台江区交通路248号附近,ad84b3867742fe2b725e80bd,1,0,119.307369,26.072267,,life,http://api.map.baidu.com/place/detail?uid=ad84b3867742fe2b725e80bd&output=html&source=placeapi_v2,,,,,,,,,,1,,,,,,,,119.30743208987,26.072266961286,0
58dc64654fcf30801de999ed,新港派出所林传铭警务室,政府机构,公检法机构,福建省,福州市,台江区,福州市台江区五一中路169号大利嘉城,58dc64654fcf30801de999ed,1,0,119.321441,26.074039,,life,http://api.map.baidu.com/place/detail?uid=58dc64654fcf30801de999ed&output=html&source=placeapi_v2,,,0,,,,,,,10,0,,,,,,,119.32152763788,26.074036811871,0
f49112b07bc4e874276e982b,福州市公安局鼓楼分局-人民来访接待室,政府机构,公检法机构,福建省,福州市,鼓楼区,福州市鼓楼区琼福路与福新路交叉口北50米,f49112b07bc4e874276e982b,1,0,119.323166,26.086746,,life,http://api.map.baidu.com/place/detail?uid=f49112b07bc4e874276e982b&output=html&source=placeapi_v2,,,,,,,,,,2,,,,,,,,,,0
637efc87f731711bcb213d3c,茶亭派出所金洋警务室,政府机构,公检法机构,福建省,福州市,台江区,福州市台江区儿童公园路42号附近,637efc87f731711bcb213d3c,1,0,119.317365,26.072186,,life,http://api.map.baidu.com/place/detail?uid=637efc87f731711bcb213d3c&output=html&source=placeapi_v2,,,,,,,,,,1,,,,,,,,,,0
b09c8a086675e85db9df8f7a,上海派出所西洋警务站,政府机构,公检法机构,福建省,福州市,台江区,福州市台江区兰花路与西洋路交叉口东南150米,b09c8a086675e85db9df8f7a,1,0,119.301109,26.075312,,life,http://api.map.baidu.com/place/detail?uid=b09c8a086675e85db9df8f7a&output=html&source=placeapi_v2,,,,,,,,,,1,,,,,,,,119.30099885969,26.075278405751,0
9bdd6e19884e95b96f476056,南街派出所报警大厅,政府机构,公检法机构,福建省,福州市,鼓楼区,福州市鼓楼区营房里福州市公安局鼓楼分局南街派出所,9bdd6e19884e95b96f476056,1,0,119.303409,26.085078,,life,http://api.map.baidu.com/place/detail?uid=9bdd6e19884e95b96f476056&output=html&source=placeapi_v2,,"08:30-12:00,14:30-18:00",,,,,,,,,,,,,,,,,,0
1930172a1f73fbac9de32153,福州市公安局-人民来访接待室,政府机构,公检法机构,福建省,福州市,鼓楼区,福州市鼓楼区津门路11号附近,1930172a1f73fbac9de32153,1,0,119.313063,26.087642,,life,http://api.map.baidu.com/place/detail?uid=1930172a1f73fbac9de32153&output=html&source=placeapi_v2,,,,,,,,,,1,,,,,,,,119.31290001712,26.087607867263,0
a913a26c2fdbf16a4afc8d1d,鼓东派出所庆城警务室,政府机构,公检法机构,福建省,福州市,鼓楼区,福州市鼓楼区庆城路福州市第十九中学,a913a26c2fdbf16a4afc8d1d,1,0,119.311789,26.09551,,life,http://api.map.baidu.com/place/detail?uid=a913a26c2fdbf16a4afc8d1d&output=html&source=placeapi_v2,,,,,,,,,,2,,,,,,,,119.31191813327,26.09502023008,0
031359e21ff7e85287154190,鼓东派出所开元警务室,政府机构,公检法机构,福建省,福州市,鼓楼区,福州市鼓楼区东牙巷与卫前街交叉口西北50米,031359e21ff7e85287154190,1,0,119.306201,26.094563,(0591)87515378,life,http://api.map.baidu.com/place/detail?uid=031359e21ff7e85287154190&output=html&source=placeapi_v2,,,,,,,,,,1,,,,,,,,119.30614160484,26.094554377237,0
5674cda9f4b1162a704b8743,福州市公安局东街派出所省立医院警务室,政府机构,公检法机构,福建省,福州市,鼓楼区,福建省福州市鼓楼区福建省立医院三号门,5674cda9f4b1162a704b8743,1,0,119.312428,26.093443,,life,http://api.map.baidu.com/place/detail?uid=5674cda9f4b1162a704b8743&output=html&source=placeapi_v2,,,,,,,,,,1,,,,,,,,,,0
a217e43238357412a80dd87f,新港派出所治安岗,政府机构,公检法机构,福建省,福州市,台江区,福州市台江区国货西路280号中共福州私营企业委员会楼,a217e43238357412a80dd87f,1,0,119.321397,26.07036,(0591)83273645,life,http://api.map.baidu.com/place/detail?uid=a217e43238357412a80dd87f&output=html&source=placeapi_v2,,,,,,,,,,1,,,,,,,,119.32149015249,26.070095337866,0
53cc068258584605b7265551,南街派出所驿里警务室,政府机构,公检法机构,福建省,福州市,鼓楼区,福州市鼓楼区通湖路280号光禄新坊9号楼,53cc068258584605b7265551,1,0,119.300075,26.086486,,life,http://api.map.baidu.com/place/detail?uid=53cc068258584605b7265551&output=html&source=placeapi_v2,,,,,,,,,,2,,,,,,,,119.30021387722,26.086721632248,0
51924c7f88eebcc38f55ec8e,新港派出所雁塔警务室,政府机构,公检法机构,福建省,福州市,台江区,福建省福州市台江区象园路33号附近,51924c7f88eebcc38f55ec8e,1,0,119.328058,26.071893,,life,http://api.map.baidu.com/place/detail?uid=51924c7f88eebcc38f55ec8e&output=html&source=placeapi_v2,,,,,,,,,,9,,,,,,,,119.32798818643,26.071886695282,0
9a772ba48ef170b69e82eab9,水部派出所建华警务室治安岗,政府机构,公检法机构,福建省,福州市,鼓楼区,鼓楼区建华支巷与福新路交叉路口南侧(水涧新村北侧),9a772ba48ef170b69e82eab9,1,0,119.320012,26.086084,,life,http://api.map.baidu.com/place/detail?uid=9a772ba48ef170b69e82eab9&output=html&source=placeapi_v2,,,,,,,,,,1,,,,,,,,,,0
95d0d24c1459e9b4b64f54cd,福州市公安局地铁分局,政府机构,公检法机构,福建省,福州市,台江区,福州市台江区达道路156号地铁大厦11楼,95d0d24c1459e9b4b64f54cd,1,0,119.317294,26.064145,,life,http://api.map.baidu.com/place/detail?uid=95d0d24c1459e9b4b64f54cd&output=html&source=placeapi_v2,,,,,,,,,,1,,,,,,,,,,0
dea7bf83d41528a8b42655cb,福州市鼓楼区人民法院民事审判第一庭,政府机构,公检法机构,福建省,福州市,鼓楼区,福州市鼓楼区琼河巷琼新新村,dea7bf83d41528a8b42655cb,1,0,119.323946,26.08754,,life,http://api.map.baidu.com/place/detail?uid=dea7bf83d41528a8b42655cb&output=html&source=placeapi_v2,,,,,,,,,,,,,,,,,,119.32411840756,26.087550317676,0
ab79a3197423f2533be4a682,东街派出所周宁警务室,政府机构,公检法机构,福建省,福州市,鼓楼区,福州市鼓楼区南营巷与织缎巷交叉口东北50米,ab79a3197423f2533be4a682,1,0,119.308716,26.088878,,life,http://api.map.baidu.com/place/detail?uid=ab79a3197423f2533be4a682&output=html&source=placeapi_v2,,,,,,,,,,14,,,,,,,,,,0
31b6e3acc30419e94107c1ff,福州公安局鼓东宿舍-42号,政府机构,公检法机构,福建省,福州市,鼓楼区,福州市鼓楼区鼓东路42号,31b6e3acc30419e94107c1ff,1,0,119.305843,26.095933,,life,http://api.map.baidu.com/place/detail?uid=31b6e3acc30419e94107c1ff&output=html&source=placeapi_v2,,,,,,,,,,,,,,,,,,119.30587765663,26.095622364453,0
1b294f556339232b343a718a,温泉派出所琼河警务室,政府机构,公检法机构,福建省,福州市,鼓楼区,福州市鼓楼区琼福路68号宜发得贵城4号楼一层,1b294f556339232b343a718a,1,0,119.322743,26.087547,,life,http://api.map.baidu.com/place/detail?uid=1b294f556339232b343a718a&output=html&source=placeapi_v2,,,,,,,,,,2,,,,,,,,,,0
fe70cc5e728bbb6333169b05,福州市鼓楼区人民检察院驻东街司法所社区矫正检察官办公室,政府机构,公检法机构,福建省,福州市,鼓楼区,福州市鼓楼区,,1,0,119.308581,26.091206,,life,http://api.map.baidu.com/place/detail?uid=fe70cc5e728bbb6333169b05&output=html&source=placeapi_v2,,,,,,,,,,1,,,,,,,,,,0
8bef7cf812a4988c16c90519,温泉河东派出所警务室,政府机构,公检法机构,福建省,福州市,鼓楼区,劳动路18号,8bef7cf812a4988c16c90519,1,0,119.317056,26.087744,,life,http://api.map.baidu.com/place/detail?uid=8bef7cf812a4988c16c90519&output=html&source=placeapi_v2,,,,,,,,,,5,,,,,,,,119.31696845355,26.087586425489,0
eec39d49729fd24de856faf0,金汤社区警务室,政府机构,公检法机构,福建省,福州市,鼓楼区,福建省福州市鼓楼区秘书横巷5号,eec39d49729fd24de856faf0,1,0,119.316228,26.094563,(0591)87500847,life,http://api.map.baidu.com/place/detail?uid=eec39d49729fd24de856faf0&output=html&source=placeapi_v2,,,,,,,,,,,,,,,,,,,,0
555001227ea0081d260bd0a0,福州市公安局交通管理支队值班室,政府机构,公检法机构,福建省,福州市,鼓楼区,虎节路27号附近,555001227ea0081d260bd0a0,1,0,119.303907,26.09252,,life,http://api.map.baidu.com/place/detail?uid=555001227ea0081d260bd0a0&output=html&source=placeapi_v2,,,,,,,,,,1,,,,,,,,119.30404823769,26.092534593467,0
8f423e29f4a865f88bdb73d1,福州国际商事仲裁院,政府机构,公检法机构,福建省,福州市,鼓楼区,福建省福州市鼓楼区杨桥东路142号,8f423e29f4a865f88bdb73d1,1,0,119.298412,26.091522,,life,http://api.map.baidu.com/place/detail?uid=8f423e29f4a865f88bdb73d1&output=html&source=placeapi_v2,,,,,,,,,,12,,,,,,,,119.29860067773,26.091563985692,0
dbcdb11f67145b7640ab9ada,南街派出所灵响警务室,政府机构,公检法机构,福建省,福州市,鼓楼区,福州市鼓楼区灵响路53号,dbcdb11f67145b7640ab9ada,1,0,119.29873,26.083486,,life,http://api.map.baidu.com/place/detail?uid=dbcdb11f67145b7640ab9ada&output=html&source=placeapi_v2,,,,,,,,,,0,,,,,,,,119.29853252868,26.0836018831,0
73e129cfb63999990b1cc7fd,东街派出所林春兰警务室,政府机构,公检法机构,福建省,福州市,鼓楼区,福州市鼓楼区,73e129cfb63999990b1cc7fd,1,0,119.311895,26.091369,,life,http://api.map.baidu.com/place/detail?uid=73e129cfb63999990b1cc7fd&output=html&source=placeapi_v2,,,,,,,,,,8,,,,,,,,,,0
337e01d47d70e0a44d776e46,鼓西派出所达明警务室,政府机构,公检法机构,福建省,福州市,鼓楼区,福州市鼓楼区达明路49-1号,337e01d47d70e0a44d776e46,1,0,119.30232,26.094175,,life,http://api.map.baidu.com/place/detail?uid=337e01d47d70e0a44d776e46&output=html&source=placeapi_v2,,,,,,,,,,6,,,,,,,,119.30219295744,26.094141246645,0
6e121d2452ba0c7b57bfffc5,东街派出所福州实验小学警务室,政府机构,公检法机构,福建省,福州市,鼓楼区,福州市鼓楼区井大路福建省福州实验小学,,1,0,119.311184,26.093558,,life,http://api.map.baidu.com/place/detail?uid=6e121d2452ba0c7b57bfffc5&output=html&source=placeapi_v2,,,,,,,,,,,,,,,,,,,,0
554d0071b92bb155c42ba164,福州市鼓楼区人民法院公示栏,政府机构,公检法机构,福建省,福州市,鼓楼区,福州市鼓楼区,554d0071b92bb155c42ba164,1,0,119.323968,26.087247,,life,http://api.map.baidu.com/place/detail?uid=554d0071b92bb155c42ba164&output=html&source=placeapi_v2,,,,,,,,,,1,,,,,,,,119.32415057229,26.087259592523,0
19949b9af123a76715a190d9,福建省汽车运输总公司福州客运站稽查室,政府机构,公检法机构,福建省,福州市,台江区,福州市台江区国货西路206号,19949b9af123a76715a190d9,1,0,119.318792,26.070059,,life,http://api.map.baidu.com/place/detail?uid=19949b9af123a76715a190d9&output=html&source=placeapi_v2,,09:00-18:30,,,,,,,,,,,,,,,,,,0
958e9bec61a23692b220a881,鼓东派出所福州市中医院警务室,政府机构,公检法机构,福建省,福州市,鼓楼区,福州市鼓楼区,958e9bec61a23692b220a881,1,0,119.308535,26.096143,,life,http://api.map.baidu.com/place/detail?uid=958e9bec61a23692b220a881&output=html&source=placeapi_v2,,,,,,,,,,1,,,,,,,,119.30853807799,26.09610846566,0
53ca7645e901020dcf06a475,新港派出所元一警务室,政府机构,公检法机构,福建省,福州市,台江区,福州市台江区群众东路99号元一花园1号,53ca7645e901020dcf06a475,1,0,119.325918,26.07486,,life,http://api.map.baidu.com/place/detail?uid=53ca7645e901020dcf06a475&output=html&source=placeapi_v2,,,,,,,,,,1,,,,,,,,,,0
c6e95e69908bc15f0f0e6bcf,东街派出所旗汛口警务室,政府机构,公检法机构,福建省,福州市,鼓楼区,福州市鼓楼区三牧坊福州第一中学(东街)西南侧,c6e95e69908bc15f0f0e6bcf,1,0,119.308967,26.093174,,life,http://api.map.baidu.com/place/detail?uid=c6e95e69908bc15f0f0e6bcf&output=html&source=placeapi_v2,,,,,,,,,,1,,,,,,,,119.30910397926,26.092450975757,0
187c9f2dcb65ec559cec2ba6,义洲派出所浦东警务室,政府机构,公检法机构,福建省,福州市,台江区,福建省福州市台江区浦东村白马南路120号,187c9f2dcb65ec559cec2ba6,1,0,119.302271,26.067949,,life,http://api.map.baidu.com/place/detail?uid=187c9f2dcb65ec559cec2ba6&output=html&source=placeapi_v2,,,,,,,,,,0,,,,,,,,119.30211725275,26.067876130871,0
40b5e01d5017f686f7eafc08,洋中派出所玉树警务室,政府机构,公检法机构,福建省,福州市,台江区,福建省福州市台江区国货西路万家福便利店对面,40b5e01d5017f686f7eafc08,1,0,119.318251,26.067744,(0591)83285878,life,http://api.map.baidu.com/place/detail?uid=40b5e01d5017f686f7eafc08&output=html&source=placeapi_v2,,,0.0,,,,,,,17,,,,,,,,119.31834141991,26.06773097818,0
566954dafacabaa7283a9f2a,洋中派出所福明警务室,政府机构,公检法机构,福建省,福州市,台江区,福州市台江区国货西路与打铁巷交叉口南50米,566954dafacabaa7283a9f2a,1,0,119.317524,26.069389,,life,http://api.map.baidu.com/place/detail?uid=566954dafacabaa7283a9f2a&output=html&source=placeapi_v2,,,,,,,,,,3,,,,,,,,119.31756999036,26.069103073653,0
68976043fdace06ee215f9eb,福州市保育员职业技能鉴定站,政府机构,公检法机构,福建省,福州市,台江区,福建省福州市台江区工业路71号,68976043fdace06ee215f9eb,1,0,119.306238,26.067557,,life,http://api.map.baidu.com/place/detail?uid=68976043fdace06ee215f9eb&output=html&source=placeapi_v2,,,,,,,,,,,,,,,,,,119.30625515784,26.067461668479,0
47913ae8ff66dbf26b49f3cc,上海派出所凤凰警务室,政府机构,公检法机构,福建省,福州市,台江区,福州市台江区工业路695号附近,47913ae8ff66dbf26b49f3cc,1,0,119.292792,26.073462,,life,http://api.map.baidu.com/place/detail?uid=47913ae8ff66dbf26b49f3cc&output=html&source=placeapi_v2,,,,,,,,,,7,,,,,,,,119.29281599718,26.073340158769,0
7cb7f4467eb4b38fab059d19,福州交警,政府机构,公检法机构,福建省,福州市,鼓楼区,福州市鼓楼区南后街畅安大厦南门西南侧约90米,7cb7f4467eb4b38fab059d19,1,0,119.302871,26.091644,,life,http://api.map.baidu.com/place/detail?uid=7cb7f4467eb4b38fab059d19&output=html&source=placeapi_v2,,,,,,,,,,,,,,,,,,119.30283605975,26.091914057982,0
3eadfb9a52aa39cf9e09f719,洪山派出所兴园警务室,政府机构,公检法机构,福建省,福州市,鼓楼区,福州市鼓楼区柳兴路55号附近,3eadfb9a52aa39cf9e09f719,1,0,119.294905,26.079906,,life,http://api.map.baidu.com/place/detail?uid=3eadfb9a52aa39cf9e09f719&output=html&source=placeapi_v2,,,,,,,,,,3,,,,,,,,119.29465630178,26.079957803905,0
253ba3a283a0e0ff49fc8d4a,福州市公安局国保支队,政府机构,公检法机构,福建省,福州市,鼓楼区,福州市鼓楼区永安街15号建行四楼,253ba3a283a0e0ff49fc8d4a,1,0,119.315285,26.095076,,life,http://api.map.baidu.com/place/detail?uid=253ba3a283a0e0ff49fc8d4a&output=html&source=placeapi_v2,,,,,,,,,,,,,,,,,,,,0
fc72cbe8cfedeb0f9122e036,水部派出所莲宅社区警务室,政府机构,公检法机构,福建省,福州市,鼓楼区,福州市鼓楼区皇岛中环4楼,fc72cbe8cfedeb0f9122e036,1,0,119.326259,26.080499,,life,http://api.map.baidu.com/place/detail?uid=fc72cbe8cfedeb0f9122e036&output=html&source=placeapi_v2,,,,,,,,,,4,,,,,,,,,,0
