uid,name,cat_L1,cat_L2,province,city,area,address,street_id,detail,child_num,loc_lng,loc_lat,telephone,type,detail_url,price,shop_hours,overall_rating,taste_rating,service_rating,environment_rating,facility_rating,hygiene_rating,technology_rating,image_num,comment_num,groupon_num,discount_num,favorite_num,checkin_num,brand,content_tag,naviloc_lng,naviloc_lat,child_num
91de4672beb4fd27bca822a8,金岛国际饭店,酒店,星级酒店,江苏省,常州市,溧阳市,常州市溧阳市迎宾路别桥镇东建材店东北侧约290米,,1,0,119.397556,31.578366,,hotel,http://api.map.baidu.com/place/detail?uid=91de4672beb4fd27bca822a8&output=html&source=placeapi_v2,,,,,0,,0,0,,0,0,,,0,0,,,119.39752925279,31.57855446789,0
0dc3d82dd7be347574e5b693,金鼎明都国际大酒店,酒店,星级酒店,江苏省,常州市,武进区,江苏省常州市武进区湟里镇金鼎路8号,0dc3d82dd7be347574e5b693,1,1,119.715229,31.647413,(0519)86199112,hotel,http://api.map.baidu.com/place/detail?uid=0dc3d82dd7be347574e5b693&output=html&source=placeapi_v2,,,4.8,,4.8,,4.8,4.8,,147,46,,,0,0,,,119.71522487875,31.647189465011,1
0e0b0e4bf2d706d5b23c8157,金鼎明都国际大酒店-西花苑,酒店,星级酒店,江苏省,常州市,武进区,江苏省常州市武进区湟里镇金鼎路8号,0e0b0e4bf2d706d5b23c8157,1,0,119.715268,31.647352,(0519)83349898,hotel,http://api.map.baidu.com/place/detail?uid=0e0b0e4bf2d706d5b23c8157&output=html&source=placeapi_v2,,,,,0,,0,0,,0,0,,,0,0,,,,,0
ab928111545ff61bbda2409a,明珠花园酒店,酒店,星级酒店,江苏省,常州市,武进区,江苏省常州市武进区洛阳镇戴洛路108号,ab928111545ff61bbda2409a,1,0,120.071386,31.653472,"(0519)88790777,(0519)88790888",hotel,http://api.map.baidu.com/place/detail?uid=ab928111545ff61bbda2409a&output=html&source=placeapi_v2,,,3.5,,0,,0,0,,19,0,,,0,0,,,120.07097520893,31.653580204735,0
1a30ca7eef53d6f4990050fe,鸣凰国际大酒店,酒店,星级酒店,江苏省,常州市,武进区,江苏省常州市武进区凤林北路28号,1a30ca7eef53d6f4990050fe,1,3,119.932823,31.686856,(0519)89827666,hotel,http://api.map.baidu.com/place/detail?uid=1a30ca7eef53d6f4990050fe&output=html&source=placeapi_v2,,,3.7,,4.2,,4.2,4.2,,117,62,,,0,0,,,119.93277760039,31.686643779702,3
f5e3bcae8987bdd85e17c379,江苏润澳花园大酒店,酒店,星级酒店,江苏省,常州市,金坛区,江苏省常州市金坛区东环二路1088号,f5e3bcae8987bdd85e17c379,1,2,119.597982,31.715212,(0519)82799999,hotel,http://api.map.baidu.com/place/detail?uid=f5e3bcae8987bdd85e17c379&output=html&source=placeapi_v2,,,3.7,,4.4,,4.4,4.4,,200,13,,,0,0,,,119.59815056765,31.715057965877,2
8ab0dfc456449916d8ecedf2,明都枫泽山庄大酒店,酒店,星级酒店,江苏省,常州市,武进区,常州市武进区嘉泽镇花海大道88号239省道夏溪花木市场北500米,8ab0dfc456449916d8ecedf2,1,0,119.786891,31.716863,"(0519)81987305,(0519)83683228",hotel,http://api.map.baidu.com/place/detail?uid=8ab0dfc456449916d8ecedf2&output=html&source=placeapi_v2,,,4.6,,4.6,,4.6,4.6,,200,68,,,0,0,,,119.78602887887,31.716201878996,0
3b69b1b9b2ef9011750269ba,明都紫薇花园酒店,酒店,星级酒店,江苏省,常州市,武进区,江苏省常州市武进区环湖西路98号,3b69b1b9b2ef9011750269ba,1,3,119.803931,31.702726,(0519)68008888,hotel,http://api.map.baidu.com/place/detail?uid=3b69b1b9b2ef9011750269ba&output=html&source=placeapi_v2,,,4.8,,4.8,,4.8,4.8,,200,30,,,0,0,,,119.80433588254,31.70312953313,3
8da1a107d3f3ebaf2b3a9f03,常州明都豪格国际酒店,酒店,星级酒店,江苏省,常州市,武进区,江苏省常州市武进区环湖北路328号经济开发区,8da1a107d3f3ebaf2b3a9f03,1,1,119.871042,31.693687,(0519)68896888,hotel,http://api.map.baidu.com/place/detail?uid=8da1a107d3f3ebaf2b3a9f03&output=html&source=placeapi_v2,,,4.8,,4.7,,4.7,4.7,,200,40,,,0,0,,,119.87094873501,31.693533475306,1
3953c55628c3345d4f3a597c,常州武进九洲喜来登酒店,酒店,星级酒店,江苏省,常州市,武进区,江苏省常州市武进区延政西大道1号,3953c55628c3345d4f3a597c,1,2,119.918854,31.70184,(0519)69968888,hotel,http://api.map.baidu.com/place/detail?uid=3953c55628c3345d4f3a597c&output=html&source=placeapi_v2,,,4.8,,4.8,,4.8,4.8,,200,43,,,0,0,,,119.91832365184,31.702469983653,2
9d4e1f902104217676e5b6d9,春秋水岸精品酒店,酒店,星级酒店,江苏省,常州市,武进区,江苏省常州市武进区中医街常乐坊60号,9d4e1f902104217676e5b6d9,1,0,119.942503,31.706368,(0519)88993113,hotel,http://api.map.baidu.com/place/detail?uid=9d4e1f902104217676e5b6d9&output=html&source=placeapi_v2,,,4.5,,4.4,,4.4,4.4,,200,15,,,0,0,,,119.94258812782,31.706433619789,0
4cf8d24ebecb41fd9df7799b,金色南都国际大酒店,酒店,星级酒店,江苏省,常州市,武进区,江苏省常州市武进区环府路8号,4cf8d24ebecb41fd9df7799b,1,1,119.951726,31.704978,(0519)69870188,hotel,http://api.map.baidu.com/place/detail?uid=4cf8d24ebecb41fd9df7799b&output=html&source=placeapi_v2,,,3.9,,4.5,,4.5,4.5,,153,17,,,0,0,,,119.95148841125,31.704996134273,1
81d6a509cde749596f20b99f,长兴华美达酒店(淹城公园店),酒店,星级酒店,江苏省,常州市,武进区,江苏省常州市武进区武宜南路203-3号6区,81d6a509cde749596f20b99f,1,3,119.940949,31.71023,"(0519)89852777,(0519)89858888",hotel,http://api.map.baidu.com/place/detail?uid=81d6a509cde749596f20b99f&output=html&source=placeapi_v2,836.0,,4.5,,4.5,,4.5,4.5,,120,116,,,0,0,,,119.94085236891,31.710178275123,3
2fd2beab96c0974b7bdbd284,新苑宾馆,酒店,星级酒店,江苏省,常州市,武进区,江苏省常州市武进区环府路18号,2fd2beab96c0974b7bdbd284,1,4,119.950178,31.707912,(0519)86312888,hotel,http://api.map.baidu.com/place/detail?uid=2fd2beab96c0974b7bdbd284&output=html&source=placeapi_v2,,,4.7,,4.8,,4.8,4.8,,165,102,,,0,0,,,119.95040261411,31.707450731423,4
d24e48ebf56920adaeee7a8a,锦海假日大酒店(纺织城店),酒店,星级酒店,江苏省,常州市,武进区,江苏省常州市武进区长虹路88号湖塘纺织城二中队,d24e48ebf56920adaeee7a8a,1,1,119.988275,31.712378,(0519)82011899,hotel,http://api.map.baidu.com/place/detail?uid=d24e48ebf56920adaeee7a8a&output=html&source=placeapi_v2,,,3.5,,3.1,,3.1,3.1,,200,75,,,0,0,,,119.98826416388,31.711970653995,1
1d8ee9866ed902eff7eafc28,皇家锦源大酒店,酒店,星级酒店,江苏省,常州市,金坛区,江苏省常州市金坛区汇贤路288号经济开发区,1d8ee9866ed902eff7eafc28,1,1,119.619352,31.744022,(0519)82901777,hotel,http://api.map.baidu.com/place/detail?uid=1d8ee9866ed902eff7eafc28&output=html&source=placeapi_v2,,,3.7,,0,,0,0,,6,0,,,0,0,,,119.61930435538,31.744498521735,1
e3644f14d28e6d941df74d22,常州富力万达嘉华酒店,酒店,星级酒店,江苏省,常州市,武进区,江苏省常州市武进区花园街301号万达广场A座,e3644f14d28e6d941df74d22,1,2,119.95508,31.734895,(0519)86308888,hotel,http://api.map.baidu.com/place/detail?uid=e3644f14d28e6d941df74d22&output=html&source=placeapi_v2,,,4.8,,4.8,,4.8,4.8,,200,80,,,0,0,,,119.95576297736,31.734661570999,2
0dc3d82dd78b347574e5b69c,锦海城市大酒店(会馆浜路店),酒店,星级酒店,江苏省,常州市,钟楼区,江苏省常州市钟楼区会馆浜路11号,0dc3d82dd78b347574e5b69c,1,0,119.947349,31.779142,(0519)86856577,hotel,http://api.map.baidu.com/place/detail?uid=0dc3d82dd78b347574e5b69c&output=html&source=placeapi_v2,,,4.2,,4.2,,4.2,4.2,,151,38,,,0,0,,,119.94709931748,31.779354255314,0
5ffb18168c10df466e476097,富都戴斯酒店,酒店,星级酒店,江苏省,常州市,天宁区,江苏省常州市天宁区文笔路1号,5ffb18168c10df466e476097,1,2,119.980789,31.776322,,hotel,http://api.map.baidu.com/place/detail?uid=5ffb18168c10df466e476097&output=html&source=placeapi_v2,,,4.7,,4.6,,4.6,4.6,,200,41,,,0,0,,,119.98073813157,31.776690615293,2
fa01e9370fd57553764ff195,九洲环宇大酒店,酒店,星级酒店,江苏省,常州市,天宁区,江苏省常州市天宁区关河东路66号九洲环宇商务广场关河东路与竹林南路交叉口北200米近大润发,fa01e9370fd57553764ff195,1,4,119.981407,31.785677,(0519)85228888,hotel,http://api.map.baidu.com/place/detail?uid=fa01e9370fd57553764ff195&output=html&source=placeapi_v2,,,4.8,,4.8,,4.8,4.8,,200,85,,,0,0,,,119.98096097512,31.786029548832,4
9b462c573b062f29afee7a19,都喜天丽中航酒店,酒店,星级酒店,江苏省,常州市,钟楼区,江苏省常州市钟楼区星港大道8号,9b462c573b062f29afee7a19,1,3,119.916295,31.804527,,hotel,http://api.map.baidu.com/place/detail?uid=9b462c573b062f29afee7a19&output=html&source=placeapi_v2,,,3.9,,4.7,,4.7,4.7,,148,135,,,0,0,,,119.91576369403,31.805011587915,3
663e020a484999a6c16c149b,常州都喜天丽富都青枫苑酒店,酒店,星级酒店,江苏省,常州市,钟楼区,江苏省常州市钟楼区月季路88号5号楼,663e020a484999a6c16c149b,1,0,119.905602,31.801679,(0519)89628888,hotel,http://api.map.baidu.com/place/detail?uid=663e020a484999a6c16c149b&output=html&source=placeapi_v2,,,4.8,,4.8,,4.8,4.8,,200,200,,,0,0,,,119.90708152996,31.801649232324,0
a12baa4065b95d4fe956fa8a,常州阳光国际大酒店,酒店,星级酒店,江苏省,常州市,钟楼区,江苏省常州市钟楼区怀德北路35号(泰安里与怀德北路交汇处),a12baa4065b95d4fe956fa8a,1,4,119.955311,31.788572,(0519)86606888,hotel,http://api.map.baidu.com/place/detail?uid=a12baa4065b95d4fe956fa8a&output=html&source=placeapi_v2,,,3.9,,4.5,,4.5,4.5,,200,23,,,0,0,,,119.95587303505,31.788577129675,4
61f634f6e6919e616a49f39b,椿庭大酒店,酒店,星级酒店,江苏省,常州市,天宁区,江苏省常州市天宁区局前街2号,61f634f6e6919e616a49f39b,1,1,119.972991,31.786704,(0519)88152222,hotel,http://api.map.baidu.com/place/detail?uid=61f634f6e6919e616a49f39b&output=html&source=placeapi_v2,,,4.6,,4.6,,4.6,4.6,,200,23,,,0,0,,,119.97326962764,31.786555040768,1
5b25f4463b041df31129359c,明都大饭店,酒店,星级酒店,江苏省,常州市,天宁区,江苏省常州市天宁区和平北路258号,5b25f4463b041df31129359c,1,2,119.972359,31.786022,(0519)88118888,hotel,http://api.map.baidu.com/place/detail?uid=5b25f4463b041df31129359c&output=html&source=placeapi_v2,,,4.7,,4.7,,4.7,4.7,,200,60,,,0,0,,,119.97237402064,31.785412367558,2
3a0fbba86a5399589ee321dd,奥体明都国际饭店,酒店,星级酒店,江苏省,常州市,新北区,江苏省常州市新北区龙锦路1261号,3a0fbba86a5399589ee321dd,1,0,119.990021,31.815229,(0519)85608888,hotel,http://api.map.baidu.com/place/detail?uid=3a0fbba86a5399589ee321dd&output=html&source=placeapi_v2,,,4.7,,4.8,,4.8,4.8,,200,200,,,0,0,,,119.99010030304,31.815332292069,0
fa01e9370fd57553764ff195,九洲环宇大酒店,酒店,星级酒店,江苏省,常州市,天宁区,江苏省常州市天宁区关河东路66号九洲环宇商务广场关河东路与竹林南路交叉口北200米近大润发,fa01e9370fd57553764ff195,1,4,119.981407,31.785677,(0519)85228888,hotel,http://api.map.baidu.com/place/detail?uid=fa01e9370fd57553764ff195&output=html&source=placeapi_v2,,,4.8,,4.8,,4.8,4.8,,200,85,,,0,0,,,119.98096097512,31.786029548832,4
d82d6697c5f7c9bfd418b791,中天凤凰大酒店,酒店,星级酒店,江苏省,常州市,新北区,江苏省常州市新北区通江中路555号,d82d6697c5f7c9bfd418b791,1,5,119.985666,31.834994,"(0519)86182509,(0519)86187888",hotel,http://api.map.baidu.com/place/detail?uid=d82d6697c5f7c9bfd418b791&output=html&source=placeapi_v2,,,4.3,,4.0,,4.0,4.0,,200,104,,,0,0,,,119.98627169351,31.835210454444,5
1bf85b25c75a48bda0a9349c,常州金陵江南大饭店,酒店,星级酒店,江苏省,常州市,新北区,江苏省常州市新北区通江中路500号,1bf85b25c75a48bda0a9349c,1,3,119.984538,31.836595,(0519)85119988,hotel,http://api.map.baidu.com/place/detail?uid=1bf85b25c75a48bda0a9349c&output=html&source=placeapi_v2,,,3.8,,4.5,,4.5,4.5,,200,47,,,0,0,,,119.98480305383,31.836677035403,3
f60a15ed33eefcf5ba17e798,常州丽亭酒店,酒店,星级酒店,江苏省,常州市,新北区,常州市新北区通江中路599号,f60a15ed33eefcf5ba17e798,1,4,119.986821,31.841049,(0519)85198888,hotel,http://api.map.baidu.com/place/detail?uid=f60a15ed33eefcf5ba17e798&output=html&source=placeapi_v2,,,4.6,,4.7,,4.7,4.7,,200,38,,,0,0,,,119.9867805225,31.841399941252,4
8fa14fc3790b4377f6eafceb,常州富力喜来登酒店,酒店,星级酒店,江苏省,常州市,新北区,常州市新北区通江中路88号万达广场F1,8fa14fc3790b4377f6eafceb,1,1,119.975206,31.822528,(0519)81588888,hotel,http://api.map.baidu.com/place/detail?uid=8fa14fc3790b4377f6eafceb&output=html&source=placeapi_v2,,,4.6,,4.5,,4.5,4.5,,200,43,,,0,0,,,119.97494243061,31.822238092016,1
2ad32cc391c9b7969c95de9b,海阳大酒店,酒店,星级酒店,江苏省,常州市,新北区,江苏省常州市新北区通江中路207号,2ad32cc391c9b7969c95de9b,1,2,119.978935,31.825227,"(0519)85167303,(0519)85167788",hotel,http://api.map.baidu.com/place/detail?uid=2ad32cc391c9b7969c95de9b&output=html&source=placeapi_v2,,,4.5,,4.5,,4.5,4.5,,200,11,,,0,0,,,119.97883372389,31.825285892271,2
a99b2ec500aa0e009cf779d4,常州华美达国际大酒店,酒店,星级酒店,江苏省,常州市,新北区,江苏省常州市新北区晋陵北路85号,a99b2ec500aa0e009cf779d4,1,3,119.989148,31.817261,(0519)68000888,hotel,http://api.map.baidu.com/place/detail?uid=a99b2ec500aa0e009cf779d4&output=html&source=placeapi_v2,,,4.6,,4.6,,4.6,4.6,,200,39,,,0,0,,,119.98914588757,31.816703296707,3
3a0fbba86a5399589ee321dd,奥体明都国际饭店,酒店,星级酒店,江苏省,常州市,新北区,江苏省常州市新北区龙锦路1261号,3a0fbba86a5399589ee321dd,1,0,119.990021,31.815229,(0519)85608888,hotel,http://api.map.baidu.com/place/detail?uid=3a0fbba86a5399589ee321dd&output=html&source=placeapi_v2,,,4.7,,4.8,,4.8,4.8,,200,200,,,0,0,,,119.99010030304,31.815332292069,0
45c0d4a3877a09a4abf0cdc7,常州万豪酒店,酒店,星级酒店,江苏省,常州市,新北区,江苏省常州市新北区龙锦路1590号,45c0d4a3877a09a4abf0cdc7,1,1,119.97871,31.819975,"(0519)68018888,(0519)68018888-8866",hotel,http://api.map.baidu.com/place/detail?uid=45c0d4a3877a09a4abf0cdc7&output=html&source=placeapi_v2,,,4.7,,4.6,,4.6,4.6,,137,25,,,0,0,,,119.97848227623,31.820325689595,1
a74481d6a8d39046f503b8cb,常州富都VOCO酒店,酒店,星级酒店,江苏省,常州市,新北区,江苏省常州市新北区通江大道398号,a74481d6a8d39046f503b8cb,1,2,119.983283,31.835687,(0519)85168888,hotel,http://api.map.baidu.com/place/detail?uid=a74481d6a8d39046f503b8cb&output=html&source=placeapi_v2,,,4.6,,4.5,,4.5,4.5,,197,41,,,0,0,,,119.98354982782,31.835808271362,2
9957d0d4871d6ff12bb97c9b,常州春秋假日酒店,酒店,星级酒店,江苏省,常州市,新北区,江苏省常州市新北区龙锦路1258号,9957d0d4871d6ff12bb97c9b,1,1,119.984838,31.8194,,hotel,http://api.map.baidu.com/place/detail?uid=9957d0d4871d6ff12bb97c9b&output=html&source=placeapi_v2,,,4.3,,4.3,,4.3,4.3,,200,7,,,0,0,,,119.98557550674,31.819353441506,1
64884c572e23a2deb9df8fc8,常州富都盛贸饭店(香格里拉酒店集团成员),酒店,星级酒店,江苏省,常州市,新北区,常州市新北区通江大道398号,,1,0,119.983283,31.835687,(0519)85168888,hotel,http://api.map.baidu.com/place/detail?uid=64884c572e23a2deb9df8fc8&output=html&source=placeapi_v2,300.0,,4.9,,4.5,,4.5,4.5,,117,51,,,0,0,,,,,0
d63842b89eef71ea70455bc7,环球港邮轮酒店,酒店,星级酒店,江苏省,常州市,新北区,常州市新北区通江中路598号江南环球港F1,d63842b89eef71ea70455bc7,1,4,119.983031,31.848423,(0519)82006666,hotel,http://api.map.baidu.com/place/detail?uid=d63842b89eef71ea70455bc7&output=html&source=placeapi_v2,299.0,,4.7,,4.7,,4.7,4.7,,200,116,,,0,0,,,119.98257067481,31.848507984865,4
4cf8d24eaff150fd9df7799d,福记逸高大酒店,酒店,星级酒店,江苏省,常州市,新北区,江苏省常州市新北区汉江东路99号福记逸高酒店一楼,4cf8d24eaff150fd9df7799d,1,3,119.99583,31.833462,(0519)83098888,hotel,http://api.map.baidu.com/place/detail?uid=4cf8d24eaff150fd9df7799d&output=html&source=placeapi_v2,,,4.6,,4.6,,4.6,4.6,,200,200,,,0,0,,,119.99638661355,31.833377482752,3
a6ac270ca42c207957bffff7,东坡大酒店,酒店,星级酒店,江苏省,常州市,新北区,江苏省常州市新北区黄河西路266号,a6ac270ca42c207957bffff7,1,1,119.931484,31.8578,(0519)85958688,hotel,http://api.map.baidu.com/place/detail?uid=a6ac270ca42c207957bffff7&output=html&source=placeapi_v2,,,4.3,,4.5,,4.5,4.5,,200,23,,,0,0,,,119.93181318948,31.857824514041,1
d63842b89eef71ea70455bc7,环球港邮轮酒店,酒店,星级酒店,江苏省,常州市,新北区,常州市新北区通江中路598号江南环球港F1,d63842b89eef71ea70455bc7,1,4,119.983031,31.848423,(0519)82006666,hotel,http://api.map.baidu.com/place/detail?uid=d63842b89eef71ea70455bc7&output=html&source=placeapi_v2,299.0,,4.7,,4.7,,4.7,4.7,,200,116,,,0,0,,,119.98257067481,31.848507984865,4
