uid,name,cat_L1,cat_L2,province,city,area,address,street_id,detail,child_num,loc_lng,loc_lat,telephone,type,detail_url,price,shop_hours,overall_rating,taste_rating,service_rating,environment_rating,facility_rating,hygiene_rating,technology_rating,image_num,comment_num,groupon_num,discount_num,favorite_num,checkin_num,brand,content_tag,naviloc_lng,naviloc_lat,child_num
c7eca12b66edfb37e115f937,中国邮政(后周邮政支局),生活服务,邮局,江苏省,常州市,溧阳市,江苏省常州市溧阳市新街5号,,1,0,119.392061,31.575773,(0519)87760514,life,http://api.map.baidu.com/place/detail?uid=c7eca12b66edfb37e115f937&output=html&source=placeapi_v2,,"07:50-11:20,13:15-16:00",0.0,,,,,,,,0,,,,,,,,,0
aa40108bd647fe15c5effb37,中国邮政(别桥邮政支局),生活服务,邮局,江苏省,常州市,溧阳市,江苏省常州市溧阳市兴城东路32号,aa40108bd647fe15c5effb37,1,0,119.475812,31.562892,,life,http://api.map.baidu.com/place/detail?uid=aa40108bd647fe15c5effb37&output=html&source=placeapi_v2,,,0.0,,,,,,,,0,,,,,,,,,0
1cea15a9f0e623c507fef5ee,中国邮政(运村邮政支局),生活服务,邮局,江苏省,常州市,武进区,常州市武进区前黄镇贾降上58号,1cea15a9f0e623c507fef5ee,1,0,119.982257,31.562474,(0519)86134885,life,http://api.map.baidu.com/place/detail?uid=1cea15a9f0e623c507fef5ee&output=html&source=placeapi_v2,,"07:40-10:00,13:20-16:30",0.0,,,,,,,6,,,,,,,,119.98248163117,31.562415167802,0
2c0bd6c5948c68d742ab9a83,中国邮政(南宅邮政支局邮政储蓄),生活服务,邮局,江苏省,常州市,武进区,江苏省常州市武进区振南路21号,2c0bd6c5948c68d742ab9a83,1,0,120.039897,31.566779,(0519)86201234,life,http://api.map.baidu.com/place/detail?uid=2c0bd6c5948c68d742ab9a83&output=html&source=placeapi_v2,,08:00-18:00,0,,,,,,,5,1,,,,,,,,,0
5fbc404f8f1c0fa5081cc7f9,中国邮政(坊前邮政支局),生活服务,邮局,江苏省,常州市,武进区,江苏省常州市武进区坊东街14号,5fbc404f8f1c0fa5081cc7f9,1,0,119.915021,31.602263,(0519)86281144,life,http://api.map.baidu.com/place/detail?uid=5fbc404f8f1c0fa5081cc7f9&output=html&source=placeapi_v2,,,0.0,,,,,,,,,,,,,,,,,0
cb4fd1468e4112419d9d68db,中国邮政(社头邮政支局),生活服务,邮局,江苏省,常州市,金坛区,常州市金坛区指前镇社兴中路124号,cb4fd1468e4112419d9d68db,1,0,119.464507,31.648546,(0519)82711104,life,http://api.map.baidu.com/place/detail?uid=cb4fd1468e4112419d9d68db&output=html&source=placeapi_v2,,"08:00-11:00,13:00-16:30",5,,,,,,,6,2,,,,,,,119.46452740924,31.648407838259,0
95b48225fd19f796d42ce2bc,中国邮政(湟里邮政支局),生活服务,邮局,江苏省,常州市,武进区,江苏省常州市武进区埠新中路78号,95b48225fd19f796d42ce2bc,1,0,119.722494,31.64399,(0519)83341124,life,http://api.map.baidu.com/place/detail?uid=95b48225fd19f796d42ce2bc&output=html&source=placeapi_v2,,08:30-16:00,,,,,,,,5,,,,,,,,,,0
e1f94ef99db183a9f82213fe,中国邮政(南夏墅邮政支局),生活服务,邮局,江苏省,常州市,武进区,江苏省常州市武进区龙颜路2~4号,e1f94ef99db183a9f82213fe,1,0,119.945451,31.636761,(0519)86483074,life,http://api.map.baidu.com/place/detail?uid=e1f94ef99db183a9f82213fe&output=html&source=placeapi_v2,,"08:00-11:00,13:15-16:45",,,,,,,,9,,,,,,,,119.94557752776,31.636875789561,0
72b4f823bbdadcfc8b2fb5f2,中国邮政(庙桥邮政支局),生活服务,邮局,江苏省,常州市,武进区,武进区庙桥镇庙前路97号,72b4f823bbdadcfc8b2fb5f2,1,0,119.986519,31.658517,(0519)86461044,life,http://api.map.baidu.com/place/detail?uid=72b4f823bbdadcfc8b2fb5f2&output=html&source=placeapi_v2,,"07:40-11:00,13:30-16:40",0.0,,,,,,,6,1,,,,,,,119.9863556707,31.658564575637,0
7c5e480bf9cddcc9acb22a82,礼嘉邮局,生活服务,邮局,江苏省,常州市,武进区,乐安街118号,7c5e480bf9cddcc9acb22a82,1,0,120.017534,31.635309,(0519)86231047,life,http://api.map.baidu.com/place/detail?uid=7c5e480bf9cddcc9acb22a82&output=html&source=placeapi_v2,,,0,,,,,,,8,1,,,,,,,120.01748210664,31.635215669766,0
805011508be26cf772210b0e,中国邮政(嘉盛花园西南),生活服务,邮局,江苏省,常州市,武进区,江苏省常州市武进区武进大道583号,805011508be26cf772210b0e,1,0,120.013788,31.629572,11185,life,http://api.map.baidu.com/place/detail?uid=805011508be26cf772210b0e&output=html&source=placeapi_v2,,09:00-17:00,0,,,,,,,13,0,,,,,,,120.01381895242,31.629680626162,0
031d363606897a60cb213d52,中国邮政(洮西邮政支局),生活服务,邮局,江苏省,常州市,金坛区,江苏省常州市金坛区新河东路5号,031d363606897a60cb213d52,1,0,119.530218,31.667445,(0519)82721227,life,http://api.map.baidu.com/place/detail?uid=031d363606897a60cb213d52&output=html&source=placeapi_v2,,"08:00-11:00,13:00-16:30",5.0,,,,,,,4,2,,,,,,,,,0
7524cb4fab421c4905026f9b,中国邮政(涑渎邮政支局),生活服务,邮局,江苏省,常州市,金坛区,江苏省常州市金坛区涑渎西街88号,7524cb4fab421c4905026f9b,1,0,119.564756,31.689343,(0519)82731757,life,http://api.map.baidu.com/place/detail?uid=7524cb4fab421c4905026f9b&output=html&source=placeapi_v2,,"08:00-11:00,13:00-16:30",5.0,,,,,,,3,2,,,,,,,119.56462525176,31.689144420072,0
2a7a25eccfee791e6d3e1b89,中国邮政(水北邮政支局),生活服务,邮局,江苏省,常州市,金坛区,金坛区尧塘镇水北大街316~317号,2a7a25eccfee791e6d3e1b89,1,0,119.651039,31.671367,(0519)82551236,life,http://api.map.baidu.com/place/detail?uid=2a7a25eccfee791e6d3e1b89&output=html&source=placeapi_v2,,09:00-17:00,5.0,,,,,,,10,3,,,,,,,,,0
c7fb04bd96acb468fb0cad8d,中国邮政(成章邮政支局),生活服务,邮局,江苏省,常州市,武进区,江苏省常州市武进区人民南路15号,c7fb04bd96acb468fb0cad8d,1,0,119.732613,31.680257,(0519)83783047,life,http://api.map.baidu.com/place/detail?uid=c7fb04bd96acb468fb0cad8d&output=html&source=placeapi_v2,,"08:00-11:00,13:30-16:00",0.0,,,,,,,4,1,,,,,,,119.73292733897,31.680327044398,0
f633606a1bd4ba4e0a69d99c,中国邮政(鸣凰支局),生活服务,邮局,江苏省,常州市,武进区,江苏省常州市武进区鸣新中路36-2号,f633606a1bd4ba4e0a69d99c,1,0,119.945428,31.681421,"(0519)86531174,11185",life,http://api.map.baidu.com/place/detail?uid=f633606a1bd4ba4e0a69d99c&output=html&source=placeapi_v2,,08:10-23:30,1.7,,,,,,,6,9,,,,,,,119.94543938184,31.681182602448,0
72b4f823bbdadcfc8b2fb5f2,中国邮政(庙桥邮政支局),生活服务,邮局,江苏省,常州市,武进区,武进区庙桥镇庙前路97号,72b4f823bbdadcfc8b2fb5f2,1,0,119.986519,31.658517,(0519)86461044,life,http://api.map.baidu.com/place/detail?uid=72b4f823bbdadcfc8b2fb5f2&output=html&source=placeapi_v2,,"07:40-11:00,13:30-16:40",0.0,,,,,,,6,1,,,,,,,119.9863556707,31.658564575637,0
480b24d08915d98c9dec2b82,中国邮政(坂上邮政支局),生活服务,邮局,江苏省,常州市,武进区,江苏省常州市武进区建中路137号,480b24d08915d98c9dec2b82,1,0,120.019877,31.668863,(0519)86731134,life,http://api.map.baidu.com/place/detail?uid=480b24d08915d98c9dec2b82&output=html&source=placeapi_v2,,"07:30-10:00,13:30-16:30",,,,,,,,7,,,,,,,,120.01999275556,31.66887870992,0
212e4361c958cd9ff8f0cb60,中国邮政(西岗邮政支局),生活服务,邮局,江苏省,常州市,金坛区,江苏省常州市金坛区西岗镇港府路6号,212e4361c958cd9ff8f0cb60,1,0,119.49222,31.704761,(0519)82631100,life,http://api.map.baidu.com/place/detail?uid=212e4361c958cd9ff8f0cb60&output=html&source=placeapi_v2,,"08:00-11:00,13:00-15:50",0.0,,,,,,,3,2,,,,,,,119.49222296491,31.704661299741,0
7524cb4fab421c4905026f9b,中国邮政(涑渎邮政支局),生活服务,邮局,江苏省,常州市,金坛区,江苏省常州市金坛区涑渎西街88号,7524cb4fab421c4905026f9b,1,0,119.564756,31.689343,(0519)82731757,life,http://api.map.baidu.com/place/detail?uid=7524cb4fab421c4905026f9b&output=html&source=placeapi_v2,,"08:00-11:00,13:00-16:30",5.0,,,,,,,3,2,,,,,,,119.56462525176,31.689144420072,0
fd13a3f292fc7a87b0077d89,中国邮政(尧塘邮政支局),生活服务,邮局,江苏省,常州市,金坛区,江苏省常州市金坛区南大街7号,fd13a3f292fc7a87b0077d89,1,0,119.688701,31.722661,(0519)82592006,life,http://api.map.baidu.com/place/detail?uid=fd13a3f292fc7a87b0077d89&output=html&source=placeapi_v2,,"08:00-11:00,13:00-16:30",5,,,,,,,8,3,,,,,,,119.68866707731,31.722715796157,0
2db8e3cc88ea21c5a1d2306a,江苏邮政乡镇电商服务站,生活服务,邮局,江苏省,常州市,金坛区,常州市金坛区尧汤路尧塘健身广场西南侧约210米,,1,0,119.688618,31.722649,,life,http://api.map.baidu.com/place/detail?uid=2db8e3cc88ea21c5a1d2306a&output=html&source=placeapi_v2,,,,,,,,,,,,,,,,,,,,0
cd3da5870ca5c67e621809a0,中国邮政(夏溪邮政局),生活服务,邮局,江苏省,常州市,武进区,江苏省常州市武进区新东街丽都家园1幢101号,,1,0,119.763817,31.714913,(0519)83581044,life,http://api.map.baidu.com/place/detail?uid=cd3da5870ca5c67e621809a0&output=html&source=placeapi_v2,,08:00-18:00,,,,,,,,6,,,,,,,,,,0
b0d056f25f921f7ecbc3db9c,中国邮政(卢家巷邮政支局),生活服务,邮局,江苏省,常州市,武进区,江苏省常州市武进区市政街7号,b0d056f25f921f7ecbc3db9c,1,0,119.908404,31.694386,(0519)86351047,life,http://api.map.baidu.com/place/detail?uid=b0d056f25f921f7ecbc3db9c&output=html&source=placeapi_v2,,,0,,,,,,,8,1,,,,,,,119.90835183725,31.694334388752,0
2628bd24c2071466a2d2308a,秘密邮局(路劲又一城店),生活服务,邮局,江苏省,常州市,武进区,常州市武进区花园街33号路劲又一城F4,2628bd24c2071466a2d2308a,1,0,119.957337,31.710926,,life,http://api.map.baidu.com/place/detail?uid=2628bd24c2071466a2d2308a&output=html&source=placeapi_v2,,09:30-21:30,,,,,,,,1,,,,,,,,119.95930492232,31.710905959329,0
606ab0d0fcf61a2a0f3dda9c,中国邮政(马杭邮政支局),生活服务,邮局,江苏省,常州市,武进区,江苏省常州市武进区湖塘纺织城105号,606ab0d0fcf61a2a0f3dda9c,1,0,119.9889,31.712609,"(0519)86701044,(0519)86701334",life,http://api.map.baidu.com/place/detail?uid=606ab0d0fcf61a2a0f3dda9c&output=html&source=placeapi_v2,,"08:00-11:00,13:30-16:00",3.2,,,,,,,12,5,,,,,,,119.98870886912,31.712621389568,0
a9dae06b4815a84a1fe99970,中国邮政(遥观邮政支局),生活服务,邮局,江苏省,常州市,武进区,江苏省常州市武进区临津路31号,a9dae06b4815a84a1fe99970,1,0,120.037269,31.70565,(0519)88701044,life,http://api.map.baidu.com/place/detail?uid=a9dae06b4815a84a1fe99970&output=html&source=placeapi_v2,,"07:30-10:00,13:15-16:15",,,,,,,,9,,,,,,,,120.03733269112,31.705798043668,0
a5ef680f6a1a05d7b8df8f8b,中国邮政(横林邮政支局),生活服务,邮局,江苏省,常州市,武进区,江苏省常州市武进区大桥南路43号,a5ef680f6a1a05d7b8df8f8b,1,0,120.107512,31.701955,(0519)88722028,life,http://api.map.baidu.com/place/detail?uid=a5ef680f6a1a05d7b8df8f8b&output=html&source=placeapi_v2,,,0.0,,,,,,,15,,,,,,,,120.10742756978,31.701821157701,0
9f3241e146c970828505bf51,中国邮政(薛埠支局),生活服务,邮局,江苏省,常州市,金坛区,江苏省常州市金坛区薛埠镇薛埠大街76号,9f3241e146c970828505bf51,1,0,119.383265,31.725465,(0519)82661381,life,http://api.map.baidu.com/place/detail?uid=9f3241e146c970828505bf51&output=html&source=placeapi_v2,,"08:00-11:00,13:00-16:30",,,,,,,,7,,,,,,,,119.38336970959,31.72545613757,0
a74481d6a8c29046f503b8da,中国邮政(朱林邮政支局),生活服务,邮局,江苏省,常州市,金坛区,朱林镇大街48号,a74481d6a8c29046f503b8da,1,0,119.468658,31.744305,(0519)82620100,life,http://api.map.baidu.com/place/detail?uid=a74481d6a8c29046f503b8da&output=html&source=placeapi_v2,,"08:00-11:00,13:00-16:10",0,,,,,,,4,1,,,,,,,119.46868328674,31.744502537425,0
1eeed546c6ec7d8fb4147f8b,中国邮政(后阳邮政支局),生活服务,邮局,江苏省,常州市,金坛区,江苏省常州市金坛区金城镇后阳街30号,1eeed546c6ec7d8fb4147f8b,1,0,119.523464,31.752565,(0519)82611200,life,http://api.map.baidu.com/place/detail?uid=1eeed546c6ec7d8fb4147f8b&output=html&source=placeapi_v2,,"08:00-11:10,13:00-15:50",0.0,,,,,,,4,1,,,,,,,119.52351230406,31.752485108141,0
f696f3c2d32c58961a11d58f,中国邮政(西门邮政支局),生活服务,邮局,江苏省,常州市,金坛区,江苏省常州市金坛区西门大街56号,f696f3c2d32c58961a11d58f,1,0,119.57476,31.750346,(0519)82880020,life,http://api.map.baidu.com/place/detail?uid=f696f3c2d32c58961a11d58f&output=html&source=placeapi_v2,,"08:00-11:30,13:00-17:00",5,,,,,,,11,1,,,,,,,119.57478091805,31.750227051791,0
2c0bd6c532560aaa43ab9ad9,中国邮政(金坛区邮政局),生活服务,邮局,江苏省,常州市,金坛区,江苏省常州市金坛区东环二路123号,2c0bd6c532560aaa43ab9ad9,1,0,119.59639,31.742441,(0519)68081485,life,http://api.map.baidu.com/place/detail?uid=2c0bd6c532560aaa43ab9ad9&output=html&source=placeapi_v2,,"08:00-11:30,13:00-17:00",5,,,,,,,23,2,,,,,,,119.59625654258,31.742432073143,0
cb4fd146ca8c563c9c9d689b,中国邮政(华城邮政支局),生活服务,邮局,江苏省,常州市,金坛区,江苏省常州市金坛区华城中路66号,cb4fd146ca8c563c9c9d689b,1,0,119.60572,31.748511,(0519)82331168,life,http://api.map.baidu.com/place/detail?uid=cb4fd146ca8c563c9c9d689b&output=html&source=placeapi_v2,,"08:00-11:30,13:00-17:00",5,,,,,,,11,3,,,,,,,119.60583806229,31.74836845101,0
f25d0ffb8bee65e250e5c576,江苏邮政社区便民服务站,生活服务,邮局,江苏省,常州市,金坛区,常州市金坛区岳庄路华城四村|1西南侧约30米,,1,0,119.605653,31.748575,,life,http://api.map.baidu.com/place/detail?uid=f25d0ffb8bee65e250e5c576&output=html&source=placeapi_v2,,,,,,,,,,,,,,,,,,,,0
0ccf198cd7fe0aa76f20b9a3,江苏邮政乡镇电商服务站,生活服务,邮局,江苏省,常州市,金坛区,江苏省常州市金坛区中兴路251-3号,0ccf198cd7fe0aa76f20b9a3,1,0,119.635625,31.745099,(0519)82330068,life,http://api.map.baidu.com/place/detail?uid=0ccf198cd7fe0aa76f20b9a3&output=html&source=placeapi_v2,,"08:00-11:30,13:00-17:00",0,,,,,,,3,1,,,,,,,119.63556583475,31.745097542996,0
fd13a3f292fc7a87b0077d89,中国邮政(尧塘邮政支局),生活服务,邮局,江苏省,常州市,金坛区,江苏省常州市金坛区南大街7号,fd13a3f292fc7a87b0077d89,1,0,119.688701,31.722661,(0519)82592006,life,http://api.map.baidu.com/place/detail?uid=fd13a3f292fc7a87b0077d89&output=html&source=placeapi_v2,,"08:00-11:00,13:00-16:30",5,,,,,,,8,3,,,,,,,119.68866707731,31.722715796157,0
2db8e3cc88ea21c5a1d2306a,江苏邮政乡镇电商服务站,生活服务,邮局,江苏省,常州市,金坛区,常州市金坛区尧汤路尧塘健身广场西南侧约210米,,1,0,119.688618,31.722649,,life,http://api.map.baidu.com/place/detail?uid=2db8e3cc88ea21c5a1d2306a&output=html&source=placeapi_v2,,,,,,,,,,,,,,,,,,,,0
bba87388ac0088a0bca822e7,中国邮政(厚余邮政支局),生活服务,邮局,江苏省,常州市,武进区,江苏省常州市武进区鸿余路1号,bba87388ac0088a0bca822e7,1,0,119.810783,31.729467,(0519)83681144,life,http://api.map.baidu.com/place/detail?uid=bba87388ac0088a0bca822e7&output=html&source=placeapi_v2,,"07:30-11:00,13:20-16:20",0.0,,,,,,,6,,,,,,,,119.81063692257,31.729653784212,0
56f2f6965bc6db800ba8d49c,中国邮政(湖塘支局),生活服务,邮局,江苏省,常州市,武进区,江苏省常州市武进区人民中路699-1号,56f2f6965bc6db800ba8d49c,1,0,119.947709,31.731706,(0519)86551130,life,http://api.map.baidu.com/place/detail?uid=56f2f6965bc6db800ba8d49c&output=html&source=placeapi_v2,,"08:30-11:30,12:00-17:00",0,,,,,,,8,1,,,,,,,119.94769239944,31.731910930676,0
edd64ce18fd2b0913ee231ac,中国邮政(丽华邮政支局),生活服务,邮局,江苏省,常州市,天宁区,江苏省常州市天宁区中吴大道华丽雅居1108号,edd64ce18fd2b0913ee231ac,1,0,119.982805,31.754935,(0519)88820513,life,http://api.map.baidu.com/place/detail?uid=edd64ce18fd2b0913ee231ac&output=html&source=placeapi_v2,,"08:30-11:30,13:30-17:00",5,,,,,,,11,2,,,,,,,119.98274045278,31.755126866458,0
72e57fd7f45185aff9dc85a0,中国邮政江苏邮政社区便民服务站,生活服务,邮局,江苏省,常州市,天宁区,江苏省常州市天宁区劳动东路622号,72e57fd7f45185aff9dc85a0,1,0,120.022896,31.748023,(0519)88820516,life,http://api.map.baidu.com/place/detail?uid=72e57fd7f45185aff9dc85a0&output=html&source=placeapi_v2,,"08:45-11:45,13:00-16:30",0.0,,,,,,,14,1,,,,,,,,,0
81d6a509775ae3406e20b901,中国邮政(戚墅堰邮政支局),生活服务,邮局,江苏省,常州市,武进区,江苏省常州市武进区延陵东路166-1号,81d6a509775ae3406e20b901,1,0,120.072814,31.727178,11185,life,http://api.map.baidu.com/place/detail?uid=81d6a509775ae3406e20b901&output=html&source=placeapi_v2,,"08:30-11:30,12:00-17:00",5,,,,,,,9,3,,,,,,,120.07270134339,31.727077168057,0
b4f67507756bf79049fc8d52,中国邮政(戚墅堰营业投递部),生活服务,邮局,江苏省,常州市,武进区,江苏省常州市武进区丁剑路121号,b4f67507756bf79049fc8d52,1,0,120.061953,31.745589,11185,life,http://api.map.baidu.com/place/detail?uid=b4f67507756bf79049fc8d52&output=html&source=placeapi_v2,,,5.0,,,,,,,1,2,,,,,,,120.06152159086,31.745942333821,0
1eeed546c6ec7d8fb4147f8b,中国邮政(后阳邮政支局),生活服务,邮局,江苏省,常州市,金坛区,江苏省常州市金坛区金城镇后阳街30号,1eeed546c6ec7d8fb4147f8b,1,0,119.523464,31.752565,(0519)82611200,life,http://api.map.baidu.com/place/detail?uid=1eeed546c6ec7d8fb4147f8b&output=html&source=placeapi_v2,,"08:00-11:10,13:00-15:50",0.0,,,,,,,4,1,,,,,,,119.52351230406,31.752485108141,0
4700d3322ff2c40b9cf779bc,中国邮政(泰村邮政支局),生活服务,邮局,江苏省,常州市,钟楼区,江苏省常州市钟楼区泰西路34号,4700d3322ff2c40b9cf779bc,1,0,119.782051,31.784544,(0519)83561047,life,http://api.map.baidu.com/place/detail?uid=4700d3322ff2c40b9cf779bc&output=html&source=placeapi_v2,,"07:45-10:00,13:00-16:20",0,,,,,,,6,1,,,,,,,119.78200964892,31.78433266588,0
64ff3be102ecf8bb91114c97,中国邮政(卜弋邮政支局),生活服务,邮局,江苏省,常州市,钟楼区,江苏省常州市钟楼区卜新路37号,64ff3be102ecf8bb91114c97,1,0,119.813934,31.776857,(0519)83317021,life,http://api.map.baidu.com/place/detail?uid=64ff3be102ecf8bb91114c97&output=html&source=placeapi_v2,,"07:30-10:00,13:30-16:30",5,,,,,,,11,2,,,,,,,119.81390591022,31.776946394946,0
d2b237fb21c292074e5547a2,中国邮政(浦南邮政支局),生活服务,邮局,江苏省,常州市,天宁区,江苏省常州市天宁区晋陵南路54号,d2b237fb21c292074e5547a2,1,0,119.959042,31.76398,(0519)86651996,life,http://api.map.baidu.com/place/detail?uid=d2b237fb21c292074e5547a2&output=html&source=placeapi_v2,,"08:30-11:30,13:30-16:00",0,,,,,,,13,2,,,,,,,119.95914951727,31.763971322974,0
50f7d146c7da20c473210ba7,中国邮政(兰陵邮政支局),生活服务,邮局,江苏省,常州市,天宁区,江苏省常州市天宁区兰陵北路604号,50f7d146c7da20c473210ba7,1,1,119.955099,31.771815,(0519)86642480,life,http://api.map.baidu.com/place/detail?uid=50f7d146c7da20c473210ba7&output=html&source=placeapi_v2,,"08:30-11:30,13:30-17:30",0,,,,,,,16,3,,,,,,,119.95518014327,31.77180119258,1
35f6ea07eed6d7ccce04efe4,中国邮局(荆川路),生活服务,邮局,江苏省,常州市,钟楼区,江苏省常州市钟楼区荆川东路16号,35f6ea07eed6d7ccce04efe4,1,0,119.933682,31.769965,11185,life,http://api.map.baidu.com/place/detail?uid=35f6ea07eed6d7ccce04efe4&output=html&source=placeapi_v2,,"08:30-11:30,13:30-17:00",0,,,,,,,4,0,,,,,,,119.9336954701,31.769837103361,0
edd64ce18fd2b0913ee231ac,中国邮政(丽华邮政支局),生活服务,邮局,江苏省,常州市,天宁区,江苏省常州市天宁区中吴大道华丽雅居1108号,edd64ce18fd2b0913ee231ac,1,0,119.982805,31.754935,(0519)88820513,life,http://api.map.baidu.com/place/detail?uid=edd64ce18fd2b0913ee231ac&output=html&source=placeapi_v2,,"08:30-11:30,13:30-17:00",5,,,,,,,11,2,,,,,,,119.98274045278,31.755126866458,0
3a0a78bd0bca3dfa621809a7,中国邮政(浦前邮政支局),生活服务,邮局,江苏省,常州市,天宁区,江苏省常州市天宁区和平中路334号,3a0a78bd0bca3dfa621809a7,1,0,119.965323,31.762443,(0519)86650151,life,http://api.map.baidu.com/place/detail?uid=3a0a78bd0bca3dfa621809a7&output=html&source=placeapi_v2,,09:00-17:00,0.0,,,,,,,10,4,,,,,,,119.96545490959,31.762481711277,0
9ea8a10086376e8b0869d93b,中国邮政(天宁投递部),生活服务,邮局,江苏省,常州市,天宁区,江苏省常州市天宁区丽华北路286号,9ea8a10086376e8b0869d93b,1,0,119.990298,31.777661,11185,life,http://api.map.baidu.com/place/detail?uid=9ea8a10086376e8b0869d93b&output=html&source=placeapi_v2,,"08:30-11:30,13:00-18:00",,,,,,,,6,,,,,,,,119.99032726891,31.777554450533,0
7d5f3a0a2480bc4b2db908a7,中国邮政(文化宫邮政支局),生活服务,邮局,江苏省,常州市,天宁区,江苏省常州市天宁区和平北路29号文化宫1楼,7d5f3a0a2480bc4b2db908a7,1,0,119.971194,31.780225,(0519)88150200,life,http://api.map.baidu.com/place/detail?uid=7d5f3a0a2480bc4b2db908a7&output=html&source=placeapi_v2,,09:00-18:30,5,,,,,,,4,3,,,,,,,119.97131490677,31.780427858727,0
c1653405129c3804aa175a90,常州市邮政局(城区分局),生活服务,邮局,江苏省,常州市,天宁区,江苏省常州市天宁区丽华路9-2号301室,c1653405129c3804aa175a90,1,1,119.987751,31.768661,(0519)88850311,life,http://api.map.baidu.com/place/detail?uid=c1653405129c3804aa175a90&output=html&source=placeapi_v2,,09:00-19:00,5,,,,,,,17,2,,,,,,,119.98768924835,31.768463390706,1
ba6e1edcc09eace8f403b883,祈福邮局,生活服务,邮局,江苏省,常州市,天宁区,延陵中路636号(近红梅路)天宁禅寺内,ba6e1edcc09eace8f403b883,1,0,119.976344,31.781171,,life,http://api.map.baidu.com/place/detail?uid=ba6e1edcc09eace8f403b883&output=html&source=placeapi_v2,,,,,,,,,,,,,,,,,,,,0
5c470aa943117f12dcee8b52,大润发邮政报亭,生活服务,邮局,江苏省,常州市,天宁区,江苏省常州市天宁区关河东路58号1楼7451室,5c470aa943117f12dcee8b52,1,0,119.982032,31.784418,,life,http://api.map.baidu.com/place/detail?uid=5c470aa943117f12dcee8b52&output=html&source=placeapi_v2,,08:00-22:00,,,,,,,,1,,,,,,,,,,0
850815e10bfece9b43e19200,中国邮政(潞城邮政支局),生活服务,邮局,江苏省,常州市,武进区,江苏省常州市武进区潞城街141号,850815e10bfece9b43e19200,1,0,120.054205,31.766226,(0519)88402486,life,http://api.map.baidu.com/place/detail?uid=850815e10bfece9b43e19200&output=html&source=placeapi_v2,,"08:15-11:15,13:30-16:00",0,,,,,,,6,2,,,,,,,120.05424408825,31.766049009917,0
64ff3be102c3f8bb91114c82,中国邮政(横山桥邮政支局),生活服务,邮局,江苏省,常州市,武进区,江苏省常州市武进区兰陵路100号,64ff3be102c3f8bb91114c82,1,0,120.117879,31.770907,(0519)88601809,life,http://api.map.baidu.com/place/detail?uid=64ff3be102c3f8bb91114c82&output=html&source=placeapi_v2,,"08:00-11:00,13:30-16:00",0,,,,,,,6,2,,,,,,,120.11790338586,31.770983347441,0
373cf757403ec46e4354d7d0,中国邮政(茅麓邮政支局),生活服务,邮局,江苏省,常州市,金坛区,江苏省常州市金坛区晨风路8号,373cf757403ec46e4354d7d0,1,0,119.407469,31.793732,(0519)82432017,life,http://api.map.baidu.com/place/detail?uid=373cf757403ec46e4354d7d0&output=html&source=placeapi_v2,,"08:00-11:00,13:00-16:30",0,,,,,,,5,1,,,,,,,119.40743380595,31.793550437529,0
4700d3322ff2c40b9cf779bc,中国邮政(泰村邮政支局),生活服务,邮局,江苏省,常州市,钟楼区,江苏省常州市钟楼区泰西路34号,4700d3322ff2c40b9cf779bc,1,0,119.782051,31.784544,(0519)83561047,life,http://api.map.baidu.com/place/detail?uid=4700d3322ff2c40b9cf779bc&output=html&source=placeapi_v2,,"07:45-10:00,13:00-16:20",0,,,,,,,6,1,,,,,,,119.78200964892,31.78433266588,0
1a6164642528e460e856fac0,常州邮政局邹区支局,生活服务,邮局,江苏省,常州市,钟楼区,江苏省常州市钟楼区会灵东路13号,1a6164642528e460e856fac0,1,0,119.852864,31.797927,(0519)83631408,life,http://api.map.baidu.com/place/detail?uid=1a6164642528e460e856fac0&output=html&source=placeapi_v2,,"08:00-11:15,13:30-17:00",0,,,,,,,16,0,,,,,,,119.85284223313,31.79781122788,0
5b9660c7948e9f972ce67b77,中国邮政(水杉路),生活服务,邮局,江苏省,常州市,钟楼区,江苏省常州市钟楼区水杉路御源林城小区163号,5b9660c7948e9f972ce67b77,1,0,119.896932,31.802459,(0519)83272892,life,http://api.map.baidu.com/place/detail?uid=5b9660c7948e9f972ce67b77&output=html&source=placeapi_v2,,"08:30-11:30,13:00-17:00",,,,,,,,9,,,,,,,,119.89729925963,31.802193711254,0
07f3c8b5312ea5636240a923,中国邮政(勤业邮政支局),生活服务,邮局,江苏省,常州市,钟楼区,江苏省常州市钟楼区勤业路3-1号,07f3c8b5312ea5636240a923,1,0,119.941072,31.788731,(0519)86852734,life,http://api.map.baidu.com/place/detail?uid=07f3c8b5312ea5636240a923&output=html&source=placeapi_v2,,"08:30-11:30,13:30-18:00",0.0,,,,,,,5,,,,,,,,119.94090201286,31.788622006439,0
04bdf4a3c268ec4f354aae23,中国邮政(西新桥邮政支局),生活服务,邮局,江苏省,常州市,钟楼区,江苏省常州市钟楼区关河西路214号,04bdf4a3c268ec4f354aae23,1,0,119.954953,31.79734,(0519)86633830,life,http://api.map.baidu.com/place/detail?uid=04bdf4a3c268ec4f354aae23&output=html&source=placeapi_v2,,"08:30-11:30,13:00-18:00",0,,,,,,,10,0,,,,,,,119.95488420138,31.797202424341,0
92b806d2efc1aafe78b55ca4,中国邮政(北环邮政支局),生活服务,邮局,江苏省,常州市,天宁区,江苏省常州市天宁区飞龙东路251号,92b806d2efc1aafe78b55ca4,1,0,119.986286,31.794866,(0519)85301221,life,http://api.map.baidu.com/place/detail?uid=92b806d2efc1aafe78b55ca4&output=html&source=placeapi_v2,,08:30-17:30,5,,,,,,,11,3,,,,,,,,,0
d1469ee794456362853304a7,中国邮政(红梅邮政支局),生活服务,邮局,江苏省,常州市,天宁区,江苏省常州市天宁区飞龙东路71-5号,d1469ee794456362853304a7,1,0,119.994305,31.785716,(0519)85339122,life,http://api.map.baidu.com/place/detail?uid=d1469ee794456362853304a7&output=html&source=placeapi_v2,,"08:45-11:45,13:30-17:30",0,,,,,,,10,1,,,,,,,119.99433903035,31.785750250767,0
7b47fe55edc2ae1925e0a05f,龙锦路邮政支局,生活服务,邮局,江苏省,常州市,新北区,世府邻里中心1-101号,7b47fe55edc2ae1925e0a05f,1,0,119.993433,31.811163,(0519)83481047,life,http://api.map.baidu.com/place/detail?uid=7b47fe55edc2ae1925e0a05f&output=html&source=placeapi_v2,,"07:30-10:00,13:15-16:15",5,,,,,,,7,1,,,,,,,119.99329113541,31.811289403276,0
13328fe496a5d824b45f1eb3,中国邮政(行政中心支局),生活服务,邮局,江苏省,常州市,新北区,江苏省常州市新北区龙城大道1280号行政中心1号楼B座1楼,13328fe496a5d824b45f1eb3,1,0,119.979944,31.816714,(0519)85122605,life,http://api.map.baidu.com/place/detail?uid=13328fe496a5d824b45f1eb3&output=html&source=placeapi_v2,,,1,,,,,,,,3,,,,,,,,,0
185bc0749ac38b241ce99981,中国邮政(北直街支局),生活服务,邮局,江苏省,常州市,钟楼区,江苏省常州市钟楼区北直街45号,185bc0749ac38b241ce99981,1,0,119.96461,31.792183,(0519)86630223,life,http://api.map.baidu.com/place/detail?uid=185bc0749ac38b241ce99981&output=html&source=placeapi_v2,,"08:30-11:30,12:30-17:30",3,,,,,,,13,3,,,,,,,119.9646729068,31.792207083831,0
5c470aa943117f12dcee8b52,大润发邮政报亭,生活服务,邮局,江苏省,常州市,天宁区,江苏省常州市天宁区关河东路58号1楼7451室,5c470aa943117f12dcee8b52,1,0,119.982032,31.784418,,life,http://api.map.baidu.com/place/detail?uid=5c470aa943117f12dcee8b52&output=html&source=placeapi_v2,,08:00-22:00,,,,,,,,1,,,,,,,,,,0
1a836ebd2e490f1a7c29bdcf,江苏邮政社区便民服务站,生活服务,邮局,江苏省,常州市,新北区,常州市新北区绿洲路世府・邻里中心,1a836ebd2e490f1a7c29bdcf,1,0,119.99345,31.811245,,life,http://api.map.baidu.com/place/detail?uid=1a836ebd2e490f1a7c29bdcf&output=html&source=placeapi_v2,,,,,,,,,,1,,,,,,,,,,0
79c823be0770c47b0f0a705f,中国邮政(常州市青龙营业所),生活服务,邮局,江苏省,常州市,天宁区,江苏省常州市天宁区青龙苑北区93-2号,79c823be0770c47b0f0a705f,1,0,120.024904,31.800089,(0519)85500435,life,http://api.map.baidu.com/place/detail?uid=79c823be0770c47b0f0a705f&output=html&source=placeapi_v2,,"08:30-11:30,13:00-16:20",5,,,,,,,7,1,,,,,,,120.02463291674,31.800079402502,0
ff8e95e2ffaf4b570aa8d494,青龙邮政支局,生活服务,邮局,江苏省,常州市,天宁区,江苏常州市天宁区青龙路青龙苑二期93-2号,ff8e95e2ffaf4b570aa8d494,1,0,120.022566,31.793171,,life,http://api.map.baidu.com/place/detail?uid=ff8e95e2ffaf4b570aa8d494&output=html&source=placeapi_v2,,,1.0,,,,,,,,1,,,,,,,,,0
d52831f9483b4fda2ffaa7bc,中国邮政(东青邮政支局),生活服务,邮局,江苏省,常州市,天宁区,天宁区东青镇和北路4号,d52831f9483b4fda2ffaa7bc,1,0,120.059392,31.795577,(0519)88966044,life,http://api.map.baidu.com/place/detail?uid=d52831f9483b4fda2ffaa7bc&output=html&source=placeapi_v2,,"07:30-10:00,13:15-16:15",0.0,,,,,,,7,2,,,,,,,120.0595587529,31.795799045057,0
9280526f68dfd21dc6effbd3,中国邮政(西阳邮政支局),生活服务,邮局,江苏省,常州市,金坛区,江苏省常州市金坛区镇前街188号,9280526f68dfd21dc6effbd3,1,0,119.392332,31.837684,(0519)82482114,life,http://api.map.baidu.com/place/detail?uid=9280526f68dfd21dc6effbd3&output=html&source=placeapi_v2,,"08:00-11:00,13:00-16:30",0.0,,,,,,,2,,,,,,,,119.39217891473,31.837711460701,0
637df60aa23cb87240afe6d3,中国邮政(建昌邮政支局),生活服务,邮局,江苏省,常州市,金坛区,河滨路8号,,1,0,119.507185,31.825095,(0519)82461292,life,http://api.map.baidu.com/place/detail?uid=637df60aa23cb87240afe6d3&output=html&source=placeapi_v2,,"08:00-11:00,13:00-16:30",0,,,,,,,2,2,,,,,,,,,0
d1d15ebc737106edc8e33c8b,江苏邮政乡镇电商服务站,生活服务,邮局,江苏省,常州市,金坛区,常州市金坛区河滨路建昌客运站东北侧约200米,,1,0,119.507204,31.825159,,life,http://api.map.baidu.com/place/detail?uid=d1d15ebc737106edc8e33c8b&output=html&source=placeapi_v2,,,,,,,,,,1,,,,,,,,,,0
c7fb04bdf461d615fa0cad23,中国邮政(新闸邮政支局),生活服务,邮局,江苏省,常州市,钟楼区,江苏省常州市钟楼区新府路56号,c7fb04bdf461d615fa0cad23,1,0,119.902577,31.820883,(0519)83260761,life,http://api.map.baidu.com/place/detail?uid=c7fb04bdf461d615fa0cad23&output=html&source=placeapi_v2,,"08:30-11:30,13:30-16:00",0,,,,,,,8,1,,,,,,,119.90265026291,31.820843392315,0
eeb35951a115d10128201a6b,常州邮政局(长江递送部),生活服务,邮局,江苏省,常州市,新北区,江苏省常州市新北区黄河西路151号,eeb35951a115d10128201a6b,1,0,119.980916,31.833683,,life,http://api.map.baidu.com/place/detail?uid=eeb35951a115d10128201a6b&output=html&source=placeapi_v2,,09:00-19:00,,,,,,,,1,,,,,,,,,,0
4cf8d24e0434ebe49cf779c1,中国邮政(长江路支局),生活服务,邮局,江苏省,常州市,新北区,江苏省常州市新北区汉江路366号,4cf8d24e0434ebe49cf779c1,1,0,119.982566,31.836896,(0519)85108502,life,http://api.map.baidu.com/place/detail?uid=4cf8d24e0434ebe49cf779c1&output=html&source=placeapi_v2,,"08:30-12:00,13:00-17:30",1,,,,,,,11,3,,,,,,,119.982476686,31.83666859659,0
2a87cce3b7dc85aebbbd637f,常州邮政,生活服务,邮局,江苏省,常州市,新北区,江苏省常州市新北区科勒路1号,2a87cce3b7dc85aebbbd637f,1,0,119.977721,31.823801,,life,http://api.map.baidu.com/place/detail?uid=2a87cce3b7dc85aebbbd637f&output=html&source=placeapi_v2,,,,,,,,,,,,,,,,,,119.97771410016,31.823773242906,0
13328fe496a5d824b45f1eb3,中国邮政(行政中心支局),生活服务,邮局,江苏省,常州市,新北区,江苏省常州市新北区龙城大道1280号行政中心1号楼B座1楼,13328fe496a5d824b45f1eb3,1,0,119.979944,31.816714,(0519)85122605,life,http://api.map.baidu.com/place/detail?uid=13328fe496a5d824b45f1eb3&output=html&source=placeapi_v2,,,1,,,,,,,,3,,,,,,,,,0
06c2f59f996dd75ec26c14be,SMC常州营业所,生活服务,邮局,江苏省,常州市,新北区,江苏省常州市新北区太湖东路常发广场写字楼1楼2308室,06c2f59f996dd75ec26c14be,1,0,119.986063,31.819,,life,http://api.map.baidu.com/place/detail?uid=06c2f59f996dd75ec26c14be&output=html&source=placeapi_v2,,,,,,,,,,,,,,,,,,,,0
0ab9cc5629b9478feddfcad8,中国邮政(郑陆邮政支局),生活服务,邮局,江苏省,常州市,天宁区,江苏省常州市天宁区邮电东路1号,0ab9cc5629b9478feddfcad8,1,0,120.088711,31.832387,(0519)88731044,life,http://api.map.baidu.com/place/detail?uid=0ab9cc5629b9478feddfcad8&output=html&source=placeapi_v2,,"07:30-11:00,13:30-16:30",5,,,,,,,7,2,,,,,,,120.08869194682,31.832337505835,0
f9fd6062b32ea51f0f0e6bcd,中国邮政(登冠邮政支局),生活服务,邮局,江苏省,常州市,金坛区,常州市金坛区王甲镇老街48号,,1,0,119.467169,31.85191,(0519)82422930,life,http://api.map.baidu.com/place/detail?uid=f9fd6062b32ea51f0f0e6bcd&output=html&source=placeapi_v2,,"08:00-11:00,13:00-16:30",5.0,,,,,,,3,2,,,,,,,119.46721481145,31.852053244898,0
befdb292a0baafe186154190,中国邮政(奔牛邮政支局),生活服务,邮局,江苏省,常州市,新北区,江苏省常州市新北区奔牛镇桥北路中国邮政(奔牛公园东南),befdb292a0baafe186154190,1,0,119.826484,31.8601,(0519)83211106,life,http://api.map.baidu.com/place/detail?uid=befdb292a0baafe186154190&output=html&source=placeapi_v2,,08:30-15:30,5,,,,,,,6,1,,,,,,,119.82650716026,31.860012007627,0
c8e8f633cd895b6cab0dd8fd,中国邮政(薛家邮政支局),生活服务,邮局,江苏省,常州市,新北区,江苏省常州市新北区金融路1号,c8e8f633cd895b6cab0dd8fd,1,0,119.924277,31.862203,(0519)85951144,life,http://api.map.baidu.com/place/detail?uid=c8e8f633cd895b6cab0dd8fd&output=html&source=placeapi_v2,,08:00-16:45,0,,,,,,,3,1,,,,,,,119.92425916417,31.862295479934,0
8b5db4aa063e3149b11e368b,中国邮政(新桥邮政支局),生活服务,邮局,江苏省,常州市,新北区,江苏省常州市新北区华山北路新龙花苑东区41栋,8b5db4aa063e3149b11e368b,1,0,119.977105,31.867334,(0519)85910144,life,http://api.map.baidu.com/place/detail?uid=8b5db4aa063e3149b11e368b&output=html&source=placeapi_v2,,"08:30-11:30,13:15-16:45",0,,,,,,,4,0,,,,,,,119.97712040196,31.86746537001,0
92b806d2ee1cadfe79b55cc3,中国邮政(罗溪邮政支局),生活服务,邮局,江苏省,常州市,新北区,江苏省常州市新北区机场路25号,92b806d2ee1cadfe79b55cc3,1,0,119.812302,31.909652,(0519)83401094,life,http://api.map.baidu.com/place/detail?uid=92b806d2ee1cadfe79b55cc3&output=html&source=placeapi_v2,,"08:00-11:00,13:30-17:00",0,,,,,,,5,0,,,,,,,119.81239150278,31.909873301584,0
2bbad119c8709268f4eafc46,中国邮政邮箱,生活服务,邮局,江苏省,常州市,新北区,江苏省常州市新北区新龙二路常州工学院(辽河路校区),,1,0,119.952494,31.878484,,life,http://api.map.baidu.com/place/detail?uid=2bbad119c8709268f4eafc46&output=html&source=placeapi_v2,,,,,,,,,,0,1,,,,,,,,,0
92b806d2ee1cadfe79b55cc3,中国邮政(罗溪邮政支局),生活服务,邮局,江苏省,常州市,新北区,江苏省常州市新北区机场路25号,92b806d2ee1cadfe79b55cc3,1,0,119.812302,31.909652,(0519)83401094,life,http://api.map.baidu.com/place/detail?uid=92b806d2ee1cadfe79b55cc3&output=html&source=placeapi_v2,,"08:00-11:00,13:30-17:00",0,,,,,,,5,0,,,,,,,119.81239150278,31.909873301584,0
b0d056f25c75187ecac3dbfd,中国邮政(安家邮政支局),生活服务,邮局,江苏省,常州市,新北区,江苏省常州市新北区永安东路80号,b0d056f25c75187ecac3dbfd,1,0,119.912745,31.920194,(0519)85971174,life,http://api.map.baidu.com/place/detail?uid=b0d056f25c75187ecac3dbfd&output=html&source=placeapi_v2,,"07:30-11:00,13:30-16:30",0,,,,,,,9,3,,,,,,,119.91263483935,31.92000022687,0
6dd40eb783fe468061685824,中国邮政(百丈邮政支局),生活服务,邮局,江苏省,常州市,新北区,江苏省常州市新北区百盛路38号,6dd40eb783fe468061685824,1,0,119.981797,31.92387,(0519)85861047,life,http://api.map.baidu.com/place/detail?uid=6dd40eb783fe468061685824&output=html&source=placeapi_v2,,"08:00-11:00,13:30-17:00",5,,,,,,,13,1,,,,,,,119.98173525069,31.923709155833,0
d5f93c0e3c22855ceddfcaf9,中国邮政(浦河邮政支局),生活服务,邮局,江苏省,常州市,新北区,江苏省常州市新北区浦河东街15号,d5f93c0e3c22855ceddfcaf9,1,0,119.798565,31.964365,(0519)83461071,life,http://api.map.baidu.com/place/detail?uid=d5f93c0e3c22855ceddfcaf9&output=html&source=placeapi_v2,,"08:00-11:15,13:30-16:45",0,,,,,,,12,1,,,,,,,119.79858948957,31.964498688447,0
c7eca12b66a9fb37e115f9fb,中国邮政(圩塘邮政支局),生活服务,邮局,江苏省,常州市,新北区,江苏省常州市新北区新业街50号,c7eca12b66a9fb37e115f9fb,1,0,120.000354,31.947449,(0519)85776280,life,http://api.map.baidu.com/place/detail?uid=c7eca12b66a9fb37e115f9fb&output=html&source=placeapi_v2,,"08:00-11:00,13:30-16:00",0,,,,,,,10,2,,,,,,,120.00050902737,31.947422403168,0
07ff7e24cd48d3b572455bc4,严桥村委邮政便民服务站,生活服务,邮局,江苏省,常州市,新北区,江苏省常州市新北区孟浦线严桥村委北侧约110米,,1,0,119.802697,31.985484,,life,http://api.map.baidu.com/place/detail?uid=07ff7e24cd48d3b572455bc4&output=html&source=placeapi_v2,,,,,,,,,,,,,,,,,,,,0
ea929d52c65a2b0072210bed,中国邮政(魏村邮政支局),生活服务,邮局,江苏省,常州市,新北区,江苏省常州市新北区魏安路3号,ea929d52c65a2b0072210bed,1,0,119.941424,31.975453,(0519)85711074,life,http://api.map.baidu.com/place/detail?uid=ea929d52c65a2b0072210bed&output=html&source=placeapi_v2,,09:00-18:00,5,,,,,,,18,4,,,,,,,119.94107164079,31.975587771966,0
