uid,name,cat_L1,cat_L2,province,city,area,address,street_id,detail,child_num,loc_lng,loc_lat,telephone,type,detail_url,price,shop_hours,overall_rating,taste_rating,service_rating,environment_rating,facility_rating,hygiene_rating,technology_rating,image_num,comment_num,groupon_num,discount_num,favorite_num,checkin_num,brand,content_tag,naviloc_lng,naviloc_lat,child_num
a2c0e07b738509afcc06a4be,全福美发,丽人,美发,江苏省,常州市,溧阳市,江苏省常州市溧阳市镇中街32号,,1,0,119.391543,31.574355,,beauty,http://api.map.baidu.com/place/detail?uid=a2c0e07b738509afcc06a4be&output=html&source=placeapi_v2,,10:00-21:00,0.0,,,,,,,,,,,,,,,,,0
02e729a48a6bb5613c9a5ecf,艺廊造型(镇东路店),丽人,美发,江苏省,常州市,溧阳市,江苏省常州市溧阳市镇东街50号,,1,0,119.394364,31.576681,,beauty,http://api.map.baidu.com/place/detail?uid=02e729a48a6bb5613c9a5ecf&output=html&source=placeapi_v2,,,,,,,,,,,,,,,,,,,,0
8a2fa9e6008545059e9d685a,姚斌发型,丽人,美发,江苏省,常州市,溧阳市,常州市溧阳市别桥镇后周镇镇东街8号,,1,0,119.393136,31.575957,18951202008,beauty,http://api.map.baidu.com/place/detail?uid=8a2fa9e6008545059e9d685a&output=html&source=placeapi_v2,,10:00-21:00,0,,,,,,,,0,,,,,,,,,0
36b459c2dcf138f86fa3ccec,老蔡理发店,丽人,美发,江苏省,常州市,溧阳市,常州市溧阳市镇中路后周中心幼儿园东北侧约120米,,1,0,119.391719,31.57439,,beauty,http://api.map.baidu.com/place/detail?uid=36b459c2dcf138f86fa3ccec&output=html&source=placeapi_v2,,,,,,,,,,,,,,,,,,,,0
85a76ceb83f08253b1077d5f,精剪发廊(别桥旗舰店),丽人,美发,江苏省,常州市,溧阳市,常州市溧阳市培阳路中国信合(别桥信用社)东北侧约100米,,1,0,119.476844,31.561861,,beauty,http://api.map.baidu.com/place/detail?uid=85a76ceb83f08253b1077d5f&output=html&source=placeapi_v2,,10:00-21:00,,,,,,,,,,,,,,,,,,0
af6e91cf572b36637369d350,冯小青理发店,丽人,美发,江苏省,常州市,溧阳市,常州市溧阳市兴城东路17号,af6e91cf572b36637369d350,1,0,119.475574,31.56239,,beauty,http://api.map.baidu.com/place/detail?uid=af6e91cf572b36637369d350&output=html&source=placeapi_v2,,10:00-21:00,,,,,,,,,,,,,,,,,,0
778dbd5ab04fe6ab59bbbcc6,施美发廊,丽人,美发,江苏省,常州市,金坛区,江苏省常州市金坛区蒋庄路江南农村商业银行(儒林支行)南侧约160米,778dbd5ab04fe6ab59bbbcc6,1,0,119.629157,31.590935,13511663630,beauty,http://api.map.baidu.com/place/detail?uid=778dbd5ab04fe6ab59bbbcc6&output=html&source=placeapi_v2,,,,,,,,,,,,,,,,,,,,0
f138c0cf8af44ce1b34c49e0,桥东理发,丽人,美发,江苏省,常州市,金坛区,江苏省常州市金坛区儒林大街(金坛区儒林中学西北侧约150米),f138c0cf8af44ce1b34c49e0,1,0,119.634679,31.592996,18901499325,beauty,http://api.map.baidu.com/place/detail?uid=f138c0cf8af44ce1b34c49e0&output=html&source=placeapi_v2,,,,,,,,,,,,,,,,,,119.63469806085,31.592938444299,0
c65e5dae0970901e901fc95f,振兴理发,丽人,美发,江苏省,常州市,金坛区,江苏省常州市金坛区蒋庄路江南农村商业银行儒林支行南侧约150米,c65e5dae0970901e901fc95f,1,0,119.62915,31.59105,13861109897,beauty,http://api.map.baidu.com/place/detail?uid=c65e5dae0970901e901fc95f&output=html&source=placeapi_v2,,,,,,,,,,,,,,,,,,,,0
25bac47fe986686c6e20b9b2,为民理发店,丽人,美发,江苏省,常州市,金坛区,常州市金坛区儒林大街江南农村商业银行(儒林支行)东侧约190米,25bac47fe986686c6e20b9b2,1,0,119.630807,31.591946,,beauty,http://api.map.baidu.com/place/detail?uid=25bac47fe986686c6e20b9b2&output=html&source=placeapi_v2,,,,,,,,,,,,,,,,,,,,0
c002976297f9be42471a32c1,浪潮美发店(环镇路店),丽人,美发,江苏省,常州市,武进区,江苏省常州市武进区湟里镇南环西路85号,c002976297f9be42471a32c1,1,0,119.744422,31.590165,,beauty,http://api.map.baidu.com/place/detail?uid=c002976297f9be42471a32c1&output=html&source=placeapi_v2,,10:00-21:00,3.0,,,,,,,,,,,,,,,,,0
0316e69ba43e281858f6bea6,维也纳烫染造型,丽人,美发,江苏省,常州市,武进区,江苏省常州市武进区光明南路58号,0316e69ba43e281858f6bea6,1,0,119.742638,31.594238,18115023265,beauty,http://api.map.baidu.com/place/detail?uid=0316e69ba43e281858f6bea6&output=html&source=placeapi_v2,,08:00-21:00,,,,,,,,,,,,,,,,,,0
d7c7134f7f5aeb1ed618b70d,小于美发,丽人,美发,江苏省,常州市,武进区,常州市武进区晶鑫南路与兴旺路交叉路口往东约50米,d7c7134f7f5aeb1ed618b70d,1,0,119.728746,31.594767,,beauty,http://api.map.baidu.com/place/detail?uid=d7c7134f7f5aeb1ed618b70d&output=html&source=placeapi_v2,,09:00-21:00,,,,,,,,,,,,,,,,,,0
3bc69186b6ff1f0dad31e5a8,尚阁造型,丽人,美发,江苏省,常州市,武进区,江苏省常州市武进区南环路158号,3bc69186b6ff1f0dad31e5a8,1,0,119.743697,31.590927,13962616420,beauty,http://api.map.baidu.com/place/detail?uid=3bc69186b6ff1f0dad31e5a8&output=html&source=placeapi_v2,,10:00-21:00,,,,,,,,,,,,,,,,,,0
deb3a53fc229f3abc9c3db04,一剪美理发,丽人,美发,江苏省,常州市,武进区,常州市武进区南环路东安市民广场东侧约90米,deb3a53fc229f3abc9c3db04,1,0,119.746326,31.589039,,beauty,http://api.map.baidu.com/place/detail?uid=deb3a53fc229f3abc9c3db04&output=html&source=placeapi_v2,,09:00-21:00,,,,,,,,,,,,,,,,119.74627900469,31.588903608829,0
b34676478ec197220a5cb36c,无名坊发艺,丽人,美发,江苏省,常州市,武进区,江苏省常州市武进区市场路东安市民广场北侧约100米,b34676478ec197220a5cb36c,1,0,119.745201,31.590073,19529357879,beauty,http://api.map.baidu.com/place/detail?uid=b34676478ec197220a5cb36c&output=html&source=placeapi_v2,,09:00-21:00,,,,,,,,,,,,,,,,,,0
5ba2aa2e1f06e55783a00c2c,艾美莱造型护肤养生会所,丽人,美发,江苏省,常州市,武进区,江苏省常州市武进区光明南路51号,5ba2aa2e1f06e55783a00c2c,1,0,119.742731,31.593642,,beauty,http://api.map.baidu.com/place/detail?uid=5ba2aa2e1f06e55783a00c2c&output=html&source=placeapi_v2,,09:00-21:00,,,,,,,,,,,,,,,,,,0
514a7f0dee1d8feb31621287,心情故事,丽人,美发,江苏省,常州市,武进区,江苏省常州市武进区东安人民路38号,514a7f0dee1d8feb31621287,1,0,119.741547,31.594095,13656110766,beauty,http://api.map.baidu.com/place/detail?uid=514a7f0dee1d8feb31621287&output=html&source=placeapi_v2,,10:00-21:00,0,,,,,,,,0,,,,,,,,,0
d09447d3491eb45bf503b8d2,启航美发沙龙,丽人,美发,江苏省,常州市,武进区,江苏省常州市武进区振兴西路13号,d09447d3491eb45bf503b8d2,1,0,119.905219,31.584533,15736663064,beauty,http://api.map.baidu.com/place/detail?uid=d09447d3491eb45bf503b8d2&output=html&source=placeapi_v2,,08:00-21:00,,,,,,,,,,,,,,,,,,0
49f59626187cf9c6ede4a5ee,曼都形象设计,丽人,美发,江苏省,常州市,武进区,常州市武进区振兴路振鑫花园东南侧约240米,49f59626187cf9c6ede4a5ee,1,0,119.905217,31.584765,13775173378,beauty,http://api.map.baidu.com/place/detail?uid=49f59626187cf9c6ede4a5ee&output=html&source=placeapi_v2,,,,,,,,,,,,,,,,,,,,0
328746d4143e86332e473309,起点造型(武风路店),丽人,美发,江苏省,常州市,武进区,常州市武进区寨桥北路18号(近武风路),328746d4143e86332e473309,1,0,119.907369,31.585088,18661105251,beauty,http://api.map.baidu.com/place/detail?uid=328746d4143e86332e473309&output=html&source=placeapi_v2,,10:00-21:00,,,,,,,,,,,,,,,,,,0
31f42fd0f2b5eea4d9eced36,今日说发时尚烫染(供销社购物中心北),丽人,美发,江苏省,常州市,武进区,江苏省常州市武进区信特超市(寨桥店)北100米,31f42fd0f2b5eea4d9eced36,1,0,119.908287,31.585697,,beauty,http://api.map.baidu.com/place/detail?uid=31f42fd0f2b5eea4d9eced36&output=html&source=placeapi_v2,,10:00-21:00,,,,,,,,,,,,,,,,,,0
d2a108cd33e68971223bf2ff,艺佳美发,丽人,美发,江苏省,常州市,武进区,常州市武进区X314,d2a108cd33e68971223bf2ff,1,0,119.880836,31.582454,15961200245,beauty,http://api.map.baidu.com/place/detail?uid=d2a108cd33e68971223bf2ff&output=html&source=placeapi_v2,,10:00-21:00,,,,,,,,,,,,,,,,,,0
a8850b2a3e00ec4b15c90546,精剪剪,丽人,美发,江苏省,常州市,武进区,江苏省常州市武进区运村新街58号,a8850b2a3e00ec4b15c90546,1,0,119.984856,31.56811,13912341225,beauty,http://api.map.baidu.com/place/detail?uid=a8850b2a3e00ec4b15c90546&output=html&source=placeapi_v2,,09:45-18:15,,,,,,,,,,,,,,,,,,0
a77b353ca861d16be115f9ed,金剪刀美容美发,丽人,美发,江苏省,常州市,武进区,常州市武进区X205小牛五金店南侧约90米,a77b353ca861d16be115f9ed,1,0,119.983747,31.562195,,beauty,http://api.map.baidu.com/place/detail?uid=a77b353ca861d16be115f9ed&output=html&source=placeapi_v2,,10:00-21:00,,,,,,,,,,,,,,,,,,0
47d018d28ca45fe2f7e73b7e,尚酷美发会所,丽人,美发,江苏省,常州市,武进区,常州市武进区镇南路武进区南宅幼儿园东南侧约70米,47d018d28ca45fe2f7e73b7e,1,0,120.036972,31.567029,,beauty,http://api.map.baidu.com/place/detail?uid=47d018d28ca45fe2f7e73b7e&output=html&source=placeapi_v2,,10:00-21:00,,,,,,,,,,,,,,,,,,0
12610bf3de3d3d1d76e5b6a5,小戴美发(新街东路店),丽人,美发,江苏省,常州市,金坛区,常州市金坛区兴标北路指前汽车站,12610bf3de3d3d1d76e5b6a5,1,0,119.502412,31.622191,,beauty,http://api.map.baidu.com/place/detail?uid=12610bf3de3d3d1d76e5b6a5&output=html&source=placeapi_v2,,09:00-21:00,0.0,,,,,,,,,,,,,,,,,0
5914cf867bcef9faa8f72980,刘敖齐理发店,丽人,美发,江苏省,常州市,金坛区,常州市金坛区新街东路指前汽车站东北侧约40米,5914cf867bcef9faa8f72980,1,0,119.502932,31.622608,,beauty,http://api.map.baidu.com/place/detail?uid=5914cf867bcef9faa8f72980&output=html&source=placeapi_v2,,10:00-21:00,,,,,,,,,,,,,,,,,,0
96206022c9f627252db17e71,指前名匠名雕,丽人,美发,江苏省,常州市,金坛区,常州市金坛区兴标北路万香苑小区东南侧,96206022c9f627252db17e71,1,0,119.501542,31.620643,13921000848,beauty,http://api.map.baidu.com/place/detail?uid=96206022c9f627252db17e71&output=html&source=placeapi_v2,,,,,,,,,,,,,,,,,,,,0
ae9c6eda9876504cbe48420c,卓玛发艺,丽人,美发,江苏省,常州市,武进区,江苏省常州市武进区湟里镇湟里后坊村石坝头,ae9c6eda9876504cbe48420c,1,0,119.702061,31.611608,,beauty,http://api.map.baidu.com/place/detail?uid=ae9c6eda9876504cbe48420c&output=html&source=placeapi_v2,,,,,,,,,,,,,,,,,,,,0
69d0ffadd04bfeeeeddfca37,海燕美发,丽人,美发,江苏省,常州市,武进区,常州市武进区桃园路常达石化(加油站)北侧约250米,69d0ffadd04bfeeeeddfca37,1,0,119.739684,31.602163,,beauty,http://api.map.baidu.com/place/detail?uid=69d0ffadd04bfeeeeddfca37&output=html&source=placeapi_v2,,10:00-21:00,,,,,,,,,,,,,,,,,,0
d7c7134f7f5aeb1ed618b70d,小于美发,丽人,美发,江苏省,常州市,武进区,常州市武进区晶鑫南路与兴旺路交叉路口往东约50米,d7c7134f7f5aeb1ed618b70d,1,0,119.728746,31.594767,,beauty,http://api.map.baidu.com/place/detail?uid=d7c7134f7f5aeb1ed618b70d&output=html&source=placeapi_v2,,09:00-21:00,,,,,,,,,,,,,,,,,,0
dddc88ce4e3d41cb3913fd9c,雅俊美发店,丽人,美发,江苏省,常州市,武进区,常州市武进区恒鑫大道,dddc88ce4e3d41cb3913fd9c,1,0,119.763377,31.601369,,beauty,http://api.map.baidu.com/place/detail?uid=dddc88ce4e3d41cb3913fd9c&output=html&source=placeapi_v2,,,,,,,,,,,,,,,,,,119.76342564017,31.601438834484,0
d7c82cbaa57d31ddda2f28f1,小顾美发,丽人,美发,江苏省,常州市,武进区,湟里镇村前街菜场对面,d7c82cbaa57d31ddda2f28f1,1,0,119.769237,31.623998,13775002808,beauty,http://api.map.baidu.com/place/detail?uid=d7c82cbaa57d31ddda2f28f1&output=html&source=placeapi_v2,,10:00-21:00,,,,,,,,,,,,,,,,,,0
44171f02e34b8c5016a190f6,纤艺造型,丽人,美发,江苏省,常州市,武进区,常州市武进区常州市武进区前黄实验学校东北侧约90米,,1,0,119.971729,31.604817,18661229698,beauty,http://api.map.baidu.com/place/detail?uid=44171f02e34b8c5016a190f6&output=html&source=placeapi_v2,,08:00-21:00,,,,,,,,,3,,,,,,,,,0
fcc6b4c78d3a7fa21e1d111b,牡丹星形象,丽人,美发,江苏省,常州市,武进区,常州市武进区景德西路前黄实验幼儿园东侧约130米,fcc6b4c78d3a7fa21e1d111b,1,0,119.970464,31.599053,(0519)86511987,beauty,http://api.map.baidu.com/place/detail?uid=fcc6b4c78d3a7fa21e1d111b&output=html&source=placeapi_v2,,10:00-21:00,,,,,,,,,,,,,,,,,,0
414b3efeca91aa7daecb6693,曼妮护肤造型(前黄店),丽人,美发,江苏省,常州市,武进区,江苏省常州市武进区景德西路47-9号,414b3efeca91aa7daecb6693,1,0,119.966952,31.600532,"15961116918,18915026198",beauty,http://api.map.baidu.com/place/detail?uid=414b3efeca91aa7daecb6693&output=html&source=placeapi_v2,,10:00-22:00,0,,,,,,,,0,,,,,,,119.96704903177,31.600621732794,0
eb72023def3c4a52d5b74ea6,发源地(前黄店),丽人,美发,江苏省,常州市,武进区,江苏省常州市武进区书院街28号,eb72023def3c4a52d5b74ea6,1,0,119.969115,31.598531,13961458074,beauty,http://api.map.baidu.com/place/detail?uid=eb72023def3c4a52d5b74ea6&output=html&source=placeapi_v2,83.0,10:00-21:00,0,,,,,,,,0,,,,,,,119.96914241508,31.598601734864,0
8bf3d9f2fd83c1008d7727c6,晓敏美发店,丽人,美发,江苏省,常州市,武进区,江苏省常州市武进区前庙路63号,8bf3d9f2fd83c1008d7727c6,1,0,119.973793,31.613338,18351223256,beauty,http://api.map.baidu.com/place/detail?uid=8bf3d9f2fd83c1008d7727c6&output=html&source=placeapi_v2,,,,,,,,,,,,,,,,,,,,0
3fa5c5ab08cb65f10bf5eb66,元创造型,丽人,美发,江苏省,常州市,武进区,景德西路前黄华强超市北侧对面,3fa5c5ab08cb65f10bf5eb66,1,0,119.973363,31.598346,,beauty,http://api.map.baidu.com/place/detail?uid=3fa5c5ab08cb65f10bf5eb66&output=html&source=placeapi_v2,,10:00-21:00,,,,,,,,,,,,,,,,,,0
752808f2c624fbb51d1d111a,乐乐造型(前黄西街店),丽人,美发,江苏省,常州市,武进区,江苏省常州市武进区前黄镇书院街8号,752808f2c624fbb51d1d111a,1,0,119.969338,31.598009,,beauty,http://api.map.baidu.com/place/detail?uid=752808f2c624fbb51d1d111a&output=html&source=placeapi_v2,,10:00-21:00,,,,,,,,,,,,,,,,,,0
1a427a8ccc9e4c159cec2bc9,剪爱发型,丽人,美发,江苏省,常州市,武进区,常州市武进区吴家塘幼儿园东南侧约290米,,1,0,119.97227,31.607894,,beauty,http://api.map.baidu.com/place/detail?uid=1a427a8ccc9e4c159cec2bc9&output=html&source=placeapi_v2,,,,,,,,,,,,,,,,,,119.97241795856,31.607862378109,0
28eb804e82f851ee0bf5ebd6,明明理发店,丽人,美发,江苏省,常州市,武进区,常州市武进区X206绿源大厦南侧约230米,28eb804e82f851ee0bf5ebd6,1,0,119.974454,31.59727,,beauty,http://api.map.baidu.com/place/detail?uid=28eb804e82f851ee0bf5ebd6&output=html&source=placeapi_v2,,08:00-20:00,,,,,,,,,,,,,,,,,,0
02b83d72c265419a4354d720,纤手护肤造型,丽人,美发,江苏省,常州市,武进区,江苏省常州市武进区前黄镇瑞景花园6-31号,,1,0,119.96589,31.604333,13775261506,beauty,http://api.map.baidu.com/place/detail?uid=02b83d72c265419a4354d720&output=html&source=placeapi_v2,,10:00-21:00,0.0,,,,,,,,,,,,,,,,,0
8438650f6aa8d4eb43024593,审美发艺,丽人,美发,江苏省,常州市,武进区,江苏省常州市武进区前黄镇牌楼街17号,8438650f6aa8d4eb43024593,1,0,119.971113,31.59842,18715116390,beauty,http://api.map.baidu.com/place/detail?uid=8438650f6aa8d4eb43024593&output=html&source=placeapi_v2,,09:00-21:00,,,,,,,,,,,,,,,,,,0
d0da7b1dbd3a6f2bf02d830b,温州名剪(文雅路店),丽人,美发,江苏省,常州市,武进区,江苏省常州市武进区前黄镇瑞景花园29号温州名剪,,1,0,119.965819,31.604249,13626233111,beauty,http://api.map.baidu.com/place/detail?uid=d0da7b1dbd3a6f2bf02d830b&output=html&source=placeapi_v2,,09:00-21:00,,,,,,,,,,,,,,,,,,0
a5cb19238b7c8db9843304e0,顶峰造型(前黄店),丽人,美发,江苏省,常州市,武进区,前黄商贸中心7-48,,1,0,119.96721,31.601952,15189768584,beauty,http://api.map.baidu.com/place/detail?uid=a5cb19238b7c8db9843304e0&output=html&source=placeapi_v2,85.0,09:00-20:00,0.0,,,,,,,,,,,,,,,119.96699629584,31.601813242959,0
5014530a376fb1d6f5c59c81,金尚国际美发连锁,丽人,美发,江苏省,常州市,武进区,江苏省常州市武进区前黄镇景德东路12号,5014530a376fb1d6f5c59c81,1,0,119.972304,31.598257,15772048489,beauty,http://api.map.baidu.com/place/detail?uid=5014530a376fb1d6f5c59c81&output=html&source=placeapi_v2,,09:00-21:00,,,,,,,,,,,,,,,,119.97222681712,31.598135554097,0
426970e1fada7565a8059dd4,艳艳理发店,丽人,美发,江苏省,常州市,武进区,常州市武进区前黄西街前黄实验幼儿园东南侧约160米,,1,0,119.969914,31.597608,,beauty,http://api.map.baidu.com/place/detail?uid=426970e1fada7565a8059dd4&output=html&source=placeapi_v2,,,,,,,,,,,,,,,,,,,,0
9e0c565de33550077f29bd8d,蝶舞智卿形象工作室,丽人,美发,江苏省,常州市,武进区,江苏常州市武进区书院街28号,9e0c565de33550077f29bd8d,1,0,119.969203,31.598508,,beauty,http://api.map.baidu.com/place/detail?uid=9e0c565de33550077f29bd8d&output=html&source=placeapi_v2,,,,,,,,,,,,,,,,,,,,0
2867f18cc37146f99e95de3a,航翔秀场,丽人,美发,江苏省,常州市,武进区,江苏省常州市武进区政兴路47号,2867f18cc37146f99e95de3a,1,0,120.003068,31.60593,13912331002,beauty,http://api.map.baidu.com/place/detail?uid=2867f18cc37146f99e95de3a&output=html&source=placeapi_v2,,08:00-21:00,,,,,,,,,,,,,,,,,,0
e687e903d10ec7c4b04c4927,阿高造型,丽人,美发,江苏省,常州市,武进区,江苏省常州市武进区书院街7号,e687e903d10ec7c4b04c4927,1,0,119.969183,31.598007,13813692436,beauty,http://api.map.baidu.com/place/detail?uid=e687e903d10ec7c4b04c4927&output=html&source=placeapi_v2,,10:00-21:00,,,,,,,,,,,,,,,,,,0
1d43f46190a5d529901fc921,芬芬理发,丽人,美发,江苏省,常州市,武进区,常州市武进区礼政路政平幼儿园西南侧约110米,1d43f46190a5d529901fc921,1,0,120.003308,31.605778,15151983429,beauty,http://api.map.baidu.com/place/detail?uid=1d43f46190a5d529901fc921&output=html&source=placeapi_v2,,,,,,,,,,,,,,,,,,,,0
d113ac8b46ef6365d518b744,丽族萱造型,丽人,美发,江苏省,常州市,武进区,常州市武进区礼嘉镇常发南路福利彩票对面,,1,0,120.017942,31.62288,13912328870,beauty,http://api.map.baidu.com/place/detail?uid=d113ac8b46ef6365d518b744&output=html&source=placeapi_v2,,,,,,,,,,,,,,,,,,,,0
f6a8c0c8e09d9901d02dd645,金霞美容美发(荷花西路店),丽人,美发,江苏省,常州市,武进区,江苏省常州市武进区荷花东路75-1号,f6a8c0c8e09d9901d02dd645,1,0,120.068608,31.609644,13912338561,beauty,http://api.map.baidu.com/place/detail?uid=f6a8c0c8e09d9901d02dd645&output=html&source=placeapi_v2,,10:00-21:00,0.0,,,,,,,,,,,,,,,,,0
a99ff6e8b114b404abf72917,Angel造型,丽人,美发,江苏省,常州市,武进区,江苏省常州市武进区上马路19号,a99ff6e8b114b404abf72917,1,0,120.066592,31.611894,,beauty,http://api.map.baidu.com/place/detail?uid=a99ff6e8b114b404abf72917&output=html&source=placeapi_v2,,,,,,,,,,,,,,,,,,,,0
f6de56e1fcfa67a9d72ce24e,雅典造型,丽人,美发,江苏省,常州市,武进区,江苏省常州市武进区上马路53号,f6de56e1fcfa67a9d72ce24e,1,0,120.067846,31.613455,,beauty,http://api.map.baidu.com/place/detail?uid=f6de56e1fcfa67a9d72ce24e&output=html&source=placeapi_v2,,10:00-21:00,,,,,,,,,,,,,,,,,,0
15771ae1abc7110e8f55ecd3,天成发型设计,丽人,美发,江苏省,常州市,武进区,江苏省常州市武进区洛阳镇管城村荷花西路云溪幼儿园,15771ae1abc7110e8f55ecd3,1,0,120.063308,31.611485,14761174215,beauty,http://api.map.baidu.com/place/detail?uid=15771ae1abc7110e8f55ecd3&output=html&source=placeapi_v2,,10:00-21:00,,,,,,,,,,,,,,,,,,0
8f87a4a30cdf3e9716c905c5,语丝美容美发旗舰店,丽人,美发,江苏省,常州市,武进区,江苏省常州市武进区荷花西路21号,8f87a4a30cdf3e9716c905c5,1,0,120.06331,31.611189,18724065657,beauty,http://api.map.baidu.com/place/detail?uid=8f87a4a30cdf3e9716c905c5&output=html&source=placeapi_v2,,10:00-21:00,,,,,,,,,,,,,,,,,,0
d052cc51bd2c79cccd04ef79,小王烫染机构,丽人,美发,江苏省,常州市,武进区,常州市武进区荷花西路武进戴溪小学南侧约170米,d052cc51bd2c79cccd04ef79,1,0,120.061287,31.611652,,beauty,http://api.map.baidu.com/place/detail?uid=d052cc51bd2c79cccd04ef79&output=html&source=placeapi_v2,,10:00-21:00,,,,,,,,,,,,,,,,120.061283327,31.61147245639,0
528a33feb12da4ee76e5b64b,萍兰美发,丽人,美发,江苏省,常州市,金坛区,江苏省常州市金坛区西路6号,528a33feb12da4ee76e5b64b,1,0,119.464721,31.647214,13775161890,beauty,http://api.map.baidu.com/place/detail?uid=528a33feb12da4ee76e5b64b&output=html&source=placeapi_v2,,,,,,,,,,,,,,,,,,119.46466851957,31.647297009658,0
516f43747b43adf6c909f05c,亮颜美发,丽人,美发,江苏省,常州市,金坛区,常州市金坛区镇西路社头幼儿园北侧,516f43747b43adf6c909f05c,1,0,119.463266,31.647143,,beauty,http://api.map.baidu.com/place/detail?uid=516f43747b43adf6c909f05c&output=html&source=placeapi_v2,,,,,,,,,,,,,,,,,,,,0
25889b10d7b138ca1f389474,紫金发艺,丽人,美发,江苏省,常州市,金坛区,常州市金坛区文化路金坛社头小学北侧约70米,25889b10d7b138ca1f389474,1,0,119.465689,31.647882,,beauty,http://api.map.baidu.com/place/detail?uid=25889b10d7b138ca1f389474&output=html&source=placeapi_v2,,10:00-21:00,,,,,,,,,,,,,,,,119.46576603061,31.647848764412,0
820f757584e3998dcd04ef90,鑫流时尚发型设计,丽人,美发,江苏省,常州市,金坛区,常州市金坛区镇西路金坛社头小学北侧,820f757584e3998dcd04ef90,1,0,119.465526,31.64744,,beauty,http://api.map.baidu.com/place/detail?uid=820f757584e3998dcd04ef90&output=html&source=placeapi_v2,,,,,,,,,,,,,,,,,,,,0
4cc47dd951696e6e94ec84a6,天然植物染养发,丽人,美发,江苏省,常州市,金坛区,常州市金坛区镇西路金坛社头小学,4cc47dd951696e6e94ec84a6,1,0,119.46514,31.647264,18206148689,beauty,http://api.map.baidu.com/place/detail?uid=4cc47dd951696e6e94ec84a6&output=html&source=placeapi_v2,,,,,,,,,,,,,,,,,,,,0
1ed173b907d09bc1ae080f14,珍艺精剪,丽人,美发,江苏省,常州市,金坛区,常州市金坛区指前镇镇西路6号,,1,0,119.465142,31.647178,,beauty,http://api.map.baidu.com/place/detail?uid=1ed173b907d09bc1ae080f14&output=html&source=placeapi_v2,,10:00-21:00,,,,,,,,,,,,,,,,,,0
ee9bc3a47dcd2884ddee8b44,风尚造型(晨风西街店),丽人,美发,江苏省,常州市,金坛区,江苏省常州市金坛区五叶北街10号,ee9bc3a47dcd2884ddee8b44,1,0,119.644934,31.642034,,beauty,http://api.map.baidu.com/place/detail?uid=ee9bc3a47dcd2884ddee8b44&output=html&source=placeapi_v2,,10:00-21:00,,,,,,,,,,,,,,,,,,0
2cc248310abc1ebf8605bfbf,欣妍发艺,丽人,美发,江苏省,常州市,金坛区,常州市金坛区X201金坛区五叶幼儿园东北侧约50米,2cc248310abc1ebf8605bfbf,1,0,119.643491,31.640116,18901498030,beauty,http://api.map.baidu.com/place/detail?uid=2cc248310abc1ebf8605bfbf&output=html&source=placeapi_v2,,10:00-21:00,,,,,,,,,,,,,,,,,,0
693468075335ffd602294fa4,芭菲造型,丽人,美发,江苏省,常州市,金坛区,常州市金坛区五叶北街8号,693468075335ffd602294fa4,1,0,119.643254,31.64153,,beauty,http://api.map.baidu.com/place/detail?uid=693468075335ffd602294fa4&output=html&source=placeapi_v2,,,0,,,,,,,,1,,,,,,,,,0
eb4ac9a8144ad452128824d9,加洪发艺,丽人,美发,江苏省,常州市,金坛区,常州市金坛区X201金坛区五叶幼儿园东北侧约140米,eb4ac9a8144ad452128824d9,1,0,119.643734,31.640959,,beauty,http://api.map.baidu.com/place/detail?uid=eb4ac9a8144ad452128824d9&output=html&source=placeapi_v2,,,,,,,,,,,,,,,,,,,,0
4c163a50d2c20992e215f94c,启源工作室,丽人,美发,江苏省,常州市,金坛区,江苏省常州市金坛区五叶南街8号,4c163a50d2c20992e215f94c,1,0,119.644432,31.640978,13861045192,beauty,http://api.map.baidu.com/place/detail?uid=4c163a50d2c20992e215f94c&output=html&source=placeapi_v2,,10:00-21:00,,,,,,,,,,,,,,,,,,0
fab6cb105e47185685420e30,时尚部落工作室,丽人,美发,江苏省,常州市,金坛区,常州市金坛区X201金坛区五叶幼儿园东侧约100米,fab6cb105e47185685420e30,1,0,119.644131,31.640025,13861129506,beauty,http://api.map.baidu.com/place/detail?uid=fab6cb105e47185685420e30&output=html&source=placeapi_v2,,,,,,,,,,,,,,,,,,,,0
b677a8620146b80ec16c14fe,温州发廊(中学路店),丽人,美发,江苏省,常州市,武进区,江苏省常州市武进区中学路116号,b677a8620146b80ec16c14fe,1,0,119.722586,31.640456,13584318585,beauty,http://api.map.baidu.com/place/detail?uid=b677a8620146b80ec16c14fe&output=html&source=placeapi_v2,,10:00-21:00,0.0,,,,,,,,,,,,,,,,,0
3327628b956451b4e812e4bb,小南理发,丽人,美发,江苏省,常州市,武进区,常州市武进区中学路湟里镇人民政府西南侧约240米,3327628b956451b4e812e4bb,1,0,119.720273,31.641955,,beauty,http://api.map.baidu.com/place/detail?uid=3327628b956451b4e812e4bb&output=html&source=placeapi_v2,,,,,,,,,,,,,,,,,,,,0
a283319d01d9854b0f0a709d,爱尚美发,丽人,美发,江苏省,常州市,武进区,江苏省常州市武进区湟东路武进市湟里初级中学东侧约90米,a283319d01d9854b0f0a709d,1,0,119.724485,31.638897,15961228606,beauty,http://api.map.baidu.com/place/detail?uid=a283319d01d9854b0f0a709d&output=html&source=placeapi_v2,,08:00-21:00,,,,,,,,,,,,,,,,,,0
46e86fdd8bb06b6cd13ce351,小虎发型创作,丽人,美发,江苏省,常州市,武进区,江苏省常州市武进区埠新中路83号,46e86fdd8bb06b6cd13ce351,1,0,119.72098,31.643931,,beauty,http://api.map.baidu.com/place/detail?uid=46e86fdd8bb06b6cd13ce351&output=html&source=placeapi_v2,,,0,,,,,,,,1,,,,,,,,,0
8825ea5daf9d53484207c187,新感觉美发店,丽人,美发,江苏省,常州市,武进区,江苏省常州市武进区中学路武进市湟里初级中学东北侧约40米,8825ea5daf9d53484207c187,1,0,119.724056,31.639687,13584533589,beauty,http://api.map.baidu.com/place/detail?uid=8825ea5daf9d53484207c187&output=html&source=placeapi_v2,,,,,,,,,,,,,,,,,,,,0
f92f7ad4b1e09755d72ce2fc,千纸鹤美发店,丽人,美发,江苏省,常州市,武进区,常州市武进区湟东路湟里高级中学东北侧约110米,f92f7ad4b1e09755d72ce2fc,1,0,119.724012,31.637482,,beauty,http://api.map.baidu.com/place/detail?uid=f92f7ad4b1e09755d72ce2fc&output=html&source=placeapi_v2,,10:00-21:00,,,,,,,,,,,,,,,,119.7240401196,31.637429018421,0
91f3650a12131741081cc7d7,晓春发屋,丽人,美发,江苏省,常州市,武进区,江苏省常州市武进区湟里镇金泉路92号,91f3650a12131741081cc7d7,1,0,119.71954,31.646464,,beauty,http://api.map.baidu.com/place/detail?uid=91f3650a12131741081cc7d7&output=html&source=placeapi_v2,,10:00-21:00,5.0,,,,,,,,2,,,,,,,119.71944293425,31.6464165745,0
7d9f5883c190a22cb9df8f8a,植物养发馆,丽人,美发,江苏省,常州市,武进区,湟里镇桃园路19号宏图桥西,7d9f5883c190a22cb9df8f8a,1,0,119.722089,31.633924,13776861045,beauty,http://api.map.baidu.com/place/detail?uid=7d9f5883c190a22cb9df8f8a&output=html&source=placeapi_v2,,10:00-21:00,,,,,,,,,,,,,,,,119.72217914858,31.634032622187,0
2a8bfc62cbe731829d95dee7,简约专业造型,丽人,美发,江苏省,常州市,武进区,常州市武进区埠新路湟里镇人民政府西北侧约110米,2a8bfc62cbe731829d95dee7,1,0,119.72156,31.643838,13626249158,beauty,http://api.map.baidu.com/place/detail?uid=2a8bfc62cbe731829d95dee7&output=html&source=placeapi_v2,,10:00-21:00,,,,,,,,,,,,,,,,,,0
b718d0643f0a1eb5ce06a464,锋之剪美容美发(湟里店),丽人,美发,江苏省,常州市,武进区,常州市武进区金鼎路102号,b718d0643f0a1eb5ce06a464,1,0,119.718277,31.646831,15851935099,beauty,http://api.map.baidu.com/place/detail?uid=b718d0643f0a1eb5ce06a464&output=html&source=placeapi_v2,,10:00-22:00,0,,,,,,,,0,,,,,,,119.71827231192,31.646954227682,0
d9ba88220744eedb0ab93a33,时尚美容美发(金泉路店),丽人,美发,江苏省,常州市,武进区,江苏省常州市武进区金泉路86号,d9ba88220744eedb0ab93a33,1,0,119.71955,31.646342,13813577857,beauty,http://api.map.baidu.com/place/detail?uid=d9ba88220744eedb0ab93a33&output=html&source=placeapi_v2,,10:00-21:00,3.0,,,,,,,,,,,,,,,,,0
57078c70d7841cbf8605bf96,新潮发廊(金水路店),丽人,美发,江苏省,常州市,武进区,常州市武进区金水路健达药房斜对面(湟里镇劳动保障服务所东),57078c70d7841cbf8605bf96,1,0,119.71493,31.640459,(0519)83343775,beauty,http://api.map.baidu.com/place/detail?uid=57078c70d7841cbf8605bf96&output=html&source=placeapi_v2,,10:00-21:00,,,,,,,,,,,,,,,,,,0
e3ad03d39b3ca27f6f3e1b25,小吴美容美发,丽人,美发,江苏省,常州市,武进区,江苏省常州市武进区金泉路9号,e3ad03d39b3ca27f6f3e1b25,1,0,119.719411,31.644913,13811171812,beauty,http://api.map.baidu.com/place/detail?uid=e3ad03d39b3ca27f6f3e1b25&output=html&source=placeapi_v2,,,,,,,,,,,,,,,,,,,,0
1f509170c6738394d7851ff0,心情故事,丽人,美发,江苏省,常州市,武进区,江苏省常州市武进区金水路230号,1f509170c6738394d7851ff0,1,0,119.715083,31.64339,13656110766,beauty,http://api.map.baidu.com/place/detail?uid=1f509170c6738394d7851ff0&output=html&source=placeapi_v2,,10:00-21:00,,,,,,,,,,,,,,,,119.71523984901,31.643353102815,0
d3c3097e96e1171bf32d8327,丝念造型工作室,丽人,美发,江苏省,常州市,武进区,常州市武进区桃苑新都A-01,d3c3097e96e1171bf32d8327,1,0,119.716564,31.635993,,beauty,http://api.map.baidu.com/place/detail?uid=d3c3097e96e1171bf32d8327&output=html&source=placeapi_v2,,10:00-21:00,,,,,,,,,,,,,,,,119.71651516436,31.635860596189,0
75e5437e8dc6034b157643c1,第六感专业烫染工作室,丽人,美发,江苏省,常州市,武进区,常州市武进区湟里大街金水岸花园-南区东南侧约210米,75e5437e8dc6034b157643c1,1,0,119.716475,31.641041,,beauty,http://api.map.baidu.com/place/detail?uid=75e5437e8dc6034b157643c1&output=html&source=placeapi_v2,,08:00-21:00,,,,,,,,,,,,,,,,,,0
c443e0c94ac5f3dbdbd8914f,陈妈工作室,丽人,美发,江苏省,常州市,武进区,江苏省常州市武进区金水路5号,c443e0c94ac5f3dbdbd8914f,1,0,119.714916,31.637262,15295077060,beauty,http://api.map.baidu.com/place/detail?uid=c443e0c94ac5f3dbdbd8914f&output=html&source=placeapi_v2,,08:30-20:30,,,,,,,,,1,,,,,,,,,0
42cd6b0bd2978e81932ca379,诗碧曼白发长黑防脱生发专柜,丽人,美发,江苏省,常州市,武进区,江苏省常州市武进区金鼎路1号,,1,0,119.715316,31.646805,,beauty,http://api.map.baidu.com/place/detail?uid=42cd6b0bd2978e81932ca379&output=html&source=placeapi_v2,,,,,,,,,,,,,,,,,,,,0
988345a917004fb2a8059d83,光和美肌・美颜社,丽人,美发,江苏省,常州市,武进区,常州市武进区湟里镇湟墅花园北门底商22-4号,988345a917004fb2a8059d83,1,0,119.719267,31.631556,13961190738,beauty,http://api.map.baidu.com/place/detail?uid=988345a917004fb2a8059d83&output=html&source=placeapi_v2,,09:00-21:00,,,,,,,,,,,,,,,,119.71934774441,31.631798003211,0
f15e9499d3e57bc1cb213d28,兆青造型,丽人,美发,江苏省,常州市,武进区,江苏省常州市武进区金鼎路1~4号,f15e9499d3e57bc1cb213d28,1,0,119.714459,31.646668,18068552305,beauty,http://api.map.baidu.com/place/detail?uid=f15e9499d3e57bc1cb213d28&output=html&source=placeapi_v2,,10:00-21:00,,,,,,,,,,,,,,,,,,0
cfe75904e4d71bb004026f84,惠芬理发,丽人,美发,江苏省,常州市,武进区,常州市武进区和谐路与湟东路交叉路口往南约150米,cfe75904e4d71bb004026f84,1,0,119.725458,31.659907,,beauty,http://api.map.baidu.com/place/detail?uid=cfe75904e4d71bb004026f84&output=html&source=placeapi_v2,,,,,,,,,,,,,,,,,,,,0
7728c73b929b89fc734b878a,琅丝水谷美容美发,丽人,美发,江苏省,常州市,武进区,江苏省常州市武进区龙颜路228号,7728c73b929b89fc734b878a,1,0,119.939753,31.637783,(0519)81885329,beauty,http://api.map.baidu.com/place/detail?uid=7728c73b929b89fc734b878a&output=html&source=placeapi_v2,,10:00-21:00,0,,,,,,,,1,,,,,,,119.93982937231,31.63758037601,0
52280ec084a5ad3dc41e5156,艺琅造型(南夏墅店),丽人,美发,江苏省,常州市,武进区,江苏省常州市武进区商业街B3-2号,52280ec084a5ad3dc41e5156,1,0,119.93651,31.636736,(0519)81185112,beauty,http://api.map.baidu.com/place/detail?uid=52280ec084a5ad3dc41e5156&output=html&source=placeapi_v2,83.0,08:00-22:00,0,,,,,,,,0,,,,,,,,,0
0424de3ed01c82ac2cb17e0b,金莎造型,丽人,美发,江苏省,常州市,武进区,常州市武进区南淳家园SP-2号,0424de3ed01c82ac2cb17e0b,1,0,119.93005,31.637575,15380095559,beauty,http://api.map.baidu.com/place/detail?uid=0424de3ed01c82ac2cb17e0b&output=html&source=placeapi_v2,,10:00-21:00,5,,,,,,,,2,,,,,,,119.9300511749,31.637875249183,0
64b76854d9f5c20fb320a8b8,匠心造型,丽人,美发,江苏省,常州市,武进区,江苏省常州市武进区常漕南路75号,64b76854d9f5c20fb320a8b8,1,0,119.953952,31.635667,13861284826,beauty,http://api.map.baidu.com/place/detail?uid=64b76854d9f5c20fb320a8b8&output=html&source=placeapi_v2,,09:00-22:00,,,,,,,,,,,,,,,,119.95395857354,31.635507619464,0
576368b38d485ad50e3dda36,忠忠发型,丽人,美发,江苏省,常州市,武进区,江苏省常州市武进区南塘路1号,576368b38d485ad50e3dda36,1,0,119.941308,31.635376,13912318200,beauty,http://api.map.baidu.com/place/detail?uid=576368b38d485ad50e3dda36&output=html&source=placeapi_v2,,10:00-21:00,,,,,,,,,,,,,,,,119.94135879223,31.635197461251,0
8bf4ba56b19011d1ad080f67,星感觉美发造型,丽人,美发,江苏省,常州市,武进区,江苏省常州市武进区南夏墅西街58号,8bf4ba56b19011d1ad080f67,1,0,119.947154,31.633697,,beauty,http://api.map.baidu.com/place/detail?uid=8bf4ba56b19011d1ad080f67&output=html&source=placeapi_v2,,08:00-21:00,5.0,,,,,,,,1,,,,,,,,,0
a401be5520f49a3a471a32c8,彭彭造型,丽人,美发,江苏省,常州市,武进区,江苏省常州市武进区武宜路南苑小区149栋,a401be5520f49a3a471a32c8,1,0,119.93382,31.637589,15090527023,beauty,http://api.map.baidu.com/place/detail?uid=a401be5520f49a3a471a32c8&output=html&source=placeapi_v2,,07:30-22:30,,,,,,,,,,,,,,,,,,0
d4be59fbd5f2e4765fbe86d6,云涛造型,丽人,美发,江苏省,常州市,武进区,江苏省常州市武进区南夏墅南苑小区132幢楼,d4be59fbd5f2e4765fbe86d6,1,0,119.937057,31.638619,,beauty,http://api.map.baidu.com/place/detail?uid=d4be59fbd5f2e4765fbe86d6&output=html&source=placeapi_v2,,09:30-22:00,,,,,,,,,,,,,,,,119.93700270539,31.638567822556,0
9f0719d2e798e6f8715e8076,美男造型,丽人,美发,江苏省,常州市,武进区,常州市武进区龙颜路南苑小区-南区,,1,0,119.934544,31.636413,,beauty,http://api.map.baidu.com/place/detail?uid=9f0719d2e798e6f8715e8076&output=html&source=placeapi_v2,,,0.0,,,,,,,,1,,,,,,,119.93455929526,31.636302482629,0
2456998da4f84d8ad5b74e86,珈黛痘敏斑,丽人,美发,江苏省,常州市,武进区,常州市武进区武宜路南夏墅消费品中心市场,,1,0,119.944884,31.635997,"15189734329,18351223499",beauty,http://api.map.baidu.com/place/detail?uid=2456998da4f84d8ad5b74e86&output=html&source=placeapi_v2,,09:00-21:00,,,,,,,,,,,,,,,,,,0
42fadf480f964b45da2f2879,红红理发,丽人,美发,江苏省,常州市,武进区,江苏省常州市武进区南塘150号,42fadf480f964b45da2f2879,1,0,119.948708,31.637752,18118332668,beauty,http://api.map.baidu.com/place/detail?uid=42fadf480f964b45da2f2879&output=html&source=placeapi_v2,,10:00-21:00,,,,,,,,,,,,,,,,,,0
bb0ea0d8b1dccc062902e104,沙龙造型(南夏墅店),丽人,美发,江苏省,常州市,武进区,常州市武进区高新区南夏墅西街(苏果超市西10米),bb0ea0d8b1dccc062902e104,1,0,119.946408,31.63496,13775232139,beauty,http://api.map.baidu.com/place/detail?uid=bb0ea0d8b1dccc062902e104&output=html&source=placeapi_v2,85.0,10:00-21:00,,,,,,,,,,,,,,,,,,0
185271bbab1de1c17ab55ce5,琴琴美容美发(南塘路店),丽人,美发,江苏省,常州市,武进区,江苏省常州市武进区南塘路75号,185271bbab1de1c17ab55ce5,1,0,119.94697,31.635547,,beauty,http://api.map.baidu.com/place/detail?uid=185271bbab1de1c17ab55ce5&output=html&source=placeapi_v2,,10:00-21:00,0.0,,,,,,,,,,,,,,,119.9468292545,31.635552644961,0
c83be7d863d065608c1a895c,思逸美发,丽人,美发,江苏省,常州市,武进区,常州市武进区南夏墅东街南夏墅育英新市民小学北侧约250米,c83be7d863d065608c1a895c,1,0,119.94675,31.634127,18262979737,beauty,http://api.map.baidu.com/place/detail?uid=c83be7d863d065608c1a895c&output=html&source=placeapi_v2,,08:30-21:30,,,,,,,,,,,,,,,,119.94668294479,31.634035520383,0
f546a9795f4a36f0d7851f23,千姿造型(南苑小区店),丽人,美发,江苏省,常州市,武进区,江苏省常州市武进区南苑小区27栋丙单元,f546a9795f4a36f0d7851f23,1,0,119.940616,31.635093,,beauty,http://api.map.baidu.com/place/detail?uid=f546a9795f4a36f0d7851f23&output=html&source=placeapi_v2,,10:00-21:00,0.0,,,,,,,,,,,,,,,,,0
57b4ac7e2eda829d31870af7,正东造型,丽人,美发,江苏省,常州市,武进区,江苏省常州市武进区南夏墅街道南苑小区32栋8号,57b4ac7e2eda829d31870af7,1,0,119.939871,31.634788,,beauty,http://api.map.baidu.com/place/detail?uid=57b4ac7e2eda829d31870af7&output=html&source=placeapi_v2,,,,,,,,,,,,,,,,,,,,0
5fbbba768d9f0ce625d2bb6d,王氏造型(南夏墅西街店),丽人,美发,江苏省,常州市,武进区,江苏省常州市武进区南湾街31-1号,5fbbba768d9f0ce625d2bb6d,1,0,119.947517,31.633498,18801509602,beauty,http://api.map.baidu.com/place/detail?uid=5fbbba768d9f0ce625d2bb6d&output=html&source=placeapi_v2,44.0,09:00-20:30,0,,,,,,,,0,,,,,,,119.94756352942,31.633562459857,0
ca3640e76fedc460c056acaa,名友名剪(南夏墅西街店),丽人,美发,江苏省,常州市,武进区,江苏省常州市武进区南夏墅西街72号,ca3640e76fedc460c056acaa,1,0,119.946913,31.634083,13775195371,beauty,http://api.map.baidu.com/place/detail?uid=ca3640e76fedc460c056acaa&output=html&source=placeapi_v2,,08:00-21:30,,,,,,,,,,,,,,,,,,0
bd50b5adb1366c652cb96df3,宝红理发店,丽人,美发,江苏省,常州市,武进区,江苏省常州市武进区南夏墅东街14号,bd50b5adb1366c652cb96df3,1,0,119.949954,31.632846,,beauty,http://api.map.baidu.com/place/detail?uid=bd50b5adb1366c652cb96df3&output=html&source=placeapi_v2,,10:00-21:00,0.0,,,,,,,,,,,,,,,,,0
3070c268dc8fcf6b6849f34e,艺南烫染吧,丽人,美发,江苏省,常州市,武进区,江苏省常州市武进区南湾街83号,3070c268dc8fcf6b6849f34e,1,0,119.944725,31.63293,15961256336,beauty,http://api.map.baidu.com/place/detail?uid=3070c268dc8fcf6b6849f34e&output=html&source=placeapi_v2,,10:00-21:00,,,,,,,,,,,,,,,,,,0
2372e48e63c43ddd0b69d937,思逸美发,丽人,美发,江苏省,常州市,武进区,江苏省常州市武进区南夏墅中街7号,2372e48e63c43ddd0b69d937,1,0,119.948606,31.632996,18262979737,beauty,http://api.map.baidu.com/place/detail?uid=2372e48e63c43ddd0b69d937&output=html&source=placeapi_v2,,08:30-21:30,,,,,,,,,1,,,,,,,,,0
c16da5027e8ce211b5f42fb3,红豆美发(南夏墅西街店),丽人,美发,江苏省,常州市,武进区,南夏墅东街南夏墅育英新市民小学北侧约120米,c16da5027e8ce211b5f42fb3,1,0,119.948002,31.633251,13775120281,beauty,http://api.map.baidu.com/place/detail?uid=c16da5027e8ce211b5f42fb3&output=html&source=placeapi_v2,,10:00-21:00,,,,,,,,,,,,,,,,,,0
0442e45c75202e3aeb12e453,一丝剪艺,丽人,美发,江苏省,常州市,武进区,江苏省常州市南夏墅紫竹悦庭7-A栋101铺,,1,0,119.928086,31.632723,18251666675,beauty,http://api.map.baidu.com/place/detail?uid=0442e45c75202e3aeb12e453&output=html&source=placeapi_v2,,09:00-21:00,,,,,,,,,,,,,,,,119.92780333424,31.632723895185,0
d03a3d42ba08e5798bdb733d,文敏形象设计,丽人,美发,江苏省,常州市,武进区,常州市武进区南夏墅东街南夏墅育英新市民小学东北侧约230米,d03a3d42ba08e5798bdb733d,1,0,119.950976,31.632737,13775192585,beauty,http://api.map.baidu.com/place/detail?uid=d03a3d42ba08e5798bdb733d&output=html&source=placeapi_v2,,10:00-21:00,,,,,,,,,,,,,,,,,,0
8f4953c2cb264965b6147f6b,润泽美容美发,丽人,美发,江苏省,常州市,武进区,江苏省常州市武进区龙颜路与凤栖路交叉口西160米,,1,0,119.957053,31.635779,17314165877,beauty,http://api.map.baidu.com/place/detail?uid=8f4953c2cb264965b6147f6b&output=html&source=placeapi_v2,,09:00-21:30,,,,,,,,,,,,,,,,,,0
1ed2e2491f28a28a29fc4867,成氏美发,丽人,美发,江苏省,常州市,武进区,常州市武进区武进高新区南夏墅南隆家园114-15-16号,,1,0,119.955274,31.635733,13401327512,beauty,http://api.map.baidu.com/place/detail?uid=1ed2e2491f28a28a29fc4867&output=html&source=placeapi_v2,,10:00-22:00,,,,,,,,,,,,,,,,,,0
ef37c6f075b810fe6d20b943,GT人力资源发型工作室,丽人,美发,江苏省,常州市,武进区,江苏省常州市武进区马杭南路19号高新区武进国家高新技术产业开发区,ef37c6f075b810fe6d20b943,1,0,119.987644,31.640037,13775034652,beauty,http://api.map.baidu.com/place/detail?uid=ef37c6f075b810fe6d20b943&output=html&source=placeapi_v2,,09:00-21:30,,,,,,,,,,,,,,,,119.98738376609,31.640059413209,0
359466e9ebff5ae4b74f54fa,爱美发艺,丽人,美发,江苏省,常州市,武进区,江苏省常州市武进区陶冶路36号,359466e9ebff5ae4b74f54fa,1,0,119.988702,31.645053,18151286661,beauty,http://api.map.baidu.com/place/detail?uid=359466e9ebff5ae4b74f54fa&output=html&source=placeapi_v2,,08:30-21:00,,,,,,,,,,,,,,,,,,0
950b6cdbd52cc60581a12e37,反时针发型设计室,丽人,美发,江苏省,常州市,武进区,江苏省常州市武进区陶冶路32号,,1,0,119.98883,31.645066,18439553255,beauty,http://api.map.baidu.com/place/detail?uid=950b6cdbd52cc60581a12e37&output=html&source=placeapi_v2,,10:00-21:00,,,,,,,,,,,,,,,,,,0
a375d835669582dec42ba1b3,时尚前线(庙前北路店),丽人,美发,江苏省,常州市,武进区,江苏省常州市武进区庙前路79号2楼,a375d835669582dec42ba1b3,1,0,119.985679,31.656519,18261199971,beauty,http://api.map.baidu.com/place/detail?uid=a375d835669582dec42ba1b3&output=html&source=placeapi_v2,,08:45-23:15,3.0,,,,,,,,,,,,,,,,,0
d2950f17cbf907b30e0e6baf,阿杜美发工作室,丽人,美发,江苏省,常州市,武进区,江苏省常州市武进区庙桥老街54号,,1,0,119.985341,31.65581,15212579800,beauty,http://api.map.baidu.com/place/detail?uid=d2950f17cbf907b30e0e6baf&output=html&source=placeapi_v2,,09:00-22:00,,,,,,,,,,,,,,,,119.98521951815,31.655844438596,0
9b41a5f892a5573b28201a28,丽新造型,丽人,美发,江苏省,常州市,武进区,江苏省常州市武进区东环路72号,9b41a5f892a5573b28201a28,1,0,119.989511,31.653799,15161125976,beauty,http://api.map.baidu.com/place/detail?uid=9b41a5f892a5573b28201a28&output=html&source=placeapi_v2,,,,,,,,,,,,,,,,,,,,0
ae78c01f7430715e5fd4fe55,玉芳美发室,丽人,美发,江苏省,常州市,武进区,常州市武进区庙前北路常州市武进区庙桥消费品市场西侧约50米,,1,0,119.985955,31.656265,,beauty,http://api.map.baidu.com/place/detail?uid=ae78c01f7430715e5fd4fe55&output=html&source=placeapi_v2,,10:00-21:00,,,,,,,,,,,,,,,,,,0
03373655ac5a1f67deee8bc7,辰伟美发造型,丽人,美发,江苏省,常州市,武进区,常州市武进区庙前北路常州市武进区庙桥消费品市场西侧约190米,03373655ac5a1f67deee8bc7,1,0,119.984495,31.656487,,beauty,http://api.map.baidu.com/place/detail?uid=03373655ac5a1f67deee8bc7&output=html&source=placeapi_v2,,08:30-21:00,,,,,,,,,,,,,,,,,,0
1b48887bbb2568da1811d562,永尚美发工作室(庙桥消费品综合市场店),丽人,美发,江苏省,常州市,武进区,礼嘉镇南夏墅庙桥消费品综合市场,,1,0,119.986885,31.656715,,beauty,http://api.map.baidu.com/place/detail?uid=1b48887bbb2568da1811d562&output=html&source=placeapi_v2,,10:00-21:00,,,,,,,,,,,,,,,,119.98691930531,31.656803075418,0
9ea30f444ce8e30fc4f02575,好印象剪艺,丽人,美发,江苏省,常州市,武进区,武进区高新区东环路金码头超市旁,9ea30f444ce8e30fc4f02575,1,0,119.986438,31.656736,15195048807,beauty,http://api.map.baidu.com/place/detail?uid=9ea30f444ce8e30fc4f02575&output=html&source=placeapi_v2,,08:00-22:00,,,,,,,,,,,,,,,,,,0
6218a882d8fa36456c4760b0,7秀美发,丽人,美发,江苏省,常州市,武进区,常州市武进区东环路江南宾馆北侧约70米,,1,0,119.989599,31.656189,13775050415,beauty,http://api.map.baidu.com/place/detail?uid=6218a882d8fa36456c4760b0&output=html&source=placeapi_v2,,10:00-21:00,,,,,,,,,,,,,,,,,,0
20d959efdf19cf85f5c59ca9,永琪造型,丽人,美发,江苏省,常州市,武进区,江苏省常州市武进区庙前路858号,,1,0,119.985521,31.656837,17712341090,beauty,http://api.map.baidu.com/place/detail?uid=20d959efdf19cf85f5c59ca9&output=html&source=placeapi_v2,,,,,,,,,,,,,,,,,,,,0
93b6668cf5277ba0f7b916bf,温柔造型,丽人,美发,江苏省,常州市,武进区,江苏省常州市武进区庙前中路88号,93b6668cf5277ba0f7b916bf,1,0,119.986369,31.658853,17605299839,beauty,http://api.map.baidu.com/place/detail?uid=93b6668cf5277ba0f7b916bf&output=html&source=placeapi_v2,,08:30-21:00,,,,,,,,,,,,,,,,119.98644528297,31.658831849353,0
f3a2470af1c10466430245db,丽人造型,丽人,美发,江苏省,常州市,武进区,江苏省常州市武进区礼坂路129号,,1,0,120.018296,31.64329,15995072880,beauty,http://api.map.baidu.com/place/detail?uid=f3a2470af1c10466430245db&output=html&source=placeapi_v2,,10:00-21:00,,,,,,,,,,,,,,,,,,0
8a9017b4651f507fbb17e7a9,俊俊美发工作室(礼坂路),丽人,美发,江苏省,常州市,武进区,江苏省常州市武进区礼坂路121号,,1,0,120.017799,31.642552,18019686899,beauty,http://api.map.baidu.com/place/detail?uid=8a9017b4651f507fbb17e7a9&output=html&source=placeapi_v2,,10:00-21:00,,,,,,,,,,,,,,,,120.01796070675,31.642527976042,0
174181d85c787e1b14948e7b,美逸美发沙龙,丽人,美发,江苏省,常州市,武进区,江苏省常州市武进区百兴商贸街百姓商贸城3-125号,,1,0,120.017146,31.632559,13585345926,beauty,http://api.map.baidu.com/place/detail?uid=174181d85c787e1b14948e7b&output=html&source=placeapi_v2,,08:30-22:00,5,,,,,,,,2,,,,,,,120.01716446491,31.632634757294,0
987e78400a4994d438e4a629,新发线美发沙龙(讲学街店),丽人,美发,江苏省,常州市,武进区,江苏省常州市武进区讲学街10号,,1,0,120.020819,31.634143,13912308069,beauty,http://api.map.baidu.com/place/detail?uid=987e78400a4994d438e4a629&output=html&source=placeapi_v2,,08:30-21:00,0,,,,,,,,1,,,,,,,,,0
b2b059434dc85604eee4a5c3,后街护肤造型,丽人,美发,江苏省,常州市,武进区,江苏省常州市武进区礼坂路87号,,1,0,120.01739,31.64049,13646122501,beauty,http://api.map.baidu.com/place/detail?uid=b2b059434dc85604eee4a5c3&output=html&source=placeapi_v2,,10:00-21:00,,,,,,,,,,,,,,,,120.01753645323,31.640467524462,0
3df579439e5740773a13fd2a,东东美发(礼加新西街),丽人,美发,江苏省,常州市,武进区,常州市武进区礼新路常州市武进区礼嘉镇卫生院东北侧约30米,,1,0,120.023509,31.632704,,beauty,http://api.map.baidu.com/place/detail?uid=3df579439e5740773a13fd2a&output=html&source=placeapi_v2,,10:00-21:00,5,,,,,,,,1,,,,,,,,,0
38f35914a11124c6f82d612b,艺品发艺,丽人,美发,江苏省,常州市,武进区,常州市武进区礼坂路明星家具城(秦巷村)南侧约120米,38f35914a11124c6f82d612b,1,0,120.018752,31.645519,,beauty,http://api.map.baidu.com/place/detail?uid=38f35914a11124c6f82d612b&output=html&source=placeapi_v2,,08:00-21:30,,,,,,,,,,,,,,,,120.01860128841,31.645543324362,0
7d4a448ed4369cdf102935ad,小高发型,丽人,美发,江苏省,常州市,武进区,江苏省常州市武进区礼坂路61号,,1,0,120.016674,31.636891,,beauty,http://api.map.baidu.com/place/detail?uid=7d4a448ed4369cdf102935ad&output=html&source=placeapi_v2,,,5.0,,,,,,,,,,,,,,,,,0
8cbb68782e9c51b15fd4fe6f,艾炫造型,丽人,美发,江苏省,常州市,武进区,江苏省常州市武进区礼坂路71号,,1,0,120.017094,31.639075,15910918127,beauty,http://api.map.baidu.com/place/detail?uid=8cbb68782e9c51b15fd4fe6f&output=html&source=placeapi_v2,,09:00-21:30,,,,,,,,,,,,,,,,120.01725348699,31.639052275707,0
956845b9f286a3425bf6be3b,发发理发店(礼坂路店),丽人,美发,江苏省,常州市,武进区,常州市武进区礼坂路礼嘉小树苗幼儿园(礼盛路)东北侧约160米,956845b9f286a3425bf6be3b,1,0,120.017115,31.634616,,beauty,http://api.map.baidu.com/place/detail?uid=956845b9f286a3425bf6be3b&output=html&source=placeapi_v2,,10:00-21:00,0.0,,,,,,,,,,,,,,,,,0
447eefbff796bc60eedfca50,剪不剪剪吧(礼嘉百兴商贸城店),丽人,美发,江苏省,常州市,武进区,常州市礼嘉镇礼坂路礼嘉百兴商贸城F1,,1,0,120.020483,31.632825,,beauty,http://api.map.baidu.com/place/detail?uid=447eefbff796bc60eedfca50&output=html&source=placeapi_v2,,10:00-21:00,,,,,,,,,,,,,,,,120.02053716643,31.632819725056,0
7ae9340d719cf591fb2d61bf,樱环发艺,丽人,美发,江苏省,常州市,武进区,江苏省常州市武进区甘棠路11号,,1,0,120.016191,31.637201,17351697658,beauty,http://api.map.baidu.com/place/detail?uid=7ae9340d719cf591fb2d61bf&output=html&source=placeapi_v2,,09:00-21:00,0.0,,,,,,,,0,,,,,,,,,0
f3d3be9c5a4b78606f3e1bcc,出奇智胜美发,丽人,美发,江苏省,常州市,武进区,江苏省常州市武进区讲学街13号,f3d3be9c5a4b78606f3e1bcc,1,0,120.020666,31.634514,13781677785,beauty,http://api.map.baidu.com/place/detail?uid=f3d3be9c5a4b78606f3e1bcc&output=html&source=placeapi_v2,,06:00-24:00,,,,,,,,,,,,,,,,,,0
4f26e6db17ce0ada593ac806,审美造型(礼坂路店),丽人,美发,江苏省,常州市,武进区,江苏省常州市武进区礼坂路21号,4f26e6db17ce0ada593ac806,1,0,120.01661,31.636092,18261186776,beauty,http://api.map.baidu.com/place/detail?uid=4f26e6db17ce0ada593ac806&output=html&source=placeapi_v2,,10:00-21:00,0.0,,,,,,,,,,,,,,,120.01683369176,31.636160095028,0
84416f343f85c8ecfadc8546,尚帝造型(礼嘉店),丽人,美发,江苏省,常州市,武进区,常州市武进区礼坂路礼嘉高欣幼儿园东南侧约90米,84416f343f85c8ecfadc8546,1,0,120.01627,31.63226,,beauty,http://api.map.baidu.com/place/detail?uid=84416f343f85c8ecfadc8546&output=html&source=placeapi_v2,,10:00-21:00,0,,,,,,,,0,,,,,,,,,0
2eb8d05d654baaab7bf79621,经点美发沙龙,丽人,美发,江苏省,常州市,武进区,江苏省常州市武进区新东街13号1楼,,1,0,120.022702,31.632736,13775202357,beauty,http://api.map.baidu.com/place/detail?uid=2eb8d05d654baaab7bf79621&output=html&source=placeapi_v2,,08:00-21:30,,,,,,,,,,,,,,,,,,0
a430d8ab5343e1629ee321f0,龙跃美发,丽人,美发,江苏省,常州市,武进区,常州市武进区礼新路常州市武进区礼嘉镇卫生院东北侧约70米,,1,0,120.024102,31.632673,,beauty,http://api.map.baidu.com/place/detail?uid=a430d8ab5343e1629ee321f0&output=html&source=placeapi_v2,,08:30-21:00,,,,,,,,,,,,,,,,,,0
27d5979fea641503336212e3,罗圆美发,丽人,美发,江苏省,常州市,武进区,江苏省常州市武进区新东街56号,,1,0,120.023582,31.632422,,beauty,http://api.map.baidu.com/place/detail?uid=27d5979fea641503336212e3&output=html&source=placeapi_v2,,,,,,,,,,,,,,,,,,,,0
1366d83fc4af24f3a304648b,壹号专业美发沙龙,丽人,美发,江苏省,常州市,武进区,江苏省常州市武进区礼坂路百兴商贸城10栋,1366d83fc4af24f3a304648b,1,0,120.016954,31.633292,,beauty,http://api.map.baidu.com/place/detail?uid=1366d83fc4af24f3a304648b&output=html&source=placeapi_v2,,10:00-22:00,,,,,,,,,,,,,,,,120.01677300224,31.633328606809,0
fd2fd8376173f7157f29bdcc,阿远造型设计,丽人,美发,江苏省,常州市,武进区,常州市武进区礼政路新辰嘉苑东南侧约120米,,1,0,120.01535,31.627591,,beauty,http://api.map.baidu.com/place/detail?uid=fd2fd8376173f7157f29bdcc&output=html&source=placeapi_v2,,,0,,,,,,,,0,,,,,,,120.01519039544,31.62762622369,0
7a5ea99fa77aad2df02d8347,剪艺造型设计,丽人,美发,江苏省,常州市,武进区,常州市武进区礼政路新辰嘉苑东南侧约120米,,1,0,120.015377,31.627583,,beauty,http://api.map.baidu.com/place/detail?uid=7a5ea99fa77aad2df02d8347&output=html&source=placeapi_v2,,10:00-21:00,,,,,,,,,,,,,,,,,,0
0f802ff0d4d6dfa0714b8716,帝阔植物养发,丽人,美发,江苏省,常州市,武进区,常州市武进区戴洛路功功幼儿园西北侧约80米,0f802ff0d4d6dfa0714b8716,1,0,120.070334,31.65059,13815050722,beauty,http://api.map.baidu.com/place/detail?uid=0f802ff0d4d6dfa0714b8716&output=html&source=placeapi_v2,,08:00-20:00,,,,,,,,,,,,,,,,,,0
ba17c036b3049834b05c6ac7,芳芳发屋,丽人,美发,江苏省,常州市,武进区,常州市武进区东都西路明珠花园酒店南侧约140米,ba17c036b3049834b05c6ac7,1,0,120.071241,31.652002,,beauty,http://api.map.baidu.com/place/detail?uid=ba17c036b3049834b05c6ac7&output=html&source=placeapi_v2,,10:00-21:00,,,,,,,,,,,,,,,,120.07124013539,31.652129127377,0
594fdf2373072df9eddfca9d,华仔造型(洛阳路店),丽人,美发,江苏省,常州市,武进区,江苏省常州市武进区洛阳路16号,594fdf2373072df9eddfca9d,1,0,120.083667,31.650636,(0519)88793274,beauty,http://api.map.baidu.com/place/detail?uid=594fdf2373072df9eddfca9d&output=html&source=placeapi_v2,,10:00-21:00,5.0,,,,,,,,,,,,,,,,,0
484c8dd915e092b9270bd0ca,金剪刀(洛阳店),丽人,美发,江苏省,常州市,武进区,江苏省常州市武进区东都西路25号,484c8dd915e092b9270bd0ca,1,0,120.082884,31.652073,13401663056,beauty,http://api.map.baidu.com/place/detail?uid=484c8dd915e092b9270bd0ca&output=html&source=placeapi_v2,,10:00-21:00,,,,,,,,,,,,,,,,,,0
17d5a6e404b72e491a94c645,秀发阁,丽人,美发,江苏省,常州市,武进区,江苏省常州市武进区东都西路94号,17d5a6e404b72e491a94c645,1,0,120.080652,31.652065,15706113106,beauty,http://api.map.baidu.com/place/detail?uid=17d5a6e404b72e491a94c645&output=html&source=placeapi_v2,,10:00-21:00,,,,,,,,,,,,,,,,120.08065032219,31.652182381465,0
ae2e1d6650ea047e6849f323,珍琦美发,丽人,美发,江苏省,常州市,武进区,建友线与232省道交叉口东50米,ae2e1d6650ea047e6849f323,1,0,120.049517,31.640667,,beauty,http://api.map.baidu.com/place/detail?uid=ae2e1d6650ea047e6849f323&output=html&source=placeapi_v2,,10:00-21:00,,,,,,,,,,,,,,,,,,0
d0a2d73c57e1a0ab75e5b639,新丝路造型,丽人,美发,江苏省,常州市,武进区,武进区建东路18号正西方向190米,d0a2d73c57e1a0ab75e5b639,1,0,120.049736,31.640273,13348195292,beauty,http://api.map.baidu.com/place/detail?uid=d0a2d73c57e1a0ab75e5b639&output=html&source=placeapi_v2,,10:00-21:00,0,,,,,,,,0,,,,,,,,,0
dcb8823da1a1e5e42d473370,阿森造型(洛阳路店),丽人,美发,江苏省,常州市,武进区,江苏省常州市武进区洛阳大街27号,dcb8823da1a1e5e42d473370,1,0,120.084169,31.652084,15851932611,beauty,http://api.map.baidu.com/place/detail?uid=dcb8823da1a1e5e42d473370&output=html&source=placeapi_v2,,08:30-21:30,0,,,,,,,,1,,,,,,,120.0842468976,31.652037684449,0
54a971253a5749462d47331b,剪艺(小魏美发沙龙),丽人,美发,江苏省,常州市,武进区,常州市武进区洛阳路洛阳镇政府东北侧约80米,54a971253a5749462d47331b,1,0,120.084231,31.651737,,beauty,http://api.map.baidu.com/place/detail?uid=54a971253a5749462d47331b&output=html&source=placeapi_v2,,10:00-21:00,,,,,,,,,,,,,,,,,,0
6676d62f34de02ac25e0a06e,虹雨美发,丽人,美发,江苏省,常州市,武进区,常州市武进区胜利路皇范幼儿园西侧约160米,6676d62f34de02ac25e0a06e,1,0,120.117792,31.646735,13601507761,beauty,http://api.map.baidu.com/place/detail?uid=6676d62f34de02ac25e0a06e&output=html&source=placeapi_v2,,10:00-21:00,,,,,,,,,,,,,,,,,,0
f982a4408ee6f27cc61b7560,名剪美发美甲(洛阳店),丽人,美发,江苏省,常州市,武进区,江苏省常州市武进区东陈路48号,f982a4408ee6f27cc61b7560,1,0,120.093151,31.652654,13813589870,beauty,http://api.map.baidu.com/place/detail?uid=f982a4408ee6f27cc61b7560&output=html&source=placeapi_v2,,10:00-21:00,0,,,,,,,,0,,,,,,,,,0
0016f92a7a5464f204026f78,阳光发型,丽人,美发,江苏省,常州市,武进区,横洛东路,0016f92a7a5464f204026f78,1,0,120.09974,31.653029,,beauty,http://api.map.baidu.com/place/detail?uid=0016f92a7a5464f204026f78&output=html&source=placeapi_v2,,,,,,,,,,,,,,,,,,,,0
166040899c4c6c7d94ec84c7,剪折对外加工,丽人,美发,江苏省,常州市,武进区,常州市武进区阳光路洛阳高级中学北侧约220米,166040899c4c6c7d94ec84c7,1,0,120.095046,31.654443,,beauty,http://api.map.baidu.com/place/detail?uid=166040899c4c6c7d94ec84c7&output=html&source=placeapi_v2,,,,,,,,,,,,,,,,,,120.09520695964,31.654437265612,0
d5f93c0e3dd1825cecdfca8c,海燕美容美发(东陈路店),丽人,美发,江苏省,常州市,武进区,江苏省常州市武进区东陈路金苑公寓1丙-102室,d5f93c0e3dd1825cecdfca8c,1,0,120.092224,31.65229,13701504198,beauty,http://api.map.baidu.com/place/detail?uid=d5f93c0e3dd1825cecdfca8c&output=html&source=placeapi_v2,,10:00-21:00,0,,,,,,,,0,,,,,,,,,0
43dbd2f7eab7032eb6f42f0e,my+SALON,丽人,美发,江苏省,常州市,武进区,江苏省常州市武进区东都东路116号东南方向10米,43dbd2f7eab7032eb6f42f0e,1,0,120.09262,31.647766,,beauty,http://api.map.baidu.com/place/detail?uid=43dbd2f7eab7032eb6f42f0e&output=html&source=placeapi_v2,,10:00-21:00,,,,,,,,,,,,,,,,120.09270527761,31.647918171027,0
12c74548a15ea96cafee7ac5,大众美发(G233店),丽人,美发,江苏省,常州市,金坛区,常州市金坛区G233金坛区洮西小学西侧约220米,12c74548a15ea96cafee7ac5,1,0,119.529589,31.667825,,beauty,http://api.map.baidu.com/place/detail?uid=12c74548a15ea96cafee7ac5&output=html&source=placeapi_v2,,,,,,,,,,,,,,,,,,,,0
bec9f4c6695a2f965cbe86a9,非剪理发(G233店),丽人,美发,江苏省,常州市,金坛区,常州市金坛区G233金坛区洮西小学西侧约200米,bec9f4c6695a2f965cbe86a9,1,0,119.529873,31.668378,,beauty,http://api.map.baidu.com/place/detail?uid=bec9f4c6695a2f965cbe86a9&output=html&source=placeapi_v2,,10:00-21:00,,,,,,,,,,,,,,,,,,0
a986e91ff001593157bfff3a,老唐理发店,丽人,美发,江苏省,常州市,金坛区,常州市金坛区G233金坛区洮西小学西侧约150米,a986e91ff001593157bfff3a,1,0,119.530473,31.668575,,beauty,http://api.map.baidu.com/place/detail?uid=a986e91ff001593157bfff3a&output=html&source=placeapi_v2,,,,,,,,,,,,,,,,,,119.53033439363,31.668627432942,0
ebb13fed05cba9babe48420f,国英美容美发,丽人,美发,江苏省,常州市,金坛区,江苏省常州市金坛区钱涑线(涑渎农贸市场),ebb13fed05cba9babe48420f,1,0,119.567041,31.688193,13814791675,beauty,http://api.map.baidu.com/place/detail?uid=ebb13fed05cba9babe48420f&output=html&source=placeapi_v2,,,,,,,,,,,,,,,,,,,,0
11c024755c80f95079dbd27e,美珍美发,丽人,美发,江苏省,常州市,金坛区,常州市金坛区水东路江南农村商业银行(水北支行)东侧约200米,,1,0,119.658194,31.671285,,beauty,http://api.map.baidu.com/place/detail?uid=11c024755c80f95079dbd27e&output=html&source=placeapi_v2,,10:00-21:00,,,,,,,,,,,,,,,,119.65824969547,31.671278286986,0
059f0049e7ea9800badf8f56,小惠理发,丽人,美发,江苏省,常州市,金坛区,常州市金坛区X201金坛市水北新欣幼儿园西北侧约30米,059f0049e7ea9800badf8f56,1,0,119.650521,31.670696,"13861117673,15895006551",beauty,http://api.map.baidu.com/place/detail?uid=059f0049e7ea9800badf8f56&output=html&source=placeapi_v2,,,,,,,,,,,,,,,,,,119.65078794501,31.670707794343,0
a4a1e0c620e740f7badf8fc5,爱琴发屋,丽人,美发,江苏省,常州市,金坛区,常州市金坛区水北大街江南农村商业银行(水北支行)东侧约140米,a4a1e0c620e740f7badf8fc5,1,0,119.657507,31.670854,,beauty,http://api.map.baidu.com/place/detail?uid=a4a1e0c620e740f7badf8fc5&output=html&source=placeapi_v2,,10:00-21:00,,,,,,,,,,,,,,,,,,0
0997ab8014e54aec095cb30c,圣罗兰芭菲烫染工作室,丽人,美发,江苏省,常州市,金坛区,常州市金坛区水北大街江南农村商业银行(水北支行)东侧约190米,0997ab8014e54aec095cb30c,1,0,119.65803,31.670768,(0519)82183981,beauty,http://api.map.baidu.com/place/detail?uid=0997ab8014e54aec095cb30c&output=html&source=placeapi_v2,,,,,,,,,,,,,,,,,,,,0
44c319cb96c17b8f2a02e179,浪涛专业烫染造型,丽人,美发,江苏省,常州市,金坛区,江苏省常州市金坛区尧塘镇水北大街195号,44c319cb96c17b8f2a02e179,1,0,119.656818,31.670943,,beauty,http://api.map.baidu.com/place/detail?uid=44c319cb96c17b8f2a02e179&output=html&source=placeapi_v2,,10:00-21:00,,,,,,,,,,,,,,,,119.65687008326,31.671078457819,0
0c6c9b364feb17fb7ab55cd4,周平美发室,丽人,美发,江苏省,常州市,武进区,江苏省常州市武进区人民北路11-1号,0c6c9b364feb17fb7ab55cd4,1,0,119.735319,31.684432,13775296266,beauty,http://api.map.baidu.com/place/detail?uid=0c6c9b364feb17fb7ab55cd4&output=html&source=placeapi_v2,,10:00-21:00,,,,,,,,,,,,,,,,119.73530245246,31.684403578305,0
03bff54f35f0d79a17948e87,悦茗美容美发,丽人,美发,江苏省,常州市,武进区,江苏省常州市武进区人民北路43号,03bff54f35f0d79a17948e87,1,0,119.735837,31.685462,,beauty,http://api.map.baidu.com/place/detail?uid=03bff54f35f0d79a17948e87&output=html&source=placeapi_v2,,08:00-20:00,,,,,,,,,,,,,,,,,,0
8988e2c1e515689e354aae9c,发祥屋(新世纪五交化百货商场店),丽人,美发,江苏省,常州市,武进区,常州市武进区人民南路江南农村商业银行(成章支行)西侧约140米,8988e2c1e515689e354aae9c,1,0,119.732856,31.679908,,beauty,http://api.map.baidu.com/place/detail?uid=8988e2c1e515689e354aae9c&output=html&source=placeapi_v2,,10:00-21:00,0.0,,,,,,,,,,,,,,,,,0
1ecb48800b6696d928d7abd5,珠虹发艺,丽人,美发,江苏省,常州市,武进区,常州市武进区人民南路江南农村商业银行(成章支行)北侧约130米,1ecb48800b6696d928d7abd5,1,0,119.734531,31.680951,13961401298,beauty,http://api.map.baidu.com/place/detail?uid=1ecb48800b6696d928d7abd5&output=html&source=placeapi_v2,,10:00-21:00,,,,,,,,,,,,,,,,,,0
8f6e9deade684747aeee7aff,顶尚护肤造型,丽人,美发,江苏省,常州市,武进区,江苏省常州市武进区成章街人民北路57号,8f6e9deade684747aeee7aff,1,0,119.736059,31.687134,13815006373,beauty,http://api.map.baidu.com/place/detail?uid=8f6e9deade684747aeee7aff&output=html&source=placeapi_v2,,10:00-21:00,3,,,,,,,,1,,,,,,,119.73620854088,31.687116610487,0
cfe75904e4d71bb004026f84,惠芬理发,丽人,美发,江苏省,常州市,武进区,常州市武进区和谐路与湟东路交叉路口往南约150米,cfe75904e4d71bb004026f84,1,0,119.725458,31.659907,,beauty,http://api.map.baidu.com/place/detail?uid=cfe75904e4d71bb004026f84&output=html&source=placeapi_v2,,,,,,,,,,,,,,,,,,,,0
bd6cb5fd27a54fdf0bccdd00,亮点造型(鸣新中路店),丽人,美发,江苏省,常州市,武进区,江苏省常州市武进区鸣新中路69-3号,bd6cb5fd27a54fdf0bccdd00,1,0,119.946212,31.680679,18306120466,beauty,http://api.map.baidu.com/place/detail?uid=bd6cb5fd27a54fdf0bccdd00&output=html&source=placeapi_v2,15.0,10:00-09:00,0,,,,,,,,0,,,,,,,,,0
16caf5bc1ef75aba00294f4f,水晶造型(南河花园路店),丽人,美发,江苏省,常州市,武进区,江苏省常州市武进区高新区南河花园203-18室,16caf5bc1ef75aba00294f4f,1,0,119.93711,31.668023,15961223612,beauty,http://api.map.baidu.com/place/detail?uid=16caf5bc1ef75aba00294f4f&output=html&source=placeapi_v2,,10:00-21:00,5,,,,,,,,1,,,,,,,119.93692373658,31.668025298565,0
d8a087f511be73278f55ecf5,肯定时尚烫染,丽人,美发,江苏省,常州市,武进区,江苏省常州市武进区鸣西街27号,d8a087f511be73278f55ecf5,1,0,119.937022,31.675909,18651938334,beauty,http://api.map.baidu.com/place/detail?uid=d8a087f511be73278f55ecf5&output=html&source=placeapi_v2,,10:00-21:00,,,,,,,,,,,,,,,,119.93693439865,31.675855717991,0
6443f740a9666774e812e4a0,秀客造型(鸣新中路店),丽人,美发,江苏省,常州市,武进区,江苏省常州市武进区鸣新中路67-5号,6443f740a9666774e812e4a0,1,0,119.946376,31.680171,13776821995,beauty,http://api.map.baidu.com/place/detail?uid=6443f740a9666774e812e4a0&output=html&source=placeapi_v2,85.0,10:00-24:00,1.5,,,,,,,,2,,,,,,,119.94652494273,31.680167649575,0
39d690c14b5bcffb43e192bc,阿飞造型,丽人,美发,江苏省,常州市,武进区,江苏省常州市武进区兴隆街8号,39d690c14b5bcffb43e192bc,1,0,119.941128,31.675499,15961487003,beauty,http://api.map.baidu.com/place/detail?uid=39d690c14b5bcffb43e192bc&output=html&source=placeapi_v2,,09:00-21:00,,,,,,,,,,,,,,,,,,0
0662fb3cfc6e95fa9f95de5d,小杨造型,丽人,美发,江苏省,常州市,武进区,江苏省常州市武进区武南中路68号,0662fb3cfc6e95fa9f95de5d,1,0,119.938272,31.679537,13775050072,beauty,http://api.map.baidu.com/place/detail?uid=0662fb3cfc6e95fa9f95de5d&output=html&source=placeapi_v2,,10:00-21:00,,,,,,,,,,,,,,,,,,0
eb043a3a6096c98c4f6d4624,季哥造型,丽人,美发,江苏省,常州市,武进区,江苏省常州市武进区兴隆街36号,eb043a3a6096c98c4f6d4624,1,0,119.940467,31.675498,13382867797,beauty,http://api.map.baidu.com/place/detail?uid=eb043a3a6096c98c4f6d4624&output=html&source=placeapi_v2,,08:30-21:00,,,,,,,,,,,,,,,,,,0
7769eba9e0420a3a32f71dc3,匠人造型,丽人,美发,江苏省,常州市,武进区,江苏省常州市武进区鸣凰老街29号,7769eba9e0420a3a32f71dc3,1,0,119.936796,31.675507,13585452207,beauty,http://api.map.baidu.com/place/detail?uid=7769eba9e0420a3a32f71dc3&output=html&source=placeapi_v2,,,,,,,,,,,,,,,,,,,,0
211cc8d358e0abff4207c14e,飘逸族造型(鸣新中路店),丽人,美发,江苏省,常州市,武进区,江苏省常州市武进区鸣新中路133-10号,211cc8d358e0abff4207c14e,1,0,119.939507,31.681154,15295007862,beauty,http://api.map.baidu.com/place/detail?uid=211cc8d358e0abff4207c14e&output=html&source=placeapi_v2,45.0,09:00-21:30,0,,,,,,,,1,,,,,,,,,0
274318410a2be467d7851f96,木南造型,丽人,美发,江苏省,常州市,武进区,江苏省常州市武进区鸣新中路97-1号,274318410a2be467d7851f96,1,0,119.944545,31.679975,15061957997,beauty,http://api.map.baidu.com/place/detail?uid=274318410a2be467d7851f96&output=html&source=placeapi_v2,,10:00-21:00,,,,,,,,,,,,,,,,119.94453993728,31.679911510454,0
a32e862069af21aaf5c59c91,小叶测绘造型,丽人,美发,江苏省,常州市,武进区,常州市武进区武南中路鸣凰中学东南侧约230米,a32e862069af21aaf5c59c91,1,0,119.943083,31.677813,15351990692,beauty,http://api.map.baidu.com/place/detail?uid=a32e862069af21aaf5c59c91&output=html&source=placeapi_v2,,,,,,,,,,,,,,,,,,,,0
15a8e487477df4b6843304e0,剪爱专业烫染(南河店),丽人,美发,江苏省,常州市,武进区,常州市武进区南河花园路南河花园,,1,0,119.937091,31.668245,,beauty,http://api.map.baidu.com/place/detail?uid=15a8e487477df4b6843304e0&output=html&source=placeapi_v2,,09:30-22:00,,,,,,,,,1,,,,,,,,,0
751b8d00e9f4713dbb17e7fa,文子造型,丽人,美发,江苏省,常州市,武进区,江苏省常州市武进区鸣新中路133-16号,751b8d00e9f4713dbb17e7fa,1,0,119.939244,31.681157,15061961299,beauty,http://api.map.baidu.com/place/detail?uid=751b8d00e9f4713dbb17e7fa&output=html&source=placeapi_v2,,10:00-22:00,,,,,,,,,,,,,,,,119.93925040273,31.681326885881,0
863763c63a9e2d3df503b8bf,洁洁美发(坝头路店),丽人,美发,江苏省,常州市,武进区,常州市武进区坝头路鸣凰大酒店南侧约30米,863763c63a9e2d3df503b8bf,1,0,119.938126,31.680663,,beauty,http://api.map.baidu.com/place/detail?uid=863763c63a9e2d3df503b8bf&output=html&source=placeapi_v2,,10:00-21:00,,,,,,,,,,,,,,,,119.9382029785,31.680666570476,0
9b6dff4f818348c7fe0eb00e,千丝造型(鸣新中路店),丽人,美发,江苏省,常州市,武进区,江苏省常州市武进区鸣新中路85-7号,9b6dff4f818348c7fe0eb00e,1,0,119.94554,31.680865,13861066349,beauty,http://api.map.baidu.com/place/detail?uid=9b6dff4f818348c7fe0eb00e&output=html&source=placeapi_v2,,10:00-21:00,0,,,,,,,,0,,,,,,,,,0
60fbe4884fd9b59b9e9d6866,沙宣造型(鸣新中路店),丽人,美发,江苏省,常州市,武进区,江苏省常州市武进区湖塘镇鸣新中路69-3号,60fbe4884fd9b59b9e9d6866,1,0,119.946401,31.680632,13915005151,beauty,http://api.map.baidu.com/place/detail?uid=60fbe4884fd9b59b9e9d6866&output=html&source=placeapi_v2,,08:30-22:00,,,,,,,,,,,,,,,,119.9465442015,31.680625890825,0
f314d11634bae23d43ab9a14,风尚专业烫染(鸣新路店),丽人,美发,江苏省,常州市,武进区,江苏省常州市武进区鸣新中路200号,f314d11634bae23d43ab9a14,1,0,119.938654,31.681552,"13921098285,15061962070",beauty,http://api.map.baidu.com/place/detail?uid=f314d11634bae23d43ab9a14&output=html&source=placeapi_v2,,10:00-21:00,,,,,,,,,,,,,,,,,,0
a4213de9404268bc774ff1a0,艾美造型(鸣新中路店),丽人,美发,江苏省,常州市,武进区,江苏省常州市武进区鸣新中路56-2号,a4213de9404268bc774ff1a0,1,0,119.944681,31.681536,18796966890,beauty,http://api.map.baidu.com/place/detail?uid=a4213de9404268bc774ff1a0&output=html&source=placeapi_v2,,09:00-22:00,5,,,,,,,,1,,,,,,,,,0
2cb0d6ad8ac211e1b04c49cb,侑颜美发工作室,丽人,美发,江苏省,常州市,武进区,江苏省常州市武进区鸣新中路92号,2cb0d6ad8ac211e1b04c49cb,1,0,119.942992,31.681443,18657928058,beauty,http://api.map.baidu.com/place/detail?uid=2cb0d6ad8ac211e1b04c49cb&output=html&source=placeapi_v2,,08:00-22:00,,,,,,,,,,,,,,,,,,0
862e34fbf453dac2b6147feb,兄弟烫染吧(凤鸣路店),丽人,美发,江苏省,常州市,武进区,江苏省常州市武进区鸣新中路75-3号,862e34fbf453dac2b6147feb,1,0,119.946205,31.680604,"15006118848,15961235682",beauty,http://api.map.baidu.com/place/detail?uid=862e34fbf453dac2b6147feb&output=html&source=placeapi_v2,121.0,09:00-21:30,0,,,,,,,,1,,,,,,,119.94617966014,31.680604583688,0
8de9c942aa2c5a39901fc99c,轻奢造型,丽人,美发,江苏省,常州市,武进区,常州市武进区鸣新中路大学新村-二区,,1,0,119.947783,31.679982,,beauty,http://api.map.baidu.com/place/detail?uid=8de9c942aa2c5a39901fc99c&output=html&source=placeapi_v2,,,,,,,,,,,,,,,,,,,,0
fb613ad17c734731ed74f820,东尼造型烫染工作室(鸣新西路店),丽人,美发,江苏省,常州市,武进区,江苏省常州市武进区鸣新中路262-3号,fb613ad17c734731ed74f820,1,0,119.933208,31.682098,15250813503,beauty,http://api.map.baidu.com/place/detail?uid=fb613ad17c734731ed74f820&output=html&source=placeapi_v2,,10:00-21:00,,,,,,,,,,,,,,,,,,0
80a733d9c01b5460fc0eb09f,名姿造型(武宜中路店),丽人,美发,江苏省,常州市,武进区,湖塘镇武宜中路银谷广场西南停车场出口对面,80a733d9c01b5460fc0eb09f,1,0,119.942464,31.679852,,beauty,http://api.map.baidu.com/place/detail?uid=80a733d9c01b5460fc0eb09f&output=html&source=placeapi_v2,,08:30-22:00,,,,,,,,,,,,,,,,,,0
f171696820348cdef9f0cb5d,格调造型(南河花园路店),丽人,美发,江苏省,常州市,武进区,江苏省常州市武进区大通中路177号203-21室,f171696820348cdef9f0cb5d,1,0,119.937091,31.66817,,beauty,http://api.map.baidu.com/place/detail?uid=f171696820348cdef9f0cb5d&output=html&source=placeapi_v2,,10:00-21:00,,,,,,,,,,,,,,,,119.93692638875,31.668171829917,0
8646ed5e9e3b48702b06ce4d,艺尚造型(鸣凰店),丽人,美发,江苏省,常州市,武进区,江苏省常州市武进区湖塘镇鸣新中路119号,8646ed5e9e3b48702b06ce4d,1,0,119.941106,31.681054,15961260521,beauty,http://api.map.baidu.com/place/detail?uid=8646ed5e9e3b48702b06ce4d&output=html&source=placeapi_v2,74.0,10:00-21:00,,,,,,,,,,,,,,,,119.94111446302,31.681263319473,0
c6d509876f43d454cac3dbbb,铭匠造型,丽人,美发,江苏省,常州市,武进区,常州市武进区凤鸣路湖塘镇鸣北社区东侧约50米,c6d509876f43d454cac3dbbb,1,0,119.946974,31.680568,18961205266,beauty,http://api.map.baidu.com/place/detail?uid=c6d509876f43d454cac3dbbb&output=html&source=placeapi_v2,,10:00-21:00,,,,,,,,,,,,,,,,119.94654184614,31.680587681063,0
2e600b1a30e9c6e1d4851f16,阿辉时尚烫染,丽人,美发,江苏省,常州市,武进区,坝头路63号,2e600b1a30e9c6e1d4851f16,1,0,119.938173,31.680185,18021454520,beauty,http://api.map.baidu.com/place/detail?uid=2e600b1a30e9c6e1d4851f16&output=html&source=placeapi_v2,,10:00-21:00,,,,,,,,,,,,,,,,,,0
b9e1d20d2454de33e6e96564,成勇形象设计中心,丽人,美发,江苏省,常州市,武进区,常州市武进区凤鸣路大学新村-二区,,1,0,119.947824,31.678894,,beauty,http://api.map.baidu.com/place/detail?uid=b9e1d20d2454de33e6e96564&output=html&source=placeapi_v2,,,,,,,,,,,,,,,,,,119.94782698846,31.678798323129,0
501550e50758a9effbf0cb99,梵创造型(鸣新中路店),丽人,美发,江苏省,常州市,武进区,江苏省常州市武进区鸣新中路133-2号,501550e50758a9effbf0cb99,1,0,119.93966,31.681119,15961178027,beauty,http://api.map.baidu.com/place/detail?uid=501550e50758a9effbf0cb99&output=html&source=placeapi_v2,,10:00-21:00,,,,,,,,,,,,,,,,,,0
a22bfb568fb267040c0e6b5c,佑米造型(武进大学城店),丽人,美发,江苏省,常州市,武进区,江苏省常州市武进区鸣新中路17-103号2楼,a22bfb568fb267040c0e6b5c,1,0,119.952178,31.680712,"15006118848,15961235682",beauty,http://api.map.baidu.com/place/detail?uid=a22bfb568fb267040c0e6b5c&output=html&source=placeapi_v2,,09:00-22:00,,,,,,,,,,,,,,,,,,0
3da0dd0811cd2021cafa5f70,大型慢走丝,丽人,美发,江苏省,常州市,武进区,江苏省常州市武进区鸣新中路157-7号,3da0dd0811cd2021cafa5f70,1,0,119.934434,31.681438,13606122531,beauty,http://api.map.baidu.com/place/detail?uid=3da0dd0811cd2021cafa5f70&output=html&source=placeapi_v2,,,,,,,,,,,,,,,,,,119.934458012,31.681602715646,0
e35f8960495816edabf0cd28,xy造型设计,丽人,美发,江苏省,常州市,武进区,江苏省常州市武进区凤鸣路大学城大学新村二区200栋,,1,0,119.947209,31.679979,15961190265,beauty,http://api.map.baidu.com/place/detail?uid=e35f8960495816edabf0cd28&output=html&source=placeapi_v2,,09:30-21:30,,,,,,,,,,,,,,,,,,0
d9ac69ab5ccd8e08c4f025b5,美乐造型,丽人,美发,江苏省,常州市,武进区,江苏省常州市武进区鸣新中路75-3号,d9ac69ab5ccd8e08c4f025b5,1,0,119.946097,31.680646,17351698838,beauty,http://api.map.baidu.com/place/detail?uid=d9ac69ab5ccd8e08c4f025b5&output=html&source=placeapi_v2,,,,,,,,,,,,,,,,,,,,0
409f8c5c9a1c77d185420efe,文玉美发,丽人,美发,江苏省,常州市,武进区,武进区鸣新西路与武宜中路交叉路口往西约100米常裕大酒店,409f8c5c9a1c77d185420efe,1,0,119.940692,31.681509,18015007589,beauty,http://api.map.baidu.com/place/detail?uid=409f8c5c9a1c77d185420efe&output=html&source=placeapi_v2,77.0,10:00-21:00,,,,,,,,,,,,,,,,,,0
ac8ced175c7f2886581093fa,格纹,丽人,美发,江苏省,常州市,武进区,常州市武进区凤鸣路湖塘镇鸣北社区东侧约60米,ac8ced175c7f2886581093fa,1,0,119.947095,31.680574,,beauty,http://api.map.baidu.com/place/detail?uid=ac8ced175c7f2886581093fa&output=html&source=placeapi_v2,,,,,,,,,,,,,,,,,,,,0
3fcf8090314959a1b35c6a60,梦晓造型,丽人,美发,江苏省,常州市,武进区,江苏省常州市武进区鸣新中路大学城513号,3fcf8090314959a1b35c6a60,1,0,119.953457,31.680076,15906116877,beauty,http://api.map.baidu.com/place/detail?uid=3fcf8090314959a1b35c6a60&output=html&source=placeapi_v2,,10:00-21:00,0,,,,,,,,0,,,,,,,,,0
24b68d37f3d3fef87adbd260,摩卡造型(凤栖路店),丽人,美发,江苏省,常州市,武进区,江苏省常州市武进区大学新村二区1323号,24b68d37f3d3fef87adbd260,1,0,119.953404,31.678577,,beauty,http://api.map.baidu.com/place/detail?uid=24b68d37f3d3fef87adbd260&output=html&source=placeapi_v2,,10:00-21:00,0,,,,,,,,1,,,,,,,119.95334603069,31.678686762758,0
0ec997b0e5f8e1951c38947a,倾果倾城(轻工学院店),丽人,美发,江苏省,常州市,武进区,江苏省常州市武进区鸣新中路25-123号1楼,,1,0,119.947774,31.680592,,beauty,http://api.map.baidu.com/place/detail?uid=0ec997b0e5f8e1951c38947a&output=html&source=placeapi_v2,,,,,,,,,,,,,,,,,,119.94777690393,31.680708513908,0
0711a16148bed303fe0eb09c,亚琴美发,丽人,美发,江苏省,常州市,武进区,江苏省常州市武进区凤林北路26号,0711a16148bed303fe0eb09c,1,0,119.933289,31.685964,13584391022,beauty,http://api.map.baidu.com/place/detail?uid=0711a16148bed303fe0eb09c&output=html&source=placeapi_v2,,10:00-21:00,,,,,,,,,,,,,,,,119.93347916801,31.686055562572,0
d2ae932a1f9576aaeddfca4b,玉莲美发造型,丽人,美发,江苏省,常州市,武进区,常州市武进区武南中路大学新村-二区,,1,0,119.950537,31.678887,,beauty,http://api.map.baidu.com/place/detail?uid=d2ae932a1f9576aaeddfca4b&output=html&source=placeapi_v2,,,,,,,,,,,,,,,,,,119.95100571666,31.678817918964,0
3a043a7dc21cee3e100daad4,兄弟造型(新雅北路店),丽人,美发,江苏省,常州市,武进区,江苏省常州市武进区湖塘镇新雅北路17号,3a043a7dc21cee3e100daad4,1,0,119.928883,31.687354,15961116314,beauty,http://api.map.baidu.com/place/detail?uid=3a043a7dc21cee3e100daad4&output=html&source=placeapi_v2,,10:00-21:00,,,,,,,,,,,,,,,,119.92880043809,31.687370235073,0
e2158dcddb6bbf4e84154140,明度品牌沙龙,丽人,美发,江苏省,常州市,武进区,江苏省常州市武进区鸣新中路大学新村二区146栋,,1,0,119.951913,31.678925,15961112726,beauty,http://api.map.baidu.com/place/detail?uid=e2158dcddb6bbf4e84154140&output=html&source=placeapi_v2,,,,,,,,,,,,,,,,,,,,0
935ee029b6101190ae0457ad,秀美阁美容美发,丽人,美发,江苏省,常州市,武进区,常州市武进区鸣新中路大学新村-二区,,1,0,119.950564,31.680022,18362247165,beauty,http://api.map.baidu.com/place/detail?uid=935ee029b6101190ae0457ad&output=html&source=placeapi_v2,,09:00-21:00,,,,,,,,,,,,,,,,,,0
64d6e075ca6007ba3362127d,剪爱专业烫染(鸣新路店),丽人,美发,江苏省,常州市,武进区,江苏省常州市武进区鸣新中路39-2号,64d6e075ca6007ba3362127d,1,0,119.955194,31.680606,13961451807,beauty,http://api.map.baidu.com/place/detail?uid=64d6e075ca6007ba3362127d&output=html&source=placeapi_v2,,10:00-21:00,,,,,,,,,,,,,,,,119.95519622024,31.680645124992,0
7d14f4800ad85441b72655d3,品艺造型,丽人,美发,江苏省,常州市,武进区,江苏省常州市武进区武南中路大学新村一区118栋8商铺,7d14f4800ad85441b72655d3,1,0,119.955873,31.679059,18761194536,beauty,http://api.map.baidu.com/place/detail?uid=7d14f4800ad85441b72655d3&output=html&source=placeapi_v2,82.0,09:00-22:00,,,,,,,,,,,,,,,,,,0
398a5fb2ecedb64a1d1d1194,小海理发店,丽人,美发,江苏省,常州市,武进区,江苏省常州市武进区常州工业职业技术学院2号楼学生公寓,,1,0,119.948382,31.683241,,beauty,http://api.map.baidu.com/place/detail?uid=398a5fb2ecedb64a1d1d1194&output=html&source=placeapi_v2,,,,,,,,,,,,,,,,,,,,0
2e224294e146e9a740ab9a5f,可星美容美发连锁店,丽人,美发,江苏省,常州市,武进区,常州市武进区凤翔路天安尚城左岸北侧约30米,,1,0,119.959597,31.674293,,beauty,http://api.map.baidu.com/place/detail?uid=2e224294e146e9a740ab9a5f&output=html&source=placeapi_v2,,,,,,,,,,,1,,,,,,,,,0
0faed16fa150cdeeb2077d9f,格色风形象设计(凤栖路店),丽人,美发,江苏省,常州市,武进区,江苏省常州市武进区鸣凰大学新村2区132栋4号商铺,0faed16fa150cdeeb2077d9f,1,0,119.953322,31.678578,18551945969,beauty,http://api.map.baidu.com/place/detail?uid=0faed16fa150cdeeb2077d9f&output=html&source=placeapi_v2,,10:00-21:00,0.0,,,,,,,,,,,,,,,,,0
8d639f5b743f0f8d7dc8761c,帝阔植物养发,丽人,美发,江苏省,常州市,武进区,江苏省常州市武进区凤栖路大学新村一区117幢,,1,0,119.955961,31.678624,,beauty,http://api.map.baidu.com/place/detail?uid=8d639f5b743f0f8d7dc8761c&output=html&source=placeapi_v2,,,,,,,,,,,,,,,,,,,,0
9db9ddd2d0a906a815a190c2,浩艺造型,丽人,美发,江苏省,常州市,武进区,常州市武进区大学新村69幢甲单元一号车库,,1,0,119.960695,31.680516,,beauty,http://api.map.baidu.com/place/detail?uid=9db9ddd2d0a906a815a190c2&output=html&source=placeapi_v2,,10:00-21:00,5,,,,,,,,1,,,,,,,,,0
b53a854fc9156be9b6147f2e,参舍形象设计,丽人,美发,江苏省,常州市,武进区,江苏省常州市武进区鸣新中路37-1号,b53a854fc9156be9b6147f2e,1,0,119.956547,31.680651,"13861246454,15252876313",beauty,http://api.map.baidu.com/place/detail?uid=b53a854fc9156be9b6147f2e&output=html&source=placeapi_v2,,09:00-21:30,,,,,,,,,,,,,,,,119.95653394087,31.680926131595,0
8f613f432fdfe3323617dc24,蓝卡造型专业烫染,丽人,美发,江苏省,常州市,武进区,江苏省常州市武进区鸣新中路蓝卡造型一社区117栋7号,,1,0,119.956068,31.678625,18262858605,beauty,http://api.map.baidu.com/place/detail?uid=8f613f432fdfe3323617dc24&output=html&source=placeapi_v2,,10:00-22:00,,,,,,,,,,,,,,,,,,0
36a55f726304abc1e856fa21,艺剪缘时尚烫染,丽人,美发,江苏省,常州市,武进区,江苏省常州市武进区春秋路国茂新家园3号铺3号店面铺,,1,0,119.936283,31.68887,15861837550,beauty,http://api.map.baidu.com/place/detail?uid=36a55f726304abc1e856fa21&output=html&source=placeapi_v2,,10:00-21:00,,,,,,,,,,,,,,,,,,0
4d6c586acda3e2352b3a9ffa,秋兰美发,丽人,美发,江苏省,常州市,武进区,鸣凰国贸新家园店铺银行隔壁,4d6c586acda3e2352b3a9ffa,1,0,119.934427,31.688903,13861282279,beauty,http://api.map.baidu.com/place/detail?uid=4d6c586acda3e2352b3a9ffa&output=html&source=placeapi_v2,,10:00-21:00,,,,,,,,,,,,,,,,,,0
1240899091c4f22b4c6d466f,小惠美容美发,丽人,美发,江苏省,常州市,武进区,常州市武进区鸣新中路大学新村三社区,1240899091c4f22b4c6d466f,1,0,119.960542,31.68021,,beauty,http://api.map.baidu.com/place/detail?uid=1240899091c4f22b4c6d466f&output=html&source=placeapi_v2,,10:00-21:00,,,,,,,,,,,,,,,,,,0
a530426a282597800d3dda5e,康康时尚烫染(名仕佳园店),丽人,美发,江苏省,常州市,武进区,江苏常州市武进区高新区鸣新中路961轻工学院brt站台对面,a530426a282597800d3dda5e,1,0,119.959828,31.681286,13915071136,beauty,http://api.map.baidu.com/place/detail?uid=a530426a282597800d3dda5e&output=html&source=placeapi_v2,,09:30-21:30,,,,,,,,,,,,,,,,119.95983263908,31.681081797946,0
5e151831cd378cf30c0e6b0a,阿旺造型,丽人,美发,江苏省,常州市,武进区,江苏省常州市武进区学府东苑二期(夏城中路西160米),5e151831cd378cf30c0e6b0a,1,0,119.979696,31.678568,13584563978,beauty,http://api.map.baidu.com/place/detail?uid=5e151831cd378cf30c0e6b0a&output=html&source=placeapi_v2,,10:00-21:00,0.0,,,,,,,,,,,,,,,119.97967839509,31.678421261515,0
296f0858f6829ed3d12dd679,飘逸理发店,丽人,美发,江苏省,常州市,武进区,江苏省常州市武进区学府东苑111幢车库111-8室,296f0858f6829ed3d12dd679,1,0,119.976388,31.67918,13961469758,beauty,http://api.map.baidu.com/place/detail?uid=296f0858f6829ed3d12dd679&output=html&source=placeapi_v2,,10:00-21:00,0,,,,,,,,0,,,,,,,,,0
3571be7a37596d645cd4feb5,三千丝发型工作室(板南线),丽人,美发,江苏省,常州市,武进区,江苏省常州市武进区高新区鸣新东路华阳村文体活动中心,3571be7a37596d645cd4feb5,1,0,119.990277,31.680423,13584513737,beauty,http://api.map.baidu.com/place/detail?uid=3571be7a37596d645cd4feb5&output=html&source=placeapi_v2,,10:00-21:00,0.0,,,,,,,,,,,,,,,119.99007780048,31.680449934039,0
93cbc51fe005c501a004647e,东尼造型专业烫染店,丽人,美发,江苏省,常州市,武进区,江苏省常州市武进区高新区武南东路学府东苑西门,93cbc51fe005c501a004647e,1,0,119.978965,31.678374,,beauty,http://api.map.baidu.com/place/detail?uid=93cbc51fe005c501a004647e&output=html&source=placeapi_v2,,10:00-21:00,,,,,,,,,,,,,,,,119.97908170831,31.678472467241,0
399b344aa32e0b23d52ce21d,飘洒烫染吧,丽人,美发,江苏省,常州市,武进区,江苏省常州市武进区高新区鸣新东路华阳社区卫生站,399b344aa32e0b23d52ce21d,1,0,119.989998,31.678692,,beauty,http://api.map.baidu.com/place/detail?uid=399b344aa32e0b23d52ce21d&output=html&source=placeapi_v2,,10:00-21:00,0,,,,,,,,0,,,,,,,119.98975986411,31.678713219138,0
11c0fbc2d51bab84f723100c,顶尖理发店,丽人,美发,江苏省,常州市,武进区,江苏省常州市武进区南夏墅镇庙桥孙家塘新联村,,1,0,119.989439,31.668651,13775129799,beauty,http://api.map.baidu.com/place/detail?uid=11c0fbc2d51bab84f723100c&output=html&source=placeapi_v2,,10:00-21:00,,,,,,,,,,,,,,,,,,0
bb410fec388b5c97bbdf8f4b,永生型吧,丽人,美发,江苏省,常州市,武进区,江苏省常州市武进区站北路学府东苑商业街A栋1~2号,bb410fec388b5c97bbdf8f4b,1,0,119.976535,31.6792,,beauty,http://api.map.baidu.com/place/detail?uid=bb410fec388b5c97bbdf8f4b&output=html&source=placeapi_v2,,,0,,,,,,,,0,,,,,,,,,0
6b95e3968352af0608ccdd73,NO.1美容美发连锁(聚盛花园店),丽人,美发,江苏省,常州市,武进区,新平路聚盛花园29幢2号,6b95e3968352af0608ccdd73,1,0,119.970899,31.680582,18914344907,beauty,http://api.map.baidu.com/place/detail?uid=6b95e3968352af0608ccdd73&output=html&source=placeapi_v2,98.0,09:00-22:00,0,,,,,,,,0,,,,,,,,,0
c30f71cddd27f66054bfff91,秀发型(原小胖升级店),丽人,美发,江苏省,常州市,武进区,江苏省常州市武进区高新区新平路聚盛花园东门25-110号,c30f71cddd27f66054bfff91,1,0,119.970953,31.679997,13585308554,beauty,http://api.map.baidu.com/place/detail?uid=c30f71cddd27f66054bfff91&output=html&source=placeapi_v2,83.0,10:00-21:00,5,,,,,,,,1,,,,,,,,,0
ddcc8ac24e834741fbf0cbd3,西木造型,丽人,美发,江苏省,常州市,武进区,江苏省常州市武进区站北路聚盛花园1-104号,ddcc8ac24e834741fbf0cbd3,1,0,119.971206,31.678382,17625897937,beauty,http://api.map.baidu.com/place/detail?uid=ddcc8ac24e834741fbf0cbd3&output=html&source=placeapi_v2,,10:00-22:00,,,,,,,,,,,,,,,,,,0
a375d835669582dec42ba1b3,时尚前线(庙前北路店),丽人,美发,江苏省,常州市,武进区,江苏省常州市武进区庙前路79号2楼,a375d835669582dec42ba1b3,1,0,119.985679,31.656519,18261199971,beauty,http://api.map.baidu.com/place/detail?uid=a375d835669582dec42ba1b3&output=html&source=placeapi_v2,,08:45-23:15,3.0,,,,,,,,,,,,,,,,,0
96e860484fb23d0af8dc8534,蓝点设计,丽人,美发,江苏省,常州市,武进区,江苏省常州市武进区常武南路559号红星美凯龙4楼,96e860484fb23d0af8dc8534,1,0,119.967277,31.672097,18651967798,beauty,http://api.map.baidu.com/place/detail?uid=96e860484fb23d0af8dc8534&output=html&source=placeapi_v2,,10:00-22:00,,,,,,,,,,,,,,,,,,0
93b6668cf5277ba0f7b916bf,温柔造型,丽人,美发,江苏省,常州市,武进区,江苏省常州市武进区庙前中路88号,93b6668cf5277ba0f7b916bf,1,0,119.986369,31.658853,17605299839,beauty,http://api.map.baidu.com/place/detail?uid=93b6668cf5277ba0f7b916bf&output=html&source=placeapi_v2,,08:30-21:00,,,,,,,,,,,,,,,,119.98644528297,31.658831849353,0
ed42280ab00cdee02bd7ab1a,小剪廊工作室,丽人,美发,江苏省,常州市,武进区,常州市武进区鸣新中路常州信息职业技术学院南2门东侧约80米,,1,0,119.964336,31.681375,15312528050,beauty,http://api.map.baidu.com/place/detail?uid=ed42280ab00cdee02bd7ab1a&output=html&source=placeapi_v2,,09:00-21:00,,,,,,,,,,,,,,,,119.96431321898,31.681173013115,0
9ea30f444ce8e30fc4f02575,好印象剪艺,丽人,美发,江苏省,常州市,武进区,武进区高新区东环路金码头超市旁,9ea30f444ce8e30fc4f02575,1,0,119.986438,31.656736,15195048807,beauty,http://api.map.baidu.com/place/detail?uid=9ea30f444ce8e30fc4f02575&output=html&source=placeapi_v2,,08:00-22:00,,,,,,,,,,,,,,,,,,0
ae78c01f7430715e5fd4fe55,玉芳美发室,丽人,美发,江苏省,常州市,武进区,常州市武进区庙前北路常州市武进区庙桥消费品市场西侧约50米,,1,0,119.985955,31.656265,,beauty,http://api.map.baidu.com/place/detail?uid=ae78c01f7430715e5fd4fe55&output=html&source=placeapi_v2,,10:00-21:00,,,,,,,,,,,,,,,,,,0
1b48887bbb2568da1811d562,永尚美发工作室(庙桥消费品综合市场店),丽人,美发,江苏省,常州市,武进区,礼嘉镇南夏墅庙桥消费品综合市场,,1,0,119.986885,31.656715,,beauty,http://api.map.baidu.com/place/detail?uid=1b48887bbb2568da1811d562&output=html&source=placeapi_v2,,10:00-21:00,,,,,,,,,,,,,,,,119.98691930531,31.656803075418,0
03373655ac5a1f67deee8bc7,辰伟美发造型,丽人,美发,江苏省,常州市,武进区,常州市武进区庙前北路常州市武进区庙桥消费品市场西侧约190米,03373655ac5a1f67deee8bc7,1,0,119.984495,31.656487,,beauty,http://api.map.baidu.com/place/detail?uid=03373655ac5a1f67deee8bc7&output=html&source=placeapi_v2,,08:30-21:00,,,,,,,,,,,,,,,,,,0
20d959efdf19cf85f5c59ca9,永琪造型,丽人,美发,江苏省,常州市,武进区,江苏省常州市武进区庙前路858号,,1,0,119.985521,31.656837,17712341090,beauty,http://api.map.baidu.com/place/detail?uid=20d959efdf19cf85f5c59ca9&output=html&source=placeapi_v2,,,,,,,,,,,,,,,,,,,,0
6757213a9ea7c7454afc8d7a,丁丁造型(建中路店),丽人,美发,江苏省,常州市,武进区,江苏省常州市武进区建中路17号,6757213a9ea7c7454afc8d7a,1,0,120.028411,31.671357,13815035098,beauty,http://api.map.baidu.com/place/detail?uid=6757213a9ea7c7454afc8d7a&output=html&source=placeapi_v2,,10:00-21:00,,,,,,,,,,,,,,,,,,0
f08c3cd54006f894a4c75685,晓芳造型,丽人,美发,江苏省,常州市,武进区,江苏省常州市武进区建中路9号,f08c3cd54006f894a4c75685,1,0,120.029037,31.671547,15251901886,beauty,http://api.map.baidu.com/place/detail?uid=f08c3cd54006f894a4c75685&output=html&source=placeapi_v2,,10:00-21:00,0.0,,,,,,,,,,,,,,,,,0
59969e554cd7fe1083a00c47,艺恒美发,丽人,美发,江苏省,常州市,武进区,江苏省常州市武进区建中路107号,59969e554cd7fe1083a00c47,1,0,120.020709,31.669147,18360626629,beauty,http://api.map.baidu.com/place/detail?uid=59969e554cd7fe1083a00c47&output=html&source=placeapi_v2,,10:00-21:00,0.0,,,,,,,,,,,,,,,,,0
b409aa2118eb4e93631809cf,名师名店(坂上店),丽人,美发,江苏省,常州市,武进区,江苏省常州市武进区建中路95号,b409aa2118eb4e93631809cf,1,0,120.021223,31.669268,18261185587,beauty,http://api.map.baidu.com/place/detail?uid=b409aa2118eb4e93631809cf&output=html&source=placeapi_v2,,10:00-21:00,,,,,,,,,,,,,,,,,,0
99c92c94e6c7c1afe011033f,珍珍造型,丽人,美发,江苏省,常州市,武进区,江苏省常州市武进区建坂路146号,99c92c94e6c7c1afe011033f,1,0,120.021126,31.668192,18068548362,beauty,http://api.map.baidu.com/place/detail?uid=99c92c94e6c7c1afe011033f&output=html&source=placeapi_v2,,10:00-21:00,0.0,,,,,,,,,,,,,,,,,0
1dff96a5b4f149b9be484220,林枫动感造型,丽人,美发,江苏省,常州市,武进区,江苏省常州市武进区建坂路116-8号,1dff96a5b4f149b9be484220,1,0,120.022401,31.66841,,beauty,http://api.map.baidu.com/place/detail?uid=1dff96a5b4f149b9be484220&output=html&source=placeapi_v2,,10:00-21:00,3,,,,,,,,1,,,,,,,,,0
2b1a6185f54fae90fda7780a,小郭美发店,丽人,美发,江苏省,常州市,武进区,江苏省常州市武进区建坂路114号,,1,0,120.023201,31.668535,,beauty,http://api.map.baidu.com/place/detail?uid=2b1a6185f54fae90fda7780a&output=html&source=placeapi_v2,,10:00-21:00,,,,,,,,,,,,,,,,,,0
55941cc77dc420d40ab93aec,发要亮美发,丽人,美发,江苏省,常州市,武进区,常州市武进区建坂路坂上市场东北侧约130米,,1,0,120.023186,31.668363,,beauty,http://api.map.baidu.com/place/detail?uid=55941cc77dc420d40ab93aec&output=html&source=placeapi_v2,,,,,,,,,,,,,,,,,,,,0
f6144862e8646351b020a883,匠士理发馆,丽人,美发,江苏省,常州市,武进区,常州市武进区礼坂路武进坂上幼儿园东南侧约60米,f6144862e8646351b020a883,1,0,120.023008,31.665167,17768369858,beauty,http://api.map.baidu.com/place/detail?uid=f6144862e8646351b020a883&output=html&source=placeapi_v2,,,,,,,,,,,,,,,,,,,,0
14b4be2477e00f2db45f1e36,伽南理发,丽人,美发,江苏省,常州市,武进区,常州市武进区振坂路中国石化加油站(东方东路)东侧约140米,14b4be2477e00f2db45f1e36,1,0,120.01217,31.67419,,beauty,http://api.map.baidu.com/place/detail?uid=14b4be2477e00f2db45f1e36&output=html&source=placeapi_v2,,,,,,,,,,,,,,,,,,,,0
9a7b4151bc0a82c71d580041,小杨时尚精剪,丽人,美发,江苏省,常州市,武进区,常州市武进区,9a7b4151bc0a82c71d580041,1,0,120.065941,31.68269,,beauty,http://api.map.baidu.com/place/detail?uid=9a7b4151bc0a82c71d580041&output=html&source=placeapi_v2,,10:00-21:00,,,,,,,,,,,,,,,,,,0
8d78e5933df36521ddee8b67,阿玲美发店,丽人,美发,江苏省,常州市,武进区,江苏省常州市武进区武澄路,8d78e5933df36521ddee8b67,1,0,120.064953,31.683217,13651505206,beauty,http://api.map.baidu.com/place/detail?uid=8d78e5933df36521ddee8b67&output=html&source=placeapi_v2,,,,,,,,,,,,,,,,,,,,0
19a2970ccd0a24c36140a956,小美美发,丽人,美发,江苏省,常州市,武进区,常州市武进区塘桥菜市场东南侧,19a2970ccd0a24c36140a956,1,0,120.063777,31.686652,15906120641,beauty,http://api.map.baidu.com/place/detail?uid=19a2970ccd0a24c36140a956&output=html&source=placeapi_v2,,,,,,,,,,,,,,,,,,,,0
147749bd2f1db71ceb1e977b,东方名剪(塘桥店),丽人,美发,江苏省,常州市,武进区,江苏省常州市武进区塘桥村佘沟上283-1号,147749bd2f1db71ceb1e977b,1,0,120.063506,31.689359,15995000290,beauty,http://api.map.baidu.com/place/detail?uid=147749bd2f1db71ceb1e977b&output=html&source=placeapi_v2,,,5,,,,,,,,1,,,,,,,,,0
98ae1c445431c4d2f7e73b4d,唯美造型护肤,丽人,美发,江苏省,常州市,武进区,常州市武进区南塘桥小学东北侧约40米,98ae1c445431c4d2f7e73b4d,1,0,120.063444,31.688592,,beauty,http://api.map.baidu.com/place/detail?uid=98ae1c445431c4d2f7e73b4d&output=html&source=placeapi_v2,,,,,,,,,,,,,,,,,,,,0
2c09d0f5b71e19ef77026963,阳光精剪,丽人,美发,江苏省,常州市,武进区,常州市武进区塘桥菜市场东南侧,2c09d0f5b71e19ef77026963,1,0,120.064007,31.686654,,beauty,http://api.map.baidu.com/place/detail?uid=2c09d0f5b71e19ef77026963&output=html&source=placeapi_v2,,,,,,,,,,,,,,,,,,,,0
52e95932c055dbc69868b4d9,飞燕美容美发,丽人,美发,江苏省,常州市,武进区,江苏省常州市武进区塘桥北街63-2号,52e95932c055dbc69868b4d9,1,0,120.063301,31.687529,,beauty,http://api.map.baidu.com/place/detail?uid=52e95932c055dbc69868b4d9&output=html&source=placeapi_v2,,10:00-21:00,,,,,,,,,,,,,,,,,,0
ffa0b0f7cf57c6b6ca29151c,创意时尚烫染沙龙,丽人,美发,江苏省,常州市,武进区,常州市武进区南塘桥小学东北侧约30米,ffa0b0f7cf57c6b6ca29151c,1,0,120.063437,31.688418,13861005569,beauty,http://api.map.baidu.com/place/detail?uid=ffa0b0f7cf57c6b6ca29151c&output=html&source=placeapi_v2,,,,,,,,,,,,,,,,,,,,0
db0b229bea97a6136ca3ccf0,玉霞理发店,丽人,美发,江苏省,常州市,武进区,横林镇新东方殷坂村241号,db0b229bea97a6136ca3ccf0,1,0,120.122285,31.684291,,beauty,http://api.map.baidu.com/place/detail?uid=db0b229bea97a6136ca3ccf0&output=html&source=placeapi_v2,,10:00-21:00,,,,,,,,,,,,,,,,,,0
9911a2d3874521352ab97c54,世纪美发,丽人,美发,江苏省,常州市,武进区,常州市武进区洛阳镇虞桥顾家头35号,9911a2d3874521352ab97c54,1,0,120.090736,31.673863,15051982627,beauty,http://api.map.baidu.com/place/detail?uid=9911a2d3874521352ab97c54&output=html&source=placeapi_v2,,09:00-21:00,5,,,,,,,,,,,,,,,120.09072785206,31.67396281155,0
b20d5e2d9f129798100daa32,卓零造型,丽人,美发,江苏省,常州市,武进区,江苏省常州市武进区瑞丰花苑1幢8号,b20d5e2d9f129798100daa32,1,0,120.112376,31.68989,18351203016,beauty,http://api.map.baidu.com/place/detail?uid=b20d5e2d9f129798100daa32&output=html&source=placeapi_v2,,08:00-21:00,,,,,,,,,,,,,,,,,,0
36382938ecf32a3846e274c8,发莹美,丽人,美发,江苏省,常州市,武进区,横洛路北50米,36382938ecf32a3846e274c8,1,0,120.091588,31.673889,,beauty,http://api.map.baidu.com/place/detail?uid=36382938ecf32a3846e274c8&output=html&source=placeapi_v2,,09:00-21:00,3.0,,,,,,,,,,,,,,,,,0
9f2be1d7c6b09d0554bfff1b,正彬美发,丽人,美发,江苏省,常州市,武进区,江苏省常州市武进区横洛路2号,9f2be1d7c6b09d0554bfff1b,1,0,120.097759,31.683886,,beauty,http://api.map.baidu.com/place/detail?uid=9f2be1d7c6b09d0554bfff1b&output=html&source=placeapi_v2,,10:00-21:00,2.9,,,,,,,,,,,,,,,120.09768935483,31.683952990039,0
7d4df725cb9ceeebd22dd624,欣欣美发,丽人,美发,江苏省,常州市,武进区,常州市武进区虞桥路洛阳镇虞桥村幼儿园东侧约170米,,1,0,120.089685,31.673745,,beauty,http://api.map.baidu.com/place/detail?uid=7d4df725cb9ceeebd22dd624&output=html&source=placeapi_v2,,,,,,,,,,,,,,,,,,,,0
722fc5f749837c41931fc91d,小龙美发厅,丽人,美发,江苏省,常州市,金坛区,常州市金坛区X304唐王客运站西北侧约90米,722fc5f749837c41931fc91d,1,0,119.444356,31.691021,,beauty,http://api.map.baidu.com/place/detail?uid=722fc5f749837c41931fc91d&output=html&source=placeapi_v2,,,,,,,,,,,,,,,,,,119.44438023123,31.690832621904,0
5cf931cc41b9d5ba6ea3cca7,朱朱美容美发,丽人,美发,江苏省,常州市,金坛区,江苏省常州市金坛区老街港西路5-1号,5cf931cc41b9d5ba6ea3cca7,1,0,119.490352,31.704083,,beauty,http://api.map.baidu.com/place/detail?uid=5cf931cc41b9d5ba6ea3cca7&output=html&source=placeapi_v2,,,0.0,,,,,,,,0,,,,,,,,,0
c78b36f84820c3c8b1077da2,国庆美发,丽人,美发,江苏省,常州市,金坛区,常州市金坛区港西路金坛西岗中学东北侧约160米,c78b36f84820c3c8b1077da2,1,0,119.488552,31.704208,,beauty,http://api.map.baidu.com/place/detail?uid=c78b36f84820c3c8b1077da2&output=html&source=placeapi_v2,,,,,,,,,,,,,,,,,,,,0
39d43f829e19e386a8059dda,蒂造时尚发型空间(港西路店),丽人,美发,江苏省,常州市,金坛区,江苏省常州市金坛区港西路22号,39d43f829e19e386a8059dda,1,0,119.489214,31.70401,,beauty,http://api.map.baidu.com/place/detail?uid=39d43f829e19e386a8059dda&output=html&source=placeapi_v2,,10:00-21:00,0.0,,,,,,,,,,,,,,,119.48919353109,31.704187421252,0
ebb13fed05cba9babe48420f,国英美容美发,丽人,美发,江苏省,常州市,金坛区,江苏省常州市金坛区钱涑线(涑渎农贸市场),ebb13fed05cba9babe48420f,1,0,119.567041,31.688193,13814791675,beauty,http://api.map.baidu.com/place/detail?uid=ebb13fed05cba9babe48420f&output=html&source=placeapi_v2,,,,,,,,,,,,,,,,,,,,0
1dc0bd98d00ed54902294f1b,风云造型(清香苑店),丽人,美发,江苏省,常州市,金坛区,常州市金坛区华业路华科清香苑东南侧,,1,0,119.642577,31.696085,15312536667,beauty,http://api.map.baidu.com/place/detail?uid=1dc0bd98d00ed54902294f1b&output=html&source=placeapi_v2,,13:00-22:00,,,,,,,,,,,,,,,,119.64257651817,31.69583431177,0
eaa4b16ef4e9b27a6f3e1b41,晴杰发帝秀,丽人,美发,江苏省,常州市,金坛区,常州市金坛区岸头佳园,eaa4b16ef4e9b27a6f3e1b41,1,0,119.6281,31.698951,13915017848,beauty,http://api.map.baidu.com/place/detail?uid=eaa4b16ef4e9b27a6f3e1b41&output=html&source=placeapi_v2,,,,,,,,,,,,,,,,,,,,0
3bea71ab4d4eae0acafa5f67,为民美发(沿河西路店),丽人,美发,江苏省,常州市,金坛区,江苏省常州市金坛区西大街11号,3bea71ab4d4eae0acafa5f67,1,0,119.693649,31.696069,,beauty,http://api.map.baidu.com/place/detail?uid=3bea71ab4d4eae0acafa5f67&output=html&source=placeapi_v2,,,0.0,,,,,,,,1,,,,,,,119.69350352274,31.696092460474,0
2b68889206362dfd17948e76,唯美时尚发艺,丽人,美发,江苏省,常州市,金坛区,常州市金坛区沿河西路汤庄农贸市场(汤庄镇卫生院西北)西北侧约90米,2b68889206362dfd17948e76,1,0,119.693599,31.695472,13775165402,beauty,http://api.map.baidu.com/place/detail?uid=2b68889206362dfd17948e76&output=html&source=placeapi_v2,,10:00-21:00,,,,,,,,,,,,,,,,,,0
5e5a2cddf2875917c056ac9c,肯定发艺(尧塘店),丽人,美发,江苏省,常州市,金坛区,江苏省常州市金坛区尧塘镇亿晶大街172-28号,5e5a2cddf2875917c056ac9c,1,0,119.691473,31.720462,18360829071,beauty,http://api.map.baidu.com/place/detail?uid=5e5a2cddf2875917c056ac9c&output=html&source=placeapi_v2,,08:15-21:30,,,,,,,,,,,,,,,,119.69161479138,31.720518067715,0
9f0416e847e8eb2f8f1a89e1,东飞园艺造型,丽人,美发,江苏省,常州市,武进区,江苏省常州市武进区迎宾大道1号,,1,0,119.774527,31.710613,15161676757,beauty,http://api.map.baidu.com/place/detail?uid=9f0416e847e8eb2f8f1a89e1&output=html&source=placeapi_v2,,07:30-19:30,,,,,,,,,,,,,,,,,,0
b4a8fe566c15598749fc8d07,简尚造型(花市路店),丽人,美发,江苏省,常州市,武进区,江苏省常州市武进区花市路107号,b4a8fe566c15598749fc8d07,1,0,119.773567,31.713794,,beauty,http://api.map.baidu.com/place/detail?uid=b4a8fe566c15598749fc8d07&output=html&source=placeapi_v2,,10:00-21:00,,,,,,,,,,,,,,,,,,0
44939895b6c5c5e5ebe58223,美人痣专营法青,丽人,美发,江苏省,常州市,武进区,常州市武进区花市路夏溪花木市场-小苗区,,1,0,119.771845,31.713003,,beauty,http://api.map.baidu.com/place/detail?uid=44939895b6c5c5e5ebe58223&output=html&source=placeapi_v2,,,,,,,,,,,,,,,,,,,,0
5f4d09b2c21ebb53902ca3cf,尚景造型,丽人,美发,江苏省,常州市,武进区,常州市武进区经二路与纬七路交叉路口往北约60米,5f4d09b2c21ebb53902ca3cf,1,0,119.782166,31.71308,15295055754,beauty,http://api.map.baidu.com/place/detail?uid=5f4d09b2c21ebb53902ca3cf&output=html&source=placeapi_v2,,06:00-22:00,,,,,,,,,1,,,,,,,,,0
13054f0ed2dbc59af8221340,顶尚名丝,丽人,美发,江苏省,常州市,武进区,江苏省常州市武进区花溪路14栋5号,13054f0ed2dbc59af8221340,1,0,119.765872,31.716271,13656119912,beauty,http://api.map.baidu.com/place/detail?uid=13054f0ed2dbc59af8221340&output=html&source=placeapi_v2,,09:00-21:00,5,,,,,,,,2,,,,,,,119.76585112164,31.716144942469,0
b739bd7949b3891c1d1d11f1,阿全造型,丽人,美发,江苏省,常州市,武进区,江苏省常州市武进区夏溪新东街54号,b739bd7949b3891c1d1d11f1,1,0,119.765853,31.714591,15051988876,beauty,http://api.map.baidu.com/place/detail?uid=b739bd7949b3891c1d1d11f1&output=html&source=placeapi_v2,,10:00-21:00,0,,,,,,,,0,,,,,,,,,0
835c92460cd6210a9de321c5,阿辉工作室,丽人,美发,江苏省,常州市,武进区,江苏省常州市武进区新东街43号,835c92460cd6210a9de321c5,1,0,119.765568,31.714276,,beauty,http://api.map.baidu.com/place/detail?uid=835c92460cd6210a9de321c5&output=html&source=placeapi_v2,,10:00-21:00,,,,,,,,,,,,,,,,,,0
d51c69915107eca94002455c,丝诺造型,丽人,美发,江苏省,常州市,武进区,江苏省常州市武进区夏溪西路113号,,1,0,119.761101,31.713862,18551900485,beauty,http://api.map.baidu.com/place/detail?uid=d51c69915107eca94002455c&output=html&source=placeapi_v2,,08:00-21:00,,,,,,,,,,,,,,,,,,0
13d7b13360e342c1be484295,帝阔植物养发,丽人,美发,江苏省,常州市,武进区,江苏省常州市武进区顺昌西街82号,13d7b13360e342c1be484295,1,0,119.764552,31.716531,13961185023,beauty,http://api.map.baidu.com/place/detail?uid=13d7b13360e342c1be484295&output=html&source=placeapi_v2,,,,,,,,,,,,,,,,,,,,0
a1c41547382269752bb97c79,青丝阁中药茶麸养发堂,丽人,美发,江苏省,常州市,武进区,常州市武进区夏溪西路武进夏溪初级中学东侧约80米,a1c41547382269752bb97c79,1,0,119.761027,31.717442,,beauty,http://api.map.baidu.com/place/detail?uid=a1c41547382269752bb97c79&output=html&source=placeapi_v2,,,,,,,,,,,,,,,,,,,,0
461344a26b9cc18aeedfca06,和松园精品造型罗汉松基地,丽人,美发,江苏省,常州市,武进区,江苏省常州市武进区嘉泽镇甘荡村民委员会东南,461344a26b9cc18aeedfca06,1,0,119.753278,31.702858,17625890043,beauty,http://api.map.baidu.com/place/detail?uid=461344a26b9cc18aeedfca06&output=html&source=placeapi_v2,,07:00-23:00,,,,,,,,,2,,,,,,,,,0
35f36a279ebabb209e9d6873,建伟发屋,丽人,美发,江苏省,常州市,武进区,江苏省常州市武进区花汇路113栋,,1,0,119.773414,31.720622,,beauty,http://api.map.baidu.com/place/detail?uid=35f36a279ebabb209e9d6873&output=html&source=placeapi_v2,,10:00-21:00,,,,,,,,,,,,,,,,,,0
1a43fc25fe02ab41eb56fa5e,红牡丹美容美发,丽人,美发,江苏省,常州市,武进区,江苏省常州市武进区稻香路156-6号,1a43fc25fe02ab41eb56fa5e,1,0,119.860562,31.710129,15961432937,beauty,http://api.map.baidu.com/place/detail?uid=1a43fc25fe02ab41eb56fa5e&output=html&source=placeapi_v2,,10:00-21:00,0,,,,,,,,1,,,,,,,119.86062699539,31.710094576031,0
f6d517779eb9b87c4bcc4a97,名角定制沙龙,丽人,美发,江苏省,常州市,武进区,常州市武进区经济开发区祥云路西湖家园10号,f6d517779eb9b87c4bcc4a97,1,0,119.850276,31.710393,18168807888,beauty,http://api.map.baidu.com/place/detail?uid=f6d517779eb9b87c4bcc4a97&output=html&source=placeapi_v2,66.0,09:00-21:00,0,,,,,,,,0,,,,,,,,,0
463cb3167f6a2b9beb12e400,时尚造型(稻香路),丽人,美发,江苏省,常州市,武进区,江苏省常州市武进区稻香路151号,463cb3167f6a2b9beb12e400,1,0,119.861199,31.710205,15861838121,beauty,http://api.map.baidu.com/place/detail?uid=463cb3167f6a2b9beb12e400&output=html&source=placeapi_v2,115.0,09:00-21:30,,,,,,,,,,,,,,,,,,0
8b231c71d1c40863d518b7df,摸鱼工作室,丽人,美发,江苏省,常州市,武进区,江苏省常州市武进区西太湖国际智慧园,,1,0,119.847735,31.711575,15190530936,beauty,http://api.map.baidu.com/place/detail?uid=8b231c71d1c40863d518b7df&output=html&source=placeapi_v2,,,,,,,,,,,,,,,,,,,,0
7b052f6060ef349f364aae73,发秀造型(湖滨路店),丽人,美发,江苏省,常州市,武进区,江苏省常州市武进区湖滨路招商花园城6-2号,7b052f6060ef349f364aae73,1,0,119.90784,31.706624,13776886737,beauty,http://api.map.baidu.com/place/detail?uid=7b052f6060ef349f364aae73&output=html&source=placeapi_v2,,10:00-21:00,,,,,,,,,,,,,,,,,,0
3b44a60785dc06a43a13fd39,铂爵美容美发专业机构,丽人,美发,江苏省,常州市,武进区,江苏省常州市武进区创业路宏图大厦一楼,,1,0,119.911102,31.704301,18255200050,beauty,http://api.map.baidu.com/place/detail?uid=3b44a60785dc06a43a13fd39&output=html&source=placeapi_v2,,10:00-22:00,,,,,,,,,,,,,,,,119.91111776843,31.704361924346,0
303ec70cccf022ac9a0050d9,涛英形象设计,丽人,美发,江苏省,常州市,武进区,江苏省常州市武进区卢市街58号,303ec70cccf022ac9a0050d9,1,0,119.906763,31.697121,,beauty,http://api.map.baidu.com/place/detail?uid=303ec70cccf022ac9a0050d9&output=html&source=placeapi_v2,,10:00-21:00,0.0,,,,,,,,1,,,,,,,119.90666369752,31.696989269202,0
5099d08f7d5b7246f33cba1a,宗军造型,丽人,美发,江苏省,常州市,武进区,江苏省常州市武进区卢中街30号,5099d08f7d5b7246f33cba1a,1,0,119.908465,31.693642,13235192080,beauty,http://api.map.baidu.com/place/detail?uid=5099d08f7d5b7246f33cba1a&output=html&source=placeapi_v2,,08:30-21:00,2.3,,,,,,,,3,,,,,,,,,0
4e4eb82e0958502f43e19278,CC造型,丽人,美发,江苏省,常州市,武进区,江苏省常州市武进区延政西路招商花园城18-32室,4e4eb82e0958502f43e19278,1,0,119.908909,31.704871,,beauty,http://api.map.baidu.com/place/detail?uid=4e4eb82e0958502f43e19278&output=html&source=placeapi_v2,,10:00-21:00,,,,,,,,,,,,,,,,,,0
212a0245bb483aacb64f54ab,名烁私人订制,丽人,美发,江苏省,常州市,武进区,牛塘镇招商花园城南门商铺18-18号,212a0245bb483aacb64f54ab,1,0,119.909548,31.704847,,beauty,http://api.map.baidu.com/place/detail?uid=212a0245bb483aacb64f54ab&output=html&source=placeapi_v2,,,,,,,,,,,,,,,,,,,,0
f9f008324a0aa17dee74f87e,创艺造型(市政街店),丽人,美发,江苏省,常州市,武进区,江苏省常州市武进区市政街26号,f9f008324a0aa17dee74f87e,1,0,119.908676,31.695924,13401518458,beauty,http://api.map.baidu.com/place/detail?uid=f9f008324a0aa17dee74f87e&output=html&source=placeapi_v2,,10:00-22:00,0,,,,,,,,0,,,,,,,,,0
dd267e661161d632c6effb27,丹尼斯美发沙龙,丽人,美发,江苏省,常州市,武进区,江苏省常州市武进区市政南街33号,dd267e661161d632c6effb27,1,0,119.908112,31.692072,15189745112,beauty,http://api.map.baidu.com/place/detail?uid=dd267e661161d632c6effb27&output=html&source=placeapi_v2,,10:00-21:00,5,,,,,,,,1,,,,,,,,,0
4bd9a7729dc3cd9704fef58d,小刚造型(湖滨北路店),丽人,美发,江苏省,常州市,武进区,江苏省常州市武进区湖滨北路金色湖滨小区1-109号,4bd9a7729dc3cd9704fef58d,1,0,119.905771,31.7202,,beauty,http://api.map.baidu.com/place/detail?uid=4bd9a7729dc3cd9704fef58d&output=html&source=placeapi_v2,,10:00-21:00,0.0,,,,,,,,,,,,,,,119.90569475286,31.720069730628,0
5b93769445654bf930169b20,畅尚美发,丽人,美发,江苏省,常州市,武进区,江苏省常州市武进区卢市街20号,5b93769445654bf930169b20,1,0,119.908167,31.696855,,beauty,http://api.map.baidu.com/place/detail?uid=5b93769445654bf930169b20&output=html&source=placeapi_v2,,08:00-22:00,,,,,,,,,4,,,,,,,,,0
31f489e471f54cef631c67b9,首艺发型(卢市街店),丽人,美发,江苏省,常州市,武进区,常州市武进区卢市街灯泡新村西北侧约70米,31f489e471f54cef631c67b9,1,0,119.908841,31.696844,13813664862,beauty,http://api.map.baidu.com/place/detail?uid=31f489e471f54cef631c67b9&output=html&source=placeapi_v2,,10:00-21:00,,,,,,,,,,,,,,,,119.90863831047,31.696844942917,0
b77efd298885322cddee8b77,镜界造型,丽人,美发,江苏省,常州市,武进区,江苏省常州市武进区湖滨南路招商花园城924号,,1,0,119.910901,31.706455,15665191831,beauty,http://api.map.baidu.com/place/detail?uid=b77efd298885322cddee8b77&output=html&source=placeapi_v2,,09:00-21:30,,,,,,,,,,,,,,,,119.91070237826,31.706541863011,0
3bd07caead0d868f32f71d78,陌森美发会所(卢南街店),丽人,美发,江苏省,常州市,武进区,江苏省常州市武进区卢南街50号,3bd07caead0d868f32f71d78,1,0,119.90752,31.691906,13401609270,beauty,http://api.map.baidu.com/place/detail?uid=3bd07caead0d868f32f71d78&output=html&source=placeapi_v2,,10:00-21:00,,,,,,,,,,,,,,,,119.90753673999,31.691808605776,0
553124d48ca1cd56b8bd6303,王江发艺,丽人,美发,江苏省,常州市,武进区,江苏省常州市武进区卢新街卢家巷花苑6幢,553124d48ca1cd56b8bd6303,1,0,119.908931,31.692042,13584345381,beauty,http://api.map.baidu.com/place/detail?uid=553124d48ca1cd56b8bd6303&output=html&source=placeapi_v2,,09:00-21:00,5,,,,,,,,1,,,,,,,,,0
ffa28696670d5da0fc0eb086,阿军形象设计,丽人,美发,江苏省,常州市,武进区,常州市武进区市政街灯泡新村西北侧约80米,ffa28696670d5da0fc0eb086,1,0,119.908779,31.697046,,beauty,http://api.map.baidu.com/place/detail?uid=ffa28696670d5da0fc0eb086&output=html&source=placeapi_v2,,,,,,,,,,,,,,,,,,,,0
c6a6ea29f05b3029d2f49e09,HD创意沙龙(卢家巷店),丽人,美发,江苏省,常州市,武进区,江苏省常州市武进区卢南街52号,c6a6ea29f05b3029d2f49e09,1,0,119.907395,31.691926,,beauty,http://api.map.baidu.com/place/detail?uid=c6a6ea29f05b3029d2f49e09&output=html&source=placeapi_v2,,10:00-21:00,,,,,,,,,,,,,,,,,,0
5f6f5584b4ac5f4c17b54bbc,宗军造型设计,丽人,美发,江苏省,常州市,武进区,江苏省常州市武进区卢南街10号,5f6f5584b4ac5f4c17b54bbc,1,0,119.909779,31.69168,,beauty,http://api.map.baidu.com/place/detail?uid=5f6f5584b4ac5f4c17b54bbc&output=html&source=placeapi_v2,,09:00-21:00,,,,,,,,,,,,,,,,,,0
b9c1005ec9232636cae33c0f,超研发型,丽人,美发,江苏省,常州市,武进区,江苏省常州市武进区政南街20号,b9c1005ec9232636cae33c0f,1,0,119.908818,31.693365,13235192080,beauty,http://api.map.baidu.com/place/detail?uid=b9c1005ec9232636cae33c0f&output=html&source=placeapi_v2,,09:00-21:00,,,,,,,,,,,,,,,,,,0
a66694eb22f129995b1093c7,曼妮护肤造型(新城公馆旗舰店),丽人,美发,江苏省,常州市,武进区,常州市武进区花园街新城公馆风尚商铺128号HF1-19号,a66694eb22f129995b1093c7,1,0,119.954539,31.708086,(0519)85515801,beauty,http://api.map.baidu.com/place/detail?uid=a66694eb22f129995b1093c7&output=html&source=placeapi_v2,64.0,09:00-21:00,3,,,,,,,,2,,,,,,,119.95454119473,31.708209986583,0
732cd088519293176fc02ce0,素忆花艺美学设计,丽人,美发,江苏省,常州市,武进区,江苏省常州市武进区武宜中路德禾豪景b11,732cd088519293176fc02ce0,1,0,119.945763,31.711659,18052715958,beauty,http://api.map.baidu.com/place/detail?uid=732cd088519293176fc02ce0&output=html&source=placeapi_v2,63.0,08:00-18:00,4.3,,,,,,,,,,,,,,,,,0
e632037f008cfe9b8b2fb50a,多米造型(武宜中路店),丽人,美发,江苏省,常州市,武进区,江苏省常州市武进区武宜中路德禾豪景苑a13号,e632037f008cfe9b8b2fb50a,1,0,119.945136,31.710124,13685267089,beauty,http://api.map.baidu.com/place/detail?uid=e632037f008cfe9b8b2fb50a&output=html&source=placeapi_v2,,09:00-22:00,0,,,,,,,,0,,,,,,,,,0
2785453f160d997c0389726e,美丽王朝女子SPA会所(花园街店),丽人,美发,江苏省,常州市,武进区,江苏省常州市武进区花园街35-22号,2785453f160d997c0389726e,1,0,119.954496,31.706086,(0519)81188598,beauty,http://api.map.baidu.com/place/detail?uid=2785453f160d997c0389726e&output=html&source=placeapi_v2,,09:00-21:00,4.4,,,,,,,,6,,,,,,,119.95458291204,31.706078711474,0
aebe31b93cd28ee928d7ab1d,良兴理发,丽人,美发,江苏省,常州市,武进区,常州市武进区武宜中路武进区湖塘镇小留新市民小学南侧,aebe31b93cd28ee928d7ab1d,1,0,119.942106,31.699284,,beauty,http://api.map.baidu.com/place/detail?uid=aebe31b93cd28ee928d7ab1d&output=html&source=placeapi_v2,,10:00-21:00,,,,,,,,,,,,,,,,119.94200203018,31.699385919315,0
d825b0ee73a14b3b9cec2bd1,时尚造型,丽人,美发,江苏省,常州市,武进区,常州市武进区武宜中路小留新村小区,d825b0ee73a14b3b9cec2bd1,1,0,119.940728,31.699473,,beauty,http://api.map.baidu.com/place/detail?uid=d825b0ee73a14b3b9cec2bd1&output=html&source=placeapi_v2,,,,,,,,,,,,,,,,,,,,0
b1c2f380f2c658522fb17e94,水谷美容美发(凯尔LOMO广场店),丽人,美发,江苏省,常州市,武进区,江苏省常州市武进区花园街1号凯尔LOMO广场F1,b1c2f380f2c658522fb17e94,1,0,119.95349,31.696905,"(0519)88360777,13382840608",beauty,http://api.map.baidu.com/place/detail?uid=b1c2f380f2c658522fb17e94&output=html&source=placeapi_v2,70.0,10:00-22:00,0,,,,,,,,0,,,,,,,119.95348828227,31.696955576486,0
0b1d0336435af8dd735e80f5,章光101(湖塘花园街服务中心),丽人,美发,江苏省,常州市,武进区,江苏省常州市武进区湖塘花园街55-28号,0b1d0336435af8dd735e80f5,1,0,119.954875,31.712325,"(0519)81235101,13815068652",beauty,http://api.map.baidu.com/place/detail?uid=0b1d0336435af8dd735e80f5&output=html&source=placeapi_v2,0.0,08:00-20:00,5,,,,,,,,2,,,,,,,,,0
8e48888129aba632744ff17c,鹏宇设计(湖塘店),丽人,美发,江苏省,常州市,武进区,江苏省常州市武进区武宜北路星河国际2区2-47号,8e48888129aba632744ff17c,1,0,119.947226,31.718903,(0519)88660808,beauty,http://api.map.baidu.com/place/detail?uid=8e48888129aba632744ff17c&output=html&source=placeapi_v2,,08:30-20:00,,,,,,,,,1,,,,,,,119.9472841571,31.718773397715,0
d56534ea3cc7991e42d63eeb,清果源烫染,丽人,美发,江苏省,常州市,武进区,常州市武进区凤林路晓柳花苑,d56534ea3cc7991e42d63eeb,1,0,119.935177,31.696586,,beauty,http://api.map.baidu.com/place/detail?uid=d56534ea3cc7991e42d63eeb&output=html&source=placeapi_v2,,,,,,,,,,,,,,,,,,,,0
8c5eebf19de6ee68cc06a479,天阳造型,丽人,美发,江苏省,常州市,武进区,江苏省常州市武进区韬中路37-8号,8c5eebf19de6ee68cc06a479,1,0,119.950506,31.693401,18014344440,beauty,http://api.map.baidu.com/place/detail?uid=8c5eebf19de6ee68cc06a479&output=html&source=placeapi_v2,62.0,10:00-21:00,3.6,,,,,,,,,,,,,,,,,0
cfec00be0bb537bec3364425,美都造型(马元路店),丽人,美发,江苏省,常州市,武进区,江苏省常州市武进区马元路1~2号景城名轩11号1-1号,cfec00be0bb537bec3364425,1,0,119.953352,31.708081,,beauty,http://api.map.baidu.com/place/detail?uid=cfec00be0bb537bec3364425&output=html&source=placeapi_v2,,10:00-21:00,,,,,,,,,,,,,,,,119.95335463915,31.708226231183,0
23216c3998b6c9aabd484229,何留美发,丽人,美发,江苏省,常州市,武进区,常州市武进区何留路武进区何留小学南侧约40米,23216c3998b6c9aabd484229,1,0,119.942921,31.716298,18068548996,beauty,http://api.map.baidu.com/place/detail?uid=23216c3998b6c9aabd484229&output=html&source=placeapi_v2,,10:00-21:00,,,,,,,,,,,,,,,,,,0
6423bc0e676f8a137dc876e9,伊尚缘工作室,丽人,美发,江苏省,常州市,武进区,常州市武进区鸣凰路晓柳花苑,,1,0,119.937374,31.697055,,beauty,http://api.map.baidu.com/place/detail?uid=6423bc0e676f8a137dc876e9&output=html&source=placeapi_v2,,,,,,,,,,,,,,,,,,,,0
650e07c0b97b5427a1d23096,湖塘吉田理发店,丽人,美发,江苏省,常州市,武进区,常州市武进区湖塘镇星河国际城市花园5区42号,,1,0,119.946687,31.722207,13861186941,beauty,http://api.map.baidu.com/place/detail?uid=650e07c0b97b5427a1d23096&output=html&source=placeapi_v2,,10:00-21:00,1,,,,,,,,3,,,,,,,,,0
fcdc1a77ccc9057833169b56,帝芙设计工作室,丽人,美发,江苏省,常州市,武进区,江苏省常州市武进区韬中路万科城21栋201号,fcdc1a77ccc9057833169b56,1,0,119.940693,31.692542,"13776878685,18861858583",beauty,http://api.map.baidu.com/place/detail?uid=fcdc1a77ccc9057833169b56&output=html&source=placeapi_v2,,00:00-24:00,5,,,,,,,,2,,,,,,,,,0
847a833a723660a9d23ce39d,概念美发造型,丽人,美发,江苏省,常州市,武进区,江苏省常州市武进区府南路中奥珑郡5-104号,847a833a723660a9d23ce39d,1,0,119.948905,31.694621,,beauty,http://api.map.baidu.com/place/detail?uid=847a833a723660a9d23ce39d&output=html&source=placeapi_v2,,,,,,,,,,,,,,,,,,119.9487402773,31.694674699632,0
931025c3531f556815948eeb,丝域养发馆(新城公馆店),丽人,美发,江苏省,常州市,武进区,江苏省常州市武进区花园街府东路25-3号,931025c3531f556815948eeb,1,0,119.956158,31.705154,,beauty,http://api.map.baidu.com/place/detail?uid=931025c3531f556815948eeb&output=html&source=placeapi_v2,107.0,09:30-20:30,0,,,,,,,,0,,,,,,,119.95616996275,31.705318716914,0
c5c860e9acca8b9136b06c81,姐弟造型纹绣,丽人,美发,江苏省,常州市,武进区,江苏省常州市武进区武宜中路小留新村98号,c5c860e9acca8b9136b06c81,1,0,119.941824,31.696621,13961239599,beauty,http://api.map.baidu.com/place/detail?uid=c5c860e9acca8b9136b06c81&output=html&source=placeapi_v2,,10:00-21:00,,,,,,,,,,,,,,,,,,0
2a58d15c8403f5f91f1d1186,阿玛尼造型(花园街店),丽人,美发,江苏省,常州市,武进区,江苏省常州市武进区花园街12-8号,2a58d15c8403f5f91f1d1186,1,0,119.955493,31.708374,(0519)86581666,beauty,http://api.map.baidu.com/place/detail?uid=2a58d15c8403f5f91f1d1186&output=html&source=placeapi_v2,,08:30-20:30,,,,,,,,,0,,,,,,,,,0
48fc063587017a0807026f46,丝域养发馆(星河国际店),丽人,美发,江苏省,常州市,武进区,江苏省常州市武进区广电西路星河国际二区12号2-12号,48fc063587017a0807026f46,1,0,119.946271,31.72083,(0519)85618668,beauty,http://api.map.baidu.com/place/detail?uid=48fc063587017a0807026f46&output=html&source=placeapi_v2,100.0,09:30-21:00,0,,,,,,,,0,,,,,,,,,0
1a9936f6cebb13ffc62ba153,JSTYLE柬造型,丽人,美发,江苏省,常州市,武进区,江苏省常州市武进区武宜中路德禾豪景二期37号,1a9936f6cebb13ffc62ba153,1,0,119.947476,31.719962,13915890500,beauty,http://api.map.baidu.com/place/detail?uid=1a9936f6cebb13ffc62ba153&output=html&source=placeapi_v2,,10:00-21:00,0,,,,,,,,0,,,,,,,119.94758824755,31.719943130436,0
a9ed958f7b240bf7d6b74e02,纽悦造型(武进金鹰店),丽人,美发,江苏省,常州市,武进区,常州市武进区湖塘镇花园街新城帝景南门20幢107商铺,a9ed958f7b240bf7d6b74e02,1,0,119.956204,31.711924,(0519)89889739,beauty,http://api.map.baidu.com/place/detail?uid=a9ed958f7b240bf7d6b74e02&output=html&source=placeapi_v2,22.0,10:00-21:00,0,,,,,,,,0,,,,,,,119.95619473721,31.711754268914,0
9985ac0d10e8d3d0deee8b5b,秀客造型(韬中路店),丽人,美发,江苏省,常州市,武进区,江苏省常州市武进区韬中路55-23号,9985ac0d10e8d3d0deee8b5b,1,0,119.947393,31.693485,18861131320,beauty,http://api.map.baidu.com/place/detail?uid=9985ac0d10e8d3d0deee8b5b&output=html&source=placeapi_v2,,10:00-21:00,0,,,,,,,,2,,,,,,,119.94739939643,31.693649079879,0
435c1e97cb3472395a3ac8c0,小东烫染造型,丽人,美发,江苏省,常州市,武进区,江苏省常州市武进区鸣凰晓柳花苑b-7,435c1e97cb3472395a3ac8c0,1,0,119.933556,31.695464,,beauty,http://api.map.baidu.com/place/detail?uid=435c1e97cb3472395a3ac8c0&output=html&source=placeapi_v2,,10:00-21:00,0,,,,,,,,1,,,,,,,,,0
07205956157dc3d02fb17eb2,金管家快享养发馆,丽人,美发,江苏省,常州市,武进区,常州市武进区府东路新城公馆西门西南侧约70米,07205956157dc3d02fb17eb2,1,0,119.956017,31.705643,,beauty,http://api.map.baidu.com/place/detail?uid=07205956157dc3d02fb17eb2&output=html&source=placeapi_v2,,,,,,,,,,,,,,,,,,119.95601367287,31.705589349575,0
ae65b84453962828e81e97ff,千姿美业工作室,丽人,美发,江苏省,常州市,武进区,江苏省常州市武进区何留路星河城市花园一区1-37号,ae65b84453962828e81e97ff,1,0,119.946101,31.715969,"13915025931,18351209912",beauty,http://api.map.baidu.com/place/detail?uid=ae65b84453962828e81e97ff&output=html&source=placeapi_v2,70.0,09:00-22:00,0,,,,,,,,0,,,,,,,,,0
28d7adcbb1233184c17da27a,启典美发工作室,丽人,美发,江苏省,常州市,武进区,常州市武进区湖塘镇万科城柏悦湾花园G6-06,28d7adcbb1233184c17da27a,1,0,119.938389,31.691986,,beauty,http://api.map.baidu.com/place/detail?uid=28d7adcbb1233184c17da27a&output=html&source=placeapi_v2,,,,,,,,,,,,,,,,,,119.93826644379,31.691988463637,0
2c9047492048bb7c138824ab,KT造型(晓柳花苑店),丽人,美发,江苏省,常州市,武进区,江苏省常州市武进区晓柳花苑二期b12号b-12号,2c9047492048bb7c138824ab,1,0,119.93367,31.695909,13401344116,beauty,http://api.map.baidu.com/place/detail?uid=2c9047492048bb7c138824ab&output=html&source=placeapi_v2,,07:00-22:00,0,,,,,,,,0,,,,,,,119.93383705023,31.695856608906,0
3c2c6a5f0c0864da8adb735f,吴氏造型(虹北路),丽人,美发,江苏省,常州市,武进区,江苏省常州市武进区新城南都商业街3-38号,3c2c6a5f0c0864da8adb735f,1,0,119.952523,31.714598,13775052156,beauty,http://api.map.baidu.com/place/detail?uid=3c2c6a5f0c0864da8adb735f&output=html&source=placeapi_v2,,10:00-21:00,0,,,,,,,,0,,,,,,,119.95259377079,31.714728708454,0
da54ee6c6c8c17e01d58000a,姿美造型(凤林北路店),丽人,美发,江苏省,常州市,武进区,江苏省常州市武进区晓柳二村14号,da54ee6c6c8c17e01d58000a,1,0,119.933479,31.696171,15861835969,beauty,http://api.map.baidu.com/place/detail?uid=da54ee6c6c8c17e01d58000a&output=html&source=placeapi_v2,82.0,10:00-21:00,,,,,,,,,,,,,,,,119.93347558329,31.696322794059,0
7da8291664871e0eb817e718,简兮日系美发沙龙,丽人,美发,江苏省,常州市,武进区,常州市武进区万科城柏悦湾花园西门商铺G7-10简兮美发沙龙,7da8291664871e0eb817e718,1,0,119.938344,31.691771,13961490787,beauty,http://api.map.baidu.com/place/detail?uid=7da8291664871e0eb817e718&output=html&source=placeapi_v2,,09:30-21:30,,,,,,,,,,,,,,,,,,0
2746f742dfdd9f1114948eb7,壹加壹美容美发,丽人,美发,江苏省,常州市,武进区,江苏省常州市武进区韬中路35-7号,2746f742dfdd9f1114948eb7,1,0,119.953016,31.693353,15051557886,beauty,http://api.map.baidu.com/place/detail?uid=2746f742dfdd9f1114948eb7&output=html&source=placeapi_v2,,09:00-22:00,0.0,,,,,,,,,,,,,,,,,0
dd29a9a62fb9067d86420ed0,街电(曼妮护肤造型新城公馆旗舰店),丽人,美发,江苏省,常州市,武进区,常州市武进区花园街35-87号,dd29a9a62fb9067d86420ed0,1,0,119.954614,31.708095,,beauty,http://api.map.baidu.com/place/detail?uid=dd29a9a62fb9067d86420ed0&output=html&source=placeapi_v2,,00:00-24:00,,,,,,,,,,,,,,,,,,0
7b9781d2d507ea879e82ea2c,美尚康康时尚烫染(永胜路店),丽人,美发,江苏省,常州市,武进区,江苏省常州市武进区永胜路59-1号,7b9781d2d507ea879e82ea2c,1,0,119.958027,31.696999,18551940821,beauty,http://api.map.baidu.com/place/detail?uid=7b9781d2d507ea879e82ea2c&output=html&source=placeapi_v2,37.0,09:30-21:30,0,,,,,,,,0,,,,,,,119.95802853619,31.697122942031,0
430f0cd1038243e580a00c02,中国梦时尚秀发,丽人,美发,江苏省,常州市,武进区,常州市武进区新城南都商业街2-15号,430f0cd1038243e580a00c02,1,0,119.952723,31.714259,,beauty,http://api.map.baidu.com/place/detail?uid=430f0cd1038243e580a00c02&output=html&source=placeapi_v2,,10:00-21:00,0,,,,,,,,0,,,,,,,,,0
508e007db8a92cedd8131837,AC Beauty(星河COCOCity店),丽人,美发,江苏省,常州市,武进区,江苏省常州市武进区星河城市花园五区7-3号,,1,0,119.947255,31.721517,15051876310,beauty,http://api.map.baidu.com/place/detail?uid=508e007db8a92cedd8131837&output=html&source=placeapi_v2,,09:30-21:00,,,,,,,,,,,,,,,,119.94698788627,31.721534547334,0
4ae2c08077295e56f33cba98,发艺形象设计,丽人,美发,江苏省,常州市,武进区,江苏省常州市武进区韬中路柏悦湾花园g708,4ae2c08077295e56f33cba98,1,0,119.938339,31.691645,,beauty,http://api.map.baidu.com/place/detail?uid=4ae2c08077295e56f33cba98&output=html&source=placeapi_v2,,10:00-22:00,,,,,,,,,,,,,,,,119.93825910104,31.691648433007,0
533062dd11c5f4d6bca822ac,MIN造型(星河店),丽人,美发,江苏省,常州市,武进区,江苏省常州市武进区广电西路星河国际风情广场2区2-52号,533062dd11c5f4d6bca822ac,1,0,119.947147,31.718492,18115785982,beauty,http://api.map.baidu.com/place/detail?uid=533062dd11c5f4d6bca822ac&output=html&source=placeapi_v2,,10:30-20:30,,,,,,,,,,,,,,,,119.94720421441,31.718485360141,0
8d1d92046d56094c7f29bdce,阿军造型(永安路店),丽人,美发,江苏省,常州市,武进区,常州市武进区永安路永安花苑-北区,,1,0,119.961151,31.699747,,beauty,http://api.map.baidu.com/place/detail?uid=8d1d92046d56094c7f29bdce&output=html&source=placeapi_v2,,,,,,,,,,,,,,,,,,,,0
189ece980243b34931169b8a,古熙发艺,丽人,美发,江苏省,常州市,武进区,江苏省常州市武进区韬中路37-4号,189ece980243b34931169b8a,1,0,119.950823,31.693398,,beauty,http://api.map.baidu.com/place/detail?uid=189ece980243b34931169b8a&output=html&source=placeapi_v2,,09:30-21:30,,,,,,,,,,,,,,,,119.95082461648,31.693583031926,0
818435e06bd41cb94c776e0f,凯田发舍,丽人,美发,江苏省,常州市,武进区,江苏省常州市武进区韬中路17号,,1,0,119.951595,31.693944,17762003482,beauty,http://api.map.baidu.com/place/detail?uid=818435e06bd41cb94c776e0f&output=html&source=placeapi_v2,,09:00-21:30,,,,,,,,,,,,,,,,,,0
36a55f726304abc1e856fa21,艺剪缘时尚烫染,丽人,美发,江苏省,常州市,武进区,江苏省常州市武进区春秋路国茂新家园3号铺3号店面铺,,1,0,119.936283,31.68887,15861837550,beauty,http://api.map.baidu.com/place/detail?uid=36a55f726304abc1e856fa21&output=html&source=placeapi_v2,,10:00-21:00,,,,,,,,,,,,,,,,,,0
