uid,name,cat_L1,cat_L2,province,city,area,address,street_id,detail,child_num,loc_lng,loc_lat,telephone,type,detail_url,price,shop_hours,overall_rating,taste_rating,service_rating,environment_rating,facility_rating,hygiene_rating,technology_rating,image_num,comment_num,groupon_num,discount_num,favorite_num,checkin_num,brand,content_tag,naviloc_lng,naviloc_lat,child_num
c7006ccfb7d4a828a90dd8c6,振鑫花园售楼中心,生活服务,房产中介机构,江苏省,常州市,武进区,常州市武进区武风路振鑫花园,,1,0,119.902367,31.586552,,life,http://api.map.baidu.com/place/detail?uid=c7006ccfb7d4a828a90dd8c6&output=html&source=placeapi_v2,,,,,,,,,,5,,,,,,,,,,0
85f2a89fea6ecd64c6effb44,运村房产中介,生活服务,房产中介机构,江苏省,常州市,武进区,常州市武进区X205小牛五金店北侧约170米,,1,0,119.983062,31.564456,,life,http://api.map.baidu.com/place/detail?uid=85f2a89fea6ecd64c6effb44&output=html&source=placeapi_v2,,,,,,,,,,4,,,,,,,,119.98315953024,31.564427006217,0
d17953e7ce07c3b3d0ff2351,兔兔e家,生活服务,房产中介机构,江苏省,常州市,武进区,江苏省常州市武进区武宜路武进人民医院西南侧约30米,,1,0,119.941531,31.635452,"13382856563,18112310355",life,http://api.map.baidu.com/place/detail?uid=d17953e7ce07c3b3d0ff2351&output=html&source=placeapi_v2,,,,,,,,,,6,3,,,,,,,119.94178349042,31.635363947298,0
ddcb7ffa93ba51bfc9e33cda,万禾房产(名仕佳园一店),生活服务,房产中介机构,江苏省,常州市,武进区,常州市武进区湖塘镇大学城名仕佳园2栋D01号,ddcb7ffa93ba51bfc9e33cda,1,0,119.958669,31.676553,,life,http://api.map.baidu.com/place/detail?uid=ddcb7ffa93ba51bfc9e33cda&output=html&source=placeapi_v2,,08:30-20:00,,,,,,,,3,,,,,,,,119.95861598757,31.676500824386,0
7cf1580cd218a4dd2fe67b11,荣创不动产(银谷华庭店),生活服务,房产中介机构,江苏省,常州市,武进区,常州市武进区武宜中路与鸣新中路交叉口东南角银谷广场F1,7cf1580cd218a4dd2fe67b11,1,0,119.944218,31.680266,14761266661,life,http://api.map.baidu.com/place/detail?uid=7cf1580cd218a4dd2fe67b11&output=html&source=placeapi_v2,,08:00-21:00,,,,,,,,11,,,,,,,,119.94433825694,31.680264900509,0
e131518bc41dbde458f6be49,荣创不动产(国贸店),生活服务,房产中介机构,江苏省,常州市,武进区,常州市武进区春秋路国茂新家园9号商铺,e131518bc41dbde458f6be49,1,0,119.935946,31.688874,18015811885,life,http://api.map.baidu.com/place/detail?uid=e131518bc41dbde458f6be49&output=html&source=placeapi_v2,,09:00-21:00,,,,,,,,5,,,,,,,,119.93595995007,31.689045263764,0
d9b9218add10d5ea3517dc97,常居地产(名仕佳园店),生活服务,房产中介机构,江苏省,常州市,武进区,江苏省常州市武进区鸣新中路9-110号,d9b9218add10d5ea3517dc97,1,0,119.957072,31.680658,,life,http://api.map.baidu.com/place/detail?uid=d9b9218add10d5ea3517dc97&output=html&source=placeapi_v2,,00:00-23:45,,,,,,,,15,,,,,,,,119.95706850721,31.680935530973,0
612c960db416ca039ff7792c,银谷广场租售中心(银谷广场店),生活服务,房产中介机构,江苏省,常州市,武进区,常州市武进区鸣新中路955号,612c960db416ca039ff7792c,1,0,119.943926,31.680859,,life,http://api.map.baidu.com/place/detail?uid=612c960db416ca039ff7792c&output=html&source=placeapi_v2,,,,,,,,,,1,,,,,,,,,,0
020788f8dfdcb5c49cec2bce,亚红房屋中介,生活服务,房产中介机构,江苏省,常州市,武进区,江苏省常州市武进区鸣新中路大学新村三社区23幢202室,020788f8dfdcb5c49cec2bce,1,0,119.963334,31.679428,"13357896210,18651962600",life,http://api.map.baidu.com/place/detail?uid=020788f8dfdcb5c49cec2bce&output=html&source=placeapi_v2,,,,,,,,,,2,,,,,,,,,,0
59fac3826ae0219728d7ab65,常居地产(聚盛花园二店),生活服务,房产中介机构,江苏省,常州市,武进区,常州市武进区聚盛花园8幢106号,59fac3826ae0219728d7ab65,1,0,119.971265,31.678849,4009281117,life,http://api.map.baidu.com/place/detail?uid=59fac3826ae0219728d7ab65&output=html&source=placeapi_v2,,08:30-18:30,,,,,,,,7,,,,,,,,119.97140662915,31.678881932255,0
54b6d7b5a690048f2fb90812,16房产,生活服务,房产中介机构,江苏省,常州市,武进区,常州市武进区孟津路星河丹堤-东区,54b6d7b5a690048f2fb90812,1,0,119.868398,31.69546,13142549680,life,http://api.map.baidu.com/place/detail?uid=54b6d7b5a690048f2fb90812&output=html&source=placeapi_v2,,06:00-23:00,0.0,,,,,,,2,1,,,,,,,119.86836596653,31.695265268357,0
d952fe51c627b220c91b95a3,中国・常州星河丹堤售楼处,生活服务,房产中介机构,江苏省,常州市,武进区,江苏省常州市武进区明月路55号,d952fe51c627b220c91b95a3,1,0,119.865402,31.695378,,life,http://api.map.baidu.com/place/detail?uid=d952fe51c627b220c91b95a3&output=html&source=placeapi_v2,,,,,,,,,,,,,,,,,,119.86547238524,31.695606526999,0
a990e8bafebdf747df1e5289,万禾房产(招商花园城店),生活服务,房产中介机构,江苏省,常州市,武进区,江苏省常州市武进区牛塘镇延政西大道招商花园城东门,a990e8bafebdf747df1e5289,1,0,119.910314,31.704831,17682836662,life,http://api.map.baidu.com/place/detail?uid=a990e8bafebdf747df1e5289&output=html&source=placeapi_v2,,08:30-23:00,,,,,,,,9,,,,,,,,,,0
5dd770aa886d046dae31e5ae,招商局地产(常州)有限公司,生活服务,房产中介机构,江苏省,常州市,武进区,江苏省常州市武进区延政西大道6号招商花园城d区4楼,,1,0,119.908056,31.704264,(0519)86929805,life,http://api.map.baidu.com/place/detail?uid=5dd770aa886d046dae31e5ae&output=html&source=placeapi_v2,,,,,,,,,,6,,,,,,,,,,0
97ed3de71f18436a5cbe86d8,房佳乐(新城锦域店),生活服务,房产中介机构,江苏省,常州市,武进区,江苏省常州市武进区横溪路28号,97ed3de71f18436a5cbe86d8,1,0,119.916458,31.707883,13093195997,life,http://api.map.baidu.com/place/detail?uid=97ed3de71f18436a5cbe86d8&output=html&source=placeapi_v2,,08:30-20:00,,,,,,,,5,,,,,,,,,,0
46dcaa48b452e24825d2bbae,荣创不动产(红星国际广场店),生活服务,房产中介机构,江苏省,常州市,武进区,江苏省常州市武进区18-23号招商花园城二区85号,,1,0,119.915512,31.705482,"13401386738,13912333218",life,http://api.map.baidu.com/place/detail?uid=46dcaa48b452e24825d2bbae&output=html&source=placeapi_v2,,,,,,,,,,11,,,,,,,,119.91513687262,31.705512938965,0
ae32b03904476603f603b8f1,文慧房产,生活服务,房产中介机构,江苏省,常州市,武进区,江苏省常州市武进区武宜中路丰乐公寓丰乐坊10-3室,ae32b03904476603f603b8f1,1,0,119.945164,31.708598,13196772006,life,http://api.map.baidu.com/place/detail?uid=ae32b03904476603f603b8f1&output=html&source=placeapi_v2,,08:30-20:30,0,,,,,,,10,0,,,,,,,119.9451381845,31.708514483585,0
c114d3cc5b4ab425fda77807,常居地产(莱蒙城一店),生活服务,房产中介机构,江苏省,常州市,武进区,常州市武进区花园街58号89号,c114d3cc5b4ab425fda77807,1,0,119.954155,31.698377,4009281117,life,http://api.map.baidu.com/place/detail?uid=c114d3cc5b4ab425fda77807&output=html&source=placeapi_v2,,08:30-18:30,0,,,,,,,19,1,,,,,,,,,0
77cbd87ded562da44151c0d9,鑫洋置业(湖塘二店),生活服务,房产中介机构,江苏省,常州市,武进区,花园街137号B-133室,77cbd87ded562da44151c0d9,1,0,119.955423,31.712183,,life,http://api.map.baidu.com/place/detail?uid=77cbd87ded562da44151c0d9&output=html&source=placeapi_v2,,09:00-21:00,0.0,,,,,,,4,2,,,,,,,119.95524361843,31.712167664713,0
95d2e035196ef4de0d3ddadf,荣创不动产(花园街三店),生活服务,房产中介机构,江苏省,常州市,武进区,江苏省常州市武进区湖塘花园街128号g1-37号,,1,0,119.955406,31.706532,,life,http://api.map.baidu.com/place/detail?uid=95d2e035196ef4de0d3ddadf&output=html&source=placeapi_v2,,08:00-21:00,,,,,,,,3,,,,,,,,,,0
aad063a1421992a293114c53,荣创不动产(新城南都店),生活服务,房产中介机构,江苏省,常州市,武进区,江苏省常州市武进区长虹中路德禾豪景a03号,aad063a1421992a293114c53,1,0,119.947041,31.715328,,life,http://api.map.baidu.com/place/detail?uid=aad063a1421992a293114c53&output=html&source=placeapi_v2,,08:00-22:00,,,,,,,,6,,,,,,,,119.94708841744,31.715428893829,0
962efdce280c8e43a3acc4cf,常居地产(景城名轩店),生活服务,房产中介机构,江苏省,常州市,武进区,江苏省常州市武进区马元路1-2号南区,962efdce280c8e43a3acc4cf,1,0,119.95331,31.708081,4009281117,life,http://api.map.baidu.com/place/detail?uid=962efdce280c8e43a3acc4cf&output=html&source=placeapi_v2,,08:30-18:30,,,,,,,,6,,,,,,,,119.95331243406,31.708226767931,0
e131518bc41dbde458f6be49,荣创不动产(国贸店),生活服务,房产中介机构,江苏省,常州市,武进区,常州市武进区春秋路国茂新家园9号商铺,e131518bc41dbde458f6be49,1,0,119.935946,31.688874,18015811885,life,http://api.map.baidu.com/place/detail?uid=e131518bc41dbde458f6be49&output=html&source=placeapi_v2,,09:00-21:00,,,,,,,,5,,,,,,,,119.93595995007,31.689045263764,0
9c5abcee57efa7cdb11e36ba,常居地产(星河一店),生活服务,房产中介机构,江苏省,常州市,武进区,江苏省常州市武进区星河国际5区21号,9c5abcee57efa7cdb11e36ba,1,0,119.945762,31.722317,4009281117,life,http://api.map.baidu.com/place/detail?uid=9c5abcee57efa7cdb11e36ba&output=html&source=placeapi_v2,,08:30-18:30,0,,,,,,,2,0,,,,,,,119.94558136262,31.722335308618,0
59dceb40625be533a0a9348e,荣创不动产(莱蒙店),生活服务,房产中介机构,江苏省,常州市,武进区,湖塘镇花园街与永胜路交汇莱蒙城朝南店面,59dceb40625be533a0a9348e,1,0,119.954149,31.698228,"(0519)83387033,15861880067",life,http://api.map.baidu.com/place/detail?uid=59dceb40625be533a0a9348e&output=html&source=placeapi_v2,,08:30-19:30,,,,,,,,9,,,,,,,,,,0
d3e1f66bb14e5771a31de960,常居地产(金都名苑店),生活服务,房产中介机构,江苏省,常州市,武进区,江苏省常州市武进区花园街85-23号23号,,1,0,119.955372,31.704886,4009281117,life,http://api.map.baidu.com/place/detail?uid=d3e1f66bb14e5771a31de960&output=html&source=placeapi_v2,,08:30-18:30,,,,,,,,2,,,,,,,,,,0
6c5e5e3ab802450629fc48a3,悦家地产(武进运营中心),生活服务,房产中介机构,江苏省,常州市,武进区,江苏省常州市武进区湖塘镇花园街137号B-306室,6c5e5e3ab802450629fc48a3,1,0,119.95583,31.713846,,life,http://api.map.baidu.com/place/detail?uid=6c5e5e3ab802450629fc48a3&output=html&source=placeapi_v2,,,,,,,,,,3,,,,,,,,119.95583475761,31.713955856171,0
e920256cbdc9518d4e55473e,常居地产(莱蒙城旗舰店),生活服务,房产中介机构,江苏省,常州市,武进区,常州市武进区莱蒙城28-5号,e920256cbdc9518d4e55473e,1,0,119.954244,31.70135,4009281117,life,http://api.map.baidu.com/place/detail?uid=e920256cbdc9518d4e55473e&output=html&source=placeapi_v2,,08:30-18:30,,,,,,,,12,,,,,,,,,,0
141fbd3e0cc0feda78f79634,万域地产(万科城店),生活服务,房产中介机构,江苏省,常州市,武进区,江苏省常州市武进区韬中路35-18号,,1,0,119.939985,31.691669,13915897913,life,http://api.map.baidu.com/place/detail?uid=141fbd3e0cc0feda78f79634&output=html&source=placeapi_v2,,,,,,,,,,6,,,,,,,,,,0
7e602fc0803e69a0f4e73bc0,常居地产(德禾豪景店),生活服务,房产中介机构,江苏省,常州市,武进区,江苏省常州市武进区武宜中路199-66号,7e602fc0803e69a0f4e73bc0,1,0,119.945336,31.710585,4009281117,life,http://api.map.baidu.com/place/detail?uid=7e602fc0803e69a0f4e73bc0&output=html&source=placeapi_v2,,08:30-18:30,,,,,,,,4,,,,,,,,,,0
e2c4385eb322d3292ee67bc4,悦家地产(星河国际十区店),生活服务,房产中介机构,江苏省,常州市,武进区,江苏省常州市武进区湖塘镇星河城市花园10区26号,e2c4385eb322d3292ee67bc4,1,0,119.941117,31.721912,,life,http://api.map.baidu.com/place/detail?uid=e2c4385eb322d3292ee67bc4&output=html&source=placeapi_v2,,08:30-20:00,,,,,,,,1,,,,,,,,119.94109428079,31.721607640741,0
0c3bb613279deb53fbf0cba1,万域地产(莱蒙城旗舰店),生活服务,房产中介机构,江苏省,常州市,武进区,江苏省常州市武进区武宜中路199-12号铂金199-12号,0c3bb613279deb53fbf0cba1,1,0,119.943444,31.697998,,life,http://api.map.baidu.com/place/detail?uid=0c3bb613279deb53fbf0cba1&output=html&source=placeapi_v2,,,,,,,,,,6,,,,,,,,,,0
a84de61986842c76b8bd636f,常居地产(星河四店),生活服务,房产中介机构,江苏省,常州市,武进区,江苏省常州市武进区广电西路星河国际五区5幢6~7号,,1,0,119.946339,31.721466,15312396328,life,http://api.map.baidu.com/place/detail?uid=a84de61986842c76b8bd636f&output=html&source=placeapi_v2,,08:00-20:00,,,,,,,,,,,,,,,,,,0
1652ba3c9fb0f2a73b221c3d,德佑(星河店),生活服务,房产中介机构,江苏省,常州市,武进区,江苏省常州市武进区花园街168号,1652ba3c9fb0f2a73b221c3d,1,0,119.946276,31.716031,,life,http://api.map.baidu.com/place/detail?uid=1652ba3c9fb0f2a73b221c3d&output=html&source=placeapi_v2,,,0.0,,,,,,,6,1,,,,,,,,,0
c8e31e0179ac8fc54557263a,常居地产(凯尔锋度店),生活服务,房产中介机构,江苏省,常州市,武进区,江苏省常州市武进区凯尔锋度1-12号,c8e31e0179ac8fc54557263a,1,0,119.952099,31.693998,4009281117,life,http://api.map.baidu.com/place/detail?uid=c8e31e0179ac8fc54557263a&output=html&source=placeapi_v2,,08:30-18:30,,,,,,,,13,,,,,,,,119.95210171945,31.693890530796,0
ac1dd8ff043d61193310afd2,德佑地产(万科城店),生活服务,房产中介机构,江苏省,常州市,武进区,江苏省常州市武进区韬中路万科城11-5号,,1,0,119.940737,31.692812,4006899188,life,http://api.map.baidu.com/place/detail?uid=ac1dd8ff043d61193310afd2&output=html&source=placeapi_v2,,09:00-20:00,,,,,,,,10,,,,,,,,119.94088595917,31.692720906563,0
f6cea7d56c39661c1b94c667,江苏赛格置业,生活服务,房产中介机构,江苏省,常州市,武进区,江苏省常州市武进区夏城中路29号华东机电交易中心2号楼5楼,f6cea7d56c39661c1b94c667,1,0,119.981201,31.706753,(0519)88069926,life,http://api.map.baidu.com/place/detail?uid=f6cea7d56c39661c1b94c667&output=html&source=placeapi_v2,,,,,,,,,,4,,,,,,,,119.98128744539,31.706704891369,0
3e08adc7c406ec85882fb544,优居地产(路劲城店),生活服务,房产中介机构,江苏省,常州市,武进区,武进区路劲城四期17-105号,3e08adc7c406ec85882fb544,1,1,119.981756,31.720054,,life,http://api.map.baidu.com/place/detail?uid=3e08adc7c406ec85882fb544&output=html&source=placeapi_v2,,,5,,,,,,,51,5,,,,,,,119.97989372439,31.720943860552,1
69d54b5438b4b1b2f82213b4,华东机电城租售中心,生活服务,房产中介机构,江苏省,常州市,武进区,常州市武进区夏城中路马杭派出所东北侧约190米,69d54b5438b4b1b2f82213b4,1,0,119.981606,31.705899,13235165590,life,http://api.map.baidu.com/place/detail?uid=69d54b5438b4b1b2f82213b4&output=html&source=placeapi_v2,,08:00-17:30,,,,,,,,6,,,,,,,,,,0
a779eeaa86cbe5d99b68b4aa,锦晔公寓租售中心,生活服务,房产中介机构,江苏省,常州市,武进区,江苏省常州市武进区火炬南路高力汽车博览城a1栋128号,,1,0,119.978996,31.702064,"15961112400,18015097881",life,http://api.map.baidu.com/place/detail?uid=a779eeaa86cbe5d99b68b4aa&output=html&source=placeapi_v2,,09:00-18:30,,,,,,,,7,,,,,,,,,,0
fbff1e981b7af5c2b35c6a68,常居地产(御城二店),生活服务,房产中介机构,江苏省,常州市,武进区,江苏省常州市武进区虹北路288-26号,fbff1e981b7af5c2b35c6a68,1,0,119.973641,31.706731,4009281117,life,http://api.map.baidu.com/place/detail?uid=fbff1e981b7af5c2b35c6a68&output=html&source=placeapi_v2,,08:30-18:30,,,,,,,,4,,,,,,,,,,0
dc0d2b2884d8d1fd8a36ee94,位之家地产,生活服务,房产中介机构,江苏省,常州市,武进区,常州市武进区湖塘镇恒大翡翠华庭7幢126号,dc0d2b2884d8d1fd8a36ee94,1,0,119.971835,31.71129,,life,http://api.map.baidu.com/place/detail?uid=dc0d2b2884d8d1fd8a36ee94&output=html&source=placeapi_v2,,,,,,,,,,,,,,,,,,,,0
871053fe3e04bf087f29bd40,悦家地产(御城一店),生活服务,房产中介机构,江苏省,常州市,武进区,江苏省常州市武进区御城63幢101号,871053fe3e04bf087f29bd40,1,0,119.973595,31.706705,,life,http://api.map.baidu.com/place/detail?uid=871053fe3e04bf087f29bd40&output=html&source=placeapi_v2,,,,,,,,,,5,,,,,,,,119.97367285414,31.706500347804,0
d8480ee2518c9a25715e8026,常居地产御城南门店,生活服务,房产中介机构,江苏省,常州市,武进区,江苏省常州市武进区延政中大道御城骐郡常居地产御城63幢C11号,d8480ee2518c9a25715e8026,1,0,119.969985,31.704156,4009281117,life,http://api.map.baidu.com/place/detail?uid=d8480ee2518c9a25715e8026&output=html&source=placeapi_v2,,08:30-18:30,,,,,,,,2,,,,,,,,119.9700755991,31.703971594995,0
5c4f7db85ea60355ed74f80f,常居地产(香溢澜桥店),生活服务,房产中介机构,江苏省,常州市,武进区,常州市武进区广电东路109号,5c4f7db85ea60355ed74f80f,1,0,119.975424,31.721156,4009281117,life,http://api.map.baidu.com/place/detail?uid=5c4f7db85ea60355ed74f80f&output=html&source=placeapi_v2,,08:30-18:30,,,,,,,,10,,,,,,,,,,0
5b70f7776d95cbe160180913,万域地产(紫廷名苑店),生活服务,房产中介机构,江苏省,常州市,武进区,江苏省常州市武进区广电东路阳湖世纪苑南苑5栋,,1,0,119.971698,31.718402,,life,http://api.map.baidu.com/place/detail?uid=5b70f7776d95cbe160180913&output=html&source=placeapi_v2,,,,,,,,,,2,,,,,,,,,,0
3c331830564d1a628e772728,悦家地产(路劲城二店),生活服务,房产中介机构,江苏省,常州市,武进区,江苏省常州市武进区高新技术产业开发区路劲城35幢120号,3c331830564d1a628e772728,1,0,119.980267,31.721358,,life,http://api.map.baidu.com/place/detail?uid=3c331830564d1a628e772728&output=html&source=placeapi_v2,,,,,,,,,,1,,,,,,,,,,0
37a61a9bb0ce06ce07026f7b,丹龙置业有限公司,生活服务,房产中介机构,江苏省,常州市,武进区,江苏常州市武进区延政中大道16号世贸中心b座1009号,37a61a9bb0ce06ce07026f7b,1,0,119.964034,31.703664,,life,http://api.map.baidu.com/place/detail?uid=37a61a9bb0ce06ce07026f7b&output=html&source=placeapi_v2,,,,,,,,,,,,,,,,,,,,0
54f37d8df8f49da7badf8f3f,常居地产(临津花园店),生活服务,房产中介机构,江苏省,常州市,武进区,常州市武进区留道路留道社区幼儿班东南侧约240米,54f37d8df8f49da7badf8f3f,1,0,120.032989,31.714142,18921037277,life,http://api.map.baidu.com/place/detail?uid=54f37d8df8f49da7badf8f3f&output=html&source=placeapi_v2,,08:00-20:00,,,,,,,,3,,,,,,,,120.0329778156,31.714337659447,0
01e6f35d51f70fc27702697c,小雷房产(新乐路店),生活服务,房产中介机构,江苏省,常州市,武进区,江苏省常州市武进区新乐路70号,01e6f35d51f70fc27702697c,1,0,120.104777,31.704507,13506128435,life,http://api.map.baidu.com/place/detail?uid=01e6f35d51f70fc27702697c&output=html&source=placeapi_v2,,,0,,,,,,,10,1,,,,,,,120.10484420483,31.704501443607,0
5e7897bb229c4df66168588b,薛埠祥和房产中介咨询服务部,生活服务,房产中介机构,江苏省,常州市,金坛区,江苏省常州市金坛区文化路56号,5e7897bb229c4df66168588b,1,0,119.382891,31.724789,13961202391,life,http://api.map.baidu.com/place/detail?uid=5e7897bb229c4df66168588b&output=html&source=placeapi_v2,,,,,,,,,,7,1,,,,,,,,,0
28e88e15d9e5eed75fd4feb8,行宇房产中介,生活服务,房产中介机构,江苏省,常州市,金坛区,江苏常州市金坛区朱林大街111号,28e88e15d9e5eed75fd4feb8,1,0,119.465693,31.744311,15051107168,life,http://api.map.baidu.com/place/detail?uid=28e88e15d9e5eed75fd4feb8&output=html&source=placeapi_v2,,,,,,,,,,4,,,,,,,,119.46574623465,31.744170834837,0
1c975e5a8d1b4bc99868b4f0,百顺房产中介,生活服务,房产中介机构,江苏省,常州市,金坛区,江苏省常州市金坛区愚池下w路22-5号,1c975e5a8d1b4bc99868b4f0,1,0,119.57573,31.73838,,life,http://api.map.baidu.com/place/detail?uid=1c975e5a8d1b4bc99868b4f0&output=html&source=placeapi_v2,,08:00-20:30,,,,,,,,3,,,,,,,,,,0
213334d920e959768505bf4a,万信房产中介,生活服务,房产中介机构,江苏省,常州市,金坛区,江苏省常州市金坛区西环一路12号,213334d920e959768505bf4a,1,0,119.57036,31.745296,,life,http://api.map.baidu.com/place/detail?uid=213334d920e959768505bf4a&output=html&source=placeapi_v2,,,,,,,,,,5,,,,,,,,119.5705198885,31.745294919724,0
55421a216c1f99462d47330b,文化小陈房产,生活服务,房产中介机构,江苏省,常州市,金坛区,江苏省常州市金坛区常胜路文化一村5号,55421a216c1f99462d47330b,1,0,119.572545,31.747658,13813518659,life,http://api.map.baidu.com/place/detail?uid=55421a216c1f99462d47330b&output=html&source=placeapi_v2,,,,,,,,,,11,,,,,,,,119.57247833914,31.747734180479,0
6efea947543b0191d81318a4,古玩房产中介,生活服务,房产中介机构,江苏省,常州市,金坛区,江苏省常州市金坛区常胜路26号,6efea947543b0191d81318a4,1,0,119.573024,31.749128,,life,http://api.map.baidu.com/place/detail?uid=6efea947543b0191d81318a4&output=html&source=placeapi_v2,,,,,,,,,,4,,,,,,,,,,0
5f19604c6f7080419cec2b6e,万胜房产,生活服务,房产中介机构,江苏省,常州市,金坛区,江苏省常州市金坛区星城朱庄花苑b区18幢,5f19604c6f7080419cec2b6e,1,0,119.577136,31.72846,15261151230,life,http://api.map.baidu.com/place/detail?uid=5f19604c6f7080419cec2b6e&output=html&source=placeapi_v2,,08:30-16:00,,,,,,,,3,,,,,,,,119.57713378685,31.728512830413,0
04f8bd2ad09e9a61c17da214,天彦房产(南洲分店),生活服务,房产中介机构,江苏省,常州市,金坛区,江苏省常州市金坛区南洲花园6幢(金沙大道北),04f8bd2ad09e9a61c17da214,1,0,119.564218,31.730483,15051100480,life,http://api.map.baidu.com/place/detail?uid=04f8bd2ad09e9a61c17da214&output=html&source=placeapi_v2,,,,,,,,,,8,,,,,,,,119.56421475938,31.730566098229,0
18ff85c0954055554251c035,小琴信息中心,生活服务,房产中介机构,江苏省,常州市,金坛区,常州市金坛区西环一路文化一村,18ff85c0954055554251c035,1,0,119.572029,31.747631,13961101796,life,http://api.map.baidu.com/place/detail?uid=18ff85c0954055554251c035&output=html&source=placeapi_v2,,,,,,,,,,4,,,,,,,,,,0
d5fc32471208ae415d0d0229,德佑地产(文昌花园店),生活服务,房产中介机构,江苏省,常州市,金坛区,江苏省常州市金坛区东门大街235-1号,d5fc32471208ae415d0d0229,1,0,119.573179,31.750673,4006899188,life,http://api.map.baidu.com/place/detail?uid=d5fc32471208ae415d0d0229&output=html&source=placeapi_v2,,08:00-17:30,,,,,,,,4,,,,,,,,119.5731314297,31.750663647094,0
2fcaac3240117b77167643d1,源诚房产中介,生活服务,房产中介机构,江苏省,常州市,金坛区,江苏省常州市金坛区西环一路228号,2fcaac3240117b77167643d1,1,0,119.570816,31.746741,15295097263,life,http://api.map.baidu.com/place/detail?uid=2fcaac3240117b77167643d1&output=html&source=placeapi_v2,,,,,,,,,,3,,,,,,,,,,0
116a011c219c10752811d151,家汇房产,生活服务,房产中介机构,江苏省,常州市,金坛区,华苑南路与峨嵋西路交叉口旁,116a011c219c10752811d151,1,0,119.599699,31.744635,"13511663369,13961261944",life,http://api.map.baidu.com/place/detail?uid=116a011c219c10752811d151&output=html&source=placeapi_v2,,,,,,,,,,10,,,,,,,,119.59960399812,31.744641769059,0
43215eced79f6a05047ce8e0,金沙房产(左邻右里店),生活服务,房产中介机构,江苏省,常州市,金坛区,江苏省常州市开发区左邻右里北大门口,43215eced79f6a05047ce8e0,1,0,119.605859,31.741343,15195064162,life,http://api.map.baidu.com/place/detail?uid=43215eced79f6a05047ce8e0&output=html&source=placeapi_v2,,,0,,,,,,,7,1,,,,,,,,,0
346504bde5e831e432f71ddb,好运多房产,生活服务,房产中介机构,江苏省,常州市,金坛区,常州市金坛区华苑南路华城二村,346504bde5e831e432f71ddb,1,0,119.599438,31.744336,"13815002990,15151914043",life,http://api.map.baidu.com/place/detail?uid=346504bde5e831e432f71ddb&output=html&source=placeapi_v2,,06:00-21:30,,,,,,,,11,,,,,,,,119.59936059505,31.744370571281,0
44e00e0366d66c5b88f15d8a,和协房产中介,生活服务,房产中介机构,江苏省,常州市,金坛区,常州市金坛区翠北路东园小区东北侧约30米,44e00e0366d66c5b88f15d8a,1,0,119.593865,31.751128,,life,http://api.map.baidu.com/place/detail?uid=44e00e0366d66c5b88f15d8a&output=html&source=placeapi_v2,,,,,,,,,,6,,,,,,,,,,0
f0db63d79c70b544d81318a8,联帮房产中介,生活服务,房产中介机构,江苏省,常州市,金坛区,华城二村108幢7号,f0db63d79c70b544d81318a8,1,0,119.601015,31.744768,,life,http://api.map.baidu.com/place/detail?uid=f0db63d79c70b544d81318a8&output=html&source=placeapi_v2,,,,,,,,,,8,,,,,,,,119.60095400038,31.744958959824,0
b4554a86dfa8daf493114c0d,房多多房产,生活服务,房产中介机构,江苏省,常州市,金坛区,江苏省常州市金坛区峨嵋中路8-17号,b4554a86dfa8daf493114c0d,1,0,119.610506,31.744801,13921026863,life,http://api.map.baidu.com/place/detail?uid=b4554a86dfa8daf493114c0d&output=html&source=placeapi_v2,,,,,,,,,,12,,,,,,,,119.61050199623,31.744656208525,0
4059c323bb239201ae0457f1,信德房产中介所,生活服务,房产中介机构,江苏省,常州市,金坛区,江苏省常州市金坛区东门大街416号,4059c323bb239201ae0457f1,1,0,119.594093,31.747889,18961107698,life,http://api.map.baidu.com/place/detail?uid=4059c323bb239201ae0457f1&output=html&source=placeapi_v2,,08:00-20:00,,,,,,,,8,,,,,,,,,,0
aa22d143a07e870ca6c75634,牵手房产信息中心,生活服务,房产中介机构,江苏省,常州市,金坛区,金城镇东园新村702号,aa22d143a07e870ca6c75634,1,0,119.594424,31.751064,18796902203,life,http://api.map.baidu.com/place/detail?uid=aa22d143a07e870ca6c75634&output=html&source=placeapi_v2,,,,,,,,,,3,,,,,,,,,,0
3b6d34dc0fc69d1b9a00509f,21世纪不动产(金山路店),生活服务,房产中介机构,江苏省,常州市,金坛区,江苏省常州市金坛区金山路39-2526号东门店,3b6d34dc0fc69d1b9a00509f,1,0,119.598078,31.734714,13961177012,life,http://api.map.baidu.com/place/detail?uid=3b6d34dc0fc69d1b9a00509f&output=html&source=placeapi_v2,,08:30-21:00,,,,,,,,6,,,,,,,,,,0
fa2ea3b9dde945590c0e6be0,乔居地产(中梁店),生活服务,房产中介机构,江苏省,常州市,金坛区,江苏省常州市金坛区金桂路1006号,fa2ea3b9dde945590c0e6be0,1,0,119.60163,31.731145,15190525921,life,http://api.map.baidu.com/place/detail?uid=fa2ea3b9dde945590c0e6be0&output=html&source=placeapi_v2,,08:00-22:00,,,,,,,,5,,,,,,,,,,0
045e8e2a2f9cc41a81288a47,安佳房产,生活服务,房产中介机构,江苏省,常州市,金坛区,江苏省常州市金坛区东环一路513号,045e8e2a2f9cc41a81288a47,1,0,119.590931,31.741468,13813517218,life,http://api.map.baidu.com/place/detail?uid=045e8e2a2f9cc41a81288a47&output=html&source=placeapi_v2,,08:00-20:30,,,,,,,,8,,,,,,,,,,0
69d64d00dbd44ec957bfff69,易居地产(中梁店),生活服务,房产中介机构,江苏省,常州市,金坛区,江苏省常州市金坛区金桂路991号,,1,0,119.600076,31.731341,,life,http://api.map.baidu.com/place/detail?uid=69d64d00dbd44ec957bfff69&output=html&source=placeapi_v2,,,,,,,,,,3,,,,,,,,119.60018299644,31.73106382554,0
75b7f75b1145aab9246e98a4,春城房产,生活服务,房产中介机构,江苏省,常州市,金坛区,东环二路62栋9号附近,75b7f75b1145aab9246e98a4,1,0,119.597778,31.752238,13775147590,life,http://api.map.baidu.com/place/detail?uid=75b7f75b1145aab9246e98a4&output=html&source=placeapi_v2,,,,,,,,,,9,,,,,,,,119.59771172026,31.752405414463,0
57989f5687d047024354d7e9,房产中介,生活服务,房产中介机构,江苏省,常州市,金坛区,江苏省常州市金坛区新城路华达名都334号,57989f5687d047024354d7e9,1,0,119.609723,31.734794,,life,http://api.map.baidu.com/place/detail?uid=57989f5687d047024354d7e9&output=html&source=placeapi_v2,,,,,,,,,,5,,,,,,,,,,0
1194503d6fe31fb6e8e5824a,园中房产信息,生活服务,房产中介机构,江苏省,常州市,金坛区,常州市金坛区旺翠路东园小区,1194503d6fe31fb6e8e5824a,1,0,119.593863,31.750219,15906148113,life,http://api.map.baidu.com/place/detail?uid=1194503d6fe31fb6e8e5824a&output=html&source=placeapi_v2,,09:00-18:30,,,,,,,,4,,,,,,,,,,0
eee873eb4e8de6971ef74d45,鑫运房产,生活服务,房产中介机构,江苏省,常州市,金坛区,江苏省常州市金坛区河滨东路河滨小学西北侧约40米,,1,0,119.58347,31.740046,15251986867,life,http://api.map.baidu.com/place/detail?uid=eee873eb4e8de6971ef74d45&output=html&source=placeapi_v2,,,,,,,,,,3,,,,,,,,,,0
d7daef940edbf28f41d63e61,日出中介,生活服务,房产中介机构,江苏省,常州市,金坛区,常州市金坛区育才路华苑二村-A区南侧约40米,d7daef940edbf28f41d63e61,1,0,119.60113,31.750407,15366819685,life,http://api.map.baidu.com/place/detail?uid=d7daef940edbf28f41d63e61&output=html&source=placeapi_v2,,,,,,,,,,5,,,,,,,,,,0
51626c01e49a963b86420e8e,全城不动产,生活服务,房产中介机构,江苏省,常州市,金坛区,江苏省常州市金坛区峨嵋中路658号,51626c01e49a963b86420e8e,1,0,119.604572,31.745007,"(0519)82111102,(0519)82115112",life,http://api.map.baidu.com/place/detail?uid=51626c01e49a963b86420e8e&output=html&source=placeapi_v2,,,,,,,,,,4,,,,,,,,,,0
3b5c8cccb5971d80f02d8319,鑫之隆地产,生活服务,房产中介机构,江苏省,常州市,金坛区,江苏省常州市金坛区南环一路702号,3b5c8cccb5971d80f02d8319,1,0,119.599793,31.741543,14752887050,life,http://api.map.baidu.com/place/detail?uid=3b5c8cccb5971d80f02d8319&output=html&source=placeapi_v2,,08:00-21:00,,,,,,,,8,,,,,,,,119.59979752636,31.741514333632,0
81a36101a4daeedc8d77272c,易诚置业,生活服务,房产中介机构,江苏省,常州市,金坛区,江苏省常州市金坛区北贤路509号,81a36101a4daeedc8d77272c,1,0,119.608463,31.734725,13915819328,life,http://api.map.baidu.com/place/detail?uid=81a36101a4daeedc8d77272c&output=html&source=placeapi_v2,,,,,,,,,,6,,,,,,,,,,0
93a4dfc433822a6b081cc781,蚂蚁置家,生活服务,房产中介机构,江苏省,常州市,金坛区,江苏省常州市金坛区金山路39-86号,93a4dfc433822a6b081cc781,1,0,119.601236,31.735033,(0519)82525188,life,http://api.map.baidu.com/place/detail?uid=93a4dfc433822a6b081cc781&output=html&source=placeapi_v2,,,,,,,,,,5,,,,,,,,,,0
9ea9a72791e857920a1cc75a,帮你安家(碧桂园店),生活服务,房产中介机构,江苏省,常州市,金坛区,江苏省常州市金坛区北贤路980号,9ea9a72791e857920a1cc75a,1,0,119.599658,31.733706,18796909226,life,http://api.map.baidu.com/place/detail?uid=9ea9a72791e857920a1cc75a&output=html&source=placeapi_v2,,,,,,,,,,4,,,,,,,,,,0
9957c38e7866ee255cbe86c1,中景地产营销中心,生活服务,房产中介机构,江苏省,常州市,金坛区,江苏省常州市金坛区金桂路1058号,9957c38e7866ee255cbe86c1,1,0,119.598142,31.730244,(0519)82900888,life,http://api.map.baidu.com/place/detail?uid=9957c38e7866ee255cbe86c1&output=html&source=placeapi_v2,,,0,,,,,,,4,1,,,,,,,119.59798273813,31.730246828382,0
7061d7d978f4e2831c389497,美佳房产(南环二路店),生活服务,房产中介机构,江苏省,常州市,金坛区,江苏省常州市金坛区南二环东路1356号,7061d7d978f4e2831c389497,1,0,119.632093,31.739144,"15051105605,18861200733",life,http://api.map.baidu.com/place/detail?uid=7061d7d978f4e2831c389497&output=html&source=placeapi_v2,,08:00-20:00,,,,,,,,8,,,,,,,,119.63213064172,31.739203943408,0
665557b989fc631785420eb3,21世纪不动产(丰田路店),生活服务,房产中介机构,江苏省,常州市,金坛区,江苏省常州市金坛区南二环东路808-3号,,1,0,119.632935,31.745796,4006509721,life,http://api.map.baidu.com/place/detail?uid=665557b989fc631785420eb3&output=html&source=placeapi_v2,,08:30-19:00,,,,,,,,,,,,,,,,119.63290527212,31.745977561926,0
75470cee9a5a030dcae33c50,满意房产(吾悦分公司),生活服务,房产中介机构,江苏省,常州市,武进区,江苏省常州市武进区米字路3号,75470cee9a5a030dcae33c50,1,0,119.949883,31.734694,(0519)86315137,life,http://api.map.baidu.com/place/detail?uid=75470cee9a5a030dcae33c50&output=html&source=placeapi_v2,,,,,,,,,,5,,,,,,,,,,0
dafbc00a937584d658f6be5d,信文房产,生活服务,房产中介机构,江苏省,常州市,武进区,江苏省常州市武进区定安中路11-3号,dafbc00a937584d658f6be5d,1,0,119.957267,31.725012,"(0519)86570861,13358190763",life,http://api.map.baidu.com/place/detail?uid=dafbc00a937584d658f6be5d&output=html&source=placeapi_v2,,08:00-17:00,0,,,,,,,8,2,,,,,,,119.95730841856,31.725138151141,0
4f45d042ea6f2c02c8213dff,常发珑h售楼中心,生活服务,房产中介机构,江苏省,常州市,武进区,玉塘路与人民中路交叉路口往南约150米湖塘镇吾悦广场斜对面,4f45d042ea6f2c02c8213dff,1,0,119.945526,31.730853,(0519)81699999,life,http://api.map.baidu.com/place/detail?uid=4f45d042ea6f2c02c8213dff&output=html&source=placeapi_v2,,,5.0,,,,,,,1,1,,,,,,,119.94613722868,31.730957210318,0
e5e640b033822e3c88b988fe,满意房产(万达分公司),生活服务,房产中介机构,江苏省,常州市,武进区,常州市武进区聚湖东路华都馨苑11-9号,e5e640b033822e3c88b988fe,1,0,119.952896,31.740252,,life,http://api.map.baidu.com/place/detail?uid=e5e640b033822e3c88b988fe&output=html&source=placeapi_v2,,,0.0,,,,,,,8,,,,,,,,,,0
f419934fe9e20c982ce67b23,常居地产(湾里店),生活服务,房产中介机构,江苏省,常州市,武进区,江苏省常州市武进区花园街111号,f419934fe9e20c982ce67b23,1,0,119.955114,31.723412,4009281117,life,http://api.map.baidu.com/place/detail?uid=f419934fe9e20c982ce67b23&output=html&source=placeapi_v2,,08:30-18:30,,,,,,,,10,,,,,,,,119.95524400021,31.723400955428,0
96f2e3c7fb9d0ca19ee32182,21世纪不动产(吾悦广场店),生活服务,房产中介机构,江苏省,常州市,武进区,江苏省常州市武进区吾悦广场19-113室,96f2e3c7fb9d0ca19ee32182,1,0,119.94632,31.734639,13961168859,life,http://api.map.baidu.com/place/detail?uid=96f2e3c7fb9d0ca19ee32182&output=html&source=placeapi_v2,,10:00-22:00,0,,,,,,,14,0,,,,,,,,,0
f1868936c338ab3c6d20b94f,荣创不动产(花园街店),生活服务,房产中介机构,江苏省,常州市,武进区,江苏省常州市武进区古方路343号,f1868936c338ab3c6d20b94f,1,0,119.956715,31.72887,13961408595,life,http://api.map.baidu.com/place/detail?uid=f1868936c338ab3c6d20b94f&output=html&source=placeapi_v2,,08:30-20:30,,,,,,,,9,,,,,,,,,,0
ad26fd6ffda0fa9217c8f626,荣创不动产(运营中心),生活服务,房产中介机构,江苏省,常州市,武进区,江苏省常州市武进区坝头路60号,ad26fd6ffda0fa9217c8f626,1,0,119.949237,31.72235,18951222162,life,http://api.map.baidu.com/place/detail?uid=ad26fd6ffda0fa9217c8f626&output=html&source=placeapi_v2,,08:00-20:00,,,,,,,,,,,,,,,,,,0
037a347973c92c038605bf06,常居地产(玉兰广场六店),生活服务,房产中介机构,江苏省,常州市,武进区,江苏省常州市武进区长沟路玉兰广场1期21幢,037a347973c92c038605bf06,1,0,119.940314,31.735481,4009281117,life,http://api.map.baidu.com/place/detail?uid=037a347973c92c038605bf06&output=html&source=placeapi_v2,,08:30-18:30,,,,,,,,5,,,,,,,,,,0
66dd380e74475ca2c4f0251f,荣创不动产(御龙山店),生活服务,房产中介机构,江苏省,常州市,武进区,江苏省常州市武进区四季青服装城B座6楼615室,66dd380e74475ca2c4f0251f,1,0,119.945052,31.72622,18951222162,life,http://api.map.baidu.com/place/detail?uid=66dd380e74475ca2c4f0251f&output=html&source=placeapi_v2,,,,,,,,,,9,,,,,,,,119.94503751589,31.726026689323,0
a23f071a78658b6558bbbc4c,上城地产(紫金城分公司店),生活服务,房产中介机构,江苏省,常州市,武进区,紫金城22幢9号,,1,0,119.946629,31.729244,,life,http://api.map.baidu.com/place/detail?uid=a23f071a78658b6558bbbc4c&output=html&source=placeapi_v2,,,,,,,,,,7,,,,,,,,,,0
f96af55927b775dc97ec844b,荣创不动产(华都馨苑店),生活服务,房产中介机构,江苏省,常州市,武进区,江苏省常州市武进区大通路2-25号,f96af55927b775dc97ec844b,1,0,119.952229,31.737737,13585451893,life,http://api.map.baidu.com/place/detail?uid=f96af55927b775dc97ec844b&output=html&source=placeapi_v2,,,,,,,,,,10,,,,,,,,119.95227122881,31.737805719285,0
170048fe5dc3b31e631c67aa,鑫耀房产,生活服务,房产中介机构,江苏省,常州市,武进区,常州市武进区花东街花东二村-A区,,1,0,119.958849,31.727484,,life,http://api.map.baidu.com/place/detail?uid=170048fe5dc3b31e631c67aa&output=html&source=placeapi_v2,,08:30-20:00,,,,,,,,,,,,,,,,,,0
a898b1440046008b6f3e1bc7,常居地产(定安路一店),生活服务,房产中介机构,江苏省,常州市,武进区,江苏省常州市武进区定安中路156号,a898b1440046008b6f3e1bc7,1,0,119.957429,31.724937,4009281117,life,http://api.map.baidu.com/place/detail?uid=a898b1440046008b6f3e1bc7&output=html&source=placeapi_v2,,08:30-18:30,,,,,,,,6,,,,,,,,,,0
ae32f468be28f1e0dbd891e3,荣创不动产(阳湖广场店),生活服务,房产中介机构,江苏省,常州市,武进区,常州市武进区湖塘街服务新村西北侧,ae32f468be28f1e0dbd891e3,1,0,119.951407,31.733378,18251210868,life,http://api.map.baidu.com/place/detail?uid=ae32f468be28f1e0dbd891e3&output=html&source=placeapi_v2,,08:30-20:00,,,,,,,,,,,,,,,,,,0
9c5abcee57efa7cdb11e36ba,常居地产(星河一店),生活服务,房产中介机构,江苏省,常州市,武进区,江苏省常州市武进区星河国际5区21号,9c5abcee57efa7cdb11e36ba,1,0,119.945762,31.722317,4009281117,life,http://api.map.baidu.com/place/detail?uid=9c5abcee57efa7cdb11e36ba&output=html&source=placeapi_v2,,08:30-18:30,0,,,,,,,2,0,,,,,,,119.94558136262,31.722335308618,0
e8e23bca8a2e67d2e9f8530f,悦家地产(长河花园店),生活服务,房产中介机构,江苏省,常州市,武进区,江苏省常州市武进区湖塘镇长河花园15-3号,e8e23bca8a2e67d2e9f8530f,1,0,119.93652,31.724023,,life,http://api.map.baidu.com/place/detail?uid=e8e23bca8a2e67d2e9f8530f&output=html&source=placeapi_v2,,,,,,,,,,6,,,,,,,,119.93653082951,31.724226002615,0
cfd3f1ad19df72500869d904,常居地产(星河二店),生活服务,房产中介机构,江苏省,常州市,武进区,江苏省常州市武进区定安中路515号,cfd3f1ad19df72500869d904,1,0,119.943617,31.72534,4009281117,life,http://api.map.baidu.com/place/detail?uid=cfd3f1ad19df72500869d904&output=html&source=placeapi_v2,,08:30-18:30,,,,,,,,5,,,,,,,,,,0
20b3971b5367ecd5ce04ef15,常居地产(紫金城店),生活服务,房产中介机构,江苏省,常州市,武进区,江苏省常州市武进区紫金城24幢2号,20b3971b5367ecd5ce04ef15,1,0,119.94764,31.729103,4009281117,life,http://api.map.baidu.com/place/detail?uid=20b3971b5367ecd5ce04ef15&output=html&source=placeapi_v2,,08:30-18:30,,,,,,,,8,,,,,,,,,,0
bbd0b793573fb8792bb97c00,荣创不动产(紫金城店),生活服务,房产中介机构,江苏省,常州市,武进区,江苏省常州市武进区武宜中路199-18号紫金城4102号,bbd0b793573fb8792bb97c00,1,0,119.948903,31.72847,18625290308,life,http://api.map.baidu.com/place/detail?uid=bbd0b793573fb8792bb97c00&output=html&source=placeapi_v2,,08:30-20:30,5,,,,,,,13,1,,,,,,,,,0
eb47ed76be1ee351631c67ef,德锦行地产,生活服务,房产中介机构,江苏省,常州市,武进区,江苏省常州市武进区武进大桥下绿地外滩1号d6号,eb47ed76be1ee351631c67ef,1,0,119.95106,31.750864,,life,http://api.map.baidu.com/place/detail?uid=eb47ed76be1ee351631c67ef&output=html&source=placeapi_v2,,,,,,,,,,,,,,,,,,119.95067078705,31.750913530521,0
5f983248ece409f696f08c14,武进万达租售中心(同城地产),生活服务,房产中介机构,江苏省,常州市,武进区,常州市武进区万达公寓B1幢3楼物业办公室内,5f983248ece409f696f08c14,1,0,119.955118,31.736684,15861166699,life,http://api.map.baidu.com/place/detail?uid=5f983248ece409f696f08c14&output=html&source=placeapi_v2,,,,,,,,,,,,,,,,,,,,0
0abf02232927744d8afc0671,常居地产(新城域店),生活服务,房产中介机构,江苏省,常州市,武进区,江苏常州市武进区夏城西巷18-5号,0abf02232927744d8afc0671,1,0,119.982065,31.735263,4009281117,life,http://api.map.baidu.com/place/detail?uid=0abf02232927744d8afc0671&output=html&source=placeapi_v2,,08:30-18:30,0.0,,,,,,,13,,,,,,,,,,0
09f63a1990e53614f6c59cb8,融侨房产,生活服务,房产中介机构,江苏省,常州市,武进区,江苏省常州市武进区星火路金域丹堤13-2号,09f63a1990e53614f6c59cb8,1,0,119.975468,31.737953,15961284356,life,http://api.map.baidu.com/place/detail?uid=09f63a1990e53614f6c59cb8&output=html&source=placeapi_v2,,08:00-20:00,,,,,,,,13,,,,,,,,119.97580362083,31.737937060874,0
14bb80eb5ca8ad2a9122e06a,常居地产(人民路一店),生活服务,房产中介机构,江苏省,常州市,武进区,江苏省常州市武进区人民中路420号,14bb80eb5ca8ad2a9122e06a,1,0,119.966835,31.73376,4009281117,life,http://api.map.baidu.com/place/detail?uid=14bb80eb5ca8ad2a9122e06a&output=html&source=placeapi_v2,,08:30-18:30,,,,,,,,18,,,,,,,,119.96679319615,31.733585535779,0
f4f11a478af12c3603ec013f,荣创不动产(新城域店),生活服务,房产中介机构,江苏省,常州市,武进区,常州市武进区大通东路新城域花园西区北门东侧约30米,f4f11a478af12c3603ec013f,1,0,119.980447,31.736385,,life,http://api.map.baidu.com/place/detail?uid=f4f11a478af12c3603ec013f&output=html&source=placeapi_v2,,,,,,,,,,11,,,,,,,,,,0
e0a2409582a2301ce0110337,满意房产(湖塘分公司),生活服务,房产中介机构,江苏省,常州市,武进区,江苏省常州市武进区花东三村321号,e0a2409582a2301ce0110337,1,0,119.965174,31.739594,"(0519)86315137,13775131611",life,http://api.map.baidu.com/place/detail?uid=e0a2409582a2301ce0110337&output=html&source=placeapi_v2,,08:30-21:00,0,,,,,,,11,0,,,,,,,119.96516696405,31.739474411075,0
f8555b513698b3ae4e554704,美庐房产,生活服务,房产中介机构,江苏省,常州市,天宁区,江苏省常州市天宁区丽华二村7栋对面,f8555b513698b3ae4e554704,1,0,119.981726,31.752651,13775058990,life,http://api.map.baidu.com/place/detail?uid=f8555b513698b3ae4e554704&output=html&source=placeapi_v2,,,,,,,,,,6,,,,,,,,,,0
c673e900d0dfbdb0cd04efeb,满意房产(丽华分公司),生活服务,房产中介机构,江苏省,常州市,天宁区,茶山街道丽华二村10幢戊单元102室,,1,0,119.981695,31.752689,17016030000,life,http://api.map.baidu.com/place/detail?uid=c673e900d0dfbdb0cd04efeb&output=html&source=placeapi_v2,,09:00-18:30,,,,,,,,13,,,,,,,,119.98200545919,31.753494977122,0
095aa1f2fcda1144fe0eb00e,满意房产(人民中路店),生活服务,房产中介机构,江苏省,常州市,武进区,江苏省常州市武进区人民中路484号,095aa1f2fcda1144fe0eb00e,1,0,119.96531,31.734012,18052538337,life,http://api.map.baidu.com/place/detail?uid=095aa1f2fcda1144fe0eb00e&output=html&source=placeapi_v2,,08:00-21:00,,,,,,,,27,,,,,,,,119.96527106688,31.733855422682,0
3e08adc7c406ec85882fb544,优居地产(路劲城店),生活服务,房产中介机构,江苏省,常州市,武进区,武进区路劲城四期17-105号,3e08adc7c406ec85882fb544,1,1,119.981756,31.720054,,life,http://api.map.baidu.com/place/detail?uid=3e08adc7c406ec85882fb544&output=html&source=placeapi_v2,,,5,,,,,,,51,5,,,,,,,119.97989372439,31.720943860552,1
a7391041930c8b91d0ff231b,常居地产(新城域二店),生活服务,房产中介机构,江苏省,常州市,武进区,江苏省常州市武进区大通东路新城春天里东北侧约220米,a7391041930c8b91d0ff231b,1,0,119.979693,31.736339,4009281117,life,http://api.map.baidu.com/place/detail?uid=a7391041930c8b91d0ff231b&output=html&source=placeapi_v2,,08:30-18:30,,,,,,,,9,,,,,,,,,,0
7e7d24ea1c7616c8441a3284,美屋地产,生活服务,房产中介机构,江苏省,常州市,武进区,江苏省常州市武进区夏城北路192-7号小区2楼,7e7d24ea1c7616c8441a3284,1,0,119.98537,31.734711,,life,http://api.map.baidu.com/place/detail?uid=7e7d24ea1c7616c8441a3284&output=html&source=placeapi_v2,,,,,,,,,,10,,,,,,,,119.98520561058,31.734708197734,0
329bdd7e8aea4978c1f1cfca,常居地产(四季新城店),生活服务,房产中介机构,江苏省,常州市,武进区,江苏省常州市武进区聚湖东路382号,329bdd7e8aea4978c1f1cfca,1,0,119.966956,31.739521,4009281117,life,http://api.map.baidu.com/place/detail?uid=329bdd7e8aea4978c1f1cfca&output=html&source=placeapi_v2,,08:30-18:30,0.0,,,,,,,13,,,,,,,,119.9669498274,31.739403255521,0
8e0fee08387fc82d59bbbcfc,易居房友(中吴大道店),生活服务,房产中介机构,江苏省,常州市,天宁区,常州市天宁区光华路3号,8e0fee08387fc82d59bbbcfc,1,0,119.982198,31.754873,,life,http://api.map.baidu.com/place/detail?uid=8e0fee08387fc82d59bbbcfc&output=html&source=placeapi_v2,,,,,,,,,,13,,,,,,,,,,0
a98d654d8ac691fb33169bf9,21世纪不动产(聚湖东路店),生活服务,房产中介机构,江苏省,常州市,武进区,江苏省常州市武进区降子路150号万骏金堤花苑1幢13号,a98d654d8ac691fb33169bf9,1,0,119.974944,31.738765,13616124544,life,http://api.map.baidu.com/place/detail?uid=a98d654d8ac691fb33169bf9&output=html&source=placeapi_v2,,08:45-21:00,,,,,,,,6,,,,,,,,119.97495563031,31.739037428997,0
77c38210d13629a940e192ee,广居不动产(金域丹堤分公司),生活服务,房产中介机构,江苏省,常州市,武进区,常州市武进区降子路万骏・金域丹堤西北侧,77c38210d13629a940e192ee,1,0,119.971722,31.738624,,life,http://api.map.baidu.com/place/detail?uid=77c38210d13629a940e192ee&output=html&source=placeapi_v2,,08:30-20:30,,,,,,,,10,,,,,,,,,,0
a9eb31dd2715b61a1894c6b9,荣创不动产(花园街店),生活服务,房产中介机构,江苏省,常州市,武进区,江苏省常州市武进区人民中路406号,a9eb31dd2715b61a1894c6b9,1,0,119.964633,31.731316,13961408595,life,http://api.map.baidu.com/place/detail?uid=a9eb31dd2715b61a1894c6b9&output=html&source=placeapi_v2,,,,,,,,,,10,,,,,,,,,,0
8c1664c29993f17b0e3dda83,常居地产(春天里一店),生活服务,房产中介机构,江苏省,常州市,武进区,常州市武进区湖塘镇人民路新城春天里小区南门口一楼商铺,8c1664c29993f17b0e3dda83,1,0,119.97739,31.732049,4009281117,life,http://api.map.baidu.com/place/detail?uid=8c1664c29993f17b0e3dda83&output=html&source=placeapi_v2,,08:30-18:30,,,,,,,,11,,,,,,,,,,0
a801de39c2df25f6c72ba15d,万域地产(郡未来店),生活服务,房产中介机构,江苏省,常州市,武进区,江苏省常州市武进区人民东路140号郡未来花园20-118号,a801de39c2df25f6c72ba15d,1,0,119.978059,31.731185,18018279828,life,http://api.map.baidu.com/place/detail?uid=a801de39c2df25f6c72ba15d&output=html&source=placeapi_v2,,,,,,,,,,9,,,,,,,,,,0
5c4f7db85ea60355ed74f80f,常居地产(香溢澜桥店),生活服务,房产中介机构,江苏省,常州市,武进区,常州市武进区广电东路109号,5c4f7db85ea60355ed74f80f,1,0,119.975424,31.721156,4009281117,life,http://api.map.baidu.com/place/detail?uid=5c4f7db85ea60355ed74f80f&output=html&source=placeapi_v2,,08:30-18:30,,,,,,,,10,,,,,,,,,,0
52c81a21d006a8533c9a5e1e,悦家地产(中天名园旗舰店),生活服务,房产中介机构,江苏省,常州市,武进区,江苏省常州市武进区人民东路28-51号中天名园52号,52c81a21d006a8533c9a5e1e,1,0,119.97331,31.73257,,life,http://api.map.baidu.com/place/detail?uid=52c81a21d006a8533c9a5e1e&output=html&source=placeapi_v2,,08:30-21:00,,,,,,,,1,,,,,,,,,,0
cebd5f77a3bdff5b14c8f6c7,常居地产(常戚路),生活服务,房产中介机构,江苏省,常州市,武进区,红梅街道新堂路外国语学校往西50米,cebd5f77a3bdff5b14c8f6c7,1,0,120.064161,31.731663,4009281117,life,http://api.map.baidu.com/place/detail?uid=cebd5f77a3bdff5b14c8f6c7&output=html&source=placeapi_v2,,08:30-18:30,,,,,,,,8,,,,,,,,,,0
86391940115f802c36b06cd8,湖港房产,生活服务,房产中介机构,江苏省,常州市,武进区,江苏省常州市武进区劳动东路288号,,1,0,120.053274,31.726767,,life,http://api.map.baidu.com/place/detail?uid=86391940115f802c36b06cd8&output=html&source=placeapi_v2,,,,,,,,,,,,,,,,,,120.05299726391,31.726767501459,0
8cc1daa684ce4eaa88b988fe,常居地产(河苑二店),生活服务,房产中介机构,江苏省,常州市,武进区,江苏省常州市武进区劳动东路河苑家园1杠101号,8cc1daa684ce4eaa88b988fe,1,0,120.05748,31.727899,,life,http://api.map.baidu.com/place/detail?uid=8cc1daa684ce4eaa88b988fe&output=html&source=placeapi_v2,,08:00-20:00,,,,,,,,2,,,,,,,,120.05759206749,31.728060417793,0
02d51a47126080be843304f0,常居地产(河苑家园北苑店),生活服务,房产中介机构,江苏省,常州市,武进区,江苏省常州市武进区今创路河苑家园北苑4525号,02d51a47126080be843304f0,1,0,120.057906,31.7295,4009281117,life,http://api.map.baidu.com/place/detail?uid=02d51a47126080be843304f0&output=html&source=placeapi_v2,,08:30-18:30,,,,,,,,6,,,,,,,,120.05777162259,31.729568299364,0
9cd4374b022d6e044e776eea,成创地产(河苑分店),生活服务,房产中介机构,江苏省,常州市,武进区,江苏省常州市武进区河苑路湖港名居106号,9cd4374b022d6e044e776eea,1,0,120.058812,31.725484,,life,http://api.map.baidu.com/place/detail?uid=9cd4374b022d6e044e776eea&output=html&source=placeapi_v2,,,,,,,,,,7,,,,,,,,120.05882553708,31.725668547716,0
c09debb64fb80375f2193734,五星房产中介(邮堂庙路店),生活服务,房产中介机构,江苏省,常州市,金坛区,江苏省常州市金坛区邮堂庙路162-1号,c09debb64fb80375f2193734,1,0,119.565697,31.758267,"13775158078,13961104250",life,http://api.map.baidu.com/place/detail?uid=c09debb64fb80375f2193734&output=html&source=placeapi_v2,,,,,,,,,,14,,,,,,,,119.56553097009,31.758227763076,0
cf64f1507a398cd01676434a,正大方圆房产中介,生活服务,房产中介机构,江苏省,常州市,金坛区,江苏省常州市金坛区上庄农民公寓7号,cf64f1507a398cd01676434a,1,0,119.571736,31.754656,13961263508,life,http://api.map.baidu.com/place/detail?uid=cf64f1507a398cd01676434a&output=html&source=placeapi_v2,,09:00-18:30,,,,,,,,5,,,,,,,,119.57180661503,31.754671685994,0
817d45c7260777828415413e,虹翔中介,生活服务,房产中介机构,江苏省,常州市,金坛区,常州市金坛区上庄路丹丽花园南侧约50米,817d45c7260777828415413e,1,0,119.578445,31.758351,18961201821,life,http://api.map.baidu.com/place/detail?uid=817d45c7260777828415413e&output=html&source=placeapi_v2,,,,,,,,,,6,,,,,,,,,,0
ce1fad09018f63db940319b0,温馨房产中介,生活服务,房产中介机构,江苏省,常州市,金坛区,江苏省常州市金坛区上庄路24号,ce1fad09018f63db940319b0,1,0,119.578543,31.758131,18362291507,life,http://api.map.baidu.com/place/detail?uid=ce1fad09018f63db940319b0&output=html&source=placeapi_v2,,,,,,,,,,14,,,,,,,,119.57837305134,31.7580578289,0
acef95b75ea35e14d42ce2db,天航房产中介,生活服务,房产中介机构,江苏省,常州市,金坛区,江苏省常州市金坛区城北小区东(上庄路)56号,acef95b75ea35e14d42ce2db,1,0,119.577594,31.759084,"13776383103,13914309196",life,http://api.map.baidu.com/place/detail?uid=acef95b75ea35e14d42ce2db&output=html&source=placeapi_v2,,,,,,,,,,4,,,,,,,,119.57774419796,31.759147049206,0
16981e081b068bbaeddfcadb,21世纪不动产(西城路店),生活服务,房产中介机构,江苏省,常州市,金坛区,江苏省常州市金坛区西城路72号,16981e081b068bbaeddfcadb,1,0,119.574208,31.76139,4006509721,life,http://api.map.baidu.com/place/detail?uid=16981e081b068bbaeddfcadb&output=html&source=placeapi_v2,,,,,,,,,,7,,,,,,,,119.573964962,31.761347296097,0
96096e65a46db9e21fe99920,爱屋吉屋(北环西路店),生活服务,房产中介机构,江苏省,常州市,金坛区,江苏省常州市金坛区北环西路299号6楼,96096e65a46db9e21fe99920,1,0,119.561705,31.754877,,life,http://api.map.baidu.com/place/detail?uid=96096e65a46db9e21fe99920&output=html&source=placeapi_v2,,,,,,,,,,,,,,,,,,119.56170579119,31.754930824261,0
554bc39c3f310c8aeb12e449,康宁房产,生活服务,房产中介机构,江苏省,常州市,金坛区,江苏省常州市金坛区春风路95号,554bc39c3f310c8aeb12e449,1,0,119.587248,31.757121,13815008270,life,http://api.map.baidu.com/place/detail?uid=554bc39c3f310c8aeb12e449&output=html&source=placeapi_v2,,,,,,,,,,10,,,,,,,,119.58735120618,31.757059640268,0
ef57f875a53543a2ad080f49,春城房产,生活服务,房产中介机构,江苏省,常州市,金坛区,江苏省常州市金坛区春风路80号,ef57f875a53543a2ad080f49,1,0,119.587029,31.756896,13775147590,life,http://api.map.baidu.com/place/detail?uid=ef57f875a53543a2ad080f49&output=html&source=placeapi_v2,,,,,,,,,,4,,,,,,,,119.58714392219,31.75682451265,0
8369a39e0914cfb1223bf2f7,二村房产中介,生活服务,房产中介机构,江苏省,常州市,金坛区,常州市金坛区春风南路春风新村(春风南路)东南侧,8369a39e0914cfb1223bf2f7,1,0,119.586464,31.757922,13814781142,life,http://api.map.baidu.com/place/detail?uid=8369a39e0914cfb1223bf2f7&output=html&source=placeapi_v2,,,,,,,,,,10,,,,,,,,119.58647567631,31.757936845984,0
ed0a7a6c8a083a0cfea77853,华庭嘉园-销售中心,生活服务,房产中介机构,江苏省,常州市,金坛区,江苏省常州市金坛区晨风路61号,ed0a7a6c8a083a0cfea77853,1,0,119.610718,31.7594,(0519)80192222,life,http://api.map.baidu.com/place/detail?uid=ed0a7a6c8a083a0cfea77853&output=html&source=placeapi_v2,,,,,,,,,,10,,,,,,,,119.61074980817,31.759341949624,0
75b7f75b1145aab9246e98a4,春城房产,生活服务,房产中介机构,江苏省,常州市,金坛区,东环二路62栋9号附近,75b7f75b1145aab9246e98a4,1,0,119.597778,31.752238,13775147590,life,http://api.map.baidu.com/place/detail?uid=75b7f75b1145aab9246e98a4&output=html&source=placeapi_v2,,,,,,,,,,9,,,,,,,,119.59771172026,31.752405414463,0
d7daef940edbf28f41d63e61,日出中介,生活服务,房产中介机构,江苏省,常州市,金坛区,常州市金坛区育才路华苑二村-A区南侧约40米,d7daef940edbf28f41d63e61,1,0,119.60113,31.750407,15366819685,life,http://api.map.baidu.com/place/detail?uid=d7daef940edbf28f41d63e61&output=html&source=placeapi_v2,,,,,,,,,,5,,,,,,,,,,0
c4f29f489fc3c3cab05c6a54,常居地产(谷华城旗舰店),生活服务,房产中介机构,江苏省,常州市,金坛区,江苏省常州市金坛区北环东路38-12号,c4f29f489fc3c3cab05c6a54,1,0,119.592339,31.757711,4009281117,life,http://api.map.baidu.com/place/detail?uid=c4f29f489fc3c3cab05c6a54&output=html&source=placeapi_v2,,08:30-18:30,,,,,,,,8,,,,,,,,119.59253585908,31.757825414763,0
ccec52a847d6de2fa21de967,金坛田平信息部,生活服务,房产中介机构,江苏省,常州市,金坛区,常州市金坛区供电路锦江之星品尚(常州金坛客运站店)西南侧约130米,ccec52a847d6de2fa21de967,1,0,119.594675,31.753052,13861103323,life,http://api.map.baidu.com/place/detail?uid=ccec52a847d6de2fa21de967&output=html&source=placeapi_v2,,,,,,,,,,1,,,,,,,,119.59475761833,31.752948873965,0
e57050f542718f175fbe867f,香格里拉山庄-接待中心,生活服务,房产中介机构,江苏省,常州市,金坛区,江苏省常州市金坛区汇福路278号,e57050f542718f175fbe867f,1,0,119.655663,31.76019,,life,http://api.map.baidu.com/place/detail?uid=e57050f542718f175fbe867f&output=html&source=placeapi_v2,,,,,,,,,,1,,,,,,,,,,0
036e6d00ca5ac434d518b7ce,万科房产(白云南路店),生活服务,房产中介机构,江苏省,常州市,钟楼区,常州市钟楼区桂花园14幢商业13号,036e6d00ca5ac434d518b7ce,1,0,119.919131,31.771013,15380028160,life,http://api.map.baidu.com/place/detail?uid=036e6d00ca5ac434d518b7ce&output=html&source=placeapi_v2,,08:30-21:00,0.0,,,,,,,10,,,,,,,,119.91916204935,31.771006638376,0
5c1a29b4a81b53089ee321e6,路劲・铂隽售楼处,生活服务,房产中介机构,江苏省,常州市,钟楼区,江苏省常州市钟楼区清潭路538号,5c1a29b4a81b53089ee321e6,1,0,119.914566,31.773451,,life,http://api.map.baidu.com/place/detail?uid=5c1a29b4a81b53089ee321e6&output=html&source=placeapi_v2,,,,,,,,,,,,,,,,,,119.91455531502,31.773329922479,0
549de2d31e335b8184154145,21世纪不动产(桂花园店),生活服务,房产中介机构,江苏省,常州市,钟楼区,江苏省常州市钟楼区白云南路19-2号,549de2d31e335b8184154145,1,0,119.919219,31.771221,(0519)83887272,life,http://api.map.baidu.com/place/detail?uid=549de2d31e335b8184154145&output=html&source=placeapi_v2,,08:00-20:00,5,,,,,,,11,1,,,,,,,119.91922282062,31.771219790081,0
d4ad170e6b7b182b2d4733f9,居悦房产(长江中路店),生活服务,房产中介机构,江苏省,常州市,钟楼区,江苏省常州市钟楼区清潭花苑99幢101室,d4ad170e6b7b182b2d4733f9,1,0,119.937709,31.770091,"(0519)85097197,13584511451",life,http://api.map.baidu.com/place/detail?uid=d4ad170e6b7b182b2d4733f9&output=html&source=placeapi_v2,,08:30-20:30,,,,,,,,9,,,,,,,,,,0
12a4a9c5cfb47fef2a11d1c0,视频房产(清潭店),生活服务,房产中介机构,江苏省,常州市,钟楼区,江苏省常州市钟楼区清潭新村83幢102室,12a4a9c5cfb47fef2a11d1c0,1,0,119.939652,31.771057,"(0519)85097894,13685264820",life,http://api.map.baidu.com/place/detail?uid=12a4a9c5cfb47fef2a11d1c0&output=html&source=placeapi_v2,,,0,,,,,,,6,1,,,,,,,,,0
7cdf0d9f48c6604ca1d230f9,百姓房产(清潭路店),生活服务,房产中介机构,江苏省,常州市,钟楼区,常州市钟楼区清潭路299号,7cdf0d9f48c6604ca1d230f9,1,0,119.936445,31.773857,15380079310,life,http://api.map.baidu.com/place/detail?uid=7cdf0d9f48c6604ca1d230f9&output=html&source=placeapi_v2,,08:00-20:00,,,,,,,,14,,,,,,,,119.93638181679,31.774066994958,0
4e33a57a0aec701a774ff1db,小娟房产,生活服务,房产中介机构,江苏省,常州市,钟楼区,江苏常州市钟楼区荆川东路43号,4e33a57a0aec701a774ff1db,1,0,119.932486,31.769553,13775215280,life,http://api.map.baidu.com/place/detail?uid=4e33a57a0aec701a774ff1db&output=html&source=placeapi_v2,,08:00-21:00,0,,,,,,,15,2,,,,,,,119.93246202477,31.769721479771,0
80cfae607aa5a5ce0e0e6ba1,快乐房产(清潭路店),生活服务,房产中介机构,江苏省,常州市,钟楼区,江苏省常州市钟楼区清潭路清潭新村49幢103室,80cfae607aa5a5ce0e0e6ba1,1,0,119.936948,31.773845,13915056766,life,http://api.map.baidu.com/place/detail?uid=80cfae607aa5a5ce0e0e6ba1&output=html&source=placeapi_v2,,08:30-20:00,0,,,,,,,16,1,,,,,,,119.93694384972,31.773994738883,0
33e10d61b3d8ffbcf8f0cb34,租房售房,生活服务,房产中介机构,江苏省,常州市,钟楼区,常州市钟楼区永清北路紫阳花园东北侧约40米,33e10d61b3d8ffbcf8f0cb34,1,0,119.946065,31.773914,,life,http://api.map.baidu.com/place/detail?uid=33e10d61b3d8ffbcf8f0cb34&output=html&source=placeapi_v2,,,,,,,,,,,,,,,,,,,,0
e7e3f532b437f7ab6b49f38d,泰全房产,生活服务,房产中介机构,江苏省,常州市,天宁区,常州市天宁区兰陵北路浦南新村-西区,e7e3f532b437f7ab6b49f38d,1,0,119.953572,31.763084,18015085778,life,http://api.map.baidu.com/place/detail?uid=e7e3f532b437f7ab6b49f38d&output=html&source=placeapi_v2,,,,,,,,,,6,,,,,,,,119.953539735,31.762974256863,0
e902c9697cff73274e776e89,东腾房产(清潭一店),生活服务,房产中介机构,江苏省,常州市,钟楼区,江苏常州市钟楼区长江中路1~3号,e902c9697cff73274e776e89,1,0,119.935981,31.767835,15195000600,life,http://api.map.baidu.com/place/detail?uid=e902c9697cff73274e776e89&output=html&source=placeapi_v2,,08:00-21:00,,,,,,,,10,,,,,,,,119.93613531637,31.767779493623,0
014618ff6753232bcb213d69,中天房产(长江中路店),生活服务,房产中介机构,江苏省,常州市,钟楼区,江苏省常州市钟楼区长江中路266-1号,014618ff6753232bcb213d69,1,0,119.935147,31.778492,,life,http://api.map.baidu.com/place/detail?uid=014618ff6753232bcb213d69&output=html&source=placeapi_v2,,,,,,,,,,7,,,,,,,,,,0
23b1e03e757009bda1a9341d,东腾房产(兰陵店),生活服务,房产中介机构,江苏省,常州市,天宁区,江苏省常州市天宁区工人新村北10幢甲单元104室,23b1e03e757009bda1a9341d,1,0,119.95359,31.769843,15195000600,life,http://api.map.baidu.com/place/detail?uid=23b1e03e757009bda1a9341d&output=html&source=placeapi_v2,,08:00-21:00,0,,,,,,,12,2,,,,,,,,,0
fbf787745f30f8ea97031978,上城地产(兰陵华海花园分公司),生活服务,房产中介机构,江苏省,常州市,天宁区,天宁区华家村126-3号,fbf787745f30f8ea97031978,1,0,119.961944,31.76927,13776867878,life,http://api.map.baidu.com/place/detail?uid=fbf787745f30f8ea97031978&output=html&source=placeapi_v2,,09:00-21:00,,,,,,,,14,,,,,,,,,,0
ff98befdfce0c131c4f02526,海景房服务中心(兰陵店),生活服务,房产中介机构,江苏省,常州市,天宁区,江苏省常州市天宁区兰陵路15号,,1,0,119.954704,31.766333,,life,http://api.map.baidu.com/place/detail?uid=ff98befdfce0c131c4f02526&output=html&source=placeapi_v2,,,,,,,,,,5,,,,,,,,,,0
13e9a6bf3e2f4aaf2b11d108,德佑地产(清潭店),生活服务,房产中介机构,江苏省,常州市,钟楼区,江苏省常州市钟楼区广成路13号,13e9a6bf3e2f4aaf2b11d108,1,0,119.941018,31.769894,15312577776,life,http://api.map.baidu.com/place/detail?uid=13e9a6bf3e2f4aaf2b11d108&output=html&source=placeapi_v2,,09:00-22:00,5.0,,,,,,,10,1,,,,,,,119.94094309777,31.76981625899,0
0c9d52668774bf491b11d54a,顾家地产,生活服务,房产中介机构,江苏省,常州市,钟楼区,常州市钟楼区清潭路清潭新村,0c9d52668774bf491b11d54a,1,0,119.937212,31.773868,,life,http://api.map.baidu.com/place/detail?uid=0c9d52668774bf491b11d54a&output=html&source=placeapi_v2,,,,,,,,,,4,,,,,,,,,,0
1a666218d9f56540cd04efaf,常居地产(兰陵店),生活服务,房产中介机构,江苏省,常州市,天宁区,江苏省常州市天宁区劳动西路128号,1a666218d9f56540cd04efaf,1,0,119.959464,31.771915,4009281117,life,http://api.map.baidu.com/place/detail?uid=1a666218d9f56540cd04efaf&output=html&source=placeapi_v2,,08:30-18:30,,,,,,,,5,,,,,,,,119.95942789046,31.771911014719,0
518f0541c31cd63efd0eb0d4,清东房产,生活服务,房产中介机构,江苏省,常州市,天宁区,常州市天宁区清凉东村13-3号,518f0541c31cd63efd0eb0d4,1,0,119.979711,31.760914,,life,http://api.map.baidu.com/place/detail?uid=518f0541c31cd63efd0eb0d4&output=html&source=placeapi_v2,,,,,,,,,,6,,,,,,,,,,0
f41df61430e2872c8f1a8997,裕佳房产,生活服务,房产中介机构,江苏省,常州市,天宁区,常州市天宁区红梅西村41号,f41df61430e2872c8f1a8997,1,0,119.990964,31.783464,"(0519)85313760,15251910561",life,http://api.map.baidu.com/place/detail?uid=f41df61430e2872c8f1a8997&output=html&source=placeapi_v2,,08:00-20:00,0.0,,,,,,,11,,,,,,,,,,0
2246c1030664c35295f08c28,常居地产(元丰桥店),生活服务,房产中介机构,江苏省,常州市,天宁区,常州市天宁区红梅南路元丰桥东北侧,2246c1030664c35295f08c28,1,0,119.973892,31.778588,"13338192011,4009281117",life,http://api.map.baidu.com/place/detail?uid=2246c1030664c35295f08c28&output=html&source=placeapi_v2,,08:00-20:00,,,,,,,,10,,,,,,,,,,0
f8555b513698b3ae4e554704,美庐房产,生活服务,房产中介机构,江苏省,常州市,天宁区,江苏省常州市天宁区丽华二村7栋对面,f8555b513698b3ae4e554704,1,0,119.981726,31.752651,13775058990,life,http://api.map.baidu.com/place/detail?uid=f8555b513698b3ae4e554704&output=html&source=placeapi_v2,,,,,,,,,,6,,,,,,,,,,0
c673e900d0dfbdb0cd04efeb,满意房产(丽华分公司),生活服务,房产中介机构,江苏省,常州市,天宁区,茶山街道丽华二村10幢戊单元102室,,1,0,119.981695,31.752689,17016030000,life,http://api.map.baidu.com/place/detail?uid=c673e900d0dfbdb0cd04efeb&output=html&source=placeapi_v2,,09:00-18:30,,,,,,,,13,,,,,,,,119.98200545919,31.753494977122,0
61ffbea0165a637a45572654,御翠园-售楼中心,生活服务,房产中介机构,江苏省,常州市,天宁区,常州市天宁区丹青路御翠园,61ffbea0165a637a45572654,1,0,119.982952,31.777753,,life,http://api.map.baidu.com/place/detail?uid=61ffbea0165a637a45572654&output=html&source=placeapi_v2,,,,,,,,,,,,,,,,,,119.98301831751,31.777823283675,0
c4ab0538ea6d48db28fc48f7,快乐房产(清凉店),生活服务,房产中介机构,江苏省,常州市,天宁区,江苏省常州市天宁区清凉东路清凉新村106幢,c4ab0538ea6d48db28fc48f7,1,0,119.969706,31.76398,13372195135,life,http://api.map.baidu.com/place/detail?uid=c4ab0538ea6d48db28fc48f7&output=html&source=placeapi_v2,,07:30-21:30,,,,,,,,7,,,,,,,,,,0
eabf5409f03b73f5902ca36a,上城地产(清凉旗舰店),生活服务,房产中介机构,江苏省,常州市,天宁区,江苏省常州市天宁区和平中路366号,eabf5409f03b73f5902ca36a,1,0,119.967398,31.763001,"13861067956,15295182932",life,http://api.map.baidu.com/place/detail?uid=eabf5409f03b73f5902ca36a&output=html&source=placeapi_v2,,09:00-21:00,,,,,,,,28,,,,,,,,,,0
6215d21fac9c1469f4e73bb4,臧姐房产,生活服务,房产中介机构,江苏省,常州市,天宁区,江苏省常州市天宁区龙游南路105号,6215d21fac9c1469f4e73bb4,1,0,119.974497,31.757467,,life,http://api.map.baidu.com/place/detail?uid=6215d21fac9c1469f4e73bb4&output=html&source=placeapi_v2,,,,,,,,,,4,,,,,,,,119.9745827886,31.757453178075,0
2cb24f7b867b615ac929152b,华平房产,生活服务,房产中介机构,江苏省,常州市,天宁区,常州市天宁区周家巷常靖理想学校东侧约160米,2cb24f7b867b615ac929152b,1,0,119.984083,31.759189,13915850492,life,http://api.map.baidu.com/place/detail?uid=2cb24f7b867b615ac929152b&output=html&source=placeapi_v2,,,,,,,,,,12,,,,,,,,119.98409976686,31.759318741537,0
8e0fee08387fc82d59bbbcfc,易居房友(中吴大道店),生活服务,房产中介机构,江苏省,常州市,天宁区,常州市天宁区光华路3号,8e0fee08387fc82d59bbbcfc,1,0,119.982198,31.754873,,life,http://api.map.baidu.com/place/detail?uid=8e0fee08387fc82d59bbbcfc&output=html&source=placeapi_v2,,,,,,,,,,13,,,,,,,,,,0
9a53940481993b30631809a4,东腾房产(景泰店),生活服务,房产中介机构,江苏省,常州市,天宁区,江苏省常州市天宁区永宁路青竹苑8~12号,9a53940481993b30631809a4,1,0,119.973279,31.76269,15312592573,life,http://api.map.baidu.com/place/detail?uid=9a53940481993b30631809a4&output=html&source=placeapi_v2,,08:00-21:00,5,,,,,,,6,1,,,,,,,119.97322316818,31.762781025649,0
d2f48793a52d8cbcece4a5aa,上铁地产商业销售中心,生活服务,房产中介机构,江苏省,常州市,天宁区,常州市天宁区五角场东路上铁・月馨苑,,1,0,119.992304,31.774568,,life,http://api.map.baidu.com/place/detail?uid=d2f48793a52d8cbcece4a5aa&output=html&source=placeapi_v2,,09:00-18:30,,,,,,,,3,,,,,,,,119.9922713745,31.774657605323,0
f53bb7af0ec2062b26d2bb47,上城地产(清凉名苑店),生活服务,房产中介机构,江苏省,常州市,天宁区,江苏省常州市天宁区周家巷721号,f53bb7af0ec2062b26d2bb47,1,0,119.967394,31.757474,13775110614,life,http://api.map.baidu.com/place/detail?uid=f53bb7af0ec2062b26d2bb47&output=html&source=placeapi_v2,,09:00-20:00,,,,,,,,17,,,,,,,,119.96756062215,31.75745327479,0
7cffd7141bb0741e08ccdd69,常居地产(蔷薇家园店),生活服务,房产中介机构,江苏省,常州市,天宁区,江苏省常州市天宁区蔷薇花园12-101室,7cffd7141bb0741e08ccdd69,1,0,119.985701,31.756641,4009281117,life,http://api.map.baidu.com/place/detail?uid=7cffd7141bb0741e08ccdd69&output=html&source=placeapi_v2,,08:30-18:30,,,,,,,,8,,,,,,,,,,0
f7064d310817583fe31103c0,德佑地产(东坡雅居店),生活服务,房产中介机构,江苏省,常州市,天宁区,江苏省常州市天宁区延陵中路356号东坡雅居东坡雅居,f7064d310817583fe31103c0,1,0,119.986704,31.773103,4006899188,life,http://api.map.baidu.com/place/detail?uid=f7064d310817583fe31103c0&output=html&source=placeapi_v2,,08:30-22:00,,,,,,,,2,,,,,,,,119.98659566739,31.772903335227,0
a1fb27bbab9eca4cc61e519d,常居地产(御河湾店),生活服务,房产中介机构,江苏省,常州市,天宁区,江苏省常州市天宁区御河湾花园65幢27号,a1fb27bbab9eca4cc61e519d,1,0,120.020868,31.772555,4009281117,life,http://api.map.baidu.com/place/detail?uid=a1fb27bbab9eca4cc61e519d&output=html&source=placeapi_v2,,08:30-18:30,,,,,,,,5,,,,,,,,120.02081154935,31.772599401632,0
fb4fd88c8eb419958936ee37,常居地产(都会上著店),生活服务,房产中介机构,江苏省,常州市,武进区,江苏省常州市武进区名桂坊公寓13-8号,,1,0,120.027372,31.771703,4009281117,life,http://api.map.baidu.com/place/detail?uid=fb4fd88c8eb419958936ee37&output=html&source=placeapi_v2,,08:00-20:30,,,,,,,,3,,,,,,,,120.02741390531,31.771824826745,0
58e101225902c9cd0869d970,常居地产(紫韵香庭店),生活服务,房产中介机构,江苏省,常州市,武进区,江苏省常州市武进区紫韵香庭店19幢104号,58e101225902c9cd0869d970,1,0,120.017488,31.768336,4009281117,life,http://api.map.baidu.com/place/detail?uid=58e101225902c9cd0869d970&output=html&source=placeapi_v2,,08:30-18:30,0,,,,,,,2,1,,,,,,,120.017318156,31.768435941269,0
c59b9528e319177cf7231086,迦美地产(名桂坊公寓A店),生活服务,房产中介机构,江苏省,常州市,武进区,江苏省常州市武进区名桂坊公寓10-3号,c59b9528e319177cf7231086,1,0,120.026824,31.769857,13235189222,life,http://api.map.baidu.com/place/detail?uid=c59b9528e319177cf7231086&output=html&source=placeapi_v2,,09:00-20:00,,,,,,,,7,2,,,,,,,120.02673097393,31.769743528946,0
cbd21540f7b45acf3310af41,迦美地产(香溢紫郡店),生活服务,房产中介机构,江苏省,常州市,天宁区,江苏省常州市天宁区香溢紫郡商铺,cbd21540f7b45acf3310af41,1,0,120.018364,31.775492,13235189222,life,http://api.map.baidu.com/place/detail?uid=cbd21540f7b45acf3310af41&output=html&source=placeapi_v2,,08:30-21:00,,,,,,,,5,,,,,,,,,,0
f9d54fe628a316781676430e,常居地产(香溢紫郡店),生活服务,房产中介机构,江苏省,常州市,天宁区,江苏省常州市天宁区云青路水晶城4-1号,f9d54fe628a316781676430e,1,0,120.015449,31.776755,4009281117,life,http://api.map.baidu.com/place/detail?uid=f9d54fe628a316781676430e&output=html&source=placeapi_v2,,08:30-18:30,,,,,,,,5,,,,,,,,120.01555210384,31.776746290181,0
832b8dc80cc00fc01c5800c2,晋陵地产,生活服务,房产中介机构,江苏省,常州市,武进区,江苏省常州市武进区东方西路10号常州奥体戚墅堰全民健身中心5楼,832b8dc80cc00fc01c5800c2,1,0,120.037436,31.759419,,life,http://api.map.baidu.com/place/detail?uid=832b8dc80cc00fc01c5800c2&output=html&source=placeapi_v2,,,,,,,,,,,,,,,,,,,,0
e30204c4b9479d0fc036446f,新锋地产,生活服务,房产中介机构,江苏省,常州市,武进区,江苏省常州市武进区大明路公园壹号花园165号,e30204c4b9479d0fc036446f,1,0,120.047351,31.765193,18015069035,life,http://api.map.baidu.com/place/detail?uid=e30204c4b9479d0fc036446f&output=html&source=placeapi_v2,,08:00-20:00,,,,,,,,5,,,,,,,,,,0
300c7494831b8830210220de,常居地产(紫苑店),生活服务,房产中介机构,江苏省,常州市,武进区,江苏省常州市武进区港龙紫荆城(东方东路南60米),300c7494831b8830210220de,1,0,120.053069,31.759814,4009281117,life,http://api.map.baidu.com/place/detail?uid=300c7494831b8830210220de&output=html&source=placeapi_v2,,08:30-18:30,,,,,,,,8,,,,,,,,120.05304229202,31.759927856142,0
51f75b590911378e15a1902b,常居地产(港威花园店),生活服务,房产中介机构,江苏省,常州市,武进区,江苏省常州市武进区港威花园42幢130号,51f75b590911378e15a1902b,1,0,120.053386,31.758466,4009281117,life,http://api.map.baidu.com/place/detail?uid=51f75b590911378e15a1902b&output=html&source=placeapi_v2,,08:00-20:00,,,,,,,,5,,,,,,,,120.05336748849,31.758653442,0
303afbfd8c50d9b343ab9a92,明益房产,生活服务,房产中介机构,江苏省,常州市,武进区,江苏省常州市武进区兴隆南路11-2号,303afbfd8c50d9b343ab9a92,1,0,120.120219,31.766146,18961150209,life,http://api.map.baidu.com/place/detail?uid=303afbfd8c50d9b343ab9a92&output=html&source=placeapi_v2,,,,,,,,,,2,,,,,,,,,,0
a2650963dd803f34d12dd6e5,房屋中介,生活服务,房产中介机构,江苏省,常州市,金坛区,常州市金坛区亚细路常州市金坛区直溪镇人民政府南侧约100米,a2650963dd803f34d12dd6e5,1,0,119.460867,31.799441,,life,http://api.map.baidu.com/place/detail?uid=a2650963dd803f34d12dd6e5&output=html&source=placeapi_v2,,,,,,,,,,1,,,,,,,,,,0
32b9969a37b64ff8b21e36cc,万科房产中介,生活服务,房产中介机构,江苏省,常州市,钟楼区,常州市钟楼区琵琶街泰村花园西侧,32b9969a37b64ff8b21e36cc,1,0,119.78463,31.787242,"15240506198,15261182007",life,http://api.map.baidu.com/place/detail?uid=32b9969a37b64ff8b21e36cc&output=html&source=placeapi_v2,,,,,,,,,,6,,,,,,,,119.78446264729,31.787244587088,0
ca797fd682fe2c6aaecb66d9,顾家地产,生活服务,房产中介机构,江苏省,常州市,钟楼区,江苏省常州市钟楼区振中路金洲花城东区13-5号,ca797fd682fe2c6aaecb66d9,1,0,119.860803,31.796022,"13961496840,18068569123",life,http://api.map.baidu.com/place/detail?uid=ca797fd682fe2c6aaecb66d9&output=html&source=placeapi_v2,,,,,,,,,,12,,,,,,,,,,0
a4dcbd99856b1725aecb66f1,顾家地产,生活服务,房产中介机构,江苏省,常州市,钟楼区,常州市钟楼区东方路泰富时代广场南侧约30米,a4dcbd99856b1725aecb66f1,1,0,119.856763,31.790149,"13961496840,15851940028",life,http://api.map.baidu.com/place/detail?uid=a4dcbd99856b1725aecb66f1&output=html&source=placeapi_v2,,08:30-20:00,,,,,,,,6,,,,,,,,,,0
521120c5966d616742e192ec,常居地产(宝龙国际店),生活服务,房产中介机构,江苏省,常州市,钟楼区,江苏省常州市钟楼区茶花路宝龙国际花园335号,521120c5966d616742e192ec,1,0,119.89949,31.799916,4009281117,life,http://api.map.baidu.com/place/detail?uid=521120c5966d616742e192ec&output=html&source=placeapi_v2,,08:30-18:30,,,,,,,,25,,,,,,,,119.89975750949,31.799791750736,0
c801f665b1594c82c5f50d60,常居地产(宝龙国际二店),生活服务,房产中介机构,江苏省,常州市,钟楼区,江苏省常州市钟楼区北港街道御源林城商铺171号,c801f665b1594c82c5f50d60,1,0,119.899251,31.801118,4009281117,life,http://api.map.baidu.com/place/detail?uid=c801f665b1594c82c5f50d60&output=html&source=placeapi_v2,,08:30-18:30,,,,,,,,9,,,,,,,,,,0
acb35dfd414ce343dbd8914a,上城地产(星港路店),生活服务,房产中介机构,江苏省,常州市,钟楼区,江苏省常州市钟楼区香樟路12号,acb35dfd414ce343dbd8914a,1,0,119.899187,31.807939,(0519)83878586,life,http://api.map.baidu.com/place/detail?uid=acb35dfd414ce343dbd8914a&output=html&source=placeapi_v2,,09:00-21:00,,,,,,,,20,,,,,,,,,,0
6f8ecddb352493c807fef5e1,常居地产(香悦半岛店),生活服务,房产中介机构,江苏省,常州市,钟楼区,江苏省常州市钟楼区五星街道新城香悦半岛45幢,6f8ecddb352493c807fef5e1,1,0,119.916085,31.799649,4009281117,life,http://api.map.baidu.com/place/detail?uid=6f8ecddb352493c807fef5e1&output=html&source=placeapi_v2,,08:30-18:30,,,,,,,,2,,,,,,,,,,0
fd16bec1d618899822f0178a,常居地产(万水美兰城店),生活服务,房产中介机构,江苏省,常州市,钟楼区,常州市钟楼区北港街道万水美兰城北门,fd16bec1d618899822f0178a,1,0,119.895613,31.802434,4009281117,life,http://api.map.baidu.com/place/detail?uid=fd16bec1d618899822f0178a&output=html&source=placeapi_v2,,08:30-18:30,,,,,,,,13,,,,,,,,119.89569391043,31.802592998587,0
1577f8875c119c8f02294fe6,常居地产(景瑞曦城一店),生活服务,房产中介机构,江苏省,常州市,钟楼区,江苏省常州市钟楼区景瑞曦城5-11号,1577f8875c119c8f02294fe6,1,0,119.900343,31.80648,4009281117,life,http://api.map.baidu.com/place/detail?uid=1577f8875c119c8f02294fe6&output=html&source=placeapi_v2,,08:30-18:30,,,,,,,,6,,,,,,,,119.90027585042,31.806503939893,0
d22f4d21ebc0e99278f7969c,常居地产(梧桐香郡店),生活服务,房产中介机构,江苏省,常州市,钟楼区,江苏省常州市钟楼区梧桐香郡11-15号商铺,d22f4d21ebc0e99278f7969c,1,0,119.894438,31.797777,,life,http://api.map.baidu.com/place/detail?uid=d22f4d21ebc0e99278f7969c&output=html&source=placeapi_v2,,,0.0,,,,,,,8,,,,,,,,,,0
2768a3de8becd595233bf295,常居地产(河枫御景店),生活服务,房产中介机构,江苏省,常州市,钟楼区,江苏省常州市钟楼区河枫御景花苑1-15号,2768a3de8becd595233bf295,1,0,119.911739,31.809416,4009281117,life,http://api.map.baidu.com/place/detail?uid=2768a3de8becd595233bf295&output=html&source=placeapi_v2,,08:30-18:30,,,,,,,,8,,,,,,,,,,0
8e3bc9fcb9656af15abbbc95,常居地产(凯尔枫尚旗舰店),生活服务,房产中介机构,江苏省,常州市,钟楼区,江苏省常州市钟楼区玫瑰路32-6号,8e3bc9fcb9656af15abbbc95,1,0,119.901568,31.809395,4009281117,life,http://api.map.baidu.com/place/detail?uid=8e3bc9fcb9656af15abbbc95&output=html&source=placeapi_v2,,08:30-18:30,5,,,,,,,21,1,,,,,,,119.90169053945,31.809328726788,0
d6b2f0463fc30be6b5147f1c,常居地产(枫林雅都店),生活服务,房产中介机构,江苏省,常州市,钟楼区,江苏省常州市钟楼区枫林雅都1-8号,d6b2f0463fc30be6b5147f1c,1,0,119.90927,31.810041,4009281117,life,http://api.map.baidu.com/place/detail?uid=d6b2f0463fc30be6b5147f1c&output=html&source=placeapi_v2,,08:30-18:30,,,,,,,,5,,,,,,,,119.90909435297,31.810138955569,0
3dd9b734e2903ba6f33cbad8,枫逸人家售楼处,生活服务,房产中介机构,江苏省,常州市,钟楼区,江苏常州市钟楼区玉龙南路168号,3dd9b734e2903ba6f33cbad8,1,0,119.895169,31.812755,(0519)83905888,life,http://api.map.baidu.com/place/detail?uid=3dd9b734e2903ba6f33cbad8&output=html&source=placeapi_v2,,,,,,,,,,14,,,,,,,,,,0
efcf6ee16937e4f78505bf96,怡美花园1期销售招商中心,生活服务,房产中介机构,江苏省,常州市,钟楼区,常州市钟楼区松涛路圣・巴塞耶怡美花园-一期,efcf6ee16937e4f78505bf96,1,0,119.908617,31.784747,,life,http://api.map.baidu.com/place/detail?uid=efcf6ee16937e4f78505bf96&output=html&source=placeapi_v2,,,,,,,,,,,,,,,,,,,,0
afcd1584bf47114d9f09f7c1,优居地产(金色领寓店),生活服务,房产中介机构,江苏省,常州市,钟楼区,江苏省常州市钟楼区北港街道御源林城西区东门旁,afcd1584bf47114d9f09f7c1,1,0,119.91132,31.807825,13775209157,life,http://api.map.baidu.com/place/detail?uid=afcd1584bf47114d9f09f7c1&output=html&source=placeapi_v2,,08:30-20:30,,,,,,,,8,,,,,,,,,,0
0dc59539c69564c9f7e73b94,德佑地产(保利・公园九里店),生活服务,房产中介机构,江苏省,常州市,钟楼区,江苏省常州市钟楼区银杏路保利公园九里30-13号,0dc59539c69564c9f7e73b94,1,0,119.912623,31.809964,13145668577,life,http://api.map.baidu.com/place/detail?uid=0dc59539c69564c9f7e73b94&output=html&source=placeapi_v2,,00:00-24:00,,,,,,,,11,,,,,,,,119.91237448077,31.810072049713,0
f21817118fd64f261f3894bf,万科房产(西新桥旗舰店),生活服务,房产中介机构,江苏省,常州市,钟楼区,江苏省常州市钟楼区飞龙路12-1号,f21817118fd64f261f3894bf,1,0,119.950366,31.800522,13861217228,life,http://api.map.baidu.com/place/detail?uid=f21817118fd64f261f3894bf&output=html&source=placeapi_v2,,08:30-21:30,,,,,,,,14,,,,,,,,119.95056257088,31.80059529056,0
8c01884d1741ee4d7ab55c78,中天房产(勤业分公司),生活服务,房产中介机构,江苏省,常州市,钟楼区,江苏省常州市钟楼区永红街道劳动西路开放大学对面,8c01884d1741ee4d7ab55c78,1,0,119.940603,31.78971,(0519)88991808,life,http://api.map.baidu.com/place/detail?uid=8c01884d1741ee4d7ab55c78&output=html&source=placeapi_v2,,09:00-17:00,2.1,,,,,,,5,,,,,,,,,,0
5cb8fc0693237467fa42b2ae,68房产,生活服务,房产中介机构,江苏省,常州市,新北区,常州市新北区南湖路银河湾第一城,5cb8fc0693237467fa42b2ae,1,0,119.944894,31.81585,,life,http://api.map.baidu.com/place/detail?uid=5cb8fc0693237467fa42b2ae&output=html&source=placeapi_v2,,,,,,,,,,3,,,,,,,,,,0
80922a536ef5dcbe8e7727ea,宏锦地产,生活服务,房产中介机构,江苏省,常州市,钟楼区,江苏省常州市钟楼区长江中路269号翡翠湾,80922a536ef5dcbe8e7727ea,1,0,119.935842,31.787692,,life,http://api.map.baidu.com/place/detail?uid=80922a536ef5dcbe8e7727ea&output=html&source=placeapi_v2,,,,,,,,,,4,,,,,,,,119.93587159543,31.788044999736,0
1dea97ce2903256fb2077d10,诚轩房产(星园路店),生活服务,房产中介机构,江苏省,常州市,钟楼区,江苏省常州市钟楼区星园路91号,1dea97ce2903256fb2077d10,1,0,119.938987,31.787629,18651959090,life,http://api.map.baidu.com/place/detail?uid=1dea97ce2903256fb2077d10&output=html&source=placeapi_v2,,,,,,,,,,18,,,,,,,,,,0
d84de48fb6e55c0f4f3a59fa,上域地产,生活服务,房产中介机构,江苏省,常州市,钟楼区,常州市钟楼区劳动西路城置御水华庭1期,d84de48fb6e55c0f4f3a59fa,1,0,119.929196,31.799787,,life,http://api.map.baidu.com/place/detail?uid=d84de48fb6e55c0f4f3a59fa&output=html&source=placeapi_v2,,,,,,,,,,5,,,,,,,,,,0
1ffd3e7eb8e10ff60aa8d4b8,安鑫房产,生活服务,房产中介机构,江苏省,常州市,钟楼区,江苏省常州市钟楼区关河西路91号104室,1ffd3e7eb8e10ff60aa8d4b8,1,0,119.961675,31.795712,"(0519)88293899,13222528776",life,http://api.map.baidu.com/place/detail?uid=1ffd3e7eb8e10ff60aa8d4b8&output=html&source=placeapi_v2,,,,,,,,,,4,,,,,,,,119.96159934281,31.795738578693,0
d6a50f71cbc1144703ff2d63,我爱我家(勤业路店),生活服务,房产中介机构,江苏省,常州市,钟楼区,常州市钟楼区勤业路勤业一二三村南侧约30米,d6a50f71cbc1144703ff2d63,1,0,119.940498,31.788644,4008515515,life,http://api.map.baidu.com/place/detail?uid=d6a50f71cbc1144703ff2d63&output=html&source=placeapi_v2,,09:00-21:00,,,,,,,,0,,,,,,,,,,0
05d76c668295e42c3362124f,常居地产(蓝天新苑店),生活服务,房产中介机构,江苏省,常州市,钟楼区,常州市钟楼区蓝天新苑1-10号,05d76c668295e42c3362124f,1,0,119.925664,31.80113,4009281117,life,http://api.map.baidu.com/place/detail?uid=05d76c668295e42c3362124f&output=html&source=placeapi_v2,,08:30-17:30,,,,,,,,8,,,,,,,,,,0
f904e74ade81c8518bf15d30,君领地产,生活服务,房产中介机构,江苏省,常州市,钟楼区,江苏省常州市钟楼区新市路金色新城19号,f904e74ade81c8518bf15d30,1,0,119.95602,31.79245,,life,http://api.map.baidu.com/place/detail?uid=f904e74ade81c8518bf15d30&output=html&source=placeapi_v2,,,,,,,,,,4,,,,,,,,,,0
e6517e94b775131b21f017c5,常居地产(香榛庭店),生活服务,房产中介机构,江苏省,常州市,钟楼区,江苏省常州市钟楼区怀德中路135-108号,e6517e94b775131b21f017c5,1,0,119.938651,31.782903,15061963963,life,http://api.map.baidu.com/place/detail?uid=e6517e94b775131b21f017c5&output=html&source=placeapi_v2,,08:30-18:30,,,,,,,,5,,,,,,,,119.93864712141,31.782943277955,0
f9d7e7a9a9b8205ef7b91679,希城地产,生活服务,房产中介机构,江苏省,常州市,新北区,江苏省常州市新北区南湖路大名城698号,f9d7e7a9a9b8205ef7b91679,1,0,119.942391,31.816839,,life,http://api.map.baidu.com/place/detail?uid=f9d7e7a9a9b8205ef7b91679&output=html&source=placeapi_v2,,,,,,,,,,6,,,,,,,,,,0
18f34e5c2a18638a4d2fdfad,德佑地产(莱茵店),生活服务,房产中介机构,江苏省,常州市,钟楼区,江苏省常州市钟楼区勤业路8号30-13,18f34e5c2a18638a4d2fdfad,1,0,119.932656,31.793305,13327898555,life,http://api.map.baidu.com/place/detail?uid=18f34e5c2a18638a4d2fdfad&output=html&source=placeapi_v2,,09:00-21:00,5,,,,,,,5,2,,,,,,,,,0
6f222f9d6975e5d74107c162,江左风华售楼处,生活服务,房产中介机构,江苏省,常州市,钟楼区,江苏省常州市钟楼区勤工路99号,6f222f9d6975e5d74107c162,1,0,119.952944,31.790013,,life,http://api.map.baidu.com/place/detail?uid=6f222f9d6975e5d74107c162&output=html&source=placeapi_v2,,,,,,,,,,,,,,,,,,119.95304781212,31.790105283154,0
ad88a0c553f3c9a19ff77953,顾家地产(总部),生活服务,房产中介机构,江苏省,常州市,钟楼区,江苏省常州市钟楼区大仓路258号,ad88a0c553f3c9a19ff77953,1,0,119.939736,31.787204,"13205108878,18661128386",life,http://api.map.baidu.com/place/detail?uid=ad88a0c553f3c9a19ff77953&output=html&source=placeapi_v2,,08:30-20:00,,,,,,,,7,,,,,,,,119.93982357015,31.787248199056,0
efe1e19a4ff5b98e17948ea6,常居地产(南湖路店),生活服务,房产中介机构,江苏省,常州市,新北区,江苏省常州市新北区银河湾第一城20-1088号,efe1e19a4ff5b98e17948ea6,1,0,119.943506,31.816241,4009281117,life,http://api.map.baidu.com/place/detail?uid=efe1e19a4ff5b98e17948ea6&output=html&source=placeapi_v2,,08:00-20:00,,,,,,,,6,,,,,,,,,,0
cf2d56fbf4d51200744ff14f,上城地产(金色新城店),生活服务,房产中介机构,江苏省,常州市,钟楼区,江苏省常州市钟楼区新市路85号-102,cf2d56fbf4d51200744ff14f,1,0,119.95284,31.792392,13775285033,life,http://api.map.baidu.com/place/detail?uid=cf2d56fbf4d51200744ff14f&output=html&source=placeapi_v2,,09:00-21:00,,,,,,,,10,,,,,,,,,,0
9dcca5c207846b4deddfcaad,上城地产(马鞍山路),生活服务,房产中介机构,江苏省,常州市,新北区,常州市新北区南湖路银河湾第一城,9dcca5c207846b4deddfcaad,1,0,119.943508,31.816239,13401385876,life,http://api.map.baidu.com/place/detail?uid=9dcca5c207846b4deddfcaad&output=html&source=placeapi_v2,,09:00-21:00,,,,,,,,20,,,,,,,,,,0
deb5f21e9ff935811811d5c6,悦家地产(银河湾旗舰店),生活服务,房产中介机构,江苏省,常州市,新北区,江苏省常州市新北区长江中路银河湾第一城1229号,deb5f21e9ff935811811d5c6,1,0,119.945078,31.815802,,life,http://api.map.baidu.com/place/detail?uid=deb5f21e9ff935811811d5c6&output=html&source=placeapi_v2,,08:30-20:30,,,,,,,,8,,,,,,,,119.94516371075,31.815957197287,0
cd5694491e2857a14f6d46fa,港龙地产,生活服务,房产中介机构,江苏省,常州市,钟楼区,江苏省常州市钟楼区劳动西路108号华景大厦25楼,cd5694491e2857a14f6d46fa,1,0,119.951092,31.784219,(0519)88388888,life,http://api.map.baidu.com/place/detail?uid=cd5694491e2857a14f6d46fa&output=html&source=placeapi_v2,,,,,,,,,,1,,,,,,,,119.95109225313,31.784218510962,0
60ad70f4524dab0afb22134f,云天房产(龙锦路),生活服务,房产中介机构,江苏省,常州市,新北区,江苏省常州市新北区龙锦路水木年华1~5号,60ad70f4524dab0afb22134f,1,0,119.992192,31.81411,(0519)85139676,life,http://api.map.baidu.com/place/detail?uid=60ad70f4524dab0afb22134f&output=html&source=placeapi_v2,,09:00-19:00,0,,,,,,,14,1,,,,,,,119.99206243044,31.814007203454,0
ef073a04f316d7dea1046419,百姓房产(红梅分公司),生活服务,房产中介机构,江苏省,常州市,天宁区,江苏省常州市天宁区飞龙路红梅新村83栋,ef073a04f316d7dea1046419,1,0,119.98851,31.786544,13016888814,life,http://api.map.baidu.com/place/detail?uid=ef073a04f316d7dea1046419&output=html&source=placeapi_v2,,08:00-20:00,5,,,,,,,17,3,,,,,,,119.98843656937,31.786477275566,0
89a09bc922899ff6d3ff23c9,九天房产职介,生活服务,房产中介机构,江苏省,常州市,天宁区,江苏省常州市天宁区北环新村118幢101号,89a09bc922899ff6d3ff23c9,1,0,119.987116,31.79621,,life,http://api.map.baidu.com/place/detail?uid=89a09bc922899ff6d3ff23c9&output=html&source=placeapi_v2,,09:00-20:00,,,,,,,,11,,,,,,,,119.98718171382,31.796304933629,0
f41df61430e2872c8f1a8997,裕佳房产,生活服务,房产中介机构,江苏省,常州市,天宁区,常州市天宁区红梅西村41号,f41df61430e2872c8f1a8997,1,0,119.990964,31.783464,"(0519)85313760,15251910561",life,http://api.map.baidu.com/place/detail?uid=f41df61430e2872c8f1a8997&output=html&source=placeapi_v2,,08:00-20:00,0.0,,,,,,,11,,,,,,,,,,0
9fceb69ccdf58fa6b52655bb,上城地产(北环店),生活服务,房产中介机构,江苏省,常州市,天宁区,常州市天宁区新堂北路白家塘35号(爆红龙虾隔壁),9fceb69ccdf58fa6b52655bb,1,0,119.990948,31.797323,15861173958,life,http://api.map.baidu.com/place/detail?uid=9fceb69ccdf58fa6b52655bb&output=html&source=placeapi_v2,,09:00-21:00,5,,,,,,,32,2,,,,,,,,,0
a66a90cc1c651dc928201a1d,小唐房产,生活服务,房产中介机构,江苏省,常州市,天宁区,常州市天宁区故园路翠竹新村-南区,a66a90cc1c651dc928201a1d,1,0,119.987326,31.800065,13301503085,life,http://api.map.baidu.com/place/detail?uid=a66a90cc1c651dc928201a1d&output=html&source=placeapi_v2,,,,,,,,,,6,,,,,,,,,,0
859e602fdced4ec9c72ba125,有屋房产,生活服务,房产中介机构,江苏省,常州市,天宁区,江苏省常州市天宁区北太平桥157-1号东区15号,859e602fdced4ec9c72ba125,1,0,119.993169,31.791521,,life,http://api.map.baidu.com/place/detail?uid=859e602fdced4ec9c72ba125&output=html&source=placeapi_v2,,09:00-21:00,,,,,,,,,,,,,,,,,,0
ab8683e2ecdd3b0ca8f0cd97,顺驰房产(林庄路店),生活服务,房产中介机构,江苏省,常州市,天宁区,常州市天宁区通江南路金百国际商业广场,ab8683e2ecdd3b0ca8f0cd97,1,0,119.968053,31.807919,13616104652,life,http://api.map.baidu.com/place/detail?uid=ab8683e2ecdd3b0ca8f0cd97&output=html&source=placeapi_v2,,,0,,,,,,,4,1,,,,,,,119.9680979903,31.807693774241,0
dd0e0c8e0924eb70d23ce3ea,梦如房产,生活服务,房产中介机构,江苏省,常州市,天宁区,常州市天宁区永宁北路常州市翠竹新村小学东北侧约40米,dd0e0c8e0924eb70d23ce3ea,1,0,119.991805,31.803094,,life,http://api.map.baidu.com/place/detail?uid=dd0e0c8e0924eb70d23ce3ea&output=html&source=placeapi_v2,,,,,,,,,,2,,,,,,,,,,0
8c27efb28827f86379b55ca1,希城地产,生活服务,房产中介机构,江苏省,常州市,天宁区,江苏省常州市天宁区永宁北路北区175-1栋,,1,0,119.986718,31.801545,,life,http://api.map.baidu.com/place/detail?uid=8c27efb28827f86379b55ca1&output=html&source=placeapi_v2,,,,,,,,,,3,,,,,,,,,,0
babcb6bdaf559d2fb6147f00,泓源房地产,生活服务,房产中介机构,江苏省,常州市,天宁区,江苏省常州市天宁区飞龙东路71-5号,babcb6bdaf559d2fb6147f00,1,0,119.993837,31.785977,,life,http://api.map.baidu.com/place/detail?uid=babcb6bdaf559d2fb6147f00&output=html&source=placeapi_v2,,,0,,,,,,,7,1,,,,,,,119.99392642515,31.785893085939,0
58cb80e2be5d5bf9dbd89120,天辰业地产,生活服务,房产中介机构,江苏省,常州市,天宁区,江苏省常州市天宁区飞龙东路120-32号翠竹新村90号楼102室,58cb80e2be5d5bf9dbd89120,1,0,119.981374,31.801234,,life,http://api.map.baidu.com/place/detail?uid=58cb80e2be5d5bf9dbd89120&output=html&source=placeapi_v2,,,,,,,,,,8,,,,,,,,119.98121978861,31.801134934577,0
323d6c9f78809b6fdbd8915e,天工房产(翠虹路店),生活服务,房产中介机构,江苏省,常州市,天宁区,江苏省常州市天宁区翠虹路8号,323d6c9f78809b6fdbd8915e,1,0,119.994888,31.788635,13961125035,life,http://api.map.baidu.com/place/detail?uid=323d6c9f78809b6fdbd8915e&output=html&source=placeapi_v2,,,2.5,,,,,,,12,,,,,,,,119.99476494035,31.788765806403,0
933191530df28e4f81288a70,东腾房产(百草苑店),生活服务,房产中介机构,江苏省,常州市,新北区,常州市新北区龙锦路百草苑,933191530df28e4f81288a70,1,0,119.996556,31.812619,13775600218,life,http://api.map.baidu.com/place/detail?uid=933191530df28e4f81288a70&output=html&source=placeapi_v2,,08:00-21:00,,,,,,,,6,,,,,,,,,,0
ec0b758771a50473ca09f04d,友城地产,生活服务,房产中介机构,江苏省,常州市,天宁区,江苏常州市天宁区博爱路149号101室,ec0b758771a50473ca09f04d,1,0,119.967019,31.789884,,life,http://api.map.baidu.com/place/detail?uid=ec0b758771a50473ca09f04d&output=html&source=placeapi_v2,,08:30-20:30,,,,,,,,3,,,,,,,,119.96701530758,31.790093065903,0
6be34d16110690cdab059dc5,家居地产,生活服务,房产中介机构,江苏省,常州市,天宁区,常州市天宁区龙锦路阳光龙庭,,1,0,119.998059,31.808943,,life,http://api.map.baidu.com/place/detail?uid=6be34d16110690cdab059dc5&output=html&source=placeapi_v2,,,,,,,,,,2,,,,,,,,,,0
5ad84d60b1ae42028d772772,德佑地产(中央花园店),生活服务,房产中介机构,江苏省,常州市,新北区,中央花园1-27号,5ad84d60b1ae42028d772772,1,0,119.985893,31.806089,18021450503,life,http://api.map.baidu.com/place/detail?uid=5ad84d60b1ae42028d772772&output=html&source=placeapi_v2,,09:00-22:00,5,,,,,,,2,1,,,,,,,,,0
03fea3eb67f2708fae080f5f,C房网常居地产(凯旋城店),生活服务,房产中介机构,江苏省,常州市,天宁区,江苏省常州市天宁区虹景路凯旋城8幢,03fea3eb67f2708fae080f5f,1,0,119.999063,31.792743,4009281117,life,http://api.map.baidu.com/place/detail?uid=03fea3eb67f2708fae080f5f&output=html&source=placeapi_v2,,08:30-18:30,,,,,,,,10,,,,,,,,119.99911875676,31.792847571742,0
93abfc6379c6eb865d17c312,希城地产,生活服务,房产中介机构,江苏省,常州市,天宁区,江苏省常州市天宁区太平桥157号龙洲伊都10-1室,93abfc6379c6eb865d17c312,1,0,120.016668,31.80004,,life,http://api.map.baidu.com/place/detail?uid=93abfc6379c6eb865d17c312&output=html&source=placeapi_v2,,00:00-24:00,,,,,,,,7,,,,,,,,,,0
6c6ffa264ac10a52bfa8225c,常居地产(龙洲伊都店),生活服务,房产中介机构,江苏省,常州市,天宁区,江苏省常州市天宁区新横路8号,,1,0,120.016325,31.800261,13376273987,life,http://api.map.baidu.com/place/detail?uid=6c6ffa264ac10a52bfa8225c&output=html&source=placeapi_v2,,08:00-20:00,,,,,,,,1,,,,,,,,,,0
a51546015394bc6a3f9a5e32,嘉禾尚都营销体验中心,生活服务,房产中介机构,江苏省,常州市,新北区,常州市新北区天山路嘉禾尚郡,a51546015394bc6a3f9a5e32,1,0,119.944498,31.825418,,life,http://api.map.baidu.com/place/detail?uid=a51546015394bc6a3f9a5e32&output=html&source=placeapi_v2,,,,,,,,,,16,,,,,,,,119.94453861228,31.82559371408,0
5cb8fc0693237467fa42b2ae,68房产,生活服务,房产中介机构,江苏省,常州市,新北区,常州市新北区南湖路银河湾第一城,5cb8fc0693237467fa42b2ae,1,0,119.944894,31.81585,,life,http://api.map.baidu.com/place/detail?uid=5cb8fc0693237467fa42b2ae&output=html&source=placeapi_v2,,,,,,,,,,3,,,,,,,,,,0
1a5dbb54e2663f80ca2915ba,常居地产(绿都万和城一店),生活服务,房产中介机构,江苏省,常州市,新北区,常州市新北区绿都万和城30-109-110号,,1,0,119.938957,31.823132,4009281117,life,http://api.map.baidu.com/place/detail?uid=1a5dbb54e2663f80ca2915ba&output=html&source=placeapi_v2,,08:30-18:30,,,,,,,,7,,,,,,,,119.93878964202,31.823271965762,0
4f393773a519c91d77026982,常居地产(绿地世纪城四店),生活服务,房产中介机构,江苏省,常州市,钟楼区,江苏省常州市钟楼区新裕路绿地世纪城64号,5df2a58f7518f5c8283a9f21,1,0,119.929161,31.826686,4009281117,life,http://api.map.baidu.com/place/detail?uid=4f393773a519c91d77026982&output=html&source=placeapi_v2,,10:00-22:00,,,,,,,,10,,,,,,,,119.92898692092,31.826754370495,0
7a4903b30e9fdb5bd6b74e7c,德佑地产(昆仑路店),生活服务,房产中介机构,江苏省,常州市,新北区,江苏省常州市新北区昆仑路7区20-17号,7a4903b30e9fdb5bd6b74e7c,1,0,119.938492,31.826243,4006899188,life,http://api.map.baidu.com/place/detail?uid=7a4903b30e9fdb5bd6b74e7c&output=html&source=placeapi_v2,,00:00-24:00,,,,,,,,14,,,,,,,,,,0
f9d7e7a9a9b8205ef7b91679,希城地产,生活服务,房产中介机构,江苏省,常州市,新北区,江苏省常州市新北区南湖路大名城698号,f9d7e7a9a9b8205ef7b91679,1,0,119.942391,31.816839,,life,http://api.map.baidu.com/place/detail?uid=f9d7e7a9a9b8205ef7b91679&output=html&source=placeapi_v2,,,,,,,,,,6,,,,,,,,,,0
bc2adf54dc0f8b5d4354d7d7,常居地产(金地格林郡店),生活服务,房产中介机构,江苏省,常州市,新北区,常州市新北区天际苑6-7号,bc2adf54dc0f8b5d4354d7d7,1,0,119.938235,31.818623,4009281117,life,http://api.map.baidu.com/place/detail?uid=bc2adf54dc0f8b5d4354d7d7&output=html&source=placeapi_v2,,08:30-18:30,,,,,,,,4,,,,,,,,119.93832575081,31.818797374424,0
efe1e19a4ff5b98e17948ea6,常居地产(南湖路店),生活服务,房产中介机构,江苏省,常州市,新北区,江苏省常州市新北区银河湾第一城20-1088号,efe1e19a4ff5b98e17948ea6,1,0,119.943506,31.816241,4009281117,life,http://api.map.baidu.com/place/detail?uid=efe1e19a4ff5b98e17948ea6&output=html&source=placeapi_v2,,08:00-20:00,,,,,,,,6,,,,,,,,,,0
b5f7ce58a02ab08f3686f40f,希城地产,生活服务,房产中介机构,江苏省,常州市,新北区,江苏省常州市新北区大名城商铺41栋,b5f7ce58a02ab08f3686f40f,1,0,119.952603,31.816726,13057157070,life,http://api.map.baidu.com/place/detail?uid=b5f7ce58a02ab08f3686f40f&output=html&source=placeapi_v2,,,,,,,,,,1,,,,,,,,,,0
9dcca5c207846b4deddfcaad,上城地产(马鞍山路),生活服务,房产中介机构,江苏省,常州市,新北区,常州市新北区南湖路银河湾第一城,9dcca5c207846b4deddfcaad,1,0,119.943508,31.816239,13401385876,life,http://api.map.baidu.com/place/detail?uid=9dcca5c207846b4deddfcaad&output=html&source=placeapi_v2,,09:00-21:00,,,,,,,,20,,,,,,,,,,0
deb5f21e9ff935811811d5c6,悦家地产(银河湾旗舰店),生活服务,房产中介机构,江苏省,常州市,新北区,江苏省常州市新北区长江中路银河湾第一城1229号,deb5f21e9ff935811811d5c6,1,0,119.945078,31.815802,,life,http://api.map.baidu.com/place/detail?uid=deb5f21e9ff935811811d5c6&output=html&source=placeapi_v2,,08:30-20:30,,,,,,,,8,,,,,,,,119.94516371075,31.815957197287,0
de28a14ab4cc13f44c3a59de,华纳房产(现代城西),生活服务,房产中介机构,江苏省,常州市,新北区,江苏省常州市新北区晋陵北路08号,de28a14ab4cc13f44c3a59de,1,0,119.991763,31.827886,13861041543,life,http://api.map.baidu.com/place/detail?uid=de28a14ab4cc13f44c3a59de&output=html&source=placeapi_v2,500,08:00-19:00,0,,,,,,,15,1,,,,,,,119.99199158647,31.827856472311,0
969bffe8daa26993ce04ef26,凯特房产,生活服务,房产中介机构,江苏省,常州市,新北区,江苏省常州市新北区晋陵北路211-2号,969bffe8daa26993ce04ef26,1,0,119.991981,31.82531,"(0519)85103785,13775118665",life,http://api.map.baidu.com/place/detail?uid=969bffe8daa26993ce04ef26&output=html&source=placeapi_v2,,,0.0,,,,,,,9,2,,,,,,,119.99201558381,31.825295759002,0
808e8f10668c3ea8c4f50d1f,诚信房产(太湖东路店),生活服务,房产中介机构,江苏省,常州市,新北区,江苏常州市新北区太湖东路河海新村15号5-10号,808e8f10668c3ea8c4f50d1f,1,0,119.989392,31.820641,13961228189,life,http://api.map.baidu.com/place/detail?uid=808e8f10668c3ea8c4f50d1f&output=html&source=placeapi_v2,,08:00-20:00,0,,,,,,,10,1,,,,,,,119.98942167454,31.82051082406,0
41c5430ce11ff4568f1a8923,常居地产公司(总部),生活服务,房产中介机构,江苏省,常州市,新北区,江苏省常州市新北区太湖东路103号惠民大厦c区5楼505室,41c5430ce11ff4568f1a8923,1,0,119.984668,31.820851,4009281117,life,http://api.map.baidu.com/place/detail?uid=41c5430ce11ff4568f1a8923&output=html&source=placeapi_v2,,,0.0,,,,,,,,,,,,,,,119.98537857122,31.820918413876,0
f99176d58ce54be6a80dd87b,香树湾馨苑-营销中心,生活服务,房产中介机构,江苏省,常州市,新北区,江苏省常州市新北区建东路18号15-1,f99176d58ce54be6a80dd87b,1,0,119.997705,31.834292,(0519)88522888,house,http://api.map.baidu.com/place/detail?uid=f99176d58ce54be6a80dd87b&output=html&source=placeapi_v2,,00:00-24:00,,,,,,,,,,,,,,,,119.99745300011,31.83429880526,0
e0a94af7a2199de78bfc06ff,21世纪不动产(旺角店),生活服务,房产中介机构,江苏省,常州市,新北区,江苏省常州市新北区巢湖路1~2号1-121号,e0a94af7a2199de78bfc06ff,1,0,119.981137,31.825374,4006509721,life,http://api.map.baidu.com/place/detail?uid=e0a94af7a2199de78bfc06ff&output=html&source=placeapi_v2,,,0.0,,,,,,,14,,,,,,,,,,0
62f65e315719a44016c905ed,多多找房租售中心,生活服务,房产中介机构,江苏省,常州市,新北区,常州市新北区珠江路朗诗・新北绿郡,,1,0,119.975125,31.832765,,life,http://api.map.baidu.com/place/detail?uid=62f65e315719a44016c905ed&output=html&source=placeapi_v2,,,,,,,,,,2,,,,,,,,119.97520097976,31.832952395697,0
6e3ac5fea35dd5b9882fb59f,21世纪不动产(大渡河路店),生活服务,房产中介机构,江苏省,常州市,新北区,江苏省常州市新北区大渡河路11号,6e3ac5fea35dd5b9882fb59f,1,0,119.990282,31.82234,18505199855,life,http://api.map.baidu.com/place/detail?uid=6e3ac5fea35dd5b9882fb59f&output=html&source=placeapi_v2,,09:00-20:00,,,,,,,,6,,,,,,,,,,0
663c9f602036b3742cb17e06,租售中心,生活服务,房产中介机构,江苏省,常州市,新北区,常州市新北区衡山路朗诗・新北绿郡,,1,0,119.975223,31.831506,,life,http://api.map.baidu.com/place/detail?uid=663c9f602036b3742cb17e06&output=html&source=placeapi_v2,,,,,,,,,,3,,,,,,,,119.97549652431,31.831420872524,0
9e8373ce750b941dede4a5dd,常居地产(锦绣天地店),生活服务,房产中介机构,江苏省,常州市,新北区,江苏省常州市新北区荣盛锦绣华府18-3号,9e8373ce750b941dede4a5dd,1,0,119.976943,31.835794,4009281117,life,http://api.map.baidu.com/place/detail?uid=9e8373ce750b941dede4a5dd&output=html&source=placeapi_v2,,08:30-17:30,,,,,,,,8,,,,,,,,119.97730386649,31.835676295043,0
ad3189662bd60285cafa5f04,常州江居房地产营销策划有限公司,生活服务,房产中介机构,江苏省,常州市,新北区,江苏省常州市新北区金桂公寓1~8号,ad3189662bd60285cafa5f04,1,0,119.989065,31.822517,,life,http://api.map.baidu.com/place/detail?uid=ad3189662bd60285cafa5f04&output=html&source=placeapi_v2,,,,,,,,,,1,1,,,,,,,119.98903190967,31.822322190529,0
2b152d443f35aec8ebe582b8,华纳地产(太阳城店),生活服务,房产中介机构,江苏省,常州市,新北区,江苏省常州市新北区三井街道府琛花园19-6,2b152d443f35aec8ebe582b8,1,0,119.978459,31.823802,,life,http://api.map.baidu.com/place/detail?uid=2b152d443f35aec8ebe582b8&output=html&source=placeapi_v2,,,,,,,,,,11,,,,,,,,,,0
1e2e81656dc9883e46572697,悦家地产(旺角花园店),生活服务,房产中介机构,江苏省,常州市,新北区,江苏省常州市新北区巢湖路3~5号,1e2e81656dc9883e46572697,1,0,119.979539,31.825523,,life,http://api.map.baidu.com/place/detail?uid=1e2e81656dc9883e46572697&output=html&source=placeapi_v2,,,,,,,,,,7,,,,,,,,,,0
744e27b3673f7759e6e96568,上城地产(珠江店),生活服务,房产中介机构,江苏省,常州市,新北区,江苏省常州市新北区河海东路200号,,1,0,119.992037,31.829144,,life,http://api.map.baidu.com/place/detail?uid=744e27b3673f7759e6e96568&output=html&source=placeapi_v2,,09:00-21:00,,,,,,,,10,,,,,,,,,,0
f9d107c49a05b5fbc336446c,常居地产(香树湾店),生活服务,房产中介机构,江苏省,常州市,新北区,江苏省常州市新北区香树湾福园10-2号,f9d107c49a05b5fbc336446c,1,0,120.002847,31.834499,4009281117,life,http://api.map.baidu.com/place/detail?uid=f9d107c49a05b5fbc336446c&output=html&source=placeapi_v2,,08:30-18:30,,,,,,,,6,,,,,,,,120.00258264167,31.834482941336,0
9673be5c7b070c2d14c8f68f,粤海置业(常州)有限公司,生活服务,房产中介机构,江苏省,常州市,新北区,江苏省常州市新北区沪宁高速高新科技楼北区15号楼401室,9673be5c7b070c2d14c8f68f,1,0,119.978676,31.835141,,life,http://api.map.baidu.com/place/detail?uid=9673be5c7b070c2d14c8f68f&output=html&source=placeapi_v2,,,,,,,,,,,,,,,,,,,,0
beffa6ac72cf9d0a2fb96d18,常居地产(美林国际店),生活服务,房产中介机构,江苏省,常州市,新北区,常州市新北区河海东路197号,beffa6ac72cf9d0a2fb96d18,1,0,119.995151,31.829675,4009281117,life,http://api.map.baidu.com/place/detail?uid=beffa6ac72cf9d0a2fb96d18&output=html&source=placeapi_v2,,08:30-18:30,5,,,,,,,14,1,,,,,,,,,0
2bf87d6f0147f4e1c33644a5,我爱我家(府翰苑店),生活服务,房产中介机构,江苏省,常州市,新北区,江苏省常州市新北区大渡河路府翰苑25号,2bf87d6f0147f4e1c33644a5,1,0,119.988279,31.822331,(0519)89608191,life,http://api.map.baidu.com/place/detail?uid=2bf87d6f0147f4e1c33644a5&output=html&source=placeapi_v2,,09:00-21:00,,,,,,,,8,,,,,,,,119.98829279737,31.822413829365,0
b1af3614e17c80f42fb17ec3,链条链轮,生活服务,房产中介机构,江苏省,常州市,新北区,常州市新北区庐山路江南五金机电城(晋陵北路),,1,0,119.990648,31.841934,,life,http://api.map.baidu.com/place/detail?uid=b1af3614e17c80f42fb17ec3&output=html&source=placeapi_v2,,,,,,,,,,2,,,,,,,,119.9907674734,31.8419108399,0
218225f72f9a0b5b2fe67ba8,常居地产(郑陆一店),生活服务,房产中介机构,江苏省,常州市,天宁区,江苏省常州市天宁区富强路北直街小区14栋,,1,0,120.086807,31.829936,4009281117,life,http://api.map.baidu.com/place/detail?uid=218225f72f9a0b5b2fe67ba8&output=html&source=placeapi_v2,,08:30-18:30,,,,,,,,4,,,,,,,,120.08668437504,31.829966567632,0
6619617fe86733383904b125,广通房产(顺园一村店),生活服务,房产中介机构,江苏省,常州市,新北区,江苏省常州市新北区奥园路31-12-2号,6619617fe86733383904b125,1,0,119.931412,31.855645,"(0519)85951352,(0519)85952352,13861280625",life,http://api.map.baidu.com/place/detail?uid=6619617fe86733383904b125&output=html&source=placeapi_v2,,08:30-20:30,,,,,,,,16,,,,,,,,119.93158366523,31.855601133918,0
2791854047884443c9fa5fd7,顺八房产,生活服务,房产中介机构,江苏省,常州市,新北区,江苏省常州市新北区步行街259-11号,2791854047884443c9fa5fd7,1,0,119.926838,31.865182,15861152770,life,http://api.map.baidu.com/place/detail?uid=2791854047884443c9fa5fd7&output=html&source=placeapi_v2,,,,,,,,,,9,,,,,,,,119.9267306299,31.86498597612,0
34772d3c454fd49375e5b6bc,常居地产(奥林匹克店),生活服务,房产中介机构,江苏省,常州市,新北区,江苏省常州市新北区奥园路105-112号,34772d3c454fd49375e5b6bc,1,0,119.934206,31.857587,4009281117,life,http://api.map.baidu.com/place/detail?uid=34772d3c454fd49375e5b6bc&output=html&source=placeapi_v2,,08:30-18:30,,,,,,,,9,,,,,,,,,,0
1fe368ff02ae71a8a80dd848,悦家地产(奥园路店),生活服务,房产中介机构,江苏省,常州市,新北区,江苏省常州市新北区奥园路31-12-1号,,1,0,119.935476,31.859409,,life,http://api.map.baidu.com/place/detail?uid=1fe368ff02ae71a8a80dd848&output=html&source=placeapi_v2,,,,,,,,,,,,,,,,,,,,0
124bdaffd5893ffc6d20b95a,常居地产(奥林匹克二店),生活服务,房产中介机构,江苏省,常州市,新北区,江苏省常州市新北区奥园路40-1号,124bdaffd5893ffc6d20b95a,1,0,119.933396,31.859837,4009281117,life,http://api.map.baidu.com/place/detail?uid=124bdaffd5893ffc6d20b95a&output=html&source=placeapi_v2,,08:30-18:30,,,,,,,,3,,,,,,,,119.93340672327,31.859631014681,0
07edb6549ae3615de9f853dc,常居地产(薛家一店),生活服务,房产中介机构,江苏省,常州市,新北区,江苏省常州市新北区奥园路77-8号,07edb6549ae3615de9f853dc,1,0,119.932954,31.861089,4009281117,life,http://api.map.baidu.com/place/detail?uid=07edb6549ae3615de9f853dc&output=html&source=placeapi_v2,,,,,,,,,,2,,,,,,,,,,0
77c2917e675ae6fc43afe640,常居地产(顺园八村店),生活服务,房产中介机构,江苏省,常州市,新北区,顺园新村340-107号,77c2917e675ae6fc43afe640,1,0,119.930549,31.863535,4009281117,life,http://api.map.baidu.com/place/detail?uid=77c2917e675ae6fc43afe640&output=html&source=placeapi_v2,,08:30-18:30,0.0,,,,,,,10,1,,,,,,,,,0
7c03c397aeb94d1e08ccdde9,悦家地产(顺园一村店),生活服务,房产中介机构,江苏省,常州市,新北区,江苏省常州市新北区奥园路31-12-1号,7c03c397aeb94d1e08ccdde9,1,0,119.931381,31.855424,(0519)82230062,life,http://api.map.baidu.com/place/detail?uid=7c03c397aeb94d1e08ccdde9&output=html&source=placeapi_v2,,08:30-20:00,,,,,,,,5,,,,,,,,,,0
56bcd3369a884a0b9cf7792e,雅居乐荣华里售楼处,生活服务,房产中介机构,江苏省,常州市,新北区,江苏常州市新北区庆阳路188号2楼,56bcd3369a884a0b9cf7792e,1,0,119.924971,31.856122,,life,http://api.map.baidu.com/place/detail?uid=56bcd3369a884a0b9cf7792e&output=html&source=placeapi_v2,,,,,,,,,,,,,,,,,,119.92455055292,31.855839193676,0
5d12b9e553f815d9f4e73bf6,顺驰房产(新桥总店),生活服务,房产中介机构,江苏省,常州市,新北区,常州市新北区滨江明珠城10幢-14号,5d12b9e553f815d9f4e73bf6,1,0,119.978915,31.874187,18015855218,life,http://api.map.baidu.com/place/detail?uid=5d12b9e553f815d9f4e73bf6&output=html&source=placeapi_v2,,08:00-20:00,,,,,,,,11,,,,,,,,119.97866005987,31.874246986709,0
9cbbfdf504110634b35c6a25,创辉房产(NO.010),生活服务,房产中介机构,江苏省,常州市,新北区,常州市新北区滨江明珠城10幢-15号,9cbbfdf504110634b35c6a25,1,0,119.978956,31.874262,13906120771,life,http://api.map.baidu.com/place/detail?uid=9cbbfdf504110634b35c6a25&output=html&source=placeapi_v2,,09:00-22:00,0.0,,,,,,,11,0,,,,,,,119.97868556367,31.874325667948,0
f8c67106350628cb00ec01c8,顺驰房产(清水湾店),生活服务,房产中介机构,江苏省,常州市,新北区,常州市新北区新桥镇红河路清水湾花园79号商铺,f8c67106350628cb00ec01c8,1,0,119.972507,31.874214,15295129212,life,http://api.map.baidu.com/place/detail?uid=f8c67106350628cb00ec01c8&output=html&source=placeapi_v2,,,0,,,,,,,11,1,,,,,,,119.97252574444,31.874142274765,0
bd0cc8021940e99f01294f44,常居地产(新景花苑一店),生活服务,房产中介机构,江苏省,常州市,新北区,常州市新北区云台山路新景花苑-南区,bd0cc8021940e99f01294f44,1,0,119.98116,31.866852,4009281117,life,http://api.map.baidu.com/place/detail?uid=bd0cc8021940e99f01294f44&output=html&source=placeapi_v2,,08:30-18:30,,,,,,,,8,,,,,,,,119.98102841271,31.867007518734,0
1a5154d2cabe53b95cd4fe11,悦家地产(新景花苑一期店),生活服务,房产中介机构,江苏省,常州市,新北区,江苏省常州市新北区新桥街道新景花苑6-1号,1a5154d2cabe53b95cd4fe11,1,0,119.97675,31.869598,,life,http://api.map.baidu.com/place/detail?uid=1a5154d2cabe53b95cd4fe11&output=html&source=placeapi_v2,,,,,,,,,,3,,,,,,,,,,0
cda72e76dbe46403e9f85393,常居地产(牡丹国际花园店),生活服务,房产中介机构,江苏省,常州市,新北区,常州市新北区牡丹水岸国际17-1号,cda72e76dbe46403e9f85393,1,0,119.982637,31.855691,4009281117,life,http://api.map.baidu.com/place/detail?uid=cda72e76dbe46403e9f85393&output=html&source=placeapi_v2,,08:30-18:30,,,,,,,,7,,,,,,,,119.98280386055,31.855648997813,0
734103acddac2f8acd04ef5c,悦家地产(牡丹国际店),生活服务,房产中介机构,江苏省,常州市,新北区,江苏省常州市新北区衡山路66号牡丹国际花园16~18号,734103acddac2f8acd04ef5c,1,0,119.982719,31.855981,"13601501069,4008289989",life,http://api.map.baidu.com/place/detail?uid=734103acddac2f8acd04ef5c&output=html&source=placeapi_v2,,08:00-22:00,0.0,,,,,,,7,1,,,,,,,119.98290271009,31.855934074775,0
34c31c904d8e24f681288a69,新联盟地产,生活服务,房产中介机构,江苏省,常州市,新北区,江苏省常州市新北区红河路新景一期24-6号,,1,0,119.977048,31.872399,,life,http://api.map.baidu.com/place/detail?uid=34c31c904d8e24f681288a69&output=html&source=placeapi_v2,,,,,,,,,,5,,,,,,,,119.9771413729,31.872713766884,0
8fa63f81a6067e96b5f42ff6,常居地产(清水湾一店),生活服务,房产中介机构,江苏省,常州市,新北区,江苏省常州市新北区武夷山路清水湾花园51号,8fa63f81a6067e96b5f42ff6,1,0,119.973183,31.872621,4009281117,life,http://api.map.baidu.com/place/detail?uid=8fa63f81a6067e96b5f42ff6&output=html&source=placeapi_v2,,08:30-18:30,,,,,,,,1,,,,,,,,119.97332521479,31.872612417611,0
c01637021fd903f245e27450,上城地产(新景花苑店),生活服务,房产中介机构,江苏省,常州市,新北区,红河路新景花苑西区底商,c01637021fd903f245e27450,1,0,119.975424,31.872769,,life,http://api.map.baidu.com/place/detail?uid=c01637021fd903f245e27450&output=html&source=placeapi_v2,,09:00-21:00,,,,,,,,3,,,,,,,,,,0
bf6c3b7eff3cc50bf8f0cb7b,常居地产(道成广场店),生活服务,房产中介机构,江苏省,常州市,新北区,江苏省常州市新北区万和城时尚广场101号,bf6c3b7eff3cc50bf8f0cb7b,1,0,119.998436,31.853435,4009281117,life,http://api.map.baidu.com/place/detail?uid=bf6c3b7eff3cc50bf8f0cb7b&output=html&source=placeapi_v2,,08:30-18:30,,,,,,,,,,,,,,,,119.99834643231,31.853283288925,0
951ea2cb94b3053994ec8449,常居地产(滨江一店),生活服务,房产中介机构,江苏省,常州市,新北区,江苏省常州市新北区华山北路滨江明珠城东区10-5号,951ea2cb94b3053994ec8449,1,0,119.978744,31.873541,4009281117,life,http://api.map.baidu.com/place/detail?uid=951ea2cb94b3053994ec8449&output=html&source=placeapi_v2,,08:30-18:30,,,,,,,,14,,,,,,,,119.97846089297,31.873633024577,0
d95b8993c8875727f822139e,常居地产(清水湾三店),生活服务,房产中介机构,江苏省,常州市,新北区,江苏省常州市新北区武夷山路清水湾二期136号,d95b8993c8875727f822139e,1,0,119.973884,31.876048,"(0519)83875553,18015273718",life,http://api.map.baidu.com/place/detail?uid=d95b8993c8875727f822139e&output=html&source=placeapi_v2,,,,,,,,,,8,,,,,,,,119.97415722086,31.876013044671,0
c3c466661a1bf2753310af83,悦家地产(清水湾一店),生活服务,房产中介机构,江苏省,常州市,新北区,江苏省常州市新北区武夷山路清水湾花园三期138号,,1,0,119.973907,31.876083,,life,http://api.map.baidu.com/place/detail?uid=c3c466661a1bf2753310af83&output=html&source=placeapi_v2,,,,,,,,,,4,,,,,,,,,,0
b1d06f3149db5ebafea7781b,悦家地产(滨江二店),生活服务,房产中介机构,江苏省,常州市,新北区,江苏省常州市新北区华山北路滨江明珠城16-4号商铺,b1d06f3149db5ebafea7781b,1,0,119.980525,31.874606,,life,http://api.map.baidu.com/place/detail?uid=b1d06f3149db5ebafea7781b&output=html&source=placeapi_v2,,08:30-20:00,,,,,,,,8,,,,,,,,119.98052399979,31.874684986042,0
167b33261a2bc74e9868b496,乾居房屋租赁有限公司,生活服务,房产中介机构,江苏省,常州市,新北区,江苏常州市新北区罗溪镇云龙大酒店大华路店西100米乾居房屋租赁有限公司,167b33261a2bc74e9868b496,1,0,119.867854,31.889653,,life,http://api.map.baidu.com/place/detail?uid=167b33261a2bc74e9868b496&output=html&source=placeapi_v2,,09:00-22:00,,,,,,,,1,,,,,,,,,,0
2a7070d26aa5fbab631c67a3,常州地产(锦海星城店),生活服务,房产中介机构,江苏省,常州市,新北区,江苏省常州市新北区锦海星城20-3号正南方向50米,2a7070d26aa5fbab631c67a3,1,0,119.975603,31.879504,4009281117,life,http://api.map.baidu.com/place/detail?uid=2a7070d26aa5fbab631c67a3&output=html&source=placeapi_v2,,08:30-18:30,,,,,,,,9,,,,,,,,,,0
a5871cf6e7dc9c864c6d465f,滨江豪园售楼中心,生活服务,房产中介机构,江苏省,常州市,新北区,江苏省常州市新北区新业街305号,a5871cf6e7dc9c864c6d465f,1,0,120.000659,31.935405,(0519)85771288,life,http://api.map.baidu.com/place/detail?uid=a5871cf6e7dc9c864c6d465f&output=html&source=placeapi_v2,,00:00-24:00,,,,,,,,7,,,,,,,,120.00037077971,31.935379429326,0
7b8cbba662efde57ca291580,泽旺地产,生活服务,房产中介机构,江苏省,常州市,新北区,江苏省常州市新北区百馨西苑一二期77-56号,7b8cbba662efde57ca291580,1,0,119.964698,31.928137,,life,http://api.map.baidu.com/place/detail?uid=7b8cbba662efde57ca291580&output=html&source=placeapi_v2,,08:00-20:00,,,,,,,,6,,,,,,,,119.96473809683,31.928310476004,0
f690d6b0cfab6efc715e8017,滨江天宸售楼处,生活服务,房产中介机构,江苏省,常州市,新北区,江苏省常州市新北区新业街385号,f690d6b0cfab6efc715e8017,1,0,120.000435,31.935431,,life,http://api.map.baidu.com/place/detail?uid=f690d6b0cfab6efc715e8017&output=html&source=placeapi_v2,,,0,,,,,,,1,1,,,,,,,120.00037780919,31.93542448118,0
0cca43455d3788d71b11d52d,好帮手中介,生活服务,房产中介机构,江苏省,常州市,新北区,常州市新北区阳澄湖路丽江花园小区东南侧约100米,,1,0,119.835211,31.956734,13915010789,life,http://api.map.baidu.com/place/detail?uid=0cca43455d3788d71b11d52d&output=html&source=placeapi_v2,,,,,,,,,,3,,,,,,,,,,0
