uid,name,cat_L1,cat_L2,province,city,area,address,street_id,detail,child_num,loc_lng,loc_lat,telephone,type,detail_url,price,shop_hours,overall_rating,taste_rating,service_rating,environment_rating,facility_rating,hygiene_rating,technology_rating,image_num,comment_num,groupon_num,discount_num,favorite_num,checkin_num,brand,content_tag,naviloc_lng,naviloc_lat,child_num
bb1a55d6e9f5c81cb24c49ae,伟景园林,公司企业,农林园艺,河北省,保定市,定州市,保定市定州市双庙村委会南行1500米,,1,0,115.189722,38.651388,18732251867,enterprise,http://api.map.baidu.com/place/detail?uid=bb1a55d6e9f5c81cb24c49ae&output=html&source=placeapi_v2,,,0.0,,,,,,,,1,,,,,,,,,0
b29340b97a1fa84dbf4842a2,红谷农场,公司企业,农林园艺,河北省,保定市,望都县,保定市望都县中韩庄乡弘景生态园西(063村道西),,1,0,115.21715,38.662462,,enterprise,http://api.map.baidu.com/place/detail?uid=b29340b97a1fa84dbf4842a2&output=html&source=placeapi_v2,,,,,,,,,,,,,,,,,,,,0
6592d422612a56dd08ccdddd,望都县鸿光农场,公司企业,农林园艺,河北省,保定市,望都县,河北省保定市望都县柳陀村阳光南大街,,1,0,115.281673,38.642648,15903121873,enterprise,http://api.map.baidu.com/place/detail?uid=6592d422612a56dd08ccdddd&output=html&source=placeapi_v2,,08:00-17:30,,,,,,,,,,,,,,,,,,0
1bf85b25b82121daa1a93474,民强养殖基地,公司企业,农林园艺,河北省,保定市,望都县,河北省保定市望都县民强养殖基地(博望线南360米),,1,0,115.266533,38.643003,,enterprise,http://api.map.baidu.com/place/detail?uid=1bf85b25b82121daa1a93474&output=html&source=placeapi_v2,,,,,,,,,,,,,,,,,,115.26653870439,38.642778480606,0
c07b1f43fe6cc2840b69d9f9,润Z园林,公司企业,农林园艺,河北省,保定市,清苑区,河北省保定市清苑区,,1,0,115.312923,38.64966,18134121572,enterprise,http://api.map.baidu.com/place/detail?uid=c07b1f43fe6cc2840b69d9f9&output=html&source=placeapi_v2,,06:00-18:00,0.0,,,,,,,,1,,,,,,,,,0
a691d5d94b5d4be62002207c,绿谷园林,公司企业,农林园艺,河北省,保定市,清苑区,保定市清苑区李庄乡付家营,,1,0,115.313078,38.649549,13127428881,enterprise,http://api.map.baidu.com/place/detail?uid=a691d5d94b5d4be62002207c&output=html&source=placeapi_v2,,,,,,,,,,,,,,,,,,,,0
2765c3b244fd051e2fb96dcd,保定英照农业种植有限公司,公司企业,农林园艺,河北省,保定市,清苑区,河北省保定市清苑区,,1,0,115.37508,38.64427,,enterprise,http://api.map.baidu.com/place/detail?uid=2765c3b244fd051e2fb96dcd&output=html&source=placeapi_v2,,,,,,,,,,,,,,,,,,,,0
0e6f4358fdcb9ef9260bd006,保定市清苑区鑫凯农机专业合作社,公司企业,农林园艺,河北省,保定市,清苑区,保定市清苑区张马庄村,,1,0,115.353443,38.669157,,enterprise,http://api.map.baidu.com/place/detail?uid=0e6f4358fdcb9ef9260bd006&output=html&source=placeapi_v2,,,,,,,,,,,,,,,,,,115.35306871925,38.669173128559,0
61e60852c5472c05cd04ef37,丽庄之秀农业园,公司企业,农林园艺,河北省,保定市,清苑区,河北省保定市清苑区李庄乡李庄村,,1,0,115.36878,38.644296,13833038880,enterprise,http://api.map.baidu.com/place/detail?uid=61e60852c5472c05cd04ef37&output=html&source=placeapi_v2,,,5,,,,,,,,1,,,,,,,115.36888255862,38.644399791965,0
25aec1751cb65dc92cb96dd5,开心牧场养殖场,公司企业,农林园艺,河北省,保定市,清苑区,河北省保定市清苑区,,1,0,115.407044,38.639824,18932674700,enterprise,http://api.map.baidu.com/place/detail?uid=25aec1751cb65dc92cb96dd5&output=html&source=placeapi_v2,,,0.0,,,,,,,,1,,,,,,,,,0
1786b32e38d884d1b5147fcd,保定市清苑区同国养殖场,公司企业,农林园艺,河北省,保定市,清苑区,河北省保定市清苑区S335,,1,0,115.400422,38.668793,,enterprise,http://api.map.baidu.com/place/detail?uid=1786b32e38d884d1b5147fcd&output=html&source=placeapi_v2,,,0.0,,,,,,,,,,,,,,,,,0
dae6ceeede8564f82a02e124,佳政养殖场,公司企业,农林园艺,河北省,保定市,清苑区,河北省保定市清苑区300乡道,,1,0,115.389982,38.640527,13653327651,enterprise,http://api.map.baidu.com/place/detail?uid=dae6ceeede8564f82a02e124&output=html&source=placeapi_v2,,,5.0,,,,,,,,1,,,,,,,,,0
60de70d748da9f7fa1d23003,金丰农业服务有限公司,公司企业,农林园艺,河北省,保定市,清苑区,保定市清苑区S335智慧树幼儿园东南侧约190米,,1,0,115.424107,38.662744,15530244888,enterprise,http://api.map.baidu.com/place/detail?uid=60de70d748da9f7fa1d23003&output=html&source=placeapi_v2,,,,,,,,,,,,,,,,,,,,0
7e5fe569d21f777e364aaead,河北嘉顺农业科技有限公司,公司企业,农林园艺,河北省,保定市,清苑区,S231清苑东风锅炉厂东侧350米,,1,0,115.551837,38.639772,13831261741,enterprise,http://api.map.baidu.com/place/detail?uid=7e5fe569d21f777e364aaead&output=html&source=placeapi_v2,0.0,,,,,,,,,,,,,,,,,115.55260473004,38.639825205935,0
a5045735900fea552cb17e95,亚龙育苗基地,公司企业,农林园艺,河北省,保定市,清苑区,南王庄村,,1,0,115.546981,38.643188,13832267762,enterprise,http://api.map.baidu.com/place/detail?uid=a5045735900fea552cb17e95&output=html&source=placeapi_v2,,,,,,,,,,,,,,,,,,,,0
0510a68038e4a64be812e48c,蠡县红木粮食农民专业合作社,公司企业,农林园艺,河北省,保定市,蠡县,河北省保定市蠡县古灵山村古灵山占虎百吨地磅旁边,,1,0,115.63231,38.663961,(0312)6503765,enterprise,http://api.map.baidu.com/place/detail?uid=0510a68038e4a64be812e48c&output=html&source=placeapi_v2,,,,,,,,,,,,,,,,,,,,0
9ffdce46096fab920482c23a,建昌农民专业合作社,公司企业,农林园艺,河北省,保定市,蠡县,保定市蠡县万安镇人民政府西南侧约30米,,1,0,115.669044,38.649551,"15027878728,15831475868",enterprise,http://api.map.baidu.com/place/detail?uid=9ffdce46096fab920482c23a&output=html&source=placeapi_v2,,,,,,,,,,,,,,,,,,,,0
6a59ce7dac1e14bef8f0cbf1,望都县江水牧场,公司企业,农林园艺,河北省,保定市,望都县,河北省保定市望都县S032(迎宾大道),,1,0,115.193844,38.682077,,enterprise,http://api.map.baidu.com/place/detail?uid=6a59ce7dac1e14bef8f0cbf1&output=html&source=placeapi_v2,,,,,,,,,,,,,,,,,,115.19394654361,38.68176508599,0
5913be8a7c2ab7d622f01724,望都县黑哥家庭农场,公司企业,农林园艺,河北省,保定市,望都县,河北省保定市望都县高岭乡附近,,1,0,115.235254,38.68928,13931224377,enterprise,http://api.map.baidu.com/place/detail?uid=5913be8a7c2ab7d622f01724&output=html&source=placeapi_v2,,,,,,,,,,,,,,,,,,,,0
187f77293874233dabf7293e,陈前拉布拉多养殖场,公司企业,农林园艺,河北省,保定市,望都县,河北省保定市望都县,,1,0,115.232025,38.679032,,enterprise,http://api.map.baidu.com/place/detail?uid=187f77293874233dabf7293e&output=html&source=placeapi_v2,,,,,,,,,,,,,,,,,,115.23192617923,38.679563193226,0
cd49dabb9d938b78631c6796,农民专业合作社,公司企业,农林园艺,河北省,保定市,清苑区,保定市清苑区,,1,0,115.299521,38.695607,,enterprise,http://api.map.baidu.com/place/detail?uid=cd49dabb9d938b78631c6796&output=html&source=placeapi_v2,,,,,,,,,,,,,,,,,,,,0
6272431685d1893914c8f69f,京慈养殖基场,公司企业,农林园艺,河北省,保定市,清苑区,河北省保定市清苑区S335,,1,0,115.360607,38.690472,,enterprise,http://api.map.baidu.com/place/detail?uid=6272431685d1893914c8f69f&output=html&source=placeapi_v2,,,,,,,,,,,,,,,,,,115.36010512655,38.690590084786,0
0fe43456ded6b2d9a0acc4f8,盛福达獭兔养殖专业合作社,公司企业,农林园艺,河北省,保定市,清苑区,保定市清苑区S335,,1,0,115.345874,38.69266,15830933616,enterprise,http://api.map.baidu.com/place/detail?uid=0fe43456ded6b2d9a0acc4f8&output=html&source=placeapi_v2,,,,,,,,,,,,,,,,,,,,0
b09090223962f2fb9222e0ed,北京京磁养殖场,公司企业,农林园艺,河北省,保定市,清苑区,保定市清苑区S335东孙庄客运站东侧约210米,,1,0,115.367177,38.687462,13653129305,enterprise,http://api.map.baidu.com/place/detail?uid=b09090223962f2fb9222e0ed&output=html&source=placeapi_v2,,,,,,,,,,,,,,,,,,,,0
0e6f4358fdcb9ef9260bd006,保定市清苑区鑫凯农机专业合作社,公司企业,农林园艺,河北省,保定市,清苑区,保定市清苑区张马庄村,,1,0,115.353443,38.669157,,enterprise,http://api.map.baidu.com/place/detail?uid=0e6f4358fdcb9ef9260bd006&output=html&source=placeapi_v2,,,,,,,,,,,,,,,,,,115.35306871925,38.669173128559,0
1786b32e38d884d1b5147fcd,保定市清苑区同国养殖场,公司企业,农林园艺,河北省,保定市,清苑区,河北省保定市清苑区S335,,1,0,115.400422,38.668793,,enterprise,http://api.map.baidu.com/place/detail?uid=1786b32e38d884d1b5147fcd&output=html&source=placeapi_v2,,,0.0,,,,,,,,,,,,,,,,,0
92c698854b455e0557bfff20,保南农场,公司企业,农林园艺,河北省,保定市,清苑区,河北省保定市清苑区牛庄村,,1,0,115.458775,38.684803,,enterprise,http://api.map.baidu.com/place/detail?uid=92c698854b455e0557bfff20&output=html&source=placeapi_v2,,,,,,,,,,,,,,,,,,,,0
f07eaefbd0540cfc4207c1a3,河北耘展农业,公司企业,农林园艺,河北省,保定市,清苑区,保定市清苑区G240与南外环交叉路口往南约190米,,1,0,115.486352,38.680733,,enterprise,http://api.map.baidu.com/place/detail?uid=f07eaefbd0540cfc4207c1a3&output=html&source=placeapi_v2,,,,,,,,,,,,,,,,,,115.48597668184,38.680737011091,0
92c698854b455e0557bfff20,保南农场,公司企业,农林园艺,河北省,保定市,清苑区,河北省保定市清苑区牛庄村,,1,0,115.458775,38.684803,,enterprise,http://api.map.baidu.com/place/detail?uid=92c698854b455e0557bfff20&output=html&source=placeapi_v2,,,,,,,,,,,,,,,,,,,,0
5f06605df5da7849100daa3f,保定老铁农业机械销售有限公司,公司企业,农林园艺,河北省,保定市,清苑区,河北省保定市清苑区保衡路清苑驾校训练场北150米,,1,0,115.486462,38.697833,13582248654,enterprise,http://api.map.baidu.com/place/detail?uid=5f06605df5da7849100daa3f&output=html&source=placeapi_v2,,,,,,,,,,,,,,,,,,115.4864643234,38.697756065512,0
c5aa9acb6ac451272fe67b8a,高阳县绿建生猪专业合作社,公司企业,农林园艺,河北省,保定市,高阳县,保定市高阳县高清路,,1,0,115.705291,38.688519,,enterprise,http://api.map.baidu.com/place/detail?uid=c5aa9acb6ac451272fe67b8a&output=html&source=placeapi_v2,,,,,,,,,,,,,,,,,,,,0
9f45d1576cc66484d5b74ef7,望都县金盾养殖场,公司企业,农林园艺,河北省,保定市,望都县,河北省保定市望都县,,1,0,115.236715,38.720575,13930852258,enterprise,http://api.map.baidu.com/place/detail?uid=9f45d1576cc66484d5b74ef7&output=html&source=placeapi_v2,,07:00-19:00,0.0,,,,,,,,1,,,,,,,115.236712872,38.720363165049,0
2f38cee3f408fc7c9ff7792b,保定晟禾农业科技有限公司,公司企业,农林园艺,河北省,保定市,清苑区,保定市清苑区大魏庄村,,1,0,115.324957,38.702503,13930852825,enterprise,http://api.map.baidu.com/place/detail?uid=2f38cee3f408fc7c9ff7792b&output=html&source=placeapi_v2,,00:00-24:00,,,,,,,,,,,,,,,,115.3245753012,38.7025276086,0
42420e130e82eb4c5bf6bead,王胡庄腾飞家庭农场,公司企业,农林园艺,河北省,保定市,清苑区,河北省保定市清苑区阳城镇王胡庄村,,1,0,115.339634,38.70792,15931766045,enterprise,http://api.map.baidu.com/place/detail?uid=42420e130e82eb4c5bf6bead&output=html&source=placeapi_v2,,,,,,,,,,,,,,,,,,,,0
b5dc470586270e3222f01744,清林牧场,公司企业,农林园艺,河北省,保定市,清苑区,河北省保定市清苑区旅游路好梦林水微度假体验区,,1,0,115.452769,38.720422,18132779605,enterprise,http://api.map.baidu.com/place/detail?uid=b5dc470586270e3222f01744&output=html&source=placeapi_v2,,08:00-21:00,5.0,,,,,,,,1,,,,,,,115.45277376511,38.720586023754,0
47c47ce3527d774a740269ca,立中蒙养农场,公司企业,农林园艺,河北省,保定市,清苑区,保定市清苑区312乡道附近,,1,1,115.456742,38.720779,,enterprise,http://api.map.baidu.com/place/detail?uid=47c47ce3527d774a740269ca&output=html&source=placeapi_v2,,,,,,,,,,,,,,,,,,115.45674108019,38.720523615542,1
47c47ce3527d774a740269ca,立中蒙养农场,公司企业,农林园艺,河北省,保定市,清苑区,保定市清苑区312乡道附近,,1,1,115.456742,38.720779,,enterprise,http://api.map.baidu.com/place/detail?uid=47c47ce3527d774a740269ca&output=html&source=placeapi_v2,,,,,,,,,,,,,,,,,,115.45674108019,38.720523615542,1
4a57c117f89f490acd04efb2,永青苗圃场,公司企业,农林园艺,河北省,保定市,清苑区,河北省保定市清苑区东吕乡,,1,0,115.600193,38.708413,13930237063,enterprise,http://api.map.baidu.com/place/detail?uid=4a57c117f89f490acd04efb2&output=html&source=placeapi_v2,,00:00-24:00,,,,,,,,,,,,,,,,,,0
08bb6549a17e57813686f461,草桥牧丰养殖场,公司企业,农林园艺,河北省,保定市,清苑区,河北省保定市清苑区,,1,0,115.595077,38.730548,13930837500,enterprise,http://api.map.baidu.com/place/detail?uid=08bb6549a17e57813686f461&output=html&source=placeapi_v2,,,0.0,,,,,,,,,,,,,,,115.59478836179,38.730569423279,0
4510200d3364109bdc1e5269,企东家庭农场,公司企业,农林园艺,河北省,保定市,清苑区,保定市清苑区高台村1区023号,,1,0,115.248477,38.748375,"13483254354,13613223602",enterprise,http://api.map.baidu.com/place/detail?uid=4510200d3364109bdc1e5269&output=html&source=placeapi_v2,,00:00-24:00,,,,,,,,,,,,,,,,,,0
d36f2adbe92c3531c4f50d69,满城区彤瑞农产品种植场,公司企业,农林园艺,河北省,保定市,满城区,河北省保定市满城区方顺桥镇三恩庄村4区63,,1,0,115.281351,38.743085,13653122930,enterprise,http://api.map.baidu.com/place/detail?uid=d36f2adbe92c3531c4f50d69&output=html&source=placeapi_v2,,,,,,,,,,,,,,,,,,,,0
ed9f8a4973905afdcf06a433,清苑区鑫鸿养殖场,公司企业,农林园艺,河北省,保定市,清苑区,河北省保定市清苑区白团乡白团西街村西,,1,0,115.391256,38.760761,15833330124,enterprise,http://api.map.baidu.com/place/detail?uid=ed9f8a4973905afdcf06a433&output=html&source=placeapi_v2,,,,,,,,,,,,,,,,,,,,0
67c76e3c6e087e1a6cc02cc1,佳禾现代农业园区,公司企业,农林园艺,河北省,保定市,清苑区,保定市清苑区北店乡京港澳高速公路南300米,,1,0,115.439939,38.743953,18910559186,enterprise,http://api.map.baidu.com/place/detail?uid=67c76e3c6e087e1a6cc02cc1&output=html&source=placeapi_v2,,,5.0,,,,,,,,2,,,,,,,,,0
dd1a34ecbe035ffe3517dcba,雨虹七彩农场,公司企业,农林园艺,河北省,保定市,清苑区,河北省保定市清苑区东壁阳城村,,1,0,115.45004,38.760653,15097400806,enterprise,http://api.map.baidu.com/place/detail?uid=dd1a34ecbe035ffe3517dcba&output=html&source=placeapi_v2,,,,,,,,,,,,,,,,,,,,0
6c8803c293efa1f2e856fafe,清苑区吉祥胤家庭农场,公司企业,农林园艺,河北省,保定市,清苑区,保定市清苑区东壁阳城村东南,,1,0,115.450029,38.76067,,enterprise,http://api.map.baidu.com/place/detail?uid=6c8803c293efa1f2e856fafe&output=html&source=placeapi_v2,,08:00-17:30,,,,,,,,,,,,,,,,115.44993518527,38.760654579784,0
52495acb824da77c1894c6ef,保定腾硕农业科技有限公司,公司企业,农林园艺,河北省,保定市,清苑区,河北省保定市清苑区清苑镇莲池南大街与前进东街交叉口东南角,52495acb824da77c1894c6ef,1,0,115.495258,38.749026,(0312)8118333,enterprise,http://api.map.baidu.com/place/detail?uid=52495acb824da77c1894c6ef&output=html&source=placeapi_v2,,,,,,,,,,,0,,,,,,,115.49522866716,38.749287926832,0
4cc5f75b4c07409301294f3e,保定三龙苗木种植公司,公司企业,农林园艺,河北省,保定市,清苑区,保定市清苑区莲池南大街清苑汽车站南侧约220米,,1,0,115.496757,38.755872,,enterprise,http://api.map.baidu.com/place/detail?uid=4cc5f75b4c07409301294f3e&output=html&source=placeapi_v2,,,,,,,,,,,,,,,,,,,,0
d55d7af9202d304688fc06c2,康蓝农业科技,公司企业,农林园艺,河北省,保定市,清苑区,保定市清苑区北店乡东林水小学东南侧约150米,,1,0,115.468107,38.735403,,enterprise,http://api.map.baidu.com/place/detail?uid=d55d7af9202d304688fc06c2&output=html&source=placeapi_v2,,,,,,,,,,,,,,,,,,,,0
0caa0c3f2fa10569f50e7727,保定市千亩元宝枫基地,公司企业,农林园艺,河北省,保定市,清苑区,保定市清苑区祥光街东200米,,1,0,115.516688,38.742181,"15042040000,18241016789",enterprise,http://api.map.baidu.com/place/detail?uid=0caa0c3f2fa10569f50e7727&output=html&source=placeapi_v2,,,,,,,,,,,,,,,,,,,,0
4cc5f75b4c07409301294f3e,保定三龙苗木种植公司,公司企业,农林园艺,河北省,保定市,清苑区,保定市清苑区莲池南大街清苑汽车站南侧约220米,,1,0,115.496757,38.755872,,enterprise,http://api.map.baidu.com/place/detail?uid=4cc5f75b4c07409301294f3e&output=html&source=placeapi_v2,,,,,,,,,,,,,,,,,,,,0
bbb30a909687cd7df7eafcef,清苑区佳和顺奶牛养殖场,公司企业,农林园艺,河北省,保定市,清苑区,河北省保定市清苑区,,1,0,115.596645,38.750452,,enterprise,http://api.map.baidu.com/place/detail?uid=bbb30a909687cd7df7eafcef&output=html&source=placeapi_v2,,,,,,,,,,,,,,,,,,115.60035792243,38.748558007711,0
083988423c21d852c8291558,后铺养鸡场,公司企业,农林园艺,河北省,保定市,清苑区,河北省保定市清苑区,,1,0,115.646479,38.743605,,enterprise,http://api.map.baidu.com/place/detail?uid=083988423c21d852c8291558&output=html&source=placeapi_v2,,,0,,,,,,,,2,,,,,,,,,0
5fa3e1897a358d044bcc4a64,河北奥纳农业科技有限公司,公司企业,农林园艺,河北省,保定市,满城区,保定市满城区G107满城区农村信用合作联社(方顺桥农村信用合作社)西南侧约290米,,1,0,115.27076,38.778274,,enterprise,http://api.map.baidu.com/place/detail?uid=5fa3e1897a358d044bcc4a64&output=html&source=placeapi_v2,,,,,,,,,,,,,,,,,,,,0
fc15603186133385c356acd9,保定市正孚养殖场,公司企业,农林园艺,河北省,保定市,清苑区,河北省保定市清苑区魏村镇谢上村,,1,0,115.321346,38.77685,13503121980,enterprise,http://api.map.baidu.com/place/detail?uid=fc15603186133385c356acd9&output=html&source=placeapi_v2,,06:00-21:30,,,,,,,,,,,,,,,,115.32150767412,38.77684605446,0
f292fac5ad2785d99cec2b29,蓝迪养殖场,公司企业,农林园艺,河北省,保定市,满城区,保定市满城区G107,,1,0,115.298732,38.789498,,enterprise,http://api.map.baidu.com/place/detail?uid=f292fac5ad2785d99cec2b29&output=html&source=placeapi_v2,,,,,,,,,,,,,,,,,,,,0
e054f46d14f7c921f90cad00,保定市满城区益峰家庭农场,公司企业,农林园艺,河北省,保定市,满城区,河北省保定市满城区G1812(保阜高速),,1,0,115.343903,38.796183,,enterprise,http://api.map.baidu.com/place/detail?uid=e054f46d14f7c921f90cad00&output=html&source=placeapi_v2,,,,,,,,,,,,,,,,,,,,0
6167414b8bd949f9badf8f64,保定市嘉坤农业白团分公司,公司企业,农林园艺,河北省,保定市,清苑区,河北省保定市清苑区,,1,0,115.421417,38.773152,,enterprise,http://api.map.baidu.com/place/detail?uid=6167414b8bd949f9badf8f64&output=html&source=placeapi_v2,,,0.0,,,,,,,,1,,,,,,,,,0
c0d8f3adda97f18a260bd064,秀丽果蔬专业合作社,公司企业,农林园艺,河北省,保定市,清苑区,河北省保定市清苑区团结北路70号,,1,0,115.512878,38.778194,18333239996,enterprise,http://api.map.baidu.com/place/detail?uid=c0d8f3adda97f18a260bd064&output=html&source=placeapi_v2,,08:00-21:00,,,,,,,,,,,,,,,,115.51287178712,38.778407102631,0
e01d4717c0681c971894c642,顺平县昊聪饲养场,公司企业,农林园艺,河北省,保定市,顺平县,保定市顺平县高于铺镇坝子口村4队0058号,,1,0,115.197934,38.812175,13731497919,enterprise,http://api.map.baidu.com/place/detail?uid=e01d4717c0681c971894c642&output=html&source=placeapi_v2,,00:00-24:00,,,,,,,,,,,,,,,,,,0
8f3ab4ab0f1ecdbd22022083,清乐悦家庭农场,公司企业,农林园艺,河北省,保定市,满城区,保定市满城区方顺桥镇南固店村,,1,0,115.265552,38.801287,13932245194,enterprise,http://api.map.baidu.com/place/detail?uid=8f3ab4ab0f1ecdbd22022083&output=html&source=placeapi_v2,,,,,,,,,,,,,,,,,,,,0
784a03b8521d75c6a4c7562c,河北保定宏达牧场,公司企业,农林园艺,河北省,保定市,满城区,河北省保定市满城区于家庄乡,,1,0,115.324176,38.817597,,enterprise,http://api.map.baidu.com/place/detail?uid=784a03b8521d75c6a4c7562c&output=html&source=placeapi_v2,,,,,,,,,,,,,,,,,,,,0
28b6cf169213e508901fc9ce,保定市腾萱果蔬有限公司,公司企业,农林园艺,河北省,保定市,满城区,河北省保定市满城区于家庄乡汤村村东,,1,0,115.344847,38.829601,,enterprise,http://api.map.baidu.com/place/detail?uid=28b6cf169213e508901fc9ce&output=html&source=placeapi_v2,,,,,,,,,,,,,,,,,,,,0
469217c92819aa3a4002453e,旭升农场,公司企业,农林园艺,河北省,保定市,满城区,河北省保定市满城区,,1,0,115.345115,38.826845,15830920668,enterprise,http://api.map.baidu.com/place/detail?uid=469217c92819aa3a4002453e&output=html&source=placeapi_v2,,,0.0,,,,,,,,0,,,,,,,115.34528632762,38.826414675087,0
23650ff4a94476c9f5c59c26,江诚乡大激店蔬菜合作社,公司企业,农林园艺,河北省,保定市,竞秀区,河北省保定市竞秀区,,1,0,115.399564,38.832551,,enterprise,http://api.map.baidu.com/place/detail?uid=23650ff4a94476c9f5c59c26&output=html&source=placeapi_v2,,,,,,,,,,,,,,,,,,,,0
0531deb76a756a9d9222e0ad,农大农场奶牛养殖园,公司企业,农林园艺,河北省,保定市,莲池区,五尧乡南二环宝硕路农大农场,,1,0,115.423677,38.808119,,enterprise,http://api.map.baidu.com/place/detail?uid=0531deb76a756a9d9222e0ad&output=html&source=placeapi_v2,,,,,,,,,,,,,,,,,,115.42368345808,38.808071917248,0
50e01f1bc1c9462eb4147fa3,保定农丰种业有限公司,公司企业,农林园艺,河北省,保定市,莲池区,河北省保定市莲池区,,1,0,115.420292,38.811374,,enterprise,http://api.map.baidu.com/place/detail?uid=50e01f1bc1c9462eb4147fa3&output=html&source=placeapi_v2,,,,,,,,,,,,,,,,,,,,0
09ad747a9ff7aed59de32140,保定草坪基地,公司企业,农林园艺,河北省,保定市,莲池区,河北省保定市莲池区南二环,,1,0,115.440389,38.823156,,enterprise,http://api.map.baidu.com/place/detail?uid=09ad747a9ff7aed59de32140&output=html&source=placeapi_v2,,,5,,,,,,,,2,,,,,,,115.43977583504,38.823160710458,0
63c0b7c2b19cdd94b21e3633,固德生态农业发展有限公司特种野猪繁育中心,公司企业,农林园艺,河北省,保定市,莲池区,保定市莲池区南二环阳光庄园西北侧约80米,63c0b7c2b19cdd94b21e3633,1,0,115.443233,38.827023,,enterprise,http://api.map.baidu.com/place/detail?uid=63c0b7c2b19cdd94b21e3633&output=html&source=placeapi_v2,,,,,,,,,,,,,,,,,,115.44330445454,38.827026422128,0
12845eadd2dcb93640024531,河北金池牧业科技发展有限公司,公司企业,农林园艺,河北省,保定市,莲池区,河北省保定市莲池区莲池南大街2230号,,1,0,115.495335,38.80986,(0312)8920005,enterprise,http://api.map.baidu.com/place/detail?uid=12845eadd2dcb93640024531&output=html&source=placeapi_v2,,,,,,,,,,,,,,,,,,,,0
00e5d3742b6a53bafa0cad98,河北匠鲜农业,公司企业,农林园艺,河北省,保定市,莲池区,保定市莲池区南二环保定联农果品批发市场东南侧约210米,,1,0,115.519018,38.819117,13146847200,enterprise,http://api.map.baidu.com/place/detail?uid=00e5d3742b6a53bafa0cad98&output=html&source=placeapi_v2,,00:00-24:00,,,,,,,,,,,,,,,,115.51893408989,38.81894215281,0
4a5d5f101c5ba83e734b871b,河北妙豆农业技术服务有限公司,公司企业,农林园艺,河北省,保定市,莲池区,莲池区南二环保运汽贸旁,,1,0,115.52693,38.818964,,enterprise,http://api.map.baidu.com/place/detail?uid=4a5d5f101c5ba83e734b871b&output=html&source=placeapi_v2,,,,,,,,,,,,,,,,,,115.52686754866,38.818598231433,0
02708c1b5427489c84330488,定兴润豆农业科技有限公司,公司企业,农林园艺,河北省,保定市,莲池区,保定市莲池区长城南大街保定联农果品批发市场西北侧约60米,,1,0,115.514751,38.823261,13103323839,enterprise,http://api.map.baidu.com/place/detail?uid=02708c1b5427489c84330488&output=html&source=placeapi_v2,,,,,,,,,,,,,,,,,,,,0
11c514dc92d791fde8f853e8,保定市南市区绿野奶农专业合作社,公司企业,农林园艺,河北省,保定市,莲池区,保定市莲池区钰达物流园东侧,,1,0,115.557404,38.823146,,enterprise,http://api.map.baidu.com/place/detail?uid=11c514dc92d791fde8f853e8&output=html&source=placeapi_v2,,,,,,,,,,,,,,,,,,,,0
379facf6f02e6abc43024596,保定市佳林绿化有限公司,公司企业,农林园艺,河北省,保定市,莲池区,保定市莲池区樊庄村橙市阳光小区对过,,1,0,115.541961,38.821753,,enterprise,http://api.map.baidu.com/place/detail?uid=379facf6f02e6abc43024596&output=html&source=placeapi_v2,,,,,,,,,,,,,,,,,,,,0
3f45b5ce5dd4acd53686f468,建寅奶牛养殖基地,公司企业,农林园艺,河北省,保定市,莲池区,河北省保定市莲池区正兴东路,,1,0,115.568315,38.827538,,enterprise,http://api.map.baidu.com/place/detail?uid=3f45b5ce5dd4acd53686f468&output=html&source=placeapi_v2,,09:00-18:30,,,,,,,,,,,,,,,,,,0
57e0da0d0b3ce54d6fa3ccb6,甲一牧场,公司企业,农林园艺,河北省,保定市,莲池区,保定市莲池区正兴东路,,1,0,115.56887,38.827551,,enterprise,http://api.map.baidu.com/place/detail?uid=57e0da0d0b3ce54d6fa3ccb6&output=html&source=placeapi_v2,,,,,,,,,,,,,,,,,,,,0
b6a858c64544fa8329fc482a,添昊花卉种植有限公司,公司企业,农林园艺,河北省,保定市,莲池区,河北省保定市莲池区荣昌大街41号,,1,0,115.565205,38.831296,,enterprise,http://api.map.baidu.com/place/detail?uid=b6a858c64544fa8329fc482a&output=html&source=placeapi_v2,,,0,,,,,,,,1,,,,,,,,,0
3b2a4483230de751eb56fa5a,萨英苑奶牛养殖场,公司企业,农林园艺,河北省,保定市,清苑区,保定市清苑区平陵村萨英苑奶牛养殖场,,1,0,115.60303,38.824931,15175283377,enterprise,http://api.map.baidu.com/place/detail?uid=3b2a4483230de751eb56fa5a&output=html&source=placeapi_v2,,,,,,,,,,,,,,,,,,115.60291923488,38.824826749681,0
bacf302d0307a73e1b11d5b0,清苑县北石桥中冀畜牧养殖,公司企业,农林园艺,河北省,保定市,莲池区,保定市莲池区北石桥村,,1,0,115.582548,38.81147,18932681795,enterprise,http://api.map.baidu.com/place/detail?uid=bacf302d0307a73e1b11d5b0&output=html&source=placeapi_v2,,,,,,,,,,,,,,,,,,,,0
18aa585a5cba3efab75f1eef,哼哼养殖场,公司企业,农林园艺,河北省,保定市,清苑区,河北省保定市清苑区富昌街,,1,0,115.675983,38.82454,,enterprise,http://api.map.baidu.com/place/detail?uid=18aa585a5cba3efab75f1eef&output=html&source=placeapi_v2,,,,,,,,,,,,,,,,,,,,0
6b5cd666fd6f22f2931fc9d6,保定岩田农业科技开发有限公司,公司企业,农林园艺,河北省,保定市,顺平县,河北省保定市顺平县李千户村,,1,0,115.194755,38.849453,,enterprise,http://api.map.baidu.com/place/detail?uid=6b5cd666fd6f22f2931fc9d6&output=html&source=placeapi_v2,,,0.0,,,,,,,,,,,,,,,115.19475712779,38.849281800127,0
74d958bbae1fd9ccc03644c8,东海草莓种植园,公司企业,农林园艺,河北省,保定市,顺平县,河北省保定市顺平县西韩童大桥西500米,,1,0,115.20469,38.858218,,enterprise,http://api.map.baidu.com/place/detail?uid=74d958bbae1fd9ccc03644c8&output=html&source=placeapi_v2,,,,,,,,,,,,,,,,,,115.20573347071,38.858376431031,0
e4a83b4984fe255a3be4a659,顺平县凯红苗果农民合作社,公司企业,农林园艺,河北省,保定市,顺平县,保定市顺平县,,1,0,115.210493,38.843613,15194998056,enterprise,http://api.map.baidu.com/place/detail?uid=e4a83b4984fe255a3be4a659&output=html&source=placeapi_v2,,,0.0,,,,,,,,1,,,,,,,,,0
f2c72762821f4a7308f5eb77,顺平县佳宇园林绿化有限公司,公司企业,农林园艺,河北省,保定市,顺平县,保定市顺平县高于铺镇东显阳二村,,1,0,115.174191,38.841563,13111684526,enterprise,http://api.map.baidu.com/place/detail?uid=f2c72762821f4a7308f5eb77&output=html&source=placeapi_v2,0.0,,,,,,,,,,,,,,,,,,,0
61ba85f30f04081202897207,森浩家庭农场,公司企业,农林园艺,河北省,保定市,顺平县,河北省保定市顺平县腰山镇六四庄村,,1,0,115.210485,38.845172,15175767573,enterprise,http://api.map.baidu.com/place/detail?uid=61ba85f30f04081202897207&output=html&source=placeapi_v2,,,,,,,,,,,,,,,,,,,,0
d3b85ffc30edabedd3ff2383,顺平县绿化苗木洽谈处,公司企业,农林园艺,河北省,保定市,顺平县,保定市顺平县东显阳二村,,1,0,115.174823,38.840866,13784278867,enterprise,http://api.map.baidu.com/place/detail?uid=d3b85ffc30edabedd3ff2383&output=html&source=placeapi_v2,,,,,,,,,,,,,,,,,,,,0
5bfdaba43aa2a10ea2d23014,顺平县高艳栓养殖场,公司企业,农林园艺,河北省,保定市,顺平县,保定市顺平县西新兴村254号,,1,0,115.222303,38.843013,15930735599,enterprise,http://api.map.baidu.com/place/detail?uid=5bfdaba43aa2a10ea2d23014&output=html&source=placeapi_v2,,08:00-20:00,5.0,,,,,,,,1,,,,,,,115.22250092246,38.84305678186,0
b3efc7ddb234e9148c1a8954,顺平县国田家庭农场,公司企业,农林园艺,河北省,保定市,顺平县,河北省保定市顺平县腰山镇2队12号,,1,0,115.221368,38.843704,13693058254,enterprise,http://api.map.baidu.com/place/detail?uid=b3efc7ddb234e9148c1a8954&output=html&source=placeapi_v2,,,,,,,,,,,1,,,,,,,,,0
99310ebdba456763be484200,草莓基地,公司企业,农林园艺,河北省,保定市,满城区,河北省保定市满城区,,1,0,115.292392,38.859153,,enterprise,http://api.map.baidu.com/place/detail?uid=99310ebdba456763be484200&output=html&source=placeapi_v2,,,,,,,,,,,,,,,,,,,,0
8b62a30d9ba140ca3b221c2f,保定市满城区苗圃场,公司企业,农林园艺,河北省,保定市,满城区,河北省保定市满城区南韩村镇疙瘩屯村东,,1,0,115.285319,38.864606,13933203243,enterprise,http://api.map.baidu.com/place/detail?uid=8b62a30d9ba140ca3b221c2f&output=html&source=placeapi_v2,,,0.0,,,,,,,,1,,,,,,,115.28531106445,38.865473738052,0
7c041d8d79d34465badf8f10,保定亿泽果蔬种植公司,公司企业,农林园艺,河北省,保定市,满城区,河北省保定市满城区纬一路,,1,0,115.341819,38.857354,,enterprise,http://api.map.baidu.com/place/detail?uid=7c041d8d79d34465badf8f10&output=html&source=placeapi_v2,,,,,,,,,,,,,,,,,,115.34182094613,38.857107848342,0
e55b1d20ab166bdfcac3dba6,农趣家庭农场,公司企业,农林园艺,河北省,保定市,竞秀区,保定市竞秀区烽火台东路美林河畔东南侧约80米,,1,0,115.408245,38.84096,(0312)2055589,enterprise,http://api.map.baidu.com/place/detail?uid=e55b1d20ab166bdfcac3dba6&output=html&source=placeapi_v2,,09:00-22:00,5,,,,,,,,2,,,,,,,115.40814228498,38.8412037335,0
0f87a9efdf435d2496f08c96,豪达家庭农场,公司企业,农林园艺,河北省,保定市,竞秀区,河北省保定市竞秀区通富路,,1,0,115.408186,38.848677,,enterprise,http://api.map.baidu.com/place/detail?uid=0f87a9efdf435d2496f08c96&output=html&source=placeapi_v2,,,,,,,,,,,,,,,,,,,,0
1412786f1652c179d7851fa4,运涛塑网蔬菜专业合作社,公司企业,农林园艺,河北省,保定市,竞秀区,保定市竞秀区永兴路24-3号附近,,1,0,115.394043,38.842092,,enterprise,http://api.map.baidu.com/place/detail?uid=1412786f1652c179d7851fa4&output=html&source=placeapi_v2,,,,,,,,,,,,,,,,,,,,0
a7843888305573674154d754,保定市农业生态园-蔬菜观光园,公司企业,农林园艺,河北省,保定市,竞秀区,保定市竞秀区银杏大道保定市农业生态园,a7843888305573674154d754,1,0,115.403986,38.836824,,enterprise,http://api.map.baidu.com/place/detail?uid=a7843888305573674154d754&output=html&source=placeapi_v2,,,,,,,,,,,1,,,,,,,,,0
b200924431dcfa46b24c4938,高新农业蔬菜基地,公司企业,农林园艺,河北省,保定市,竞秀区,保定市竞秀区通富路与西二环交叉路口往北约130米,,1,0,115.411803,38.849833,,enterprise,http://api.map.baidu.com/place/detail?uid=b200924431dcfa46b24c4938&output=html&source=placeapi_v2,,,,,,,,,,,,,,,,,,115.4118292461,38.849919023631,0
23650ff4a94476c9f5c59c26,江诚乡大激店蔬菜合作社,公司企业,农林园艺,河北省,保定市,竞秀区,河北省保定市竞秀区,,1,0,115.399564,38.832551,,enterprise,http://api.map.baidu.com/place/detail?uid=23650ff4a94476c9f5c59c26&output=html&source=placeapi_v2,,,,,,,,,,,,,,,,,,,,0
d59c6c2c2a230c802b201a83,大祝泽果蔬基地,公司企业,农林园艺,河北省,保定市,竞秀区,保定市竞秀区富昌乡大祝泽村,,1,2,115.439046,38.847084,,enterprise,http://api.map.baidu.com/place/detail?uid=d59c6c2c2a230c802b201a83&output=html&source=placeapi_v2,,,,,,,,,,,,,,,,,,115.43921075327,38.847415012992,2
081c1c6152800c4c8a36ee64,保定市农佳农业科技有限公司,公司企业,农林园艺,河北省,保定市,莲池区,保定市莲池区利民街保定市农资科技市场,,1,0,115.47858,38.840018,13731681926,enterprise,http://api.map.baidu.com/place/detail?uid=081c1c6152800c4c8a36ee64&output=html&source=placeapi_v2,,,,,,,,,,,,,,,,,,,,0
21d95569e39080eea1d23094,保定市宝林农业新技术推广服务有限公司,公司企业,农林园艺,河北省,保定市,莲池区,河北省保定市莲池区利民街492号,21d95569e39080eea1d23094,1,0,115.479875,38.839522,"(0312)5931268,13082366897",enterprise,http://api.map.baidu.com/place/detail?uid=21d95569e39080eea1d23094&output=html&source=placeapi_v2,0.0,,,,,,,,,,,,,,,,,115.4799193521,38.839683696401,0
52b40cdd12b95f402afc48e5,保定益农种业有限公司,公司企业,农林园艺,河北省,保定市,莲池区,河北省莲池区利民街保定市农资科技市场,52b40cdd12b95f402afc48e5,1,0,115.477954,38.839934,(0312)5931222,enterprise,http://api.map.baidu.com/place/detail?uid=52b40cdd12b95f402afc48e5&output=html&source=placeapi_v2,,,,,,,,,,,,,,,,,,,,0
ce43a3f160eafb7272210bd9,保定市鑫爱达农业科技有限公司,公司企业,农林园艺,河北省,保定市,莲池区,河北省保定市莲池区利民街488号,ce43a3f160eafb7272210bd9,1,0,115.478711,38.840029,13833246195,enterprise,http://api.map.baidu.com/place/detail?uid=ce43a3f160eafb7272210bd9&output=html&source=placeapi_v2,,,,,,,,,,,,,,,,,,,,0
cf0c527c170411c0091cc7a0,河北科雄农业科技有限公司,公司企业,农林园艺,河北省,保定市,莲池区,河北省保定市莲池区三丰中路962号长江商务中心,,1,0,115.483937,38.851875,,enterprise,http://api.map.baidu.com/place/detail?uid=cf0c527c170411c0091cc7a0&output=html&source=placeapi_v2,,,,,,,,,,,,,,,,,,,,0
f0480c0b9e3a7fb99122e07b,保定丰登农业科技有限公司,公司企业,农林园艺,河北省,保定市,莲池区,保定市莲池区利民街新一代-E区西侧约100米,f0480c0b9e3a7fb99122e07b,1,0,115.479525,38.840001,13930808635,enterprise,http://api.map.baidu.com/place/detail?uid=f0480c0b9e3a7fb99122e07b&output=html&source=placeapi_v2,,,,,,,,,,,,,,,,,,115.47945837584,38.839761409513,0
187ad7d356610c5f8c55ec23,保定耘收农业科技有限公司,公司企业,农林园艺,河北省,保定市,莲池区,保定市莲池区保定市农资科技市场,,1,0,115.476855,38.840595,,enterprise,http://api.map.baidu.com/place/detail?uid=187ad7d356610c5f8c55ec23&output=html&source=placeapi_v2,,,,,,,,,,,,,,,,,,,,0
3dddb68c682f553340ab9a5e,保定市双收农业科技有限公司,公司企业,农林园艺,河北省,保定市,莲池区,河北省保定市莲池区利民街492号,3dddb68c682f553340ab9a5e,1,0,115.476643,38.840389,"13833048387,13833493733",enterprise,http://api.map.baidu.com/place/detail?uid=3dddb68c682f553340ab9a5e&output=html&source=placeapi_v2,,,,,,,,,,,,,,,,,,,,0
e6a2ee7e9341c9a815a190cf,保定市浩丰农业科技有限公司,公司企业,农林园艺,河北省,保定市,莲池区,河北省保定市莲池区利民街492号农资科技市场14号楼,e6a2ee7e9341c9a815a190cf,1,0,115.478511,38.839841,"(0312)2150105,(0312)2150619",enterprise,http://api.map.baidu.com/place/detail?uid=e6a2ee7e9341c9a815a190cf&output=html&source=placeapi_v2,,,,,,,,,,,,,,,,,,,,0
dc2d7eb03963126d31870ad5,保定市荣邦农业科技有限公司,公司企业,农林园艺,河北省,保定市,莲池区,保定市莲池区利民街保定市农资科技市场,dc2d7eb03963126d31870ad5,1,0,115.479302,38.839976,18103120522,enterprise,http://api.map.baidu.com/place/detail?uid=dc2d7eb03963126d31870ad5&output=html&source=placeapi_v2,,,,,,,,,,,,,,,,,,115.47924235672,38.83979798548,0
fa5e76ea79b3d71e7402691b,河北圣瑞思农业科技有限公司,公司企业,农林园艺,河北省,保定市,莲池区,河北省保定市莲池区利民街492号农资科技市场45号,fa5e76ea79b3d71e7402691b,1,0,115.477068,38.840233,,enterprise,http://api.map.baidu.com/place/detail?uid=fa5e76ea79b3d71e7402691b&output=html&source=placeapi_v2,,,,,,,,,,,,,,,,,,,,0
4fffdf8f13e91fc436b06c88,河北金盛元农业科技有限公司,公司企业,农林园艺,河北省,保定市,莲池区,河北保定市莲池区利民路农资科技市场37号,4fffdf8f13e91fc436b06c88,1,0,115.477337,38.840197,13833262555,enterprise,http://api.map.baidu.com/place/detail?uid=4fffdf8f13e91fc436b06c88&output=html&source=placeapi_v2,,,,,,,,,,,,,,,,,,,,0
bf14f833836c0abb3a04b19e,阳光园艺,公司企业,农林园艺,河北省,保定市,莲池区,河北省保定市莲池区南大园乡三丰东路窑上村花卉市场,,1,0,115.524094,38.851734,13833220350,enterprise,http://api.map.baidu.com/place/detail?uid=bf14f833836c0abb3a04b19e&output=html&source=placeapi_v2,,,,,,,,,,,,,,,,,,115.52414433101,38.852001054354,0
d8e14f11063ba2d4a1a934c5,保定市莲池区旺农奶农专业合作社,公司企业,农林园艺,河北省,保定市,莲池区,保定市莲池区青堡村北,,1,0,115.573095,38.837561,,enterprise,http://api.map.baidu.com/place/detail?uid=d8e14f11063ba2d4a1a934c5&output=html&source=placeapi_v2,,,0.0,,,,,,,,0,,,,,,,115.57233977357,38.837641442651,0
e5e40e1792e26e07b05c6a8e,保定市嘉源农业科技开发有限公司,公司企业,农林园艺,河北省,保定市,清苑区,河北省保定市清苑区幸福中路,,1,0,115.59804,38.852029,15933520333,enterprise,http://api.map.baidu.com/place/detail?uid=e5e40e1792e26e07b05c6a8e&output=html&source=placeapi_v2,,,,,,,,,,,,,,,,,,115.59803131116,38.851938041988,0
4a098c8c1b0054efa2a93484,平陵奶牛养殖基地,公司企业,农林园艺,河北省,保定市,清苑区,河北省保定市清苑区,,1,0,115.587103,38.834284,,enterprise,http://api.map.baidu.com/place/detail?uid=4a098c8c1b0054efa2a93484&output=html&source=placeapi_v2,,,,,,,,,,,,,,,,,,115.58712335983,38.833920951391,0
0c3b828687a45c6f774ff185,清苑区建辉果蔬专业合作社,公司企业,农林园艺,河北省,保定市,清苑区,保定市清苑区,,1,0,115.644103,38.855894,13780526057,enterprise,http://api.map.baidu.com/place/detail?uid=0c3b828687a45c6f774ff185&output=html&source=placeapi_v2,,,,,,,,,,,,,,,,,,,,0
9858131d26f0aac08b2fb5c7,旭东养殖场,公司企业,农林园艺,河北省,保定市,清苑区,河北省保定市清苑区团结路,,1,0,115.657978,38.854135,13931210678,enterprise,http://api.map.baidu.com/place/detail?uid=9858131d26f0aac08b2fb5c7&output=html&source=placeapi_v2,,,,,,,,,,,,,,,,,,,,0
9bd11c18d31b465f6f476078,河北长发铝业股份有限公司,公司企业,农林园艺,河北省,保定市,清苑区,望亭乡东安村,9bd11c18d31b465f6f476078,1,0,115.699221,38.838797,(0312)8085418,enterprise,http://api.map.baidu.com/place/detail?uid=9bd11c18d31b465f6f476078&output=html&source=placeapi_v2,,,,,,,,,,,,,,,,,,115.69922292687,38.838677786335,0
312e84b2e5640b7e9122e057,小望亭葡萄基地,公司企业,农林园艺,河北省,保定市,清苑区,保定市清苑区望亭路与滨河路交叉路口南侧,,1,0,115.6691,38.835519,,enterprise,http://api.map.baidu.com/place/detail?uid=312e84b2e5640b7e9122e057&output=html&source=placeapi_v2,,,,,,,,,,,,,,,,,,,,0
bf9764873cf5cac41d5800a8,保定市金芳苗木种植有限公司,公司企业,农林园艺,河北省,保定市,清苑区,河北省保定市清苑区望亭乡,,1,0,115.708205,38.862486,13231227282,enterprise,http://api.map.baidu.com/place/detail?uid=bf9764873cf5cac41d5800a8&output=html&source=placeapi_v2,,,,,,,,,,,,,,,,,,,,0
0ad8e69fee2b754814c8f6c1,会民果树苗圃,公司企业,农林园艺,河北省,保定市,满城区,河北省保定市满城区通济街,,1,0,115.31767,38.891435,,enterprise,http://api.map.baidu.com/place/detail?uid=0ad8e69fee2b754814c8f6c1&output=html&source=placeapi_v2,,,0,,,,,,,,1,,,,,,,,,0
05244afb36744a3e94031935,景美花卉农场,公司企业,农林园艺,河北省,保定市,竞秀区,竞秀区七一西路与西三环交叉口东北150米,,1,2,115.383893,38.887144,13290683272,enterprise,http://api.map.baidu.com/place/detail?uid=05244afb36744a3e94031935&output=html&source=placeapi_v2,,09:30-21:00,5,,,,,,,,1,,,,,,,115.38311450264,38.887667007469,2
74a471992d76959b28b97cd5,河北古桥园林绿化有限公司,公司企业,农林园艺,河北省,保定市,竞秀区,保定市竞秀区S336中画美凯加油站西南侧约230米,74a471992d76959b28b97cd5,1,0,115.380688,38.870024,,enterprise,http://api.map.baidu.com/place/detail?uid=74a471992d76959b28b97cd5&output=html&source=placeapi_v2,,,,,,,,,,,,,,,,,,,,0
42ef485010048d8a081cc7be,河北兰青绿色果蔬种植基地,公司企业,农林园艺,河北省,保定市,竞秀区,河北省保定市竞秀区G107(西三环),,1,0,115.380565,38.87882,,enterprise,http://api.map.baidu.com/place/detail?uid=42ef485010048d8a081cc7be&output=html&source=placeapi_v2,,,0.0,,,,,,,,,,,,,,,,,0
61fb0a553c7c2a263310af2a,保定市新市区兴隆花卉苗圃,公司企业,农林园艺,河北省,保定市,竞秀区,保定市竞秀区五四西路竞秀花卉观赏园15号,,1,0,115.471978,38.884147,,enterprise,http://api.map.baidu.com/place/detail?uid=61fb0a553c7c2a263310af2a&output=html&source=placeapi_v2,,08:40-16:30,,,,,,,,,,,,,,,,115.47197859729,38.884082742123,0
cead1f003c90d993bbbd63ea,河北鑫淼水生植物种植有限公司,公司企业,农林园艺,河北省,保定市,竞秀区,保定市竞秀区圈头乡光淀村幸福路11号,,1,0,115.488919,38.873528,18617782333,enterprise,http://api.map.baidu.com/place/detail?uid=cead1f003c90d993bbbd63ea&output=html&source=placeapi_v2,,,,,,,,,,,,,,,,,,,,0
f72d17038d49d4849c82ea50,丽江晟鸿康养产业发展有限公司(保定分公司),公司企业,农林园艺,河北省,保定市,莲池区,河北省保定市莲池区裕华西路康泰大厦720号,,1,0,115.490015,38.866665,,enterprise,http://api.map.baidu.com/place/detail?uid=f72d17038d49d4849c82ea50&output=html&source=placeapi_v2,,,,,,,,,,,,,,,,,,,,0
3a16ddc08dbcbd256849f359,保定慧祥生态农业有限公司,公司企业,农林园艺,河北省,保定市,竞秀区,河北省保定市竞秀区瑞祥大街66号418室,3a16ddc08dbcbd256849f359,1,0,115.497475,38.886761,,enterprise,http://api.map.baidu.com/place/detail?uid=3a16ddc08dbcbd256849f359&output=html&source=placeapi_v2,,,,,,,,,,,,,,,,,,,,0
b2748a97a252c4a503ff2d3d,满城区合发草莓种植有限公司,公司企业,农林园艺,河北省,保定市,竞秀区,河北省保定市竞秀区人民广场保定市公安局竞秀分局巡警特警大队,b2748a97a252c4a503ff2d3d,1,0,115.462305,38.877004,,enterprise,http://api.map.baidu.com/place/detail?uid=b2748a97a252c4a503ff2d3d&output=html&source=placeapi_v2,,,,,,,,,,,,,,,,,,,,0
e3a716ae6331256dafee7aa0,保定市莲池区绿化队,公司企业,农林园艺,河北省,保定市,莲池区,保定市莲池区七一中路双胜街社区,,1,1,115.51926,38.88245,,enterprise,http://api.map.baidu.com/place/detail?uid=e3a716ae6331256dafee7aa0&output=html&source=placeapi_v2,,,,,,,,,,,,,,,,,,,,1
333365c82b85a4d4c26c14de,河北建设集团园林工程有限公司,公司企业,农林园艺,河北省,保定市,莲池区,保定市莲池区长城北大街迎宾小区西北门东北侧约40米,,1,0,115.526525,38.884892,,enterprise,http://api.map.baidu.com/place/detail?uid=333365c82b85a4d4c26c14de&output=html&source=placeapi_v2,,,,,,,,,,,,,,,,,,115.52659542677,38.885055848701,0
3a16ddc08dbcbd256849f359,保定慧祥生态农业有限公司,公司企业,农林园艺,河北省,保定市,竞秀区,河北省保定市竞秀区瑞祥大街66号418室,3a16ddc08dbcbd256849f359,1,0,115.497475,38.886761,,enterprise,http://api.map.baidu.com/place/detail?uid=3a16ddc08dbcbd256849f359&output=html&source=placeapi_v2,,,,,,,,,,,,,,,,,,,,0
f82939406daebc9782a12eb3,河北焱炅农业科技有限责任公司,公司企业,农林园艺,河北省,保定市,莲池区,河北省保定市莲池区东三环,,1,0,115.566324,38.867647,17334259693,enterprise,http://api.map.baidu.com/place/detail?uid=f82939406daebc9782a12eb3&output=html&source=placeapi_v2,,,,,,,,,,,,,,,,,,,,0
06ee1076baf57cf9593ac872,保定筑邦园林景观工程有限公司,公司企业,农林园艺,河北省,保定市,莲池区,河北省保定市莲池区腾飞路772号,,1,0,115.578592,38.8772,,enterprise,http://api.map.baidu.com/place/detail?uid=06ee1076baf57cf9593ac872&output=html&source=placeapi_v2,,,0.0,,,,,,,,0,,,,,,,,,0
c03645aa82032ec7b04c49e6,保定筑邦园林景观工程有限公司,公司企业,农林园艺,河北省,保定市,莲池区,河北省保定市莲池区天宁路508号6楼,,1,0,115.559013,38.897896,18332025808,enterprise,http://api.map.baidu.com/place/detail?uid=c03645aa82032ec7b04c49e6&output=html&source=placeapi_v2,,,,,,,,,,,,,,,,,,,,0
11ea04df4e809c11754ff16f,保定绿源达园林机械植保服务中心,公司企业,农林园艺,河北省,保定市,清苑区,保定市清苑区白洋淀大道卓正上东区东Z东北侧约220米,,1,0,115.613758,38.879343,13933219218,enterprise,http://api.map.baidu.com/place/detail?uid=11ea04df4e809c11754ff16f&output=html&source=placeapi_v2,,,0,,,,,,,,1,,,,,,,115.61370742861,38.879288779939,0
06ee1076baf57cf9593ac872,保定筑邦园林景观工程有限公司,公司企业,农林园艺,河北省,保定市,莲池区,河北省保定市莲池区腾飞路772号,,1,0,115.578592,38.8772,,enterprise,http://api.map.baidu.com/place/detail?uid=06ee1076baf57cf9593ac872&output=html&source=placeapi_v2,,,0.0,,,,,,,,0,,,,,,,,,0
10b3214f4ee07b4d45572669,保定市清苑区益民奶牛养殖场,公司企业,农林园艺,河北省,保定市,清苑区,白洋淀大道附近,,1,0,115.699772,38.885755,13230246777,enterprise,http://api.map.baidu.com/place/detail?uid=10b3214f4ee07b4d45572669&output=html&source=placeapi_v2,,,,,,,,,,,,,,,,,,,,0
35535e56925b5bec2d4733dd,保定市清苑区幸哲家庭农场,公司企业,农林园艺,河北省,保定市,清苑区,河北省保定市清苑区富强东路,,1,0,115.719065,38.88321,13503123436,enterprise,http://api.map.baidu.com/place/detail?uid=35535e56925b5bec2d4733dd&output=html&source=placeapi_v2,,07:00-19:00,,,,,,,,,1,,,,,,,115.71825852368,38.883425297805,0
10b3214f4ee07b4d45572669,保定市清苑区益民奶牛养殖场,公司企业,农林园艺,河北省,保定市,清苑区,白洋淀大道附近,,1,0,115.699772,38.885755,13230246777,enterprise,http://api.map.baidu.com/place/detail?uid=10b3214f4ee07b4d45572669&output=html&source=placeapi_v2,,,,,,,,,,,,,,,,,,,,0
8ab70003dca8face31f71de1,满城区呐Ｑ殖场,公司企业,农林园艺,河北省,保定市,满城区,河北省保定市满城区吉祥街,,1,0,115.242383,38.917433,,enterprise,http://api.map.baidu.com/place/detail?uid=8ab70003dca8face31f71de1&output=html&source=placeapi_v2,,,0.0,,,,,,,,1,,,,,,,115.24250422068,38.916559375789,0
0cb3b0106cf5d433d4b74e9d,龙飞集团奶牛基地,公司企业,农林园艺,河北省,保定市,顺平县,河北省保定市顺平县S232,,1,1,115.269392,38.915891,,enterprise,http://api.map.baidu.com/place/detail?uid=0cb3b0106cf5d433d4b74e9d&output=html&source=placeapi_v2,,,,,,,,,,,,,,,,,,115.26894607063,38.916156179507,1
74f1de5e6f5405f54f6d4620,满城区鑫凯山鸡养殖场,公司企业,农林园艺,河北省,保定市,顺平县,河北省保定市顺平县S232(通顺街),,1,0,115.268633,38.914322,13754426081,enterprise,http://api.map.baidu.com/place/detail?uid=74f1de5e6f5405f54f6d4620&output=html&source=placeapi_v2,,,,,,,,,,,,,,,,,,,,0
c3486e2d9f902c4cfbdc85d5,占霞家庭农场,公司企业,农林园艺,河北省,保定市,顺平县,保定市顺平县邵家庄村,,1,0,115.282865,38.92187,,enterprise,http://api.map.baidu.com/place/detail?uid=c3486e2d9f902c4cfbdc85d5&output=html&source=placeapi_v2,,,,,,,,,,,,,,,,,,115.28298986098,38.921906076057,0
779bbecdbb183122d92f28bf,保定市恒臻家庭农场,公司企业,农林园艺,河北省,保定市,顺平县,河北省保定市顺平县通顺街与复兴西延路路口东北侧,,1,0,115.285334,38.926104,17717705528,enterprise,http://api.map.baidu.com/place/detail?uid=779bbecdbb183122d92f28bf&output=html&source=placeapi_v2,,,,,,,,,,,,,,,,,,,,0
94a8f25a2ac3452581288ade,保定市佳昌家庭农场,公司企业,农林园艺,河北省,保定市,满城区,抱阳村,,1,0,115.278171,38.931774,18633216903,enterprise,http://api.map.baidu.com/place/detail?uid=94a8f25a2ac3452581288ade&output=html&source=placeapi_v2,,00:00-24:00,,,,,,,,,1,,,,,,,,,0
75da1e9a67e445d92b06cec7,怡心园艺,公司企业,农林园艺,河北省,保定市,满城区,河北省保定市满城区富民路与通济街交叉路口往北约260米,,1,0,115.320803,38.902786,,enterprise,http://api.map.baidu.com/place/detail?uid=75da1e9a67e445d92b06cec7&output=html&source=placeapi_v2,,,,,,,,,,,,,,,,,,,,0
2a7a25ec8882a2606c3e1b63,满城区良种场,公司企业,农林园艺,河北省,保定市,满城区,河北省保定市满城区良种场(警民路西70米),,1,0,115.304928,38.909835,,enterprise,http://api.map.baidu.com/place/detail?uid=2a7a25ec8882a2606c3e1b63&output=html&source=placeapi_v2,,,,,,,,,,,,,,,,,,115.30443755091,38.909567263613,0
badd2e6b89992a94c27da2a6,恒农坡高科农业示范园,公司企业,农林园艺,河北省,保定市,满城区,保定市满城区满于东线与070乡道交叉口南100米,,1,0,115.355649,38.919956,4009985581,enterprise,http://api.map.baidu.com/place/detail?uid=badd2e6b89992a94c27da2a6&output=html&source=placeapi_v2,,,,,,,,,,,,,,,,,,115.35536301488,38.920036699488,0
a26f7baf2366e9ebd0ff232c,保定力实生态农业开发有限公司,公司企业,农林园艺,河北省,保定市,满城区,河北省保定市满城区复兴路西延宋贾村南,,1,0,115.350108,38.90918,13503386084,enterprise,http://api.map.baidu.com/place/detail?uid=a26f7baf2366e9ebd0ff232c&output=html&source=placeapi_v2,,,3.0,,,,,,,,1,,,,,,,,,0
a9d90f24f2dd29d04e2fdfd2,中食畜禽公司良种猪繁育基地,公司企业,农林园艺,河北省,保定市,竞秀区,保定市竞秀区南奇乡隆兴西路2971号,a9d90f24f2dd29d04e2fdfd2,1,0,115.418502,38.919055,15031210086,enterprise,http://api.map.baidu.com/place/detail?uid=a9d90f24f2dd29d04e2fdfd2&output=html&source=placeapi_v2,,,,,,,,,,,,,,,,,,115.41835938907,38.91887745675,0
a9d90f24f2dd29d04e2fdfd2,中食畜禽公司良种猪繁育基地,公司企业,农林园艺,河北省,保定市,竞秀区,保定市竞秀区南奇乡隆兴西路2971号,a9d90f24f2dd29d04e2fdfd2,1,0,115.418502,38.919055,15031210086,enterprise,http://api.map.baidu.com/place/detail?uid=a9d90f24f2dd29d04e2fdfd2&output=html&source=placeapi_v2,,,,,,,,,,,,,,,,,,115.41835938907,38.91887745675,0
ec3d4b35363f4fb459bbbc58,水生植物有限公司,公司企业,农林园艺,河北省,保定市,竞秀区,河北省保定市竞秀区朝阳北大街1358号,ec3d4b35363f4fb459bbbc58,1,0,115.474068,38.91138,19801955008,enterprise,http://api.map.baidu.com/place/detail?uid=ec3d4b35363f4fb459bbbc58&output=html&source=placeapi_v2,,,0.0,,,,,,,,1,,,,,,,,,0
2319e98a3510df794c6d4615,泰达园林,公司企业,农林园艺,河北省,保定市,竞秀区,河北省保定市竞秀区阳光北大街1457号2楼,2319e98a3510df794c6d4615,1,0,115.487721,38.910125,13633125258,enterprise,http://api.map.baidu.com/place/detail?uid=2319e98a3510df794c6d4615&output=html&source=placeapi_v2,,,,,,,,,,,,,,,,,,,,0
c9cc7b92e90d14ad4d776ec3,河北大勇园林景观设计有限公司,公司企业,农林园艺,河北省,保定市,竞秀区,保定市竞秀区恒滨路鼎阳智电慧服科技股份有限公司,c9cc7b92e90d14ad4d776ec3,1,0,115.471808,38.927184,,enterprise,http://api.map.baidu.com/place/detail?uid=c9cc7b92e90d14ad4d776ec3&output=html&source=placeapi_v2,,,,,,,,,,,,,,,,,,,,0
9e898c293b8a402a8bfc0616,伊兰牧场,公司企业,农林园艺,河北省,保定市,莲池区,保定市莲池区向阳路与育德街交叉路口往西约200米,9e898c293b8a402a8bfc0616,1,0,115.532601,38.904453,,enterprise,http://api.map.baidu.com/place/detail?uid=9e898c293b8a402a8bfc0616&output=html&source=placeapi_v2,,,,,,,,,,,,,,,,,,115.53259424808,38.904412822292,0
de7743821a82d423fa42b240,石艺园林,公司企业,农林园艺,河北省,保定市,莲池区,河北省保定市莲池区百楼乡西百楼小学北侧,,1,0,115.568411,38.905207,,enterprise,http://api.map.baidu.com/place/detail?uid=de7743821a82d423fa42b240&output=html&source=placeapi_v2,,,,,,,,,,,,,,,,,,,,0
2d24bd196e754b37581093d5,河北爱博欣农业有限公司,公司企业,农林园艺,河北省,保定市,莲池区,河北保定市莲池区长城北大街2601号,,1,1,115.56495,38.923735,(0312)5970236,enterprise,http://api.map.baidu.com/place/detail?uid=2d24bd196e754b37581093d5&output=html&source=placeapi_v2,,,,,,,,,,,,,,,,,,115.56478502423,38.923812668968,1
c03645aa82032ec7b04c49e6,保定筑邦园林景观工程有限公司,公司企业,农林园艺,河北省,保定市,莲池区,河北省保定市莲池区天宁路508号6楼,,1,0,115.559013,38.897896,18332025808,enterprise,http://api.map.baidu.com/place/detail?uid=c03645aa82032ec7b04c49e6&output=html&source=placeapi_v2,,,,,,,,,,,,,,,,,,,,0
546f1666f6dcf796ebe58289,春意隆奶牛养殖场,公司企业,农林园艺,河北省,保定市,清苑区,保定市清苑区臧村镇刘庄村,,1,0,115.663998,38.903178,"(0312)8109333,13303220222",enterprise,http://api.map.baidu.com/place/detail?uid=546f1666f6dcf796ebe58289&output=html&source=placeapi_v2,,00:00-24:00,,,,,,,,,,,,,,,,,,0
2083d08a6ce12de46ca3cc49,九哥鱼塘,公司企业,农林园艺,河北省,保定市,徐水区,河北省保定市徐水区,,1,0,115.689113,38.929707,13930262688,enterprise,http://api.map.baidu.com/place/detail?uid=2083d08a6ce12de46ca3cc49&output=html&source=placeapi_v2,,,,,,,,,,,,,,,,,,,,0
a3bde4b0c3443907a9175a79,保定市徐水区来元家庭农场,公司企业,农林园艺,河北省,保定市,徐水区,河北省保定市徐水区大因镇任庄村,,1,0,115.730584,38.92601,,enterprise,http://api.map.baidu.com/place/detail?uid=a3bde4b0c3443907a9175a79&output=html&source=placeapi_v2,,,0.0,,,,,,,,1,,,,,,,115.73071798697,38.926001626115,0
565f2d6e2e74a74484330417,保定水润家庭农场,公司企业,农林园艺,河北省,保定市,徐水区,河北省保定市徐水区大因镇于迪城村北牌楼北行200米路东,,1,0,115.738113,38.923234,15033284615,enterprise,http://api.map.baidu.com/place/detail?uid=565f2d6e2e74a74484330417&output=html&source=placeapi_v2,,,5,,,,,,,,2,,,,,,,,,0
8f16d052dfea4c929ee321bb,三河奶牛场,公司企业,农林园艺,河北省,保定市,徐水区,保定市徐水区任庄小学东北侧约50米,,1,0,115.727581,38.924573,,enterprise,http://api.map.baidu.com/place/detail?uid=8f16d052dfea4c929ee321bb&output=html&source=placeapi_v2,,,,,,,,,,,,,,,,,,,,0
d517dd76bff8af63c9c3db06,韵迪养殖场,公司企业,农林园艺,河北省,保定市,徐水区,保定市徐水区任庄村284号,,1,0,115.723539,38.931358,13932266221,enterprise,http://api.map.baidu.com/place/detail?uid=d517dd76bff8af63c9c3db06&output=html&source=placeapi_v2,,08:00-20:00,,,,,,,,,,,,,,,,,,0
3fce3176717bdce628b97c3f,满城区富民养鸡场,公司企业,农林园艺,河北省,保定市,满城区,保定市满城区津神线,,1,0,115.240292,38.963843,,enterprise,http://api.map.baidu.com/place/detail?uid=3fce3176717bdce628b97c3f&output=html&source=placeapi_v2,,,,,,,,,,,,,,,,,,,,0
d31a4e975620f3a5631809a8,满城区丰泰果蔬专业合作社,公司企业,农林园艺,河北省,保定市,满城区,河北省保定市满城区满城镇抱阳村学校南200米,,1,0,115.276048,38.938067,,enterprise,http://api.map.baidu.com/place/detail?uid=d31a4e975620f3a5631809a8&output=html&source=placeapi_v2,,,,,,,,,,,,,,,,,,,,0
94a8f25a2ac3452581288ade,保定市佳昌家庭农场,公司企业,农林园艺,河北省,保定市,满城区,抱阳村,,1,0,115.278171,38.931774,18633216903,enterprise,http://api.map.baidu.com/place/detail?uid=94a8f25a2ac3452581288ade&output=html&source=placeapi_v2,,00:00-24:00,,,,,,,,,1,,,,,,,,,0
b512064d3395df9cadcb6635,万千羽养鸡场,公司企业,农林园艺,河北省,保定市,满城区,河北省保定市满城区河北工艺美术学院西南1公里,,1,0,115.25743,38.947732,13832269606,enterprise,http://api.map.baidu.com/place/detail?uid=b512064d3395df9cadcb6635&output=html&source=placeapi_v2,,00:00-24:00,,,,,,,,,,,,,,,,,,0
79493350882bd6d1b6f42f41,兴农农业技术服务有限公司,公司企业,农林园艺,河北省,保定市,满城区,保定市满城区通济街祥和园东南侧约120米,79493350882bd6d1b6f42f41,1,0,115.323469,38.940297,,enterprise,http://api.map.baidu.com/place/detail?uid=79493350882bd6d1b6f42f41&output=html&source=placeapi_v2,,,,,,,,,,,,,,,,,,115.32366999161,38.940292920251,0
d080e456db8b9626d12dd60c,南陵特种养殖示范园,公司企业,农林园艺,河北省,保定市,满城区,保定市满城区S232中国信合西南侧约110米,d080e456db8b9626d12dd60c,1,1,115.306596,38.940258,,enterprise,http://api.map.baidu.com/place/detail?uid=d080e456db8b9626d12dd60c&output=html&source=placeapi_v2,,,,,,,,,,,,,,,,,,115.30630659679,38.940673657893,1
d7251d3ddf39dc240869d970,道口珈悦蔬菜基地,公司企业,农林园艺,河北省,保定市,竞秀区,保定市竞秀区北三环相庄村口对面,,1,0,115.397673,38.947163,13932299569,enterprise,http://api.map.baidu.com/place/detail?uid=d7251d3ddf39dc240869d970&output=html&source=placeapi_v2,,,,,,,,,,,,,,,,,,,,0
720423849e5044b858f6be1e,建昌苗圃,公司企业,农林园艺,河北省,保定市,莲池区,河北省保定市莲池区北三环与果园街交叉路口往北约80米,,1,0,115.504509,38.935047,,enterprise,http://api.map.baidu.com/place/detail?uid=720423849e5044b858f6be1e&output=html&source=placeapi_v2,,,,,,,,,,,,,,,,,,115.50456868371,38.935050214443,0
ed7f5598c64f2d7c902ca3c6,东篱园艺,公司企业,农林园艺,河北省,保定市,徐水区,保定市徐水区京港澳高速,,1,0,115.647408,38.957873,,enterprise,http://api.map.baidu.com/place/detail?uid=ed7f5598c64f2d7c902ca3c6&output=html&source=placeapi_v2,,,,,,,,,,,,,,,,,,,,0
81afdd4430b8737f2b11d12a,徐水区兴禾蔬菜专业合作社,公司企业,农林园艺,河北省,保定市,徐水区,保定市徐水区京港澳高速,,1,0,115.647244,38.957955,,enterprise,http://api.map.baidu.com/place/detail?uid=81afdd4430b8737f2b11d12a&output=html&source=placeapi_v2,0.0,,,,,,,,,,,,,,,,,,,0
d32320a4b676df96bb17e7ac,众望奶牛养殖场,公司企业,农林园艺,河北省,保定市,徐水区,保定市徐水区龙化村,,1,0,115.694874,38.946447,,enterprise,http://api.map.baidu.com/place/detail?uid=d32320a4b676df96bb17e7ac&output=html&source=placeapi_v2,,,,,,,,,,,,,,,,,,115.69516211885,38.946411285407,0
6f3d1a3b255bdf009ff77919,众合家庭农场,公司企业,农林园艺,河北省,保定市,徐水区,保定市徐水区王村村南,,1,0,115.709782,38.938089,18233428866,enterprise,http://api.map.baidu.com/place/detail?uid=6f3d1a3b255bdf009ff77919&output=html&source=placeapi_v2,,00:00-24:00,,,,,,,,,,,,,,,,,,0
e11cf3d75083497e631c67a4,保定市安安生态农业开发有限公司,公司企业,农林园艺,河北省,保定市,徐水区,河北省保定市徐水区崔庄镇郝王庄村,,1,0,115.726597,38.963549,,enterprise,http://api.map.baidu.com/place/detail?uid=e11cf3d75083497e631c67a4&output=html&source=placeapi_v2,,,,,,,,,,,,,,,,,,115.72658781269,38.962769956486,0
0a601dcdb2697bad6c47607e,保定市徐水区坤军养殖场,公司企业,农林园艺,河北省,保定市,徐水区,保定市徐水区,,1,0,115.74202,38.9396,,enterprise,http://api.map.baidu.com/place/detail?uid=0a601dcdb2697bad6c47607e&output=html&source=placeapi_v2,,,,,,,,,,,,,,,,,,115.74188595553,38.939551120877,0
d517dd76bff8af63c9c3db06,韵迪养殖场,公司企业,农林园艺,河北省,保定市,徐水区,保定市徐水区任庄村284号,,1,0,115.723539,38.931358,13932266221,enterprise,http://api.map.baidu.com/place/detail?uid=d517dd76bff8af63c9c3db06&output=html&source=placeapi_v2,,08:00-20:00,,,,,,,,,,,,,,,,,,0
cd386d1508d2521cca09f078,千秋和谐养殖场,公司企业,农林园艺,河北省,保定市,徐水区,保定市徐水区054乡道,,1,0,115.705306,38.959191,,enterprise,http://api.map.baidu.com/place/detail?uid=cd386d1508d2521cca09f078&output=html&source=placeapi_v2,,,,,,,,,,,,,,,,,,,,0
3fce3176717bdce628b97c3f,满城区富民养鸡场,公司企业,农林园艺,河北省,保定市,满城区,保定市满城区津神线,,1,0,115.240292,38.963843,,enterprise,http://api.map.baidu.com/place/detail?uid=3fce3176717bdce628b97c3f&output=html&source=placeapi_v2,,,,,,,,,,,,,,,,,,,,0
8eb7c7cd7ea330d84bcc4a7a,吴庄蒙恩家庭农场,公司企业,农林园艺,河北省,保定市,满城区,保定市满城区立约之地家庭农场西北50米,,1,0,115.272582,38.982479,17692268422,enterprise,http://api.map.baidu.com/place/detail?uid=8eb7c7cd7ea330d84bcc4a7a&output=html&source=placeapi_v2,,01:00-23:00,,,,,,,,,,,,,,,,,,0
83b0bec34afc4322a7c75644,立约之地家庭农场,公司企业,农林园艺,河北省,保定市,满城区,河北省保定市满城区京昆高速附近,,1,0,115.272837,38.982077,15930249012,enterprise,http://api.map.baidu.com/place/detail?uid=83b0bec34afc4322a7c75644&output=html&source=placeapi_v2,,00:00-24:00,,,,,,,,,,,,,,,,,,0
ab7c4eca3b63de8fb75f1e61,保定茗林苑家庭农场,公司企业,农林园艺,河北省,保定市,满城区,河北省保定市满城区满城镇柳家佐村5区76号,,1,0,115.288673,38.981858,15931874666,enterprise,http://api.map.baidu.com/place/detail?uid=ab7c4eca3b63de8fb75f1e61&output=html&source=placeapi_v2,,,,,,,,,,,,,,,,,,,,0
4d885075e6067c812b201ac2,满城区祥泽畜禽饲养农民专业合作社,公司企业,农林园艺,河北省,保定市,满城区,河北省保定市满城区胡町村,,1,0,115.362539,38.985716,,enterprise,http://api.map.baidu.com/place/detail?uid=4d885075e6067c812b201ac2&output=html&source=placeapi_v2,,,,,,,,,,,,,,,,,,,,0
e67e681977b25b0c2fe67bf3,保定市满城区威望养殖专业合作社,公司企业,农林园艺,河北省,保定市,满城区,河北省保定市满城区,,1,0,115.4299,38.975327,,enterprise,http://api.map.baidu.com/place/detail?uid=e67e681977b25b0c2fe67bf3&output=html&source=placeapi_v2,,,0.0,,,,,,,,1,,,,,,,,,0
a36735a432c0b771ab175af2,保定精创农民种植专业合作社,公司企业,农林园艺,河北省,保定市,满城区,河北省保定市满城区林安街555号,,1,0,115.469218,38.98819,13012066555,enterprise,http://api.map.baidu.com/place/detail?uid=a36735a432c0b771ab175af2&output=html&source=placeapi_v2,,,5.0,,,,,,,,3,,,,,,,,,0
d30f20bf6db853fc1fe999c9,保定市徐水区康诚家庭农场,公司企业,农林园艺,河北省,保定市,徐水区,河北省保定市徐水区漕河镇北楼村村西南角,,1,0,115.486866,38.992045,,enterprise,http://api.map.baidu.com/place/detail?uid=d30f20bf6db853fc1fe999c9&output=html&source=placeapi_v2,,,,,,,,,,,,,,,,,,,,0
c5a467b6e48eac9da5c75680,德满牛羊养殖合作社,公司企业,农林园艺,河北省,保定市,徐水区,保定市徐水区061乡道北50米,,1,0,115.56775,38.975422,,enterprise,http://api.map.baidu.com/place/detail?uid=c5a467b6e48eac9da5c75680&output=html&source=placeapi_v2,,,,,,,,,,,,,,,,,,,,0
7eee825746d3f02f077ce82a,徐水区亿发合作社,公司企业,农林园艺,河北省,保定市,徐水区,保定市徐水区漕河镇南留幼儿园东南侧约100米,,1,0,115.567043,38.984318,,enterprise,http://api.map.baidu.com/place/detail?uid=7eee825746d3f02f077ce82a&output=html&source=placeapi_v2,,,,,,,,,,,,,,,,,,115.56720879084,38.984390487178,0
26f34caa14c9c217b5147fc9,洲赛牧场,公司企业,农林园艺,河北省,保定市,徐水区,保定市徐水区漕河镇勉家营村,,1,0,115.567018,38.967068,,enterprise,http://api.map.baidu.com/place/detail?uid=26f34caa14c9c217b5147fc9&output=html&source=placeapi_v2,,,,,,,,,,,,,,,,,,115.56727987825,38.967058334964,0
19ec2cd17ed728f33686f45e,百舸园林景观工程有限公司,公司企业,农林园艺,河北省,保定市,徐水区,保定市徐水区长城北大街4615号,,1,0,115.598875,38.97667,,enterprise,http://api.map.baidu.com/place/detail?uid=19ec2cd17ed728f33686f45e&output=html&source=placeapi_v2,,,,,,,,,,,,,,,,,,115.59869041318,38.976778847228,0
6daabd30ac22675e2b06ce59,韦氏牧场,公司企业,农林园艺,河北省,保定市,徐水区,保定市徐水区长城北大街,,1,0,115.605015,38.983057,,enterprise,http://api.map.baidu.com/place/detail?uid=6daabd30ac22675e2b06ce59&output=html&source=placeapi_v2,,,,,,,,,,,,,,,,,,115.60474221946,38.983213497405,0
4464edf41cc4d8d01ef74dc0,南留牲畜养殖场,公司企业,农林园艺,河北省,保定市,徐水区,河北省保定市徐水区漕河镇灵慧寺庙西2000米,,1,0,115.58771,38.986067,18833232010,enterprise,http://api.map.baidu.com/place/detail?uid=4464edf41cc4d8d01ef74dc0&output=html&source=placeapi_v2,,,,,,,,,,,,,,,,,,,,0
8c536f3d07b2ac0500ec0190,保定佳华苗木种植有限公司,公司企业,农林园艺,河北省,保定市,徐水区,河北省保定市徐水区长城北大街,,1,0,115.590755,38.975281,,enterprise,http://api.map.baidu.com/place/detail?uid=8c536f3d07b2ac0500ec0190&output=html&source=placeapi_v2,,,,,,,,,,,,,,,,,,,,0
a824d1cd0f964d424afc8dc0,徐水区润升葡萄种苗繁育场,公司企业,农林园艺,河北省,保定市,徐水区,河北省保定市徐水区留村乡荆塘铺村南(近107国道),,1,0,115.591944,38.969578,(0312)8503301,enterprise,http://api.map.baidu.com/place/detail?uid=a824d1cd0f964d424afc8dc0&output=html&source=placeapi_v2,,00:00-24:00,,,,,,,,,,,,,,,,115.59195519515,38.969589256244,0
638c165e22e855a80bccdd37,保定市徐水区德盛家庭农场,公司企业,农林园艺,河北省,保定市,徐水区,保定市徐水区盛源南大街南行600米,,1,0,115.646389,38.994031,13503380509,enterprise,http://api.map.baidu.com/place/detail?uid=638c165e22e855a80bccdd37&output=html&source=placeapi_v2,,08:00-20:00,,,,,,,,,,,,,,,,,,0
8992c5c68b8a1ece9f82ea92,河北鑫森农业发展有限公司,公司企业,农林园艺,河北省,保定市,徐水区,河北省保定市徐水区,,1,0,115.658185,38.983955,,enterprise,http://api.map.baidu.com/place/detail?uid=8992c5c68b8a1ece9f82ea92&output=html&source=placeapi_v2,,,0.0,,,,,,,,1,,,,,,,,,0
fe40e7b9d7fff8bb8bdb7358,保定市徐水区振杰家庭农场,公司企业,农林园艺,河北省,保定市,徐水区,保定市徐水区致富北大街,,1,0,115.63346,38.970185,"13722268990,13930875636",enterprise,http://api.map.baidu.com/place/detail?uid=fe40e7b9d7fff8bb8bdb7358&output=html&source=placeapi_v2,,07:00-19:00,,,,,,,,,,,,,,,,,,0
3d72bc87e683f1a3fbf0cbf8,保定市徐水区鸿耀家庭农场,公司企业,农林园艺,河北省,保定市,徐水区,河北省保定市徐水区刘伶田园小镇滑雪场西300米,,1,0,115.737868,38.989191,,enterprise,http://api.map.baidu.com/place/detail?uid=3d72bc87e683f1a3fbf0cbf8&output=html&source=placeapi_v2,,,,,,,,,,,,,,,,,,,,0
e11cf3d75083497e631c67a4,保定市安安生态农业开发有限公司,公司企业,农林园艺,河北省,保定市,徐水区,河北省保定市徐水区崔庄镇郝王庄村,,1,0,115.726597,38.963549,,enterprise,http://api.map.baidu.com/place/detail?uid=e11cf3d75083497e631c67a4&output=html&source=placeapi_v2,,,,,,,,,,,,,,,,,,115.72658781269,38.962769956486,0
a2c327ca747bc1245cbe8602,徐水禾鑫奶牛专业合作社,公司企业,农林园艺,河北省,保定市,徐水区,河北省保定市徐水区,,1,0,115.71385,38.991352,,enterprise,http://api.map.baidu.com/place/detail?uid=a2c327ca747bc1245cbe8602&output=html&source=placeapi_v2,,,,,,,,,,,,,,,,,,,,0
324cd70d57ab95ed46e27495,保定中山安民园生态开发有限公司,公司企业,农林园艺,河北省,保定市,满城区,河北省保定市满城区神星镇大楼村西行800米,,1,0,115.277955,39.010085,"(0312)7156777,13833023718",enterprise,http://api.map.baidu.com/place/detail?uid=324cd70d57ab95ed46e27495&output=html&source=placeapi_v2,,,5,,,,,,,,2,,,,,,,115.27800340751,39.010281527351,0
d5dfeedab25947303c9a5e51,洪荒獒园,公司企业,农林园艺,河北省,保定市,满城区,河北省保定市满城区西外环北路(奥达制版有限公司东南侧),,1,0,115.354178,39.013971,,enterprise,http://api.map.baidu.com/place/detail?uid=d5dfeedab25947303c9a5e51&output=html&source=placeapi_v2,,,,,,,,,,,,,,,,,,,,0
89bb86f0053fbada4107c1d0,爱客农场,公司企业,农林园艺,河北省,保定市,徐水区,保定市徐水区乐凯北大街与中纺路交叉路口往西约90米,,1,0,115.441355,39.021356,,enterprise,http://api.map.baidu.com/place/detail?uid=89bb86f0053fbada4107c1d0&output=html&source=placeapi_v2,,,,,,,,,,,,,,,,,,,,0
abd5470ec23e2761b05c6a17,瑞丰农场,公司企业,农林园艺,河北省,保定市,徐水区,河北省保定市徐水区中纺路,,1,0,115.418107,39.022617,,enterprise,http://api.map.baidu.com/place/detail?uid=abd5470ec23e2761b05c6a17&output=html&source=placeapi_v2,,,,,,,,,,,,,,,,,,,,0
2623fe7359b67122b54f543f,保定名硕农业科技有限公司,公司企业,农林园艺,河北省,保定市,满城区,河北省保定市满城区贤台乡大石桥村村南,,1,0,115.461521,39.003172,15830830985,enterprise,http://api.map.baidu.com/place/detail?uid=2623fe7359b67122b54f543f&output=html&source=placeapi_v2,,,0.0,,,,,,,,,,,,,,,,,0
d8105d9d998310ad00ec01db,河北增贤农业种植有限公司,公司企业,农林园艺,河北省,保定市,徐水区,河北省保定市徐水区正阳西路正村中学西北,,1,0,115.518789,39.016028,13722955618,enterprise,http://api.map.baidu.com/place/detail?uid=d8105d9d998310ad00ec01db&output=html&source=placeapi_v2,,,0.0,,,,,,,,1,,,,,,,115.51739042553,39.016228270409,0
d91e79e0c38d1d1fcd04ef3a,保定市徐水区滨海家庭农场,公司企业,农林园艺,河北省,保定市,徐水区,河北省保定市徐水区环村东街,,1,0,115.528667,38.999465,,enterprise,http://api.map.baidu.com/place/detail?uid=d91e79e0c38d1d1fcd04ef3a&output=html&source=placeapi_v2,,,0.0,,,,,,,,1,,,,,,,,,0
05aee8418cc3707c1f38949e,保定市徐水区连雪家庭农场,公司企业,农林园艺,河北省,保定市,徐水区,保定市徐水区高各庄,,1,0,115.56977,39.015437,15612292500,enterprise,http://api.map.baidu.com/place/detail?uid=05aee8418cc3707c1f38949e&output=html&source=placeapi_v2,,08:00-20:00,,,,,,,,,,,,,,,,,,0
132c2f8a6b0bfd5331f71dfa,保刚奶牛农民专业合作社,公司企业,农林园艺,河北省,保定市,徐水区,河北省保定市徐水区,,1,0,115.566971,39.005907,13931234888,enterprise,http://api.map.baidu.com/place/detail?uid=132c2f8a6b0bfd5331f71dfa&output=html&source=placeapi_v2,,,,,,,,,,,,,,,,,,115.56703362126,39.005903677967,0
35854985511349a29e9d68d7,神农艳永果树盆景种植有限公司,公司企业,农林园艺,河北省,保定市,徐水区,河北省保定市徐水区,,1,0,115.583218,39.001407,,enterprise,http://api.map.baidu.com/place/detail?uid=35854985511349a29e9d68d7&output=html&source=placeapi_v2,,,5,,,,,,,,4,,,,,,,,,0
c0221e70d73d4f99c9c3db26,攀博农业发展有限公司,公司企业,农林园艺,河北省,保定市,徐水区,保定市徐水区民政路水岸C区2期,,1,0,115.63772,39.013782,,enterprise,http://api.map.baidu.com/place/detail?uid=c0221e70d73d4f99c9c3db26&output=html&source=placeapi_v2,,,,,,,,,,,,,,,,,,,,0
a882d6b4cd56fd83d6b74e06,保定沣桦圃园林绿化,公司企业,农林园艺,河北省,保定市,徐水区,河北省保定市徐水区巨力东路水岸华庭,,1,0,115.67042,39.015527,,enterprise,http://api.map.baidu.com/place/detail?uid=a882d6b4cd56fd83d6b74e06&output=html&source=placeapi_v2,,,,,,,,,,,,,,,,,,115.67037573725,39.015319433755,0
4c1253a72f0819b35dd4fea7,峭立家庭农场,公司企业,农林园艺,河北省,保定市,徐水区,保定市徐水区安肃镇小清华幼儿园北侧,,1,0,115.710244,39.023501,"13315262605,13903320124",enterprise,http://api.map.baidu.com/place/detail?uid=4c1253a72f0819b35dd4fea7&output=html&source=placeapi_v2,,,,,,,,,,,,,,,,,,,,0
56d9716a6c6c0b030ab93a49,河北希田农业科技有限公司,公司企业,农林园艺,河北省,保定市,满城区,保定市满城区,,1,0,115.272882,39.037565,,enterprise,http://api.map.baidu.com/place/detail?uid=56d9716a6c6c0b030ab93a49&output=html&source=placeapi_v2,,,,,,,,,,,,,,,,,,115.27276986524,39.03732576041,0
2ee49efefe5b5388ca1b95c3,旭辉农民专业合作社,公司企业,农林园艺,河北省,保定市,满城区,保定市满城区,,1,0,115.256922,39.038101,,enterprise,http://api.map.baidu.com/place/detail?uid=2ee49efefe5b5388ca1b95c3&output=html&source=placeapi_v2,,,,,,,,,,,,,,,,,,,,0
1f19792e472a09c52d473307,满城区常绿家庭农场,公司企业,农林园艺,河北省,保定市,满城区,河北省保定市满城区232省道附近,,1,1,115.302218,39.047824,,enterprise,http://api.map.baidu.com/place/detail?uid=1f19792e472a09c52d473307&output=html&source=placeapi_v2,,,,,,,,,,,,,,,,,,115.30221032367,39.047891433014,1
d157b82b4193f1780b69d929,保定星河养殖有限公司,公司企业,农林园艺,河北省,保定市,满城区,保定市满城区G234与神西路交叉路口往东约80米,,1,0,115.30575,39.034494,(0312)7198333,enterprise,http://api.map.baidu.com/place/detail?uid=d157b82b4193f1780b69d929&output=html&source=placeapi_v2,,,,,,,,,,,,,,,,,,115.30575213568,39.034311451624,0
232baaebbeafb6af3a221c2a,河北昌运农业科技有限公司,公司企业,农林园艺,河北省,保定市,满城区,保定市满城区大册营镇西村村南,,1,0,115.382144,39.033572,,enterprise,http://api.map.baidu.com/place/detail?uid=232baaebbeafb6af3a221c2a&output=html&source=placeapi_v2,,,,,,,,,,,,,,,,,,115.38118281702,39.033637005493,0
a325cdb7ea2182269cec2b71,徐水区鸿兴养殖场,公司企业,农林园艺,河北省,保定市,徐水区,保定市徐水区S333徐水区大王店镇孟村小学东北侧约180米,,1,0,115.424227,39.057115,13930864326,enterprise,http://api.map.baidu.com/place/detail?uid=a325cdb7ea2182269cec2b71&output=html&source=placeapi_v2,,,,,,,,,,,,,,,,,,,,0
1a19b33478edebdcc5effbcb,保定越来顺农业发展有限公司,公司企业,农林园艺,河北省,保定市,徐水区,河北省保定市徐水区大次良村西,,1,0,115.484306,39.061032,,enterprise,http://api.map.baidu.com/place/detail?uid=1a19b33478edebdcc5effbcb&output=html&source=placeapi_v2,,08:00-20:00,5.0,,,,,,,,1,,,,,,,,,0
56f80ec5e19d105f220262f8,保定观田农业种植有限公司,公司企业,农林园艺,河北省,保定市,徐水区,河北省保定市徐水区遂城镇巩固庄村,,1,0,115.557951,39.046462,18631201001,enterprise,http://api.map.baidu.com/place/detail?uid=56f80ec5e19d105f220262f8&output=html&source=placeapi_v2,,,,,,,,,,,2,,,,,,,,,0
f62bb286ca26f43cc5effb86,大兴园林苗木基地,公司企业,农林园艺,河北省,保定市,徐水区,保定市徐水区,,1,0,115.5664,39.041706,,enterprise,http://api.map.baidu.com/place/detail?uid=f62bb286ca26f43cc5effb86&output=html&source=placeapi_v2,,,0.0,,,,,,,,1,,,,,,,,,0
7938d3115d75dc6ac91b95e0,保定逸仙果蔬种植有限公司,公司企业,农林园艺,河北省,保定市,徐水区,安肃镇王马(河北京泰酒业有限公司北侧),,1,0,115.602379,39.038987,,enterprise,http://api.map.baidu.com/place/detail?uid=7938d3115d75dc6ac91b95e0&output=html&source=placeapi_v2,,,,,,,,,,,,,,,,,,,,0
2de53117f51d03a3ede4a592,徐水润翔肉牛养殖场,公司企业,农林园艺,河北省,保定市,徐水区,河北省保定市徐水区坟台东二路,,1,0,115.611674,39.054665,(0312)8692668,enterprise,http://api.map.baidu.com/place/detail?uid=2de53117f51d03a3ede4a592&output=html&source=placeapi_v2,,,,,,,,,,,,,,,,,,115.60880199422,39.056346069013,0
bf1a5c3dbdbe2355ad31e5f8,保定市徐水区园林绿化管理局,公司企业,农林园艺,河北省,保定市,徐水区,河北保定市徐水区振兴西路51号,bf1a5c3dbdbe2355ad31e5f8,1,1,115.651519,39.029104,,enterprise,http://api.map.baidu.com/place/detail?uid=bf1a5c3dbdbe2355ad31e5f8&output=html&source=placeapi_v2,,,,,,,,,,,,,,,,,,,,1
20688a5e0db33821f4b91633,大午金凤养殖基地,公司企业,农林园艺,河北省,保定市,徐水区,河北省保定市徐水区安肃镇农场,,1,0,115.636164,39.058552,,enterprise,http://api.map.baidu.com/place/detail?uid=20688a5e0db33821f4b91633&output=html&source=placeapi_v2,,,,,,,,,,,,,,,,,,,,0
f01f24f2774767bfbea2408f,保定德成创盛农业发展有限公司兽用疫苗销售中心,公司企业,农林园艺,河北省,保定市,徐水区,保定市徐水区长城北大街徐水民康医院北侧约220米,,1,0,115.664932,39.0567,13603287629,enterprise,http://api.map.baidu.com/place/detail?uid=f01f24f2774767bfbea2408f&output=html&source=placeapi_v2,,,,,,,,,,,,,,,,,,,,0
707fb2efef1d847452e5c5f4,大强农场,公司企业,农林园艺,河北省,保定市,徐水区,保定市徐水区田家庄大强农场,,1,0,115.735648,39.036016,18733889588,enterprise,http://api.map.baidu.com/place/detail?uid=707fb2efef1d847452e5c5f4&output=html&source=placeapi_v2,,08:00-18:00,,,,,,,,,,,,,,,,,,0
fba09881e5d4bfbf17b54bb1,保定市徐水区绿源畜牧养殖有限公司,公司企业,农林园艺,河北省,保定市,徐水区,河北省保定市徐水区京港澳高速,,1,0,115.704898,39.04172,,enterprise,http://api.map.baidu.com/place/detail?uid=fba09881e5d4bfbf17b54bb1&output=html&source=placeapi_v2,,,,,,,,,,,,,,,,,,115.70494763296,39.041978885786,0
c3ad2daf3a82a28edf1e528a,易县文霞林果专业合作社,公司企业,农林园艺,河北省,保定市,易县,独乐乡康家庄村,,1,0,115.25116,39.080539,,enterprise,http://api.map.baidu.com/place/detail?uid=c3ad2daf3a82a28edf1e528a&output=html&source=placeapi_v2,,05:00-22:00,,,,,,,,,,,,,,,,115.25164311831,39.080319265136,0
c501d71e9ebd11f9c81b95a9,河北省农民专业合作社,公司企业,农林园艺,河北省,保定市,易县,保定市易县西坨线独乐乡人民政府西北侧约110米,,1,0,115.22164,39.090354,,enterprise,http://api.map.baidu.com/place/detail?uid=c501d71e9ebd11f9c81b95a9&output=html&source=placeapi_v2,,,,,,,,,,,,,,,,,,,,0
9b4378ca9c938bbecae33c39,狼牙山独乐生态循环农业示范园,公司企业,农林园艺,河北省,保定市,易县,保定市易县西坨线河北省农村信用社金融便民店南侧约90米,,1,0,115.220901,39.087934,,enterprise,http://api.map.baidu.com/place/detail?uid=9b4378ca9c938bbecae33c39&output=html&source=placeapi_v2,,,,,,,,,,,,,,,,,,115.22060001098,39.087993731693,0
c80217e9aefc08ec7f29bd39,金丰农民专业种植合作社,公司企业,农林园艺,河北省,保定市,满城区,保定市满城区G234白龙乡人民政府西北侧,c80217e9aefc08ec7f29bd39,1,0,115.306495,39.073171,,enterprise,http://api.map.baidu.com/place/detail?uid=c80217e9aefc08ec7f29bd39&output=html&source=placeapi_v2,,,,,,,,,,,,,,,,,,,,0
863582daf7a7511f4207c18b,保定市众奕绿洲林果农民专业合作社,公司企业,农林园艺,河北省,保定市,徐水区,河北省保定市徐水区,,1,0,115.357734,39.08543,,enterprise,http://api.map.baidu.com/place/detail?uid=863582daf7a7511f4207c18b&output=html&source=placeapi_v2,,,,,,,,,,,,,,,,,,,,0
e2089c1b22fd26cefadc85de,徐水区五兴奶牛专业合作社,公司企业,农林园艺,河北省,保定市,徐水区,河北省保定市徐水区G5(京昆高速公路),,1,0,115.42456,39.074331,,enterprise,http://api.map.baidu.com/place/detail?uid=e2089c1b22fd26cefadc85de&output=html&source=placeapi_v2,,,0.0,,,,,,,,1,,,,,,,,,0
dec29e0d5de9ba4d8c55ec47,陈博饲养场,公司企业,农林园艺,河北省,保定市,徐水区,河北省保定市徐水区大王店镇佃头村西北去161号,,1,0,115.450341,39.090644,15833424743,enterprise,http://api.map.baidu.com/place/detail?uid=dec29e0d5de9ba4d8c55ec47&output=html&source=placeapi_v2,,,,,,,,,,,,,,,,,,,,0
a6ec8ae726891192c17da2eb,甜之源家庭农场,公司企业,农林园艺,河北省,保定市,徐水区,河北省保定市徐水区,,1,0,115.488555,39.083211,13230207053,enterprise,http://api.map.baidu.com/place/detail?uid=a6ec8ae726891192c17da2eb&output=html&source=placeapi_v2,,00:00-24:00,,,,,,,,,,,,,,,,115.48902903683,39.083566448911,0
7c33604ace38affdf03cba8c,保定谷麒农场,公司企业,农林园艺,河北省,保定市,徐水区,保定市徐水区北各庄村,,1,0,115.477822,39.090671,13722972922,enterprise,http://api.map.baidu.com/place/detail?uid=7c33604ace38affdf03cba8c&output=html&source=placeapi_v2,,00:00-24:00,,,,,,,,,,,,,,,,,,0
1a19b33478edebdcc5effbcb,保定越来顺农业发展有限公司,公司企业,农林园艺,河北省,保定市,徐水区,河北省保定市徐水区大次良村西,,1,0,115.484306,39.061032,,enterprise,http://api.map.baidu.com/place/detail?uid=1a19b33478edebdcc5effbcb&output=html&source=placeapi_v2,,08:00-20:00,5.0,,,,,,,,1,,,,,,,,,0
3a1996fc7e04112131870ae4,双印养殖场,公司企业,农林园艺,河北省,保定市,徐水区,河北省保定市徐水区G18(荣乌高速),,1,0,115.519534,39.077866,,enterprise,http://api.map.baidu.com/place/detail?uid=3a1996fc7e04112131870ae4&output=html&source=placeapi_v2,,,,,,,,,,,,,,,,,,,,0
55b9cd5effe930abaecb66c4,河北省保定洪义养殖场,公司企业,农林园艺,河北省,保定市,徐水区,保定市徐水区遂城镇谢坊营村,,1,0,115.569485,39.063006,,enterprise,http://api.map.baidu.com/place/detail?uid=55b9cd5effe930abaecb66c4&output=html&source=placeapi_v2,,,,,,,,,,,,,,,,,,,,0
69c289236775c407a8059dc6,大午禽业,公司企业,农林园艺,河北省,保定市,徐水区,河北省保定市徐水区大午路与18国道交汇处北侧,,1,0,115.619663,39.070563,(0312)8554556,enterprise,http://api.map.baidu.com/place/detail?uid=69c289236775c407a8059dc6&output=html&source=placeapi_v2,,,3.7,,,,,,,,0,,,,,,,115.61996782122,39.070482834579,0
69c289236775c407a8059dc6,大午禽业,公司企业,农林园艺,河北省,保定市,徐水区,河北省保定市徐水区大午路与18国道交汇处北侧,,1,0,115.619663,39.070563,(0312)8554556,enterprise,http://api.map.baidu.com/place/detail?uid=69c289236775c407a8059dc6&output=html&source=placeapi_v2,,,3.7,,,,,,,,0,,,,,,,115.61996782122,39.070482834579,0
58aa7011bc9ada3d373a71f4,刘记家庭农场,公司企业,农林园艺,河北省,保定市,徐水区,河北省保定市徐水区G107(长城北大街),,1,0,115.675286,39.074708,13933200141,enterprise,http://api.map.baidu.com/place/detail?uid=58aa7011bc9ada3d373a71f4&output=html&source=placeapi_v2,,00:00-24:00,,,,,,,,,,,,,,,,,,0
157938067863419d100daac8,农民专业合作社,公司企业,农林园艺,河北省,保定市,徐水区,保定市徐水区李家路与舞狮南街交叉路口往南约120米,,1,0,115.709414,39.083279,,enterprise,http://api.map.baidu.com/place/detail?uid=157938067863419d100daac8&output=html&source=placeapi_v2,,,,,,,,,,,,,,,,,,,,0
78040afac86b18a709a8d4fa,易县国腾林果种植农民专业合作社,公司企业,农林园艺,河北省,保定市,易县,河北省保定市易县,,1,0,115.239784,39.108481,18332025808,enterprise,http://api.map.baidu.com/place/detail?uid=78040afac86b18a709a8d4fa&output=html&source=placeapi_v2,,,,,,,,,,,,,,,,,,,,0
f77c3abeb56e1e1b3904b199,建设林果专业合作社,公司企业,农林园艺,河北省,保定市,易县,保定市易县河北省农村信用社东北侧,,1,0,115.229479,39.123659,,enterprise,http://api.map.baidu.com/place/detail?uid=f77c3abeb56e1e1b3904b199&output=html&source=placeapi_v2,,,,,,,,,,,,,,,,,,,,0
6736187c20da71c5461a321c,双福果树苗木基地,公司企业,农林园艺,河北省,保定市,易县,河北省保定市易县西坨线,,1,0,115.220986,39.112372,,enterprise,http://api.map.baidu.com/place/detail?uid=6736187c20da71c5461a321c&output=html&source=placeapi_v2,,,0.0,,,,,,,,1,,,,,,,115.2212899168,39.112295681553,0
99dfaab17bd012a325e0a01e,易县喜哈哈家庭农场,公司企业,农林园艺,河北省,保定市,易县,河北省保定市易县西山北乡松山村,,1,0,115.220724,39.108081,19832285168,enterprise,http://api.map.baidu.com/place/detail?uid=99dfaab17bd012a325e0a01e&output=html&source=placeapi_v2,,,,,,,,,,,,,,,,,,,,0
8bdccf541f77e09ca8175a18,景泰园艺,公司企业,农林园艺,河北省,保定市,满城区,保定市满城区G234,,1,1,115.306127,39.123095,,enterprise,http://api.map.baidu.com/place/detail?uid=8bdccf541f77e09ca8175a18&output=html&source=placeapi_v2,,,,,,,,,,,,,,,,,,115.30609721076,39.123407269749,1
8d8f1cd88cba738bf503b8a0,腾飞园艺,公司企业,农林园艺,河北省,保定市,满城区,保定市满城区兴农街小天使幼儿园南侧约80米,,1,0,115.307414,39.127343,15830871217,enterprise,http://api.map.baidu.com/place/detail?uid=8d8f1cd88cba738bf503b8a0&output=html&source=placeapi_v2,,,,,,,,,,,,,,,,,,,,0
f8d28cd644745c468605bf82,满城区东又苗木种植农民专业合作社,公司企业,农林园艺,河北省,保定市,满城区,河北省保定市满城区S232,,1,0,115.305219,39.1221,,enterprise,http://api.map.baidu.com/place/detail?uid=f8d28cd644745c468605bf82&output=html&source=placeapi_v2,,,0.0,,,,,,,,,,,,,,,,,0
b7c53534c5d2ba7afe0eb0c1,保定市徐水区家庭农场,公司企业,农林园艺,河北省,保定市,徐水区,河北省保定市徐水区,,1,0,115.425383,39.118047,15733116458,enterprise,http://api.map.baidu.com/place/detail?uid=b7c53534c5d2ba7afe0eb0c1&output=html&source=placeapi_v2,,,,,,,,,,,,,,,,,,,,0
b27789e80cbb434b88f15deb,农民专业合作社,公司企业,农林园艺,河北省,保定市,徐水区,保定市徐水区后沟街与中心路交叉路口往东南约160米,,1,0,115.482745,39.10468,,enterprise,http://api.map.baidu.com/place/detail?uid=b27789e80cbb434b88f15deb&output=html&source=placeapi_v2,,,,,,,,,,,,,,,,,,,,0
d7f71ca1d09aa169f8dc85d2,河北绿万源农业发展有限公司,公司企业,农林园艺,河北省,保定市,徐水区,保定市徐水区朝阳北大街北延路东行800M,,1,0,115.474478,39.116034,,enterprise,http://api.map.baidu.com/place/detail?uid=d7f71ca1d09aa169f8dc85d2&output=html&source=placeapi_v2,,,,,,,,,,,,,,,,,,,,0
f927251643cf6d1cf40e77fc,保定市徐水区孔氏蛋鸡养殖场,公司企业,农林园艺,河北省,保定市,徐水区,西樊村,,1,0,115.479053,39.104879,13933229782,enterprise,http://api.map.baidu.com/place/detail?uid=f927251643cf6d1cf40e77fc&output=html&source=placeapi_v2,,08:00-20:00,,,,,,,,,,,,,,,,,,0
0463a76dd9d1c63edc1e525c,德农资德福农场,公司企业,农林园艺,河北省,保定市,徐水区,河北省保定市徐水区易保线,,1,0,115.512669,39.097882,,enterprise,http://api.map.baidu.com/place/detail?uid=0463a76dd9d1c63edc1e525c&output=html&source=placeapi_v2,,,,,,,,,,,,,,,,,,,,0
5341ff4fa9cf3251c61e51ae,徐水区育生养殖场,公司企业,农林园艺,河北省,保定市,徐水区,河北省保定市徐水区遂城镇大马各庄村,,1,0,115.504639,39.101809,,enterprise,http://api.map.baidu.com/place/detail?uid=5341ff4fa9cf3251c61e51ae&output=html&source=placeapi_v2,,,,,,,,,,,,,,,,,,,,0
c68f4de8d7c57b83932ca3c9,四海渔场,公司企业,农林园艺,河北省,保定市,徐水区,保定市徐水区,,1,0,115.55609,39.113305,,enterprise,http://api.map.baidu.com/place/detail?uid=c68f4de8d7c57b83932ca3c9&output=html&source=placeapi_v2,,,,,,,,,,,,,,,,,,,,0
617b9de6b6334e6cdb131862,荣远家庭农场办事处,公司企业,农林园艺,河北省,保定市,徐水区,保定市徐水区,,1,0,115.548323,39.1136,,enterprise,http://api.map.baidu.com/place/detail?uid=617b9de6b6334e6cdb131862&output=html&source=placeapi_v2,,,,,,,,,,,,,,,,,,,,0
2f62ffbc45244aeae5e965fb,天蓬谷物农民专业合作社,公司企业,农林园艺,河北省,保定市,徐水区,保定市徐水区,,1,0,115.568434,39.112404,,enterprise,http://api.map.baidu.com/place/detail?uid=2f62ffbc45244aeae5e965fb&output=html&source=placeapi_v2,,,,,,,,,,,,,,,,,,,,0
927a9f322707b36d5bf6beda,徐水区祥泰农业专业合作社,公司企业,农林园艺,河北省,保定市,徐水区,保定市徐水区崔家独树村,,1,0,115.565721,39.125717,13833003923,enterprise,http://api.map.baidu.com/place/detail?uid=927a9f322707b36d5bf6beda&output=html&source=placeapi_v2,,08:00-18:45,,,,,,,,,,,,,,,,,,0
7838c006074653f030f71db4,荣远家庭农场,公司企业,农林园艺,河北省,保定市,徐水区,保定市徐水区屯庄村西,,1,0,115.545316,39.101467,13930837351,enterprise,http://api.map.baidu.com/place/detail?uid=7838c006074653f030f71db4&output=html&source=placeapi_v2,,00:00-24:00,,,,,,,,,,,,,,,,,,0
955e4b24b58fd216b726551e,老牛家庭农场,公司企业,农林园艺,河北省,保定市,徐水区,河北省保定市徐水区,,1,0,115.606457,39.107552,,enterprise,http://api.map.baidu.com/place/detail?uid=955e4b24b58fd216b726551e&output=html&source=placeapi_v2,,,0.0,,,,,,,,0,,,,,,,,,0
4945c585fa5ad6ed1e1d1183,保定市徐水区长辉饲养场,公司企业,农林园艺,河北省,保定市,徐水区,保定市徐水区安庄村,,1,0,115.586675,39.113311,,enterprise,http://api.map.baidu.com/place/detail?uid=4945c585fa5ad6ed1e1d1183&output=html&source=placeapi_v2,,,,,,,,,,,,,,,,,,,,0
4b52cf1bb9e1077dcc04ef60,农民专业合作社,公司企业,农林园艺,河北省,保定市,徐水区,保定市徐水区,,1,0,115.639828,39.104374,,enterprise,http://api.map.baidu.com/place/detail?uid=4b52cf1bb9e1077dcc04ef60&output=html&source=placeapi_v2,,,,,,,,,,,,,,,,,,,,0
012a0c202824754026e0a0ce,宏硕果家庭农场,公司企业,农林园艺,河北省,保定市,徐水区,河北省保定市徐水区区区G107(长城北大街),,1,0,115.69759,39.102829,,enterprise,http://api.map.baidu.com/place/detail?uid=012a0c202824754026e0a0ce&output=html&source=placeapi_v2,,,0.0,,,,,,,,,,,,,,,,,0
4a50b8a560fc757706026f44,保定市徐水区农悦祥肥业有限公司,公司企业,农林园艺,河北省,保定市,徐水区,河北省保定市徐水区G107(长城北大街),,1,0,115.702022,39.107334,(0312)8558518,enterprise,http://api.map.baidu.com/place/detail?uid=4a50b8a560fc757706026f44&output=html&source=placeapi_v2,,,,,,,,,,,,,,,,,,,,0
4a50b8a560fc757706026f44,保定市徐水区农悦祥肥业有限公司,公司企业,农林园艺,河北省,保定市,徐水区,河北省保定市徐水区G107(长城北大街),,1,0,115.702022,39.107334,(0312)8558518,enterprise,http://api.map.baidu.com/place/detail?uid=4a50b8a560fc757706026f44&output=html&source=placeapi_v2,,,,,,,,,,,,,,,,,,,,0
