uid,name,cat_L1,cat_L2,province,city,area,address,street_id,detail,child_num,loc_lng,loc_lat,telephone,type,detail_url,price,shop_hours,overall_rating,taste_rating,service_rating,environment_rating,facility_rating,hygiene_rating,technology_rating,image_num,comment_num,groupon_num,discount_num,favorite_num,checkin_num,brand,content_tag,naviloc_lng,naviloc_lat,child_num
55d97b23feddea9325d2bb08,兴茹照相馆,生活服务,照相馆,河北省,保定市,望都县,中兴北街55号,,1,0,115.22492,38.648441,13032060127,life,http://api.map.baidu.com/place/detail?uid=55d97b23feddea9325d2bb08&output=html&source=placeapi_v2,,,,,,,,,,3,,,,,,,,,,0
04f97930d53ddd0a1df74d54,新新娘婚纱婚庆摄影,生活服务,照相馆,河北省,保定市,蠡县,保定市蠡县利民路万安镇人民政府东侧约210米,,1,0,115.672308,38.649505,"13932294668,15075289969",life,http://api.map.baidu.com/place/detail?uid=04f97930d53ddd0a1df74d54&output=html&source=placeapi_v2,,,,,,,,,,7,,,,,,,,115.67228449273,38.649388706474,0
3c44fde24f529f099a0050d0,天鹏照相馆,生活服务,照相馆,河北省,保定市,清苑区,保定市清苑区S335河北省农村(阳城信用社)西侧约80米,,1,0,115.283733,38.701087,,life,http://api.map.baidu.com/place/detail?uid=3c44fde24f529f099a0050d0&output=html&source=placeapi_v2,,,,,,,,,,3,,,,,,,,115.28367847773,38.700992076927,0
3794845a4f60b6d8f7e73b41,时光照相馆,生活服务,照相馆,河北省,保定市,清苑区,保定市清苑区古槐路与抗战路交叉路口往东南约170米,,1,0,115.379545,38.676336,,life,http://api.map.baidu.com/place/detail?uid=3794845a4f60b6d8f7e73b41&output=html&source=placeapi_v2,,,,,,,,,,2,,,,,,,,,,0
fc487de8c112aa2b26d2bb21,村公所照相馆,生活服务,照相馆,河北省,保定市,清苑区,保定市清苑区抗战路河北省农村(冉庄信用社)西南侧约230米,,1,0,115.37772,38.676916,15933977233,life,http://api.map.baidu.com/place/detail?uid=fc487de8c112aa2b26d2bb21&output=html&source=placeapi_v2,,08:30-17:30,,,,,,,,,,,,,,,,,,0
77081a00e6109e585cd4fec3,瑞旗照相馆,生活服务,照相馆,河北省,保定市,清苑区,保定市清苑区古槐路与抗战路交叉路口往南约100米,,1,0,115.377721,38.676329,,life,http://api.map.baidu.com/place/detail?uid=77081a00e6109e585cd4fec3&output=html&source=placeapi_v2,,,,,,,,,,4,,,,,,,,115.37770254162,38.676251402919,0
4f0bdfb749db77d682a12ee4,东方红照相馆(抗战路店),生活服务,照相馆,河北省,保定市,清苑区,保定市清苑区抗战路河北省农村(冉庄信用社)西南侧约220米,4f0bdfb749db77d682a12ee4,1,0,115.377716,38.67701,,life,http://api.map.baidu.com/place/detail?uid=4f0bdfb749db77d682a12ee4&output=html&source=placeapi_v2,,,,,,,,,,2,,,,,,,,,,0
e8ae232b5f89ebc90f0a7027,地道战照相馆,生活服务,照相馆,河北省,保定市,清苑区,保定市清苑区抗战路河北省农村(冉庄信用社)南侧约160米,e8ae232b5f89ebc90f0a7027,1,0,115.378423,38.67716,,life,http://api.map.baidu.com/place/detail?uid=e8ae232b5f89ebc90f0a7027&output=html&source=placeapi_v2,,,0.0,,,,,,,6,,,,,,,,115.3783402532,38.677024154374,0
88b0d047b79ba0e316c90556,东吕照相馆,生活服务,照相馆,河北省,保定市,清苑区,保定市清苑区东吕幼儿园西侧约160米,,1,0,115.57166,38.686289,15833868438,life,http://api.map.baidu.com/place/detail?uid=88b0d047b79ba0e316c90556&output=html&source=placeapi_v2,,,,,,,,,,4,,,,,,,,,,0
b65489638cbfa84fd92f28a8,迎春工作室,生活服务,照相馆,河北省,保定市,清苑区,保定市清苑区,,1,0,115.559534,38.679467,,life,http://api.map.baidu.com/place/detail?uid=b65489638cbfa84fd92f28a8&output=html&source=placeapi_v2,,,,,,,,,,4,,,,,,,,,,0
88807c09bd8d35429cec2ba7,广告照相,生活服务,照相馆,河北省,保定市,高阳县,保定市高阳县沧榆高速与温泉路交叉路口往南约110米,,1,0,115.699722,38.686784,18833281911,life,http://api.map.baidu.com/place/detail?uid=88807c09bd8d35429cec2ba7&output=html&source=placeapi_v2,,,,,,,,,,2,,,,,,,,,,0
dc0e39f668f28582c2f1cfe6,青帆商业摄影,生活服务,照相馆,河北省,保定市,高阳县,河北省保定市高阳县高清路,,1,0,115.734639,38.689059,15512220122,life,http://api.map.baidu.com/place/detail?uid=dc0e39f668f28582c2f1cfe6&output=html&source=placeapi_v2,,,,,,,,,,5,2,,,,,,,,,0
88807c09bd8d35429cec2ba7,广告照相,生活服务,照相馆,河北省,保定市,高阳县,保定市高阳县沧榆高速与温泉路交叉路口往南约110米,,1,0,115.699722,38.686784,18833281911,life,http://api.map.baidu.com/place/detail?uid=88807c09bd8d35429cec2ba7&output=html&source=placeapi_v2,,,,,,,,,,2,,,,,,,,,,0
ce9f9cf8836dcd06c9e33c6d,照相馆,生活服务,照相馆,河北省,保定市,清苑区,保定市清苑区G240中国信合(田各庄信用社)东南侧约80米,,1,0,115.491543,38.728407,15932263400,life,http://api.map.baidu.com/place/detail?uid=ce9f9cf8836dcd06c9e33c6d&output=html&source=placeapi_v2,,,,,,,,,,4,,,,,,,,115.49128967205,38.728429402471,0
9ff331078ed1a5a3adcb6675,诗霖婚纱摄影,生活服务,照相馆,河北省,保定市,清苑区,保定市清苑区大庄村客运站西侧约90米,,1,0,115.61085,38.703079,,life,http://api.map.baidu.com/place/detail?uid=9ff331078ed1a5a3adcb6675&output=html&source=placeapi_v2,,,,,,,,,,3,,,,,,,,,,0
4cbbb5a6978e3d091ce9998f,绚莉娅摄影,生活服务,照相馆,河北省,保定市,清苑区,保定市清苑区农村信用社魏村镇信用社东北50米,,1,0,115.367727,38.763617,13582397609,life,http://api.map.baidu.com/place/detail?uid=4cbbb5a6978e3d091ce9998f&output=html&source=placeapi_v2,,07:00-21:00,0.0,,,,,,,3,1,,,,,,,115.36756890449,38.763722355447,0
38cf10abb18540602fb9085c,自由人晶晶工作室,生活服务,照相馆,河北省,保定市,清苑区,保定市清苑区西顾庄新民居东北侧约50米,,1,0,115.481916,38.755,,life,http://api.map.baidu.com/place/detail?uid=38cf10abb18540602fb9085c&output=html&source=placeapi_v2,,09:00-22:00,,,,,,,,7,,,,,,,,115.48193104081,38.755092534426,0
84fb6ea976ba3afebca822c3,金梦专业摄影,生活服务,照相馆,河北省,保定市,清苑区,保定市清苑区S331石头桥中学东侧约170米,,1,0,115.635646,38.768111,"(0312)8063822,13833059298",life,http://api.map.baidu.com/place/detail?uid=84fb6ea976ba3afebca822c3&output=html&source=placeapi_v2,,08:00-20:00,,,,,,,,4,,,,,,,,,,0
3f832df61552f376dbeced7a,梦真摄影,生活服务,照相馆,河北省,保定市,顺平县,保定市顺平县中心路顺平职教中心西南侧约270米,,1,0,115.197985,38.797983,15532226283,life,http://api.map.baidu.com/place/detail?uid=3f832df61552f376dbeced7a&output=html&source=placeapi_v2,,,,,,,,,,3,,,,,,,,115.19812232036,38.797994693021,0
74002a5203a5ebab8af15d16,爱多多孕婴童摄影会所,生活服务,照相馆,河北省,保定市,清苑区,河北省保定市清苑区振兴南路41号,,1,0,115.490849,38.772747,(0312)8549933,life,http://api.map.baidu.com/place/detail?uid=74002a5203a5ebab8af15d16&output=html&source=placeapi_v2,,08:00-18:00,,,,,,,,11,,,,,,,,115.49109071176,38.772741786228,0
38ce1e26764debe4774ff1f2,小儿郎儿童会所,生活服务,照相馆,河北省,保定市,清苑区,河北省保定市清苑区富强北路223号,38ce1e26764debe4774ff1f2,1,0,115.50814,38.7805,15188615885,life,http://api.map.baidu.com/place/detail?uid=38ce1e26764debe4774ff1f2&output=html&source=placeapi_v2,,,,,,,,,,16,,,,,,,,115.50827303692,38.780503561166,0
925725575fce012c6fc02cdb,天使足迹儿童摄影名店(光明中街店),生活服务,照相馆,河北省,保定市,清苑区,河北省保定市清苑区光明中街80号,925725575fce012c6fc02cdb,1,0,115.501726,38.775134,15531260511,life,http://api.map.baidu.com/place/detail?uid=925725575fce012c6fc02cdb&output=html&source=placeapi_v2,,08:00-17:30,,,,,,,,13,,,,,,,,115.5017278141,38.775259414101,0
d87285ad344c3d3f167643a5,蒂尔婚纱,生活服务,照相馆,河北省,保定市,清苑区,保定市清苑区迎宾中街穆斯林大厦西南侧约190米,,1,0,115.503187,38.770851,13931211485,life,http://api.map.baidu.com/place/detail?uid=d87285ad344c3d3f167643a5&output=html&source=placeapi_v2,,08:30-18:30,,,,,,,,,,,,,,,,,,0
84fb6ea976ba3afebca822c3,金梦专业摄影,生活服务,照相馆,河北省,保定市,清苑区,保定市清苑区S331石头桥中学东侧约170米,,1,0,115.635646,38.768111,"(0312)8063822,13833059298",life,http://api.map.baidu.com/place/detail?uid=84fb6ea976ba3afebca822c3&output=html&source=placeapi_v2,,08:00-20:00,,,,,,,,4,,,,,,,,,,0
521310e10ee9b9f66240a938,盼儿工作室,生活服务,照相馆,河北省,保定市,清苑区,保定市清苑区S331石头桥中学东北侧约190米,,1,0,115.635599,38.768654,,life,http://api.map.baidu.com/place/detail?uid=521310e10ee9b9f66240a938&output=html&source=placeapi_v2,,,,,,,,,,3,,,,,,,,,,0
7d5ccfd22e66369682a12e49,吴太太工作室,生活服务,照相馆,河北省,保定市,清苑区,河北省保定市清苑区331国道福美轩门业旁,,1,0,115.638209,38.771063,18830286166,life,http://api.map.baidu.com/place/detail?uid=7d5ccfd22e66369682a12e49&output=html&source=placeapi_v2,,,,,,,,,,2,,,,,,,,,,0
60e144afe2c570142e47330e,新亚数码照相,生活服务,照相馆,河北省,保定市,满城区,保定市满城区X308与满于西线交叉口附近,,1,0,115.308177,38.813961,"13472245505,13931395467",life,http://api.map.baidu.com/place/detail?uid=60e144afe2c570142e47330e&output=html&source=placeapi_v2,,,,,,,,,,7,,,,,,,,,,0
ea7252dd29e2d0c5d12dd62f,龙飞工作室,生活服务,照相馆,河北省,保定市,满城区,河北省保定市满城区满于西线,,1,0,115.308443,38.820028,18103124411,life,http://api.map.baidu.com/place/detail?uid=ea7252dd29e2d0c5d12dd62f&output=html&source=placeapi_v2,,,,,,,,,,6,,,,,,,,115.3086311734,38.820026791123,0
eee4e3e1bf36f99e5d17c35a,心心婚纱摄影,生活服务,照相馆,河北省,保定市,满城区,河北省保定市满城区永新路65号,,1,0,115.368357,38.813904,(0312)7086004,life,http://api.map.baidu.com/place/detail?uid=eee4e3e1bf36f99e5d17c35a&output=html&source=placeapi_v2,,,,,,,,,,20,,,,,,,,,,0
94fe5dfa655899e9c7f50d9d,心心照相,生活服务,照相馆,河北省,保定市,莲池区,保定市莲池区桃源路都市桃源,,1,0,115.447331,38.820985,,life,http://api.map.baidu.com/place/detail?uid=94fe5dfa655899e9c7f50d9d&output=html&source=placeapi_v2,,,,,,,,,,4,,,,,,,,115.44738536664,38.821222920214,0
79953c3b904a70e2d32dd6d5,美真数码摄影工作室,生活服务,照相馆,河北省,保定市,莲池区,河北省保定市莲池区南二环虎振西街e-7号,79953c3b904a70e2d32dd6d5,1,0,115.495092,38.823605,,life,http://api.map.baidu.com/place/detail?uid=79953c3b904a70e2d32dd6d5&output=html&source=placeapi_v2,,08:00-20:00,3,,,,,,,13,2,,,,,,,,,0
85119df956f19b146849f354,啊哈宝贝专业儿童摄影微电影拍摄,生活服务,照相馆,河北省,保定市,莲池区,河北省保定市莲池区长城南大街青青花园北区7号楼8号,,1,0,115.517463,38.82944,13653324714,life,http://api.map.baidu.com/place/detail?uid=85119df956f19b146849f354&output=html&source=placeapi_v2,,,,,,,,,,7,,,,,,,,,,0
cd3e093d803979dfe6e96513,影迹摄影,生活服务,照相馆,河北省,保定市,竞秀区,河北省保定市竞秀区直隶步行街5号,,1,0,115.403802,38.838128,15033770200,life,http://api.map.baidu.com/place/detail?uid=cd3e093d803979dfe6e96513&output=html&source=placeapi_v2,,08:30-17:30,,,,,,,,3,,,,,,,,115.40391012069,38.838066470753,0
53349ee33812726d22026237,同乐经典数码摄影,生活服务,照相馆,河北省,保定市,竞秀区,河北省保定市竞秀区乐凯南大街1330号,53349ee33812726d22026237,1,0,115.45799,38.857033,13070510021,life,http://api.map.baidu.com/place/detail?uid=53349ee33812726d22026237&output=html&source=placeapi_v2,,08:00-19:00,5,,,,,,,24,2,,,,,,,,,0
c3f405f9f534a00be115f982,琪琪婚纱工作室,生活服务,照相馆,河北省,保定市,竞秀区,河北省保定市竞秀区富昌路24号北2号,,1,0,115.452874,38.859547,15933531992,life,http://api.map.baidu.com/place/detail?uid=c3f405f9f534a00be115f982&output=html&source=placeapi_v2,,,,,,,,,,3,,,,,,,,115.45271120532,38.859546579649,0
3df9ed097cd6afe441e1927b,立增照相馆,生活服务,照相馆,河北省,保定市,竞秀区,河北省保定市竞秀区先锋街道朝阳南大街542号,3df9ed097cd6afe441e1927b,1,0,115.47522,38.866439,(0312)3212575,life,http://api.map.baidu.com/place/detail?uid=3df9ed097cd6afe441e1927b&output=html&source=placeapi_v2,,08:30-18:30,0,,,,,,,15,0,,,,,,,115.47535192872,38.866437803016,0
48bda7dd1b48cd07715e8034,多艺摄影工作室,生活服务,照相馆,河北省,保定市,竞秀区,河北省保定市竞秀区保定职业技术学院北门外灵雨寺小吃街(北口)入巷右手边第一家店,,1,0,115.478807,38.865911,13681276580,life,http://api.map.baidu.com/place/detail?uid=48bda7dd1b48cd07715e8034&output=html&source=placeapi_v2,,,,,,,,,,8,3,,,,,,,115.47893596987,38.865797579534,0
045c605d1c53ef2d1df74dcc,火途照相馆,生活服务,照相馆,河北省,保定市,莲池区,河北省保定市莲池区林荫路河北农业大学东校区5号楼,045c605d1c53ef2d1df74dcc,1,0,115.496188,38.857012,13333227601,life,http://api.map.baidu.com/place/detail?uid=045c605d1c53ef2d1df74dcc&output=html&source=placeapi_v2,,08:00-18:00,5,,,,,,,8,2,,,,,,,115.49616551093,38.856914228593,0
db76d06f05a79087df1e52ff,永恒宝贝摄影,生活服务,照相馆,河北省,保定市,竞秀区,河北省保定市竞秀区陵园路8号,db76d06f05a79087df1e52ff,1,0,115.459752,38.859554,(0312)3030881,life,http://api.map.baidu.com/place/detail?uid=db76d06f05a79087df1e52ff&output=html&source=placeapi_v2,,08:30-17:30,0,,,,,,,20,0,,,,,,,115.45975111241,38.859387927713,0
53349ee33812726d22026237,同乐经典数码摄影,生活服务,照相馆,河北省,保定市,竞秀区,河北省保定市竞秀区乐凯南大街1330号,53349ee33812726d22026237,1,0,115.45799,38.857033,13070510021,life,http://api.map.baidu.com/place/detail?uid=53349ee33812726d22026237&output=html&source=placeapi_v2,,08:00-19:00,5,,,,,,,24,2,,,,,,,,,0
3c41afb1a0e1d1c271210b33,IDesign创新工作室,生活服务,照相馆,河北省,保定市,莲池区,河北省保定市莲池区河北农业大学东校区机电学院310室,,1,0,115.488818,38.855405,,life,http://api.map.baidu.com/place/detail?uid=3c41afb1a0e1d1c271210b33&output=html&source=placeapi_v2,,,,,,,,,,1,,,,,,,,,,0
80341060386ad47ebd484260,丽缘照相馆,生活服务,照相馆,河北省,保定市,莲池区,河北省保定市莲池区莲池南大街953号,80341060386ad47ebd484260,1,0,115.505258,38.85149,15633732232,life,http://api.map.baidu.com/place/detail?uid=80341060386ad47ebd484260&output=html&source=placeapi_v2,,08:00-20:00,,,,,,,,4,,,,,,,,,,0
e85134c5497ed82b21026210,深蓝美妆摄影,生活服务,照相馆,河北省,保定市,莲池区,保定市莲池区裕华东路保定四中院内艺教楼2楼(东风公园),e85134c5497ed82b21026210,1,0,115.517595,38.86172,13832230358,life,http://api.map.baidu.com/place/detail?uid=e85134c5497ed82b21026210&output=html&source=placeapi_v2,,09:00-19:00,0,,,,,,,4,0,,,,,,,,,0
854c5c6b6a7d452700ec01f6,凯华照相,生活服务,照相馆,河北省,保定市,莲池区,河北省保定市莲池区天威中路182号,854c5c6b6a7d452700ec01f6,1,0,115.507868,38.858318,15200099896,life,http://api.map.baidu.com/place/detail?uid=854c5c6b6a7d452700ec01f6&output=html&source=placeapi_v2,,09:00-17:00,0,,,,,,,3,1,,,,,,,115.50787322629,38.858378292743,0
4154676f6d66f4f9c72ba150,聚星照相馆(裕华东路店),生活服务,照相馆,河北省,保定市,莲池区,河北省保定市莲池区裕华东路25号1号省医院十字路口斜对面路北,4154676f6d66f4f9c72ba150,1,0,115.523854,38.860718,13012058926,life,http://api.map.baidu.com/place/detail?uid=4154676f6d66f4f9c72ba150&output=html&source=placeapi_v2,,08:00-20:00,3,,,,,,,22,2,,,,,,,,,0
855abba0379be32295ec84bf,浅山摄影工作室,生活服务,照相馆,河北省,保定市,莲池区,河北省保定市莲池区裕华西路80号,,1,0,115.51151,38.863163,18132125513,life,http://api.map.baidu.com/place/detail?uid=855abba0379be32295ec84bf&output=html&source=placeapi_v2,,09:00-23:30,,,,,,,,7,,,,,,,,115.51151923007,38.863221156562,0
cc788fdeb7639f8988fc0632,长青藤照相,生活服务,照相馆,河北省,保定市,莲池区,河北省保定市莲池区裕华东路117号,cc788fdeb7639f8988fc0632,1,0,115.518616,38.86212,(0312)5093427,life,http://api.map.baidu.com/place/detail?uid=cc788fdeb7639f8988fc0632&output=html&source=placeapi_v2,,08:00-18:00,0.0,,,,,,,19,,,,,,,,115.51858339411,38.862043686996,0
79e40a237855137426e0a048,沙沙私人订制,生活服务,照相馆,河北省,保定市,莲池区,河北省保定市莲池区东大街52号,,1,0,115.513745,38.865182,15931835154,life,http://api.map.baidu.com/place/detail?uid=79e40a237855137426e0a048&output=html&source=placeapi_v2,,,,,,,,,,8,,,,,,,,115.51375877398,38.865234135223,0
144750d72646cf65f90cad84,林岳潭摄影,生活服务,照相馆,河北省,保定市,莲池区,保定市莲池区莲池南大街南大园村西街小区东侧约50米,144750d72646cf65f90cad84,1,0,115.505029,38.841434,13091250792,life,http://api.map.baidu.com/place/detail?uid=144750d72646cf65f90cad84&output=html&source=placeapi_v2,,08:30-18:00,0,,,,,,,11,0,,,,,,,,,0
9edb05d48d31081db64f5482,上古摄影,生活服务,照相馆,河北省,保定市,莲池区,河北省保定市莲池区裕华东路百悦梧桐中心b座16楼,,1,0,115.530856,38.858478,17717123091,life,http://api.map.baidu.com/place/detail?uid=9edb05d48d31081db64f5482&output=html&source=placeapi_v2,,08:00-20:00,,,,,,,,,,,,,,,,,,0
cd9d05ddabf04eb585420e32,漂亮宝贝摄影陶艺(裕华东路店),生活服务,照相馆,河北省,保定市,莲池区,河北省保定市莲池区裕华东路49号,cd9d05ddabf04eb585420e32,1,0,115.516069,38.862792,15132277626,life,http://api.map.baidu.com/place/detail?uid=cd9d05ddabf04eb585420e32&output=html&source=placeapi_v2,,10:00-22:00,0,,,,,,,18,1,,,,,,,115.51604609786,38.862698629834,0
9469f5831b895f788f55ecb2,新娘爱世界婚纱,生活服务,照相馆,河北省,保定市,莲池区,河北省保定市莲池区长城南大街272号,9469f5831b895f788f55ecb2,1,0,115.514586,38.864118,13722201956,life,http://api.map.baidu.com/place/detail?uid=9469f5831b895f788f55ecb2&output=html&source=placeapi_v2,,09:00-19:00,5,,,,,,,10,1,,,,,,,115.51463244795,38.864106490927,0
474dd6832fa9d5eb246e989d,空间摄影艺术馆,生活服务,照相馆,河北省,保定市,莲池区,保定市莲池区裕华东路客运中心对面双创基地亨佰丽二期6号楼831室,,1,0,115.549209,38.85802,13653329565,life,http://api.map.baidu.com/place/detail?uid=474dd6832fa9d5eb246e989d&output=html&source=placeapi_v2,,09:00-18:30,,,,,,,,,,,,,,,,115.54971962876,38.857967088219,0
8f1b25d6b6c60b6dc17da23b,冬秀数码照相馆,生活服务,照相馆,河北省,保定市,顺平县,保定市顺平县G234腰山幼儿园西北侧约140米,,1,0,115.224851,38.894748,13230234416,life,http://api.map.baidu.com/place/detail?uid=8f1b25d6b6c60b6dc17da23b&output=html&source=placeapi_v2,,,,,,,,,,5,,,,,,,,115.22482048742,38.894824505282,0
342d0cc478a141715bf6be28,慧中摄影,生活服务,照相馆,河北省,保定市,满城区,河北省保定市满城区玉春加油站,,1,0,115.307644,38.874481,13832298957,life,http://api.map.baidu.com/place/detail?uid=342d0cc478a141715bf6be28&output=html&source=placeapi_v2,,,,,,,,,,8,,,,,,,,115.30746955478,38.87451519024,0
74a88b162e0812050389721b,丽影婚庆摄影,生活服务,照相馆,河北省,保定市,竞秀区,河北省保定市竞秀区江城西队天威西路西三环红绿灯东行40米路北,74a88b162e0812050389721b,1,0,115.384492,38.86983,13663399056,life,http://api.map.baidu.com/place/detail?uid=74a88b162e0812050389721b&output=html&source=placeapi_v2,,08:00-19:30,,,,,,,,11,,,,,,,,,,0
def4806d94ef18290aa8d419,萌贝奇儿童摄影,生活服务,照相馆,河北省,保定市,竞秀区,河北省保定市竞秀区天威西路4134号,def4806d94ef18290aa8d419,1,0,115.398296,38.869012,18630298505,life,http://api.map.baidu.com/place/detail?uid=def4806d94ef18290aa8d419&output=html&source=placeapi_v2,,08:30-17:30,,,,,,,,9,,,,,,,,115.39820607563,38.869293754326,0
ff965a83d9c2ac05b1077d3a,童年摄影(天威路店),生活服务,照相馆,河北省,保定市,竞秀区,河北省保定市竞秀区天威西路1169号秀兰康欣园北区,ff965a83d9c2ac05b1077d3a,1,0,115.451683,38.87065,"(0312)5954158,18230023032",life,http://api.map.baidu.com/place/detail?uid=ff965a83d9c2ac05b1077d3a&output=html&source=placeapi_v2,,08:30-18:00,3,,,,,,,15,1,,,,,,,115.45162899691,38.870427719692,0
79cceb36872e26881f5800b6,跨维广告传媒,生活服务,照相馆,河北省,保定市,竞秀区,河北省保定市竞秀区东风西路753号,79cceb36872e26881f5800b6,1,0,115.456953,38.88018,19801411116,life,http://api.map.baidu.com/place/detail?uid=79cceb36872e26881f5800b6&output=html&source=placeapi_v2,,00:00-24:00,0,,,,,,,37,1,,,,,,,115.4569537648,38.880154839497,0
c07a546a7d940c313586f48d,三月印象摄影工作室,生活服务,照相馆,河北省,保定市,竞秀区,河北省保定市竞秀区钻石街110号,c07a546a7d940c313586f48d,1,0,115.477458,38.885603,"13051581000,15633713613",life,http://api.map.baidu.com/place/detail?uid=c07a546a7d940c313586f48d&output=html&source=placeapi_v2,,09:30-19:00,0,,,,,,,,0,,,,,,,,,0
0434c54447a6c2803a04b1a8,拾光秀照相馆(茂业百货店),生活服务,照相馆,河北省,保定市,竞秀区,河北省保定市竞秀区朝阳南大街1号茂业百货4楼,,1,0,115.476126,38.878951,(0312)6399171,life,http://api.map.baidu.com/place/detail?uid=0434c54447a6c2803a04b1a8&output=html&source=placeapi_v2,,"10:00-13:00,14:00-20:00",,,,,,,,3,,,,,,,,115.47559258815,38.878955414828,0
3df9ed097cd6afe441e1927b,立增照相馆,生活服务,照相馆,河北省,保定市,竞秀区,河北省保定市竞秀区先锋街道朝阳南大街542号,3df9ed097cd6afe441e1927b,1,0,115.47522,38.866439,(0312)3212575,life,http://api.map.baidu.com/place/detail?uid=3df9ed097cd6afe441e1927b&output=html&source=placeapi_v2,,08:30-18:30,0,,,,,,,15,0,,,,,,,115.47535192872,38.866437803016,0
d9a8dac685ae17fcb220a83b,红芳照相,生活服务,照相馆,河北省,保定市,竞秀区,河北省保定市竞秀区瑞祥大街203号,d9a8dac685ae17fcb220a83b,1,0,115.497003,38.890733,15933491337,life,http://api.map.baidu.com/place/detail?uid=d9a8dac685ae17fcb220a83b&output=html&source=placeapi_v2,,08:00-20:00,1,,,,,,,10,1,,,,,,,115.49719733153,38.890729898632,0
61b64769ee83c3e2f7b91605,乐凯数码冲印,生活服务,照相馆,河北省,保定市,竞秀区,河北省保定市竞秀区向阳北大街67号乐凯2区3号楼2单元,61b64769ee83c3e2f7b91605,1,0,115.466954,38.881159,(0312)3037006,life,http://api.map.baidu.com/place/detail?uid=61b64769ee83c3e2f7b91605&output=html&source=placeapi_v2,,08:30-18:30,1,,,,,,,15,3,,,,,,,115.46683287066,38.88115841454,0
02dd27405fe0d148c9213d9c,真情照相,生活服务,照相馆,河北省,保定市,竞秀区,河北保定市竞秀区盛兴西路110号,02dd27405fe0d148c9213d9c,1,0,115.471836,38.891438,13383322699,life,http://api.map.baidu.com/place/detail?uid=02dd27405fe0d148c9213d9c&output=html&source=placeapi_v2,,08:00-20:00,,,,,,,,19,,,,,,,,115.47182509214,38.891689408494,0
48bda7dd1b48cd07715e8034,多艺摄影工作室,生活服务,照相馆,河北省,保定市,竞秀区,河北省保定市竞秀区保定职业技术学院北门外灵雨寺小吃街(北口)入巷右手边第一家店,,1,0,115.478807,38.865911,13681276580,life,http://api.map.baidu.com/place/detail?uid=48bda7dd1b48cd07715e8034&output=html&source=placeapi_v2,,,,,,,,,,8,3,,,,,,,115.47893596987,38.865797579534,0
feffc8208cef7606f7e73bbc,保定竞秀区那边的海自拍换装馆,生活服务,照相馆,河北省,保定市,竞秀区,河北省保定市竞秀区朝阳南大街47号百世开利14层,,1,0,115.476104,38.878072,,life,http://api.map.baidu.com/place/detail?uid=feffc8208cef7606f7e73bbc&output=html&source=placeapi_v2,,09:00-22:00,,,,,,,,,,,,,,,,,,0
60bec03d067754eb5cbe869f,完美影像俱乐部,生活服务,照相馆,河北省,保定市,竞秀区,保定市竞秀区东风西路西行30米,60bec03d067754eb5cbe869f,1,0,115.468534,38.879542,(0312)3052611,life,http://api.map.baidu.com/place/detail?uid=60bec03d067754eb5cbe869f&output=html&source=placeapi_v2,,08:00-18:00,0,,,,,,,19,1,,,,,,,115.46853363877,38.879613326441,0
6923ecddc19bb9e63a221c0e,红芳摄影(新市场街),生活服务,照相馆,河北省,保定市,竞秀区,河北省保定市竞秀区新市场街156号,6923ecddc19bb9e63a221c0e,1,0,115.460099,38.886585,13315449578,life,http://api.map.baidu.com/place/detail?uid=6923ecddc19bb9e63a221c0e&output=html&source=placeapi_v2,,08:00-21:00,0,,,,,,,22,2,,,,,,,115.46032729185,38.886584649777,0
3fc556d1d71538133a13fdc2,初见摄影工作室(竞秀街店),生活服务,照相馆,河北省,保定市,竞秀区,河北省保定市竞秀区竞秀街38号,3fc556d1d71538133a13fdc2,1,0,115.470432,38.893045,,life,http://api.map.baidu.com/place/detail?uid=3fc556d1d71538133a13fdc2&output=html&source=placeapi_v2,,09:00-19:00,4.9,,,,,,,27,2,,,,,,,115.47061930654,38.893046775959,0
cbf48a41940168bdf23cba44,米田摄影,生活服务,照相馆,河北省,保定市,竞秀区,河北省保定市竞秀区天鹅中路与阳光北大街交叉口假日雅典城4号楼1单元501室,,1,0,115.484184,38.894825,13833279082,life,http://api.map.baidu.com/place/detail?uid=cbf48a41940168bdf23cba44&output=html&source=placeapi_v2,,09:00-17:00,,,,,,,,,,,,,,,,,,0
947acc42245b4fdf49fc8d63,麦田映像摄影工作室,生活服务,照相馆,河北省,保定市,竞秀区,河北省保定市竞秀区中廉良新村五排,,1,0,115.463783,38.894319,17631643112,life,http://api.map.baidu.com/place/detail?uid=947acc42245b4fdf49fc8d63&output=html&source=placeapi_v2,,09:00-18:00,,,,,,,,4,,,,,,,,115.46379557038,38.8941945463,0
be0fc73dfc5a288bc91b95df,乐凯满意冲印(向阳南大街店),生活服务,照相馆,河北省,保定市,竞秀区,河北省保定市竞秀区向阳南大街698号,be0fc73dfc5a288bc91b95df,1,0,115.466616,38.869002,15832258877,life,http://api.map.baidu.com/place/detail?uid=be0fc73dfc5a288bc91b95df&output=html&source=placeapi_v2,,09:00-20:00,1,,,,,,,18,2,,,,,,,115.46686653826,38.869085180441,0
9a1030b31d4a86117bf7967f,法医摄影室,生活服务,照相馆,河北省,保定市,莲池区,河北省保定市五四路街道莲池区法医医院鉴定科法医摄影室,,1,0,115.497788,38.888461,,life,http://api.map.baidu.com/place/detail?uid=9a1030b31d4a86117bf7967f&output=html&source=placeapi_v2,,,,,,,,,,1,,,,,,,,115.49778898608,38.888207940067,0
f102295fa13ce063091cc715,大门牙专业儿童摄影,生活服务,照相馆,河北省,保定市,竞秀区,河北省保定市竞秀区向阳北大街818号金沃大厦a座5楼,,1,0,115.465656,38.894988,18503126399,life,http://api.map.baidu.com/place/detail?uid=f102295fa13ce063091cc715&output=html&source=placeapi_v2,,08:30-18:30,,,,,,,,,,,,,,,,115.46569536526,38.895211856193,0
31f9101bcfb504b926e0a037,聪明贝贝精致儿童摄影,生活服务,照相馆,河北省,保定市,竞秀区,河北省保定市竞秀区新市场街59号,,1,0,115.460544,38.885199,(0312)8925779,life,http://api.map.baidu.com/place/detail?uid=31f9101bcfb504b926e0a037&output=html&source=placeapi_v2,,08:30-18:00,0,,,,,,,27,1,,,,,,,115.4603580705,38.885197794606,0
79cceb36872e26881f5800b6,跨维广告传媒,生活服务,照相馆,河北省,保定市,竞秀区,河北省保定市竞秀区东风西路753号,79cceb36872e26881f5800b6,1,0,115.456953,38.88018,19801411116,life,http://api.map.baidu.com/place/detail?uid=79cceb36872e26881f5800b6&output=html&source=placeapi_v2,,00:00-24:00,0,,,,,,,37,1,,,,,,,115.4569537648,38.880154839497,0
e30828486c7ca0bcb34c4937,长颈鹿婴幼影室,生活服务,照相馆,河北省,保定市,竞秀区,河北省保定市竞秀区阳光北大街678号,,1,0,115.487303,38.892502,(0312)5886010,life,http://api.map.baidu.com/place/detail?uid=e30828486c7ca0bcb34c4937&output=html&source=placeapi_v2,,08:30-18:30,5,,,,,,,39,2,,,,,,,115.48746550735,38.892504191847,0
774befcfd6034c00eaf853f8,河大照相馆,生活服务,照相馆,河北省,保定市,莲池区,河北省保定市莲池区五四东路205号,774befcfd6034c00eaf853f8,1,0,115.524711,38.877178,(0312)5079777,life,http://api.map.baidu.com/place/detail?uid=774befcfd6034c00eaf853f8&output=html&source=placeapi_v2,,09:00-20:00,0,,,,,,,13,0,,,,,,,,,0
f8c406447d8d7b6025d2bbb1,灰色摄影,生活服务,照相馆,河北省,保定市,莲池区,河北省保定市莲池区七一中路信誉楼百货东侧京源商务1704号,,1,0,115.511264,38.886048,,life,http://api.map.baidu.com/place/detail?uid=f8c406447d8d7b6025d2bbb1&output=html&source=placeapi_v2,,,5,,,,,,,1,2,,,,,,,,,0
8c5723ebdbd0c3c8cb213d0e,人民照像部(五四路至尊店),生活服务,照相馆,河北省,保定市,莲池区,河北省保定市莲池区五四中路508号,8c5723ebdbd0c3c8cb213d0e,1,0,115.509042,38.879391,(0312)5064770,life,http://api.map.baidu.com/place/detail?uid=8c5723ebdbd0c3c8cb213d0e&output=html&source=placeapi_v2,,08:30-18:30,0,,,,,,,19,0,,,,,,,115.50905237445,38.879444156393,0
5bf737072a529e9cc9c3db1d,照相de地方,生活服务,照相馆,河北省,保定市,莲池区,保定市莲池区五四中路565-6号格林豪泰东侧胡同内,5bf737072a529e9cc9c3db1d,1,0,115.507725,38.880193,"13731662333,17734022327",life,http://api.map.baidu.com/place/detail?uid=5bf737072a529e9cc9c3db1d&output=html&source=placeapi_v2,,"09:00-12:00,13:00-19:00",5,,,,,,,5,2,,,,,,,115.50767972949,38.879933001441,0
27a34463bd6014c009a8d4b8,乐乐摄影,生活服务,照相馆,河北省,保定市,莲池区,河北省保定市莲池区五四中路168号,27a34463bd6014c009a8d4b8,1,0,115.515526,38.878144,15831287096,life,http://api.map.baidu.com/place/detail?uid=27a34463bd6014c009a8d4b8&output=html&source=placeapi_v2,,08:00-18:30,0,,,,,,,18,1,,,,,,,115.5155636566,38.878273343851,0
503812d3ff5f99bef7eafc01,惠达摄影,生活服务,照相馆,河北省,保定市,莲池区,河北省保定市莲池区五四东路185号,,1,0,115.524269,38.877178,,life,http://api.map.baidu.com/place/detail?uid=503812d3ff5f99bef7eafc01&output=html&source=placeapi_v2,,10:00-21:00,,,,,,,,3,,,,,,,,,,0
269f9ae6059a6883704b87a2,林・摄影馆,生活服务,照相馆,河北省,保定市,莲池区,河北省保定市莲池区七一东路596号,,1,0,115.539976,38.881918,"13603241114,18832266866",life,http://api.map.baidu.com/place/detail?uid=269f9ae6059a6883704b87a2&output=html&source=placeapi_v2,,08:00-22:00,5,,,,,,,5,1,,,,,,,115.54001659617,38.882118195181,0
293a41bb189499ff0b1cc71d,遇见摄影工作室,生活服务,照相馆,河北省,保定市,莲池区,保定市莲池区金顶宝座-B座1508号,293a41bb189499ff0b1cc71d,1,0,115.534379,38.878499,18331029184,life,http://api.map.baidu.com/place/detail?uid=293a41bb189499ff0b1cc71d&output=html&source=placeapi_v2,,09:00-18:30,0,,,,,,,1,1,,,,,,,,,0
41c68683be68258596f08c40,37部落摄影工作室(北市区店),生活服务,照相馆,河北省,保定市,莲池区,"河北省保定市莲池区区长城北大街park湾16号楼2单元302室(临近中警院,河北大学,双拥广场)",41c68683be68258596f08c40,1,0,115.52888,38.888162,,life,http://api.map.baidu.com/place/detail?uid=41c68683be68258596f08c40&output=html&source=placeapi_v2,,09:00-17:00,0.0,,,,,,,2,,,,,,,,,,0
56cd2c29b0a67aef1811d5c7,角度摄影,生活服务,照相馆,河北省,保定市,莲池区,河北省保定市莲池区莲池南大街391号2至3楼,56cd2c29b0a67aef1811d5c7,1,0,115.507458,38.866292,(0312)2025935,life,http://api.map.baidu.com/place/detail?uid=56cd2c29b0a67aef1811d5c7&output=html&source=placeapi_v2,,08:00-18:00,3.5,,,,,,,11,4,,,,,,,115.50747019793,38.866345681569,0
79e40a237855137426e0a048,沙沙私人订制,生活服务,照相馆,河北省,保定市,莲池区,河北省保定市莲池区东大街52号,,1,0,115.513745,38.865182,15931835154,life,http://api.map.baidu.com/place/detail?uid=79e40a237855137426e0a048&output=html&source=placeapi_v2,,,,,,,,,,8,,,,,,,,115.51375877398,38.865234135223,0
6617cd5411c8419e14b54b1f,林摄影,生活服务,照相馆,河北省,保定市,莲池区,河北省保定市莲池区七一东路596号,6617cd5411c8419e14b54b1f,1,0,115.534268,38.879292,,life,http://api.map.baidu.com/place/detail?uid=6617cd5411c8419e14b54b1f&output=html&source=placeapi_v2,,,5.0,,,,,,,,1,,,,,,,,,0
853a5c0ee0007ac41894c613,绘时光工作室,生活服务,照相馆,河北省,保定市,莲池区,保定市莲池区恒祥北大街大唐盛苑东南侧约90米,853a5c0ee0007ac41894c613,1,0,115.501975,38.882984,18931235390,life,http://api.map.baidu.com/place/detail?uid=853a5c0ee0007ac41894c613&output=html&source=placeapi_v2,,09:00-22:00,,,,,,,,8,,,,,,,,115.50202021793,38.882981286926,0
e439e4721f6d8b0100ff2d92,青语视觉,生活服务,照相馆,河北省,保定市,莲池区,保定市莲池区七一中路京源商务楼1301室,,1,0,115.510965,38.886369,15333122096,life,http://api.map.baidu.com/place/detail?uid=e439e4721f6d8b0100ff2d92&output=html&source=placeapi_v2,,09:00-18:00,,,,,,,,,,,,,,,,,,0
a81105bf9f0492104107c1d8,米可儿儿童摄影,生活服务,照相馆,河北省,保定市,莲池区,河北保定市莲池区恒祥北大街假日山水华庭13号楼1单元301室,,1,0,115.506651,38.890325,13933269892,life,http://api.map.baidu.com/place/detail?uid=a81105bf9f0492104107c1d8&output=html&source=placeapi_v2,,09:00-18:00,3.7,,,,,,,,3,,,,,,,,,0
9a1030b31d4a86117bf7967f,法医摄影室,生活服务,照相馆,河北省,保定市,莲池区,河北省保定市五四路街道莲池区法医医院鉴定科法医摄影室,,1,0,115.497788,38.888461,,life,http://api.map.baidu.com/place/detail?uid=9a1030b31d4a86117bf7967f&output=html&source=placeapi_v2,,,,,,,,,,1,,,,,,,,115.49778898608,38.888207940067,0
ebd1bf1ad15b153758bbbc75,杰尚私人订制,生活服务,照相馆,河北省,保定市,莲池区,河北省保定市莲池区城苑路628,,1,0,115.512459,38.893185,18233283365,life,http://api.map.baidu.com/place/detail?uid=ebd1bf1ad15b153758bbbc75&output=html&source=placeapi_v2,,,,,,,,,,9,,,,,,,,,,0
7aeabf9eb92ff0a500ec01ca,可蒙多蒙儿童摄影,生活服务,照相馆,河北省,保定市,莲池区,河北省保定市莲池区复兴中路亢龙骏景2楼948号,7aeabf9eb92ff0a500ec01ca,1,0,115.515872,38.899252,"(0312)3379569,18132229569",life,http://api.map.baidu.com/place/detail?uid=7aeabf9eb92ff0a500ec01ca&output=html&source=placeapi_v2,,09:00-17:30,,,,,,,,16,,,,,,,,,,0
f557aa32cd17f335a2d230ed,德缘工作室,生活服务,照相馆,河北省,保定市,莲池区,河北省保定市莲池区东大街227号,,1,0,115.510468,38.865913,,life,http://api.map.baidu.com/place/detail?uid=f557aa32cd17f335a2d230ed&output=html&source=placeapi_v2,,,,,,,,,,5,,,,,,,,,,0
dfdfa06049c624733a13fd4c,王高义工作室,生活服务,照相馆,河北省,保定市,莲池区,河北省保定市莲池区东大街227号,dfdfa06049c624733a13fd4c,1,0,115.51043,38.865793,18331242226,life,http://api.map.baidu.com/place/detail?uid=dfdfa06049c624733a13fd4c&output=html&source=placeapi_v2,,08:30-18:30,,,,,,,,9,,,,,,,,115.51044544597,38.865837963993,0
9469f5831b895f788f55ecb2,新娘爱世界婚纱,生活服务,照相馆,河北省,保定市,莲池区,河北省保定市莲池区长城南大街272号,9469f5831b895f788f55ecb2,1,0,115.514586,38.864118,13722201956,life,http://api.map.baidu.com/place/detail?uid=9469f5831b895f788f55ecb2&output=html&source=placeapi_v2,,09:00-19:00,5,,,,,,,10,1,,,,,,,115.51463244795,38.864106490927,0
8952b3d90a31a50302897244,小北照相馆(河大新区店),生活服务,照相馆,河北省,保定市,莲池区,河北大学坤舆德翰园4号楼二单元2101号,,1,0,115.576761,38.885838,19933511191,life,http://api.map.baidu.com/place/detail?uid=8952b3d90a31a50302897244&output=html&source=placeapi_v2,,09:00-18:00,0,,,,,,,,0,,,,,,,115.5767346165,38.885594546948,0
4b23b02215164a7e047ce842,安和美学婚纱摄影,生活服务,照相馆,河北省,保定市,莲池区,保定市莲池区七一东路未来紫金山北侧,,1,0,115.563956,38.881555,13503121848,life,http://api.map.baidu.com/place/detail?uid=4b23b02215164a7e047ce842&output=html&source=placeapi_v2,,08:30-20:00,,,,,,,,,,,,,,,,115.56344392328,38.881424061748,0
0ef9b3022e76849a04026f33,废鱼摄影工作室,生活服务,照相馆,河北省,保定市,莲池区,保定市莲池区七一东路河大新校区坤舆德翰园小区一号楼一单元1401号,,1,0,115.576761,38.886258,15933532873,life,http://api.map.baidu.com/place/detail?uid=0ef9b3022e76849a04026f33&output=html&source=placeapi_v2,,10:00-22:00,5.0,,,,,,,1,1,,,,,,,115.57666778167,38.886264890082,0
269f9ae6059a6883704b87a2,林・摄影馆,生活服务,照相馆,河北省,保定市,莲池区,河北省保定市莲池区七一东路596号,,1,0,115.539976,38.881918,"13603241114,18832266866",life,http://api.map.baidu.com/place/detail?uid=269f9ae6059a6883704b87a2&output=html&source=placeapi_v2,,08:00-22:00,5,,,,,,,5,1,,,,,,,115.54001659617,38.882118195181,0
69a64655eec5e237a2d23037,觅悦私家摄影,生活服务,照相馆,河北省,保定市,莲池区,保定市莲池区东二环与新民路交叉路口往东约150米(未来徽墅)3号楼1单元601号,,1,0,115.545813,38.896343,13273228890,life,http://api.map.baidu.com/place/detail?uid=69a64655eec5e237a2d23037&output=html&source=placeapi_v2,,08:00-18:30,,,,,,,,,,,,,,,,,,0
b76a154d6056678896ca077c,耀眼星河摄影化妆工作室,生活服务,照相馆,河北省,保定市,莲池区,河北省保定市莲池区七一东路德翰园小区四号楼一单元2201号,,1,0,115.577055,38.885855,(0312)2127654,life,http://api.map.baidu.com/place/detail?uid=b76a154d6056678896ca077c&output=html&source=placeapi_v2,,09:00-19:00,0,,,,,,,,1,,,,,,,,,0
9959e101c00f89fe83288ae4,初夏儿童摄影,生活服务,照相馆,河北省,保定市,莲池区,河北省保定市莲池区天宁路未来微墅2号楼1单元1701室,,1,0,115.545806,38.896657,"15832260444,17731838080",life,http://api.map.baidu.com/place/detail?uid=9959e101c00f89fe83288ae4&output=html&source=placeapi_v2,,09:00-18:00,,,,,,,,,,,,,,,,115.5454578689,38.896620399072,0
08f37f00cab06a57f2193700,睿星亲子摄影,生活服务,照相馆,河北省,保定市,清苑区,蔡庄路与310乡道交叉口西南50米,,1,0,115.613394,38.889847,"13633382597,13730215089",life,http://api.map.baidu.com/place/detail?uid=08f37f00cab06a57f2193700&output=html&source=placeapi_v2,,,,,,,,,,4,,,,,,,,115.6134145388,38.88998021448,0
557c9f69e458183b84330493,照相馆,生活服务,照相馆,河北省,保定市,清苑区,保定市清苑区臧村中学东侧约80米,,1,0,115.653768,38.875819,,life,http://api.map.baidu.com/place/detail?uid=557c9f69e458183b84330493&output=html&source=placeapi_v2,,,,,,,,,,2,,,,,,,,,,0
532ee39ae2ab067343ab9a79,成长足迹儿童摄影会馆,生活服务,照相馆,河北省,保定市,清苑区,保定市清苑区河北省农村信用社东侧约80米,,1,0,115.673603,38.881764,15175216822,life,http://api.map.baidu.com/place/detail?uid=532ee39ae2ab067343ab9a79&output=html&source=placeapi_v2,,,,,,,,,,1,,,,,,,,115.67359942335,38.881656281938,0
66cbb156a949ca208a36ee5a,辛庄微笑宝贝数码摄影,生活服务,照相馆,河北省,保定市,顺平县,保定市顺平县SL63辛庄村小学南侧约90米,,1,0,115.177418,38.923779,13111605532,life,http://api.map.baidu.com/place/detail?uid=66cbb156a949ca208a36ee5a&output=html&source=placeapi_v2,,,0.0,,,,,,,2,,,,,,,,,,0
4ff55ebd4abdd0211ef74da6,柳月摄影,生活服务,照相馆,河北省,保定市,竞秀区,河北省保定市竞秀区隆兴西路4120号,4ff55ebd4abdd0211ef74da6,1,0,115.399677,38.930084,13582263645,life,http://api.map.baidu.com/place/detail?uid=4ff55ebd4abdd0211ef74da6&output=html&source=placeapi_v2,,,0.0,,,,,,,14,,,,,,,,115.39972503929,38.930164080235,0
5c949d7cb3116bdd99005047,时光剪影图片社,生活服务,照相馆,河北省,保定市,竞秀区,河北省保定市竞秀区创业路299号,5c949d7cb3116bdd99005047,1,0,115.458687,38.91206,17703320792,life,http://api.map.baidu.com/place/detail?uid=5c949d7cb3116bdd99005047&output=html&source=placeapi_v2,,08:00-20:00,5,,,,,,,22,1,,,,,,,115.45868616045,38.912253926801,0
645a2c18f866fe72e0110379,宝贝家族儿童摄影会馆,生活服务,照相馆,河北省,保定市,竞秀区,和顺路1-12号,,1,0,115.456277,38.918398,(0312)8928011,life,http://api.map.baidu.com/place/detail?uid=645a2c18f866fe72e0110379&output=html&source=placeapi_v2,,09:00-18:00,,,,,,,,1,,,,,,,,115.45625495408,38.918461740133,0
bf4cbba6477cda6285420e84,金太阳摄影(隆兴西路店),生活服务,照相馆,河北省,保定市,竞秀区,河北省保定市竞秀区隆兴西路2861号,bf4cbba6477cda6285420e84,1,0,115.419998,38.91791,(0312)3179952,life,http://api.map.baidu.com/place/detail?uid=bf4cbba6477cda6285420e84&output=html&source=placeapi_v2,,07:00-19:00,0,,,,,,,13,1,,,,,,,115.42009902686,38.918038071497,0
9433d74b11e5bbc74f2fdf45,新跃照相馆,生活服务,照相馆,河北省,保定市,竞秀区,河北省保定市竞秀区阳光北大街1346号,9433d74b11e5bbc74f2fdf45,1,0,115.487044,38.904585,,life,http://api.map.baidu.com/place/detail?uid=9433d74b11e5bbc74f2fdf45&output=html&source=placeapi_v2,,09:00-20:00,4.8,,,,,,,23,8,,,,,,,115.48699637628,38.904686656281,0
51ad2b59c5061a6b8c55ecb9,靓泽摄影工作室,生活服务,照相馆,河北省,保定市,竞秀区,河北省保定市竞秀区恒阳街源盛嘉禾b区10号楼3单元301室,,1,0,115.479717,38.925233,,life,http://api.map.baidu.com/place/detail?uid=51ad2b59c5061a6b8c55ecb9&output=html&source=placeapi_v2,,,,,,,,,,1,,,,,,,,,,0
645b31b9738c695d5e17c338,暖暖摄影STUDIO,生活服务,照相馆,河北省,保定市,竞秀区,保定市竞秀区阳光北大街植物园内,645b31b9738c695d5e17c338,1,0,115.488494,38.924972,(0312)7512345,life,http://api.map.baidu.com/place/detail?uid=645b31b9738c695d5e17c338&output=html&source=placeapi_v2,,,5.0,,,,,,,,51,,,,,,,,,0
bfa0ade40be65645a8059dd2,新芳照相,生活服务,照相馆,河北省,保定市,竞秀区,河北省保定市竞秀区阳光北大街1350号,bfa0ade40be65645a8059dd2,1,0,115.487189,38.905062,13784992672,life,http://api.map.baidu.com/place/detail?uid=bfa0ade40be65645a8059dd2&output=html&source=placeapi_v2,,08:00-19:00,1,,,,,,,24,2,,,,,,,,,0
5c949d7cb3116bdd99005047,时光剪影图片社,生活服务,照相馆,河北省,保定市,竞秀区,河北省保定市竞秀区创业路299号,5c949d7cb3116bdd99005047,1,0,115.458687,38.91206,17703320792,life,http://api.map.baidu.com/place/detail?uid=5c949d7cb3116bdd99005047&output=html&source=placeapi_v2,,08:00-20:00,5,,,,,,,22,1,,,,,,,115.45868616045,38.912253926801,0
033562bc448ce4d7e856fa3d,时光印象艺术摄影,生活服务,照相馆,河北省,保定市,竞秀区,河北省保定市竞秀区阳光北大街1212号,033562bc448ce4d7e856fa3d,1,0,115.487291,38.902713,(0312)6792212,life,http://api.map.baidu.com/place/detail?uid=033562bc448ce4d7e856fa3d&output=html&source=placeapi_v2,,08:00-18:00,0,,,,,,,9,1,,,,,,,115.48738467782,38.902714260568,0
5103e866ba732e7f1e580087,IU.BABY婴童摄影,生活服务,照相馆,河北省,保定市,竞秀区,保定市竞秀区公园时代南门底商阿九餐创空间东行50米iubaby婴童摄影,5103e866ba732e7f1e580087,1,0,115.492957,38.910737,(0312)2036139,life,http://api.map.baidu.com/place/detail?uid=5103e866ba732e7f1e580087&output=html&source=placeapi_v2,,08:30-17:30,0,,,,,,,24,1,,,,,,,115.49280583825,38.910676382475,0
0e45a06103ab61d65fbe86ed,摩玛金沙摄影基地,生活服务,照相馆,河北省,保定市,竞秀区,河北省保定市竞秀区创业路122号,0e45a06103ab61d65fbe86ed,1,0,115.467474,38.910291,13012050255,life,http://api.map.baidu.com/place/detail?uid=0e45a06103ab61d65fbe86ed&output=html&source=placeapi_v2,,08:30-18:00,5,,,,,,,6,5,,,,,,,,,0
36cb12c7f2ea5214bd484220,米果儿共享影棚拍摄基地,生活服务,照相馆,河北省,保定市,竞秀区,河北省保定市竞秀区保定植物园内,,1,0,115.489309,38.924602,,life,http://api.map.baidu.com/place/detail?uid=36cb12c7f2ea5214bd484220&output=html&source=placeapi_v2,,,,,,,,,,1,,,,,,,,,,0
645a2c18f866fe72e0110379,宝贝家族儿童摄影会馆,生活服务,照相馆,河北省,保定市,竞秀区,和顺路1-12号,,1,0,115.456277,38.918398,(0312)8928011,life,http://api.map.baidu.com/place/detail?uid=645a2c18f866fe72e0110379&output=html&source=placeapi_v2,,09:00-18:00,,,,,,,,1,,,,,,,,115.45625495408,38.918461740133,0
ab014e758a05e6d578f796b8,肆纪工作室(门市店),生活服务,照相馆,河北省,保定市,竞秀区,河北省保定市竞秀区朝阳北大街上谷大观天街内,,1,0,115.472627,38.925039,15027892518,life,http://api.map.baidu.com/place/detail?uid=ab014e758a05e6d578f796b8&output=html&source=placeapi_v2,,,,,,,,,,,,,,,,,,,,0
af8e9b748732e8e2c27da237,函数儿童摄影,生活服务,照相馆,河北省,保定市,莲池区,河北省保定市莲池区复兴中路1223号,,1,0,115.512311,38.901004,"(0312)3371977,18630246632",life,http://api.map.baidu.com/place/detail?uid=af8e9b748732e8e2c27da237&output=html&source=placeapi_v2,,09:00-18:00,,,,,,,,2,,,,,,,,115.51224379072,38.900962675691,0
f9123a8b169432a5e215f9fc,锐度私家儿童摄影,生活服务,照相馆,河北省,保定市,莲池区,河北省保定市莲池区复兴中路1169号,,1,0,115.512546,38.90095,18833216803,life,http://api.map.baidu.com/place/detail?uid=f9123a8b169432a5e215f9fc&output=html&source=placeapi_v2,,08:00-19:00,,,,,,,,5,2,,,,,,,115.51245154812,38.900911758333,0
26e6e32a5b9edd02a3d2304d,圣金商业摄影,生活服务,照相馆,河北省,保定市,莲池区,河北省保定市莲池区北二环辅路鑫丰国际商务公寓一单元1502室,,1,0,115.519537,38.918725,,life,http://api.map.baidu.com/place/detail?uid=26e6e32a5b9edd02a3d2304d&output=html&source=placeapi_v2,,,,,,,,,,,,,,,,,,115.51948993079,38.918545743485,0
b410eca144b37c14ad04570f,古韵小主中国风艺术摄影,生活服务,照相馆,河北省,保定市,莲池区,保定市莲池区瑞兴路475-32号,b410eca144b37c14ad04570f,1,0,115.513293,38.906507,"13722962610,17332262990",life,http://api.map.baidu.com/place/detail?uid=b410eca144b37c14ad04570f&output=html&source=placeapi_v2,,09:00-18:30,4.2,,,,,,,26,15,,,,,,,115.5134221807,38.906463945053,0
7aeabf9eb92ff0a500ec01ca,可蒙多蒙儿童摄影,生活服务,照相馆,河北省,保定市,莲池区,河北省保定市莲池区复兴中路亢龙骏景2楼948号,7aeabf9eb92ff0a500ec01ca,1,0,115.515872,38.899252,"(0312)3379569,18132229569",life,http://api.map.baidu.com/place/detail?uid=7aeabf9eb92ff0a500ec01ca&output=html&source=placeapi_v2,,09:00-17:30,,,,,,,,16,,,,,,,,,,0
0eead33f79e3303cfb2d61d0,毛毛虫儿童摄影(新一代C区店),生活服务,照相馆,河北省,保定市,莲池区,河北保定市莲池区恒祥北大街新一代c区3号楼2601室,,1,0,115.503044,38.90327,18333259593,life,http://api.map.baidu.com/place/detail?uid=0eead33f79e3303cfb2d61d0&output=html&source=placeapi_v2,,09:00-18:00,,,,,,,,,,,,,,,,115.50327068884,38.903233979857,0
7ae313e92bbae519a1a934bb,好心情专业摄影,生活服务,照相馆,河北省,保定市,莲池区,河北省保定市莲池区民裕路58号,7ae313e92bbae519a1a934bb,1,0,115.563236,38.905863,13932203292,life,http://api.map.baidu.com/place/detail?uid=7ae313e92bbae519a1a934bb&output=html&source=placeapi_v2,,08:00-20:00,5,,,,,,,16,3,,,,,,,115.56334162245,38.906003194617,0
d14a4863838e5711f33cba40,正东仪器吊篮租赁,,,河北省,保定市,清苑区,河北省保定市清苑区北闫村53号,,1,0,115.609282,38.904746,,life,http://api.map.baidu.com/place/detail?uid=d14a4863838e5711f33cba40&output=html&source=placeapi_v2,,,,,,,,,,1,,,,,,,,,,0
85a2453c9eb0b685f50e77b9,天涯照相馆(南北街),生活服务,照相馆,河北省,保定市,满城区,河北省保定市满城区满城镇玉川路871号,85a2453c9eb0b685f50e77b9,1,0,115.327566,38.958031,13032020369,life,http://api.map.baidu.com/place/detail?uid=85a2453c9eb0b685f50e77b9&output=html&source=placeapi_v2,,08:00-19:00,4.5,,,,,,,15,2,,,,,,,115.32769460151,38.958012876224,0
d44efa7a2960556fb5f42f90,迁艺照相,生活服务,照相馆,河北省,保定市,满城区,保定市满城区南北街天悦宾馆(南北街店)南侧约90米,,1,0,115.327874,38.957899,15931283149,life,http://api.map.baidu.com/place/detail?uid=d44efa7a2960556fb5f42f90&output=html&source=placeapi_v2,,,,,,,,,,5,,,,,,,,,,0
1482101252e50fe41ce9997a,铂爵婚纱摄影,生活服务,照相馆,河北省,保定市,满城区,保定市满城区中山东路四季花园西南侧约60米,,1,0,115.332962,38.95423,,life,http://api.map.baidu.com/place/detail?uid=1482101252e50fe41ce9997a&output=html&source=placeapi_v2,,07:30-19:30,,,,,,,,7,,,,,,,,,,0
8ea1881b4a4ede62373a7195,薇薇新娘婚纱摄影(永乐南街店),生活服务,照相馆,河北省,保定市,满城区,保定市满城区永乐南街良园大酒店(永乐南街店)西南侧约50米,8ea1881b4a4ede62373a7195,1,0,115.335326,38.953074,13930256022,life,http://api.map.baidu.com/place/detail?uid=8ea1881b4a4ede62373a7195&output=html&source=placeapi_v2,,08:00-20:00,0.0,,,,,,,16,,,,,,,,115.33532406651,38.953217380482,0
0273ced86573963c94031993,睿峰影视工作室,生活服务,照相馆,河北省,保定市,满城区,河北省保定市满城区新天地购物广场1b212,,1,0,115.33073,38.956884,13503220558,life,http://api.map.baidu.com/place/detail?uid=0273ced86573963c94031993&output=html&source=placeapi_v2,,,,,,,,,,4,,,,,,,,115.33067876792,38.956610442998,0
c7795668c979091a5fd4fedc,名媛婚纱美妆会馆,生活服务,照相馆,河北省,保定市,满城区,河北省保定市满城区玉川东路22号,,1,0,115.330351,38.956833,15028442885,life,http://api.map.baidu.com/place/detail?uid=c7795668c979091a5fd4fedc&output=html&source=placeapi_v2,,07:30-19:30,,,,,,,,4,,,,,,,,115.32992826691,38.95678954165,0
61c8d85ed83ae49ada2f2811,芊艺数码照相,生活服务,照相馆,河北省,保定市,满城区,南北街11号立军口腔门口正南方向70米,,1,0,115.327973,38.957907,,life,http://api.map.baidu.com/place/detail?uid=61c8d85ed83ae49ada2f2811&output=html&source=placeapi_v2,,,,,,,,,,1,,,,,,,,,,0
b5395b590eba4e5804fef5d2,慕依新娘定制,生活服务,照相馆,河北省,保定市,满城区,河北省保定市满城区玉川路新天地西楼2楼,,1,0,115.330651,38.956815,15931871007,life,http://api.map.baidu.com/place/detail?uid=b5395b590eba4e5804fef5d2&output=html&source=placeapi_v2,,,,,,,,,,4,,,,,,,,115.33071487981,38.957201016046,0
6372b35b917b05752e47335f,微笑贝贝婴皇影像至尊馆,生活服务,照相馆,河北省,保定市,满城区,河北省保定市满城区步行街10号,6372b35b917b05752e47335f,1,0,115.332477,38.954872,(0312)7192968,life,http://api.map.baidu.com/place/detail?uid=6372b35b917b05752e47335f&output=html&source=placeapi_v2,,07:30-19:30,1,,,,,,,16,1,,,,,,,115.3322765507,38.954886468843,0
57b912589823ac1dae31e5c7,爱你宝贝专业儿童摄影(步行街),生活服务,照相馆,河北省,保定市,满城区,河北省保定市满城区步行街西街30号,57b912589823ac1dae31e5c7,1,0,115.332365,38.955833,18630236388,life,http://api.map.baidu.com/place/detail?uid=57b912589823ac1dae31e5c7&output=html&source=placeapi_v2,,09:00-18:30,0,,,,,,,15,0,,,,,,,,,0
8473f0928486ea5625d2bbba,潮童社摄影艺术馆,生活服务,照相馆,河北省,保定市,满城区,河北省保定市满城区玉川东路爱琴海2层,,1,0,115.353909,38.954027,(0312)7167858,life,http://api.map.baidu.com/place/detail?uid=8473f0928486ea5625d2bbba&output=html&source=placeapi_v2,,08:00-19:30,,,,,,,,12,,,,,,,,115.35405363489,38.954128902637,0
d0414215ed9e9e19d92f283a,大风车儿童摄影工作室(中山东路店),生活服务,照相馆,河北省,保定市,满城区,保定市满城区中山东路东方沁园东侧约130米,,1,0,115.349261,38.949114,15176283177,life,http://api.map.baidu.com/place/detail?uid=d0414215ed9e9e19d92f283a&output=html&source=placeapi_v2,,08:30-18:00,,,,,,,,5,,,,,,,,115.34931859198,38.949240705896,0
8ea1881b4a4ede62373a7195,薇薇新娘婚纱摄影(永乐南街店),生活服务,照相馆,河北省,保定市,满城区,保定市满城区永乐南街良园大酒店(永乐南街店)西南侧约50米,8ea1881b4a4ede62373a7195,1,0,115.335326,38.953074,13930256022,life,http://api.map.baidu.com/place/detail?uid=8ea1881b4a4ede62373a7195&output=html&source=placeapi_v2,,08:00-20:00,0.0,,,,,,,16,,,,,,,,115.33532406651,38.953217380482,0
4ff55ebd4abdd0211ef74da6,柳月摄影,生活服务,照相馆,河北省,保定市,竞秀区,河北省保定市竞秀区隆兴西路4120号,4ff55ebd4abdd0211ef74da6,1,0,115.399677,38.930084,13582263645,life,http://api.map.baidu.com/place/detail?uid=4ff55ebd4abdd0211ef74da6&output=html&source=placeapi_v2,,,0.0,,,,,,,14,,,,,,,,115.39972503929,38.930164080235,0
20f2172c5472dc6aadcb6668,爱心永恒摄影,生活服务,照相馆,河北省,保定市,徐水区,保定市徐水区西大街徐水区公安局漕河派出所东南侧约90米,,1,0,115.571858,38.957788,,life,http://api.map.baidu.com/place/detail?uid=20f2172c5472dc6aadcb6668&output=html&source=placeapi_v2,,,,,,,,,,5,,,,,,,,,,0
8b44b8c1e403225543e19266,唐果婚纱,生活服务,照相馆,河北省,保定市,徐水区,保定市徐水区长城北大街留村乡卫生院西南侧约140米,,1,0,115.571867,38.950103,17732666673,life,http://api.map.baidu.com/place/detail?uid=8b44b8c1e403225543e19266&output=html&source=placeapi_v2,,,,,,,,,,2,,,,,,,,115.57200505686,38.949965892083,0
016cc13fab777155b45f1ede,北欧摄影,生活服务,照相馆,河北省,保定市,徐水区,保定市徐水区兴隆路119号,,1,0,115.719853,38.942082,18832219875,life,http://api.map.baidu.com/place/detail?uid=016cc13fab777155b45f1ede&output=html&source=placeapi_v2,,08:00-18:00,,,,,,,,3,,,,,,,,,,0
4586c111f2b0997ae856fa96,千秋摄影,生活服务,照相馆,河北省,保定市,徐水区,河北省保定市徐水区兴隆路38号,,1,0,115.717317,38.942143,13653122968,life,http://api.map.baidu.com/place/detail?uid=4586c111f2b0997ae856fa96&output=html&source=placeapi_v2,,08:00-18:00,,,,,,,,6,,,,,,,,,,0
ab27dc173a0464f6d22dd620,天天福数码摄影,生活服务,照相馆,河北省,保定市,满城区,保定市满城区保定市满城区要庄乡卫生院东北侧约130米,,1,0,115.388446,38.972928,,life,http://api.map.baidu.com/place/detail?uid=ab27dc173a0464f6d22dd620&output=html&source=placeapi_v2,,,,,,,,,,1,,,,,,,,,,0
c0ec0f256274e49a1e580006,爱尚儿童摄影,生活服务,照相馆,河北省,保定市,徐水区,河北省保定市徐水监理站东行100米,,1,0,115.654229,39.016053,,life,http://api.map.baidu.com/place/detail?uid=c0ec0f256274e49a1e580006&output=html&source=placeapi_v2,,,,,,,,,,,,,,,,,,115.65455772436,39.016030874584,0
7c966c6a529ea9e53586f497,墨画摄影,生活服务,照相馆,河北省,保定市,徐水区,河北省保定市徐水区商业城金堡楼东外环11号,7c966c6a529ea9e53586f497,1,0,115.650502,39.027264,17731229981,life,http://api.map.baidu.com/place/detail?uid=7c966c6a529ea9e53586f497&output=html&source=placeapi_v2,,08:00-18:00,,,,,,,,10,,,,,,,,115.65060203694,39.027248958275,0
ada8ed336b58784a79b55cfd,王硕工作室,生活服务,照相馆,河北省,保定市,徐水区,河北省保定市徐水区安肃镇城内中大街保定市电大徐水分校,ada8ed336b58784a79b55cfd,1,0,115.663134,39.022216,13463822822,life,http://api.map.baidu.com/place/detail?uid=ada8ed336b58784a79b55cfd&output=html&source=placeapi_v2,,,,,,,,,,12,,,,,,,,,,0
549d8db9ee2af1ca4d554725,爱尚宝贝摄影,生活服务,照相馆,河北省,保定市,满城区,保定市满城区S333金太阳双语幼儿园东北侧约160米,,1,0,115.391713,39.039629,,life,http://api.map.baidu.com/place/detail?uid=549d8db9ee2af1ca4d554725&output=html&source=placeapi_v2,,,,,,,,,,1,,,,,,,,,,0
37086824d0450dfbbda24099,熊孩子儿童摄影,生活服务,照相馆,河北省,保定市,徐水区,河北省保定市徐水区保定市连接线(雷通购物广场西北侧约50米),,1,0,115.440648,39.057864,13331215241,life,http://api.map.baidu.com/place/detail?uid=37086824d0450dfbbda24099&output=html&source=placeapi_v2,,09:00-18:00,,,,,,,,9,5,,,,,,,,,0
e07312837511c792a80dd854,时尚新娘婚纱摄影(古城绿都西),生活服务,照相馆,河北省,保定市,徐水区,保定市徐水区古遂东路古城绿都向西100米路北,,1,0,115.548303,39.051357,(0312)8903615,life,http://api.map.baidu.com/place/detail?uid=e07312837511c792a80dd854&output=html&source=placeapi_v2,,08:00-19:00,0.0,,,,,,,13,,,,,,,,115.54828728422,39.051230050425,0
1783185dfd3a03a3a8175a0e,蒙娜丽莎嫁衣馆,生活服务,照相馆,河北省,保定市,徐水区,保定市徐水区宏兴西路金贝迪幼儿园东侧约100米,,1,0,115.648854,39.029059,,life,http://api.map.baidu.com/place/detail?uid=1783185dfd3a03a3a8175a0e&output=html&source=placeapi_v2,,,,,,,,,,3,,,,,,,,,,0
b182035eba25450e7dc876a3,皇家宝贝(多丽照相馆),生活服务,照相馆,河北省,保定市,徐水区,河北省保定市徐水区物探局正门东侧宏兴西路162号,b182035eba25450e7dc876a3,1,0,115.638427,39.030668,13831235095,life,http://api.map.baidu.com/place/detail?uid=b182035eba25450e7dc876a3&output=html&source=placeapi_v2,,08:00-18:00,,,,,,,,8,2,,,,,,,,,0
b9e5d0b82f7550c181a12e51,爱琴海精致婚纱摄影(复兴西路店),生活服务,照相馆,河北省,保定市,徐水区,河北省保定市徐水区宏兴西路69号,b9e5d0b82f7550c181a12e51,1,0,115.648703,39.02942,(0312)8585858,life,http://api.map.baidu.com/place/detail?uid=b9e5d0b82f7550c181a12e51&output=html&source=placeapi_v2,,08:00-18:50,0,,,,,,,10,0,,,,,,,115.64868999097,39.029314709226,0
90f361c91c2922e2da2f28ab,照相馆,生活服务,照相馆,河北省,保定市,徐水区,保定市徐水区市场街与中心路交叉路口西南侧,,1,0,115.72133,39.055997,,life,http://api.map.baidu.com/place/detail?uid=90f361c91c2922e2da2f28ab&output=html&source=placeapi_v2,,,,,,,,,,2,,,,,,,,,,0
ea34b603d2570e0b2cb17ee5,星岚数码婚纱摄影专业儿童摄影(中国移动授权代理店),生活服务,照相馆,河北省,保定市,徐水区,河北省保定市徐水区大王店北街复兴路宏一通讯西北50米,,1,0,115.440776,39.066247,,life,http://api.map.baidu.com/place/detail?uid=ea34b603d2570e0b2cb17ee5&output=html&source=placeapi_v2,,,0,,,,,,,12,1,,,,,,,115.44078637754,39.066139960376,0
7ba09f1ed61eb1ac49fc8d41,纽约丽致婚纱摄影会所,生活服务,照相馆,河北省,保定市,徐水区,河北省保定市徐水区福利饭店旅馆(大王店镇政府西),7ba09f1ed61eb1ac49fc8d41,1,0,115.453713,39.067388,,life,http://api.map.baidu.com/place/detail?uid=7ba09f1ed61eb1ac49fc8d41&output=html&source=placeapi_v2,,,1,,,,,,,9,1,,,,,,,,,0
60a1e514745acf9f3be4a6ea,兰芳摄影工作室,生活服务,照相馆,河北省,保定市,徐水区,保定市徐水区永兴北大街徐水县高林村镇白塔铺小学南侧约210米,,1,0,115.681627,39.068915,"13784285001,13785271682",life,http://api.map.baidu.com/place/detail?uid=60a1e514745acf9f3be4a6ea&output=html&source=placeapi_v2,,08:00-19:00,,,,,,,,7,,,,,,,,,,0
2973b47094cac20a7069d3f2,缘梦摄影,生活服务,照相馆,河北省,保定市,徐水区,保定市徐水区建国街徐水区高林村镇高林村小学东北侧约30米,,1,0,115.673476,39.097144,13930883289,life,http://api.map.baidu.com/place/detail?uid=2973b47094cac20a7069d3f2&output=html&source=placeapi_v2,,,,,,,,,,2,,,,,,,,115.67332356182,39.097109593777,0
b60c4116cd77005c0b5cb362,时光印迹,生活服务,照相馆,河北省,保定市,徐水区,保定市徐水区建国街徐水区高林村镇高林村小学东南侧约50米,,1,0,115.673651,39.096237,,life,http://api.map.baidu.com/place/detail?uid=b60c4116cd77005c0b5cb362&output=html&source=placeapi_v2,,,,,,,,,,3,,,,,,,,115.67348904137,39.096218582308,0
