uid,name,cat_L1,cat_L2,province,city,area,address,street_id,detail,child_num,loc_lng,loc_lat,telephone,type,detail_url,price,shop_hours,overall_rating,taste_rating,service_rating,environment_rating,facility_rating,hygiene_rating,technology_rating,image_num,comment_num,groupon_num,discount_num,favorite_num,checkin_num,brand,content_tag,naviloc_lng,naviloc_lat,child_num
1d783aab1fecf19aebe5825d,重型齿轮箱厂,公司企业,厂矿,江苏省,南通市,崇川区,江苏省南通市崇川区团结河东路1号,,1,0,120.944494,31.871556,,enterprise,http://api.map.baidu.com/place/detail?uid=1d783aab1fecf19aebe5825d&output=html&source=placeapi_v2,,,,,,,,,,,,,,,,,,,,0
f68c5e9160c943455e17c344,南通通富新厂,公司企业,厂矿,江苏省,南通市,崇川区,江苏省南通市崇川区江达路99号,f68c5e9160c943455e17c344,1,0,120.988666,31.857248,,enterprise,http://api.map.baidu.com/place/detail?uid=f68c5e9160c943455e17c344&output=html&source=placeapi_v2,,,,,,,,,,,,,,,,,,120.98843755013,31.857235334614,0
9fe89a612eea3714ab0dd8ca,通富苏通厂,公司企业,厂矿,江苏省,南通市,崇川区,江苏省南通市崇川区江达路99号,,1,0,120.989225,31.857426,,enterprise,http://api.map.baidu.com/place/detail?uid=9fe89a612eea3714ab0dd8ca&output=html&source=placeapi_v2,,,,,,,,,,,,,,,,,,120.98862847329,31.857330126317,0
d064e85dc1338e94e60738f0,东方核材有限公司高性能焊接钛管厂,公司企业,厂矿,江苏省,南通市,崇川区,南通市崇川区江韵路,d064e85dc1338e94e60738f0,1,0,120.973686,31.870704,,enterprise,http://api.map.baidu.com/place/detail?uid=d064e85dc1338e94e60738f0&output=html&source=placeapi_v2,,,,,,,,,,,,,,,,,,120.97402148312,31.872007823811,0
d1e1406b7cfb7074e5e96523,南通开发区三亚印刷厂,公司企业,厂矿,江苏省,南通市,崇川区,江苏省南通市崇川区南通农场(巨力钢绳对面),d1e1406b7cfb7074e5e96523,1,0,121.01012,31.868184,,enterprise,http://api.map.baidu.com/place/detail?uid=d1e1406b7cfb7074e5e96523&output=html&source=placeapi_v2,,,,,,,,,,,,,,,,,,,,0
4a5fd4c4385c59fe841541ce,海门区种羊厂,公司企业,厂矿,江苏省,南通市,海门区,江苏省南通市海门区江淤路,4a5fd4c4385c59fe841541ce,1,0,121.109252,31.852641,,enterprise,http://api.map.baidu.com/place/detail?uid=4a5fd4c4385c59fe841541ce&output=html&source=placeapi_v2,,,,,,,,,,,,,,,,,,121.10928276989,31.852171032612,0
e3b9a3e4ad3372a63586f4cf,海门市羚杰牧业有限公司三和生猪屠宰分公司,公司企业,厂矿,江苏省,南通市,海门区,南通市海门区叠港公路与丰盛路交叉路口往南约170米,e3b9a3e4ad3372a63586f4cf,1,0,121.103022,31.856372,,enterprise,http://api.map.baidu.com/place/detail?uid=e3b9a3e4ad3372a63586f4cf&output=html&source=placeapi_v2,,,5.0,,,,,,,,1,,,,,,,121.10244044509,31.856349941233,0
a3dd36d3fa8ae825754ff14c,海门区三和印刷厂,公司企业,厂矿,江苏省,南通市,海门区,江苏省南通市海门区三和印刷厂(三南路北50米),,1,0,121.119705,31.867119,(0513)82233095,enterprise,http://api.map.baidu.com/place/detail?uid=a3dd36d3fa8ae825754ff14c&output=html&source=placeapi_v2,,,,,,,,,,,,,,,,,,121.1198057524,31.866561436963,0
07f3c8b5373aa3636240a9cf,海门区环亚标准件厂,公司企业,厂矿,江苏省,南通市,海门区,江苏省南通市海门区江於路1333号,,1,1,121.102377,31.875529,(0513)82233365,enterprise,http://api.map.baidu.com/place/detail?uid=07f3c8b5373aa3636240a9cf&output=html&source=placeapi_v2,,,,,,,,,,,,,,,,,,121.10262289993,31.875526528498,1
c66b8c39b77b74bfa1a934c8,海门区睿天实验器材厂,公司企业,厂矿,江苏省,南通市,海门区,江苏省南通市海门区牛洪村江淤路与社南路交叉口,,1,0,121.103045,31.871659,,enterprise,http://api.map.baidu.com/place/detail?uid=c66b8c39b77b74bfa1a934c8&output=html&source=placeapi_v2,,,0.0,,,,,,,,1,,,,,,,,,0
206229e417a339733310af78,海门区海南发条厂,公司企业,厂矿,江苏省,南通市,海门区,富江南路与新民路交叉口东南50米,,1,1,121.153668,31.853834,,enterprise,http://api.map.baidu.com/place/detail?uid=206229e417a339733310af78&output=html&source=placeapi_v2,0.0,,5,,,,,,,,2,,,,,,,,,1
52e468a94299caf58936ee07,海门区驰名电源设备厂,公司企业,厂矿,江苏省,南通市,海门区,江苏省南通市海门区中海村三十六组,,1,0,121.204651,31.861826,,enterprise,http://api.map.baidu.com/place/detail?uid=52e468a94299caf58936ee07&output=html&source=placeapi_v2,,,,,,,,,,,1,,,,,,,,,0
ef84486263a57981e6e96554,海门区盛隆粉末冶金厂,公司企业,厂矿,江苏省,南通市,海门区,龙西路附近,,1,0,121.239303,31.869776,,enterprise,http://api.map.baidu.com/place/detail?uid=ef84486263a57981e6e96554&output=html&source=placeapi_v2,,,,,,,,,,,,,,,,,,,,0
52f902da31406ba94107c11c,青龙港冷冻厂,公司企业,厂矿,江苏省,南通市,海门区,三厂工业园区三厂街道青龙港码头西路10号,,1,0,121.242334,31.86778,,enterprise,http://api.map.baidu.com/place/detail?uid=52f902da31406ba94107c11c&output=html&source=placeapi_v2,,,,,,,,,,,,,,,,,,,,0
ac9615329b02e691a7c7565e,得福乐工厂,公司企业,厂矿,江苏省,南通市,崇川区,江苏省南通市崇川区新兴路329号,ac9615329b02e691a7c7565e,1,1,120.954307,31.904127,(0513)68512000,enterprise,http://api.map.baidu.com/place/detail?uid=ac9615329b02e691a7c7565e&output=html&source=placeapi_v2,,,,,,,,,,,,,,,,,,120.95383655472,31.904102363623,1
17e8fca8fc233930c6effb72,礼丰包装厂,公司企业,厂矿,江苏省,南通市,崇川区,江苏省南通市崇川区新兴路300号2楼,,1,0,120.955489,31.90515,,enterprise,http://api.map.baidu.com/place/detail?uid=17e8fca8fc233930c6effb72&output=html&source=placeapi_v2,,,,,,,,,,,,,,,,,,,,0
8722bbb6e0cdf226471a326d,美利达工厂,公司企业,厂矿,江苏省,南通市,崇川区,江苏省南通市崇川区新兴东路11号,8722bbb6e0cdf226471a326d,1,0,120.971321,31.900583,(0513)80580520,enterprise,http://api.map.baidu.com/place/detail?uid=8722bbb6e0cdf226471a326d&output=html&source=placeapi_v2,,,,,,,,,,,,,,,,,,120.97115348737,31.900622981813,0
defd5aac634ebab60bf5ebf3,南通市三联钢绳厂,公司企业,厂矿,江苏省,南通市,崇川区,南通市崇川区瑞安路星竹花园西南侧约200米,,1,0,120.986671,31.904088,,enterprise,http://api.map.baidu.com/place/detail?uid=defd5aac634ebab60bf5ebf3&output=html&source=placeapi_v2,,,,,,,,,,,,,,,,,,,,0
997ff1b0f425305dc9c3db19,南通市力立钢丝厂,公司企业,厂矿,江苏省,南通市,崇川区,南通市崇川区洪昌路南通经济开发区公安分局竹行派出所东侧约30米,997ff1b0f425305dc9c3db19,1,1,120.997383,31.901814,(0513)85918222,enterprise,http://api.map.baidu.com/place/detail?uid=997ff1b0f425305dc9c3db19&output=html&source=placeapi_v2,,,,,,,,,,,,,,,,,,120.9974848718,31.90198680741,1
7d09f727f77de5dacf06a4b2,通州区电线二厂,公司企业,厂矿,江苏省,南通市,通州区,江苏省南通市通州区南八线北50米,,1,0,121.039126,31.886503,,enterprise,http://api.map.baidu.com/place/detail?uid=7d09f727f77de5dacf06a4b2&output=html&source=placeapi_v2,,,,,,,,,,,,,,,,,,,,0
1b4bbac3519069462cb908e1,南通市通安钢丝绳厂,公司企业,厂矿,江苏省,南通市,崇川区,竹行街道南兴线顺意驾校东北150米,,1,0,121.01502,31.888796,,enterprise,http://api.map.baidu.com/place/detail?uid=1b4bbac3519069462cb908e1&output=html&source=placeapi_v2,,,,,,,,,,,,,,,,,,121.01480557195,31.888896800139,0
0f4f6f4561573e7f9a0050d2,南通市华博钢丝绳厂,公司企业,厂矿,江苏省,南通市,崇川区,S223南通市大安小学西侧约250米,,1,0,121.015006,31.887869,,enterprise,http://api.map.baidu.com/place/detail?uid=0f4f6f4561573e7f9a0050d2&output=html&source=placeapi_v2,,,,,,,,,,,,,,,,,,,,0
6e1d9a40f09007c416c905d7,南通市苏福钢丝绳厂,公司企业,厂矿,江苏省,南通市,崇川区,南通市开发区竹行镇大安村顺意驾校旁,,1,0,121.01464,31.887602,,enterprise,http://api.map.baidu.com/place/detail?uid=6e1d9a40f09007c416c905d7&output=html&source=placeapi_v2,,,0.0,,,,,,,,1,,,,,,,,,0
e3082848e57139bfb34c4939,南通开发区华峰金属制品厂,公司企业,厂矿,江苏省,南通市,崇川区,南通市崇川区张江公路,e3082848e57139bfb34c4939,1,0,121.009898,31.884001,(0513)85918776,enterprise,http://api.map.baidu.com/place/detail?uid=e3082848e57139bfb34c4939&output=html&source=placeapi_v2,,,,,,,,,,,,,,,,,,121.00904641495,31.884610138724,0
7bc4daa195af8285d813188f,南通诚益贴面厂,公司企业,厂矿,江苏省,南通市,崇川区,江苏省南通市崇川区S223(张江公路),,1,0,121.008229,31.889416,,enterprise,http://api.map.baidu.com/place/detail?uid=7bc4daa195af8285d813188f&output=html&source=placeapi_v2,,,5.0,,,,,,,,1,,,,,,,121.00849878096,31.889438402168,0
32d611ff8691dadb95ca07e1,福建棉厂,公司企业,厂矿,江苏省,南通市,通州区,南通市通州区G345与川叠路交叉路口往北约110米,,1,0,121.082515,31.898647,,enterprise,http://api.map.baidu.com/place/detail?uid=32d611ff8691dadb95ca07e1&output=html&source=placeapi_v2,,,,,,,,,,,,,,,,,,,,0
bcb7f0dc10c869ea5b1093e1,开帅纺织品厂,公司企业,厂矿,江苏省,南通市,通州区,江苏省南通市通州区川姜镇川南村23组,,1,0,121.075397,31.905676,18752830005,enterprise,http://api.map.baidu.com/place/detail?uid=bcb7f0dc10c869ea5b1093e1&output=html&source=placeapi_v2,,,,,,,,,,,,,,,,,,121.07564023502,31.905715692344,0
47d59eb3e7f3b785c71b755f,私人订制一站式工厂,公司企业,厂矿,江苏省,南通市,通州区,南通市通州区G345南通金鼎龙家具制造有限公司,,1,0,121.065416,31.89919,,enterprise,http://api.map.baidu.com/place/detail?uid=47d59eb3e7f3b785c71b755f&output=html&source=placeapi_v2,,,,,,,,,,,,,,,,,,,,0
42586f077ac8e1dd25e0a034,帝强新型井盖材料厂,公司企业,厂矿,江苏省,南通市,通州区,水松路与梧桐路交叉路口往西约270米,,1,1,121.048988,31.892624,,enterprise,http://api.map.baidu.com/place/detail?uid=42586f077ac8e1dd25e0a034&output=html&source=placeapi_v2,,,,,,,,,,,,,,,,,,,,1
a947092b58fc7b83b020a821,通州区发旺织布厂,公司企业,厂矿,江苏省,南通市,通州区,江苏省南通市通州区宝通北路1号,,1,0,121.075528,31.903036,13962861276,enterprise,http://api.map.baidu.com/place/detail?uid=a947092b58fc7b83b020a821&output=html&source=placeapi_v2,,,,,,,,,,,,,,,,,,,,0
55793705fe2539d6d8d891a5,通州市南兴拉丝制品厂,公司企业,厂矿,江苏省,南通市,通州区,江苏省南通市通州区南兴拉丝制品厂南兴线北,,1,0,121.061669,31.87995,,enterprise,http://api.map.baidu.com/place/detail?uid=55793705fe2539d6d8d891a5&output=html&source=placeapi_v2,,,,,,,,,,,,,,,,,,,,0
fe5b37e9200f8535057ce8dd,通州区川姜镇俊涛家用纺织品厂,公司企业,厂矿,江苏省,南通市,通州区,南通市通州区川姜镇保障村3组,,1,0,121.059115,31.906839,13801489771,enterprise,http://api.map.baidu.com/place/detail?uid=fe5b37e9200f8535057ce8dd&output=html&source=placeapi_v2,0.0,,,,,,,,,,,,,,,,,,,0
82752f58e41c4541d6b74e6d,海门区神鹰实验器材厂,公司企业,厂矿,江苏省,南通市,海门区,江苏省南通市海门区S336,,1,0,121.093658,31.894022,13912438177,enterprise,http://api.map.baidu.com/place/detail?uid=82752f58e41c4541d6b74e6d&output=html&source=placeapi_v2,,,,,,,,,,,,,,,,,,121.0937541578,31.89401753993,0
1fea17f1b60abb3c2eb90869,海门区万事兴寝具厂,公司企业,厂矿,江苏省,南通市,海门区,南通市海门区安乐东路与光荣南路交叉路口往北约150米,,1,0,121.093011,31.903411,,enterprise,http://api.map.baidu.com/place/detail?uid=1fea17f1b60abb3c2eb90869&output=html&source=placeapi_v2,,,,,,,,,,,,,,,,,,121.0934520343,31.903255132392,0
31ee9c86d03efd0e14948ec5,海南锯条发条厂,公司企业,厂矿,江苏省,南通市,海门区,江苏省南通市海门区大港路大兴汽车站东南侧约150米,31ee9c86d03efd0e14948ec5,1,0,121.126723,31.892336,"13390972308,13801468033",enterprise,http://api.map.baidu.com/place/detail?uid=31ee9c86d03efd0e14948ec5&output=html&source=placeapi_v2,,,,,,,,,,,,,,,,,,121.12652887206,31.892321027488,0
4a1ba1c1e10bfc4d213bf202,海门区叠江木制品厂,公司企业,厂矿,江苏省,南通市,海门区,南通市海门区江淤路1333号,,1,0,121.101513,31.886925,13921645665,enterprise,http://api.map.baidu.com/place/detail?uid=4a1ba1c1e10bfc4d213bf202&output=html&source=placeapi_v2,,,0.0,,,,,,,,1,,,,,,,121.10082628891,31.887269893886,0
6ba73f14fb1220a08c1a8960,嘉禾玩具厂,公司企业,厂矿,江苏省,南通市,海门区,江苏省南通市海门区大港路4737号,,1,0,121.126661,31.887402,,enterprise,http://api.map.baidu.com/place/detail?uid=6ba73f14fb1220a08c1a8960&output=html&source=placeapi_v2,,,,,,,,,,,,,,,,,,121.12685195212,31.887409523524,0
9163a3c35a07f2883ce23102,昱燕食品有限公司,公司企业,厂矿,江苏省,南通市,海门区,江苏省南通市海门区大港路4670号,9163a3c35a07f2883ce23102,1,0,121.127175,31.886279,15151387399,enterprise,http://api.map.baidu.com/place/detail?uid=9163a3c35a07f2883ce23102&output=html&source=placeapi_v2,,,,,,,,,,,,,,,,,,121.12699676436,31.886271518502,0
28e700f1c72de901095cb3cf,海门区申博生物实验仪器厂,公司企业,厂矿,江苏省,南通市,海门区,江苏省南通市海门区小海路128号,,1,0,121.123058,31.882204,15962835766,enterprise,http://api.map.baidu.com/place/detail?uid=28e700f1c72de901095cb3cf&output=html&source=placeapi_v2,,,,,,,,,,,,,,,,,,121.12321851115,31.882212056912,0
b22f66476f75241ba5da39e6,海门区三和新特冲压件厂,公司企业,厂矿,江苏省,南通市,海门区,南通市海门区大港路中国海油加油站南侧约250米,,1,0,121.125396,31.88922,,enterprise,http://api.map.baidu.com/place/detail?uid=b22f66476f75241ba5da39e6&output=html&source=placeapi_v2,,,,,,,,,,,,,,,,,,121.12542682277,31.889131910584,0
8764d197a5cea36bc4f0251c,海门区卓越实验器材厂,公司企业,厂矿,江苏省,南通市,海门区,南通市海门区叠港公路与光荣南路交叉路口往西约90米,,1,0,121.098931,31.902033,(0513)82242008,enterprise,http://api.map.baidu.com/place/detail?uid=8764d197a5cea36bc4f0251c&output=html&source=placeapi_v2,,,0.0,,,,,,,,,,,,,,,,,0
9d20aa41cd95c24cc9c3db68,海门区敏磊玻璃仪器厂,公司企业,厂矿,江苏省,南通市,海门区,江苏省南通市海门区三和镇兄弟村9组21号,,1,0,121.099599,31.899824,15190925857,enterprise,http://api.map.baidu.com/place/detail?uid=9d20aa41cd95c24cc9c3db68&output=html&source=placeapi_v2,,,,,,,,,,,,,,,,,,121.0999844949,31.899838558315,0
1116f312354ba0ca0c0e6b20,海门区林木锯条厂,公司企业,厂矿,江苏省,南通市,海门区,江苏省南通市海门区华瑞路288号,1116f312354ba0ca0c0e6b20,1,1,121.15611,31.896403,(0513)82205497,enterprise,http://api.map.baidu.com/place/detail?uid=1116f312354ba0ca0c0e6b20&output=html&source=placeapi_v2,,,,,,,,,,,,,,,,,,121.15595529805,31.896306349935,1
362fed887a691a69601c6772,海门市恒昌仪器厂,公司企业,厂矿,江苏省,南通市,海门区,江苏省南通市海门区工贸路18号,362fed887a691a69601c6772,1,0,121.157323,31.894918,(0513)82223672,enterprise,http://api.map.baidu.com/place/detail?uid=362fed887a691a69601c6772&output=html&source=placeapi_v2,,,,,,,,,,,,,,,,,,121.15732482499,31.895050146518,0
c871bdf91b98083e223bf20f,南通澳飞利电器厂,公司企业,厂矿,江苏省,南通市,海门区,江苏省南通市海门区华瑞路198号,,1,1,121.146792,31.898314,,enterprise,http://api.map.baidu.com/place/detail?uid=c871bdf91b98083e223bf20f&output=html&source=placeapi_v2,,,,,,,,,,,,,,,,,,121.14673649435,31.898101533502,1
f0d284d95dc7ef5eb6f42f45,江苏省海门市海南化工机泵厂,公司企业,厂矿,江苏省,南通市,海门区,江苏省南通市海门区人民西路768号,f0d284d95dc7ef5eb6f42f45,1,0,121.156801,31.897095,,enterprise,http://api.map.baidu.com/place/detail?uid=f0d284d95dc7ef5eb6f42f45&output=html&source=placeapi_v2,,,,,,,,,,,,,,,,,,121.15671822892,31.897261678631,0
016d53d24dbec44290114c36,海门市林木锯条厂,公司企业,厂矿,江苏省,南通市,海门区,江苏省南通市海门区华瑞路288号,016d53d24dbec44290114c36,1,1,121.145208,31.898237,(0513)82205497,enterprise,http://api.map.baidu.com/place/detail?uid=016d53d24dbec44290114c36&output=html&source=placeapi_v2,,,,,,,,,,,,,,,,,,,,1
ce29909769363fd388b98856,品牌集合工厂,公司企业,厂矿,江苏省,南通市,海门区,南通市海门区人民西路香堤雅境西北侧约70米,ce29909769363fd388b98856,1,0,121.146512,31.896973,18068650848,enterprise,http://api.map.baidu.com/place/detail?uid=ce29909769363fd388b98856&output=html&source=placeapi_v2,,,,,,,,,,,,,,,,,,121.14652593962,31.89672336153,0
36b7767f777c50966fc02c98,三和钣金不锈钢加工厂,公司企业,厂矿,江苏省,南通市,海门区,江苏省南通市海门区富江路874号,36b7767f777c50966fc02c98,1,0,121.15445,31.890877,"(0513)82223440,18252858323",enterprise,http://api.map.baidu.com/place/detail?uid=36b7767f777c50966fc02c98&output=html&source=placeapi_v2,,,,,,,,,,,,,,,,,,,,0
d60caf2b21bbb68e8605bfb5,鑫鑫石材厂,公司企业,厂矿,江苏省,南通市,海门区,江苏省南通市海门区秀山西路1098号,d60caf2b21bbb68e8605bfb5,1,0,121.153298,31.889892,"13073251679,15262828268",enterprise,http://api.map.baidu.com/place/detail?uid=d60caf2b21bbb68e8605bfb5&output=html&source=placeapi_v2,,,,,,,,,,,,,,,,,,121.15343547834,31.889779348139,0
cb37c7434467b4b8b64f54e5,海门市兴才复合制品厂,公司企业,厂矿,江苏省,南通市,海门区,江苏省南通市海门区华瑞路168号,,1,0,121.147206,31.89774,,enterprise,http://api.map.baidu.com/place/detail?uid=cb37c7434467b4b8b64f54e5&output=html&source=placeapi_v2,,,,,,,,,,,,,,,,,,,,0
d88daa977f408c44d92f28ea,专业磨加工,公司企业,厂矿,江苏省,南通市,海门区,南通市海门区丝绸路海西花苑,d88daa977f408c44d92f28ea,1,0,121.163166,31.906369,13773718807,life,http://api.map.baidu.com/place/detail?uid=d88daa977f408c44d92f28ea&output=html&source=placeapi_v2,,,,,,,,,,14,,,,,,,,,,0
a82ec1f8cb8dbfde774ff1ff,海门市华威五金配件厂,公司企业,厂矿,江苏省,南通市,海门区,江苏省南通市海门区华瑞路318号,a82ec1f8cb8dbfde774ff1ff,1,0,121.144095,31.897853,15250623155,enterprise,http://api.map.baidu.com/place/detail?uid=a82ec1f8cb8dbfde774ff1ff&output=html&source=placeapi_v2,,,,,,,,,,,,,,,,,,,,0
2a346481994a3fe840ab9a00,海门市隆盛金属丝绳厂,公司企业,厂矿,江苏省,南通市,海门区,江苏省南通市海门区华瑞路西150米,2a346481994a3fe840ab9a00,1,1,121.143661,31.899413,13862881330,enterprise,http://api.map.baidu.com/place/detail?uid=2a346481994a3fe840ab9a00&output=html&source=placeapi_v2,,,,,,,,,,,,,,,,,,,,1
fe48aabc904c4338744ff100,海门市佳华真空设备公司,公司企业,厂矿,江苏省,南通市,海门区,江苏省南通市海门区宏阳路18号,fe48aabc904c4338744ff100,1,1,121.142766,31.894132,(0513)82110488,enterprise,http://api.map.baidu.com/place/detail?uid=fe48aabc904c4338744ff100&output=html&source=placeapi_v2,,,,,,,,,,,,,,,,,,121.14274746992,31.894131777184,1
2a4a8911a57cf2fa5cbe86ba,海门区后时代家具有限责任公司,公司企业,厂矿,江苏省,南通市,海门区,江苏省南通市海门区北海西路663号,2a4a8911a57cf2fa5cbe86ba,1,0,121.155982,31.912185,13706289127,enterprise,http://api.map.baidu.com/place/detail?uid=2a4a8911a57cf2fa5cbe86ba&output=html&source=placeapi_v2,,,,,,,,,,,,,,,,,,121.15589241667,31.912070100486,0
25e4b228b3a6bd061ce99961,海门市海宏模具厂,公司企业,厂矿,江苏省,南通市,海门区,江苏省南通市海门区海兴路212号,25e4b228b3a6bd061ce99961,1,0,121.16579,31.90107,13773713386,enterprise,http://api.map.baidu.com/place/detail?uid=25e4b228b3a6bd061ce99961&output=html&source=placeapi_v2,,,,,,,,,,,,,,,,,,121.16559942157,31.901121412266,0
b477386dca144718a3acc4d6,海门市海门镇印刷厂,公司企业,厂矿,江苏省,南通市,海门区,高新区秀山路五港桥向南150米,b477386dca144718a3acc4d6,1,1,121.161872,31.887402,(0513)82232561,enterprise,http://api.map.baidu.com/place/detail?uid=b477386dca144718a3acc4d6&output=html&source=placeapi_v2,,,,,,,,,,,,,,,,,,121.16227038579,31.88745385103,1
68fda634af7e98d408f5eb59,强信大理石厂,公司企业,厂矿,江苏省,南通市,海门区,南通市海门区黄海中路万和家园北侧约30米,68fda634af7e98d408f5eb59,1,0,121.15997,31.887003,"15851331180,15896259130",enterprise,http://api.map.baidu.com/place/detail?uid=68fda634af7e98d408f5eb59&output=html&source=placeapi_v2,,,,,,,,,,,,,,,,,,,,0
c5a27173b734f6e733621212,静安电瓶厂,公司企业,厂矿,江苏省,南通市,海门区,江苏省南通市海门区静安路165号,c5a27173b734f6e733621212,1,0,121.169205,31.896072,13862849414,enterprise,http://api.map.baidu.com/place/detail?uid=c5a27173b734f6e733621212&output=html&source=placeapi_v2,,,,,,,,,,,,,,,,,,121.16926704486,31.89608117279,0
ee0791952e49a9f20a5cb31a,鸿祥食品厂,公司企业,厂矿,江苏省,南通市,海门区,江苏省南通市海门区新海路288号,ee0791952e49a9f20a5cb31a,1,0,121.170871,31.901936,(0513)82902331,enterprise,http://api.map.baidu.com/place/detail?uid=ee0791952e49a9f20a5cb31a&output=html&source=placeapi_v2,,,4.3,,,,,,,,4,,,,,,,121.17085358334,31.902054081935,0
fbcb333eb571bb758605bf82,海门市中泰实验器材厂,公司企业,厂矿,江苏省,南通市,海门区,南通市海门区三联路与向民路交叉路口往南约140米,fbcb333eb571bb758605bf82,1,1,121.136186,31.896714,,enterprise,http://api.map.baidu.com/place/detail?uid=fbcb333eb571bb758605bf82&output=html&source=placeapi_v2,,,,,,,,,,,,,,,,,,121.13603088184,31.896635906893,1
343097fa39d4ff52c17da220,扬子特种油品厂,公司企业,厂矿,江苏省,南通市,海门区,江苏省南通市海门区秀山东路598号,343097fa39d4ff52c17da220,1,0,121.196956,31.895282,,enterprise,http://api.map.baidu.com/place/detail?uid=343097fa39d4ff52c17da220&output=html&source=placeapi_v2,,,,,,,,,,,,,,,,,,,,0
765d62e99ee560ccbb17e779,志禾服装厂,公司企业,厂矿,江苏省,南通市,海门区,江苏省南通市海门区通源路631号,,1,0,121.194079,31.896383,,enterprise,http://api.map.baidu.com/place/detail?uid=765d62e99ee560ccbb17e779&output=html&source=placeapi_v2,,,,,,,,,,,,,,,,,,,,0
16f3169679377c35c056accd,海门市华工机泵厂,公司企业,厂矿,江苏省,南通市,海门区,南通市海门区秀山东路海门友好医院,,1,0,121.199379,31.895448,,enterprise,http://api.map.baidu.com/place/detail?uid=16f3169679377c35c056accd&output=html&source=placeapi_v2,,,,,,,,,,,,,,,,,,,,0
a480a9382e5fc0f549fc8d25,张謇颐生酿造厂,公司企业,厂矿,江苏省,南通市,海门区,江苏省南通市海门区解放中路60号,,1,0,121.197289,31.900553,15366383848,enterprise,http://api.map.baidu.com/place/detail?uid=a480a9382e5fc0f549fc8d25&output=html&source=placeapi_v2,,,,,,,,,,,,,,,,,,121.19728509221,31.900370995833,0
0b1086555a9d1e396849f3e8,富民大理石厂,公司企业,厂矿,江苏省,南通市,海门区,南通市海门区瑞江路中南世纪雅苑北侧约90米,,1,0,121.20525,31.908301,13506281796,enterprise,http://api.map.baidu.com/place/detail?uid=0b1086555a9d1e396849f3e8&output=html&source=placeapi_v2,,,,,,,,,,,,,,,,,,121.20548161885,31.908310077377,0
3c12dd6e9d5308f8f8f0cb0e,南通冠东模塑股份有限公司(民生路厂区),公司企业,厂矿,江苏省,南通市,海门区,江苏省南通市海门区民生路437号,3c12dd6e9d5308f8f8f0cb0e,1,2,121.215886,31.897974,(0513)81260160,enterprise,http://api.map.baidu.com/place/detail?uid=3c12dd6e9d5308f8f8f0cb0e&output=html&source=placeapi_v2,,,,,,,,,,,,,,,,,,121.21619368479,31.897956689563,2
a83eb3b075301bd6d23ce34a,传俊石材厂,公司企业,厂矿,江苏省,南通市,海门区,南通市海门区秀山东路同济医院西侧约180米,,1,0,121.207096,31.896605,"15050607570,15902165171",enterprise,http://api.map.baidu.com/place/detail?uid=a83eb3b075301bd6d23ce34a&output=html&source=placeapi_v2,,,,,,,,,,,,,,,,,,,,0
71f50c9fbf2914450a5cb317,托驰鞋厂,公司企业,厂矿,江苏省,南通市,海门区,江苏省南通市海门区浦江路172号,,1,0,121.210572,31.890359,,enterprise,http://api.map.baidu.com/place/detail?uid=71f50c9fbf2914450a5cb317&output=html&source=placeapi_v2,,,,,,,,,,,,,,,,,,,,0
4b91c7bec2ee436a1d58006f,怡萍食品厂,公司企业,厂矿,江苏省,南通市,海门区,江苏省南通市海门区静海路116号,4b91c7bec2ee436a1d58006f,1,0,121.178699,31.896398,,enterprise,http://api.map.baidu.com/place/detail?uid=4b91c7bec2ee436a1d58006f&output=html&source=placeapi_v2,,,,,,,,,,,,,,,,,,121.17855058675,31.896361177949,0
4885a56c894d146082a12e55,海门区重型矿山机械厂,公司企业,厂矿,江苏省,南通市,海门区,江苏省南通市海门区厂洪路28号,4885a56c894d146082a12e55,1,0,121.245968,31.898868,(0513)82608081,enterprise,http://api.map.baidu.com/place/detail?uid=4885a56c894d146082a12e55&output=html&source=placeapi_v2,,,,,,,,,,,,,,,,,,121.24572239814,31.89888150197,0
198a0614052111b315c90504,海门市天娇制衣厂,公司企业,厂矿,江苏省,南通市,海门区,南通市海门区厂洪路与青三路交叉路口往南约110米,198a0614052111b315c90504,1,0,121.245692,31.894609,,enterprise,http://api.map.baidu.com/place/detail?uid=198a0614052111b315c90504&output=html&source=placeapi_v2,,,,,,,,,,,,,,,,,,,,0
6152395d85f23706b23c8126,利尔达刀片厂,公司企业,厂矿,江苏省,南通市,海门区,江苏省南通市海门区中华西路581号,,1,0,121.236408,31.904491,,enterprise,http://api.map.baidu.com/place/detail?uid=6152395d85f23706b23c8126&output=html&source=placeapi_v2,,,,,,,,,,,,,,,,,,121.23665137557,31.904477171628,0
72327b845a6624e58c1a8957,海门市金华环保设备厂,公司企业,厂矿,江苏省,南通市,海门区,江苏省南通市海门区金华环保设备厂29组49号,,1,0,121.245155,31.905671,13912896776,enterprise,http://api.map.baidu.com/place/detail?uid=72327b845a6624e58c1a8957&output=html&source=placeapi_v2,,,,,,,,,,,,,,,,,,,,0
28101a12e768484e7ab55c57,南通龙都家用纺织品有限公司,公司企业,厂矿,江苏省,南通市,海门区,江苏省海门区海门镇南海东路768号1幢1-2室,5da99807a695c9fcb817e7cb,1,0,121.227029,31.88658,(0513)82113355,enterprise,http://api.map.baidu.com/place/detail?uid=28101a12e768484e7ab55c57&output=html&source=placeapi_v2,,,,,,,,,,,,,,,,,,121.2269450453,31.886784712269,0
731180657a4ffeb12102625a,海门区恒旺鼓风机厂,公司企业,厂矿,江苏省,南通市,海门区,江苏省南通市海门区厂洪路83号,,1,0,121.244897,31.887615,,enterprise,http://api.map.baidu.com/place/detail?uid=731180657a4ffeb12102625a&output=html&source=placeapi_v2,,,,,,,,,,,,,,,,,,121.24506988249,31.887608360564,0
401aa8cb4b5c91cca7c75638,诚信塑料厂,公司企业,厂矿,江苏省,南通市,海门区,江苏省南通市海门区南海东路768号7号楼,,1,0,121.226238,31.885031,,enterprise,http://api.map.baidu.com/place/detail?uid=401aa8cb4b5c91cca7c75638&output=html&source=placeapi_v2,,,,,,,,,,,,,,,,,,,,0
9374efc55e6a5ac6465726aa,海门区帅鹏机械零部件加工厂,公司企业,厂矿,江苏省,南通市,海门区,南通市海门区三厂街道厂西村34组,,1,0,121.236584,31.910119,,enterprise,http://api.map.baidu.com/place/detail?uid=9374efc55e6a5ac6465726aa&output=html&source=placeapi_v2,,,0.0,,,,,,,,1,,,,,,,,,0
bf076108be21e4f3af045767,海门区凡客家用纺织品厂,公司企业,厂矿,江苏省,南通市,海门区,江苏省南通市海门区建设路80号,,1,0,121.224834,31.897949,,enterprise,http://api.map.baidu.com/place/detail?uid=bf076108be21e4f3af045767&output=html&source=placeapi_v2,,,,,,,,,,,,,,,,,,,,0
b62749509a534eaca2a93443,南通市日盛园林工具配件厂,公司企业,厂矿,江苏省,南通市,海门区,江苏省南通市海门区三厂镇中华东路359号,b62749509a534eaca2a93443,1,1,121.27833,31.896483,"(0513)82742188,(0513)82745000",enterprise,http://api.map.baidu.com/place/detail?uid=b62749509a534eaca2a93443&output=html&source=placeapi_v2,,,,,,,,,,,,,,,,,,121.27814029827,31.896011970258,1
dde255e903af74acc62ba117,江苏恒丰强生物技术有限公司新厂,公司企业,厂矿,江苏省,南通市,海门区,江苏省南通市海门区S336,,1,0,121.283583,31.898818,(0513)82761111,enterprise,http://api.map.baidu.com/place/detail?uid=dde255e903af74acc62ba117&output=html&source=placeapi_v2,,,0.0,,,,,,,,1,,,,,,,,,0
28f04e56f2dd12e04afd3f6d,维柏思特企业2号厂区,公司企业,厂矿,江苏省,南通市,海门区,江苏省南通市海门区中华东路279号,28f04e56f2dd12e04afd3f6d,1,1,121.270699,31.896846,,enterprise,http://api.map.baidu.com/place/detail?uid=28f04e56f2dd12e04afd3f6d&output=html&source=placeapi_v2,,,,,,,,,,,,,,,,,,121.27067789473,31.896467296505,1
7446ab39469e57332db17e6d,大力神钢丝绳厂,公司企业,厂矿,江苏省,南通市,海门区,江苏省南通市海门区大生路128号,,1,0,121.261578,31.898353,,enterprise,http://api.map.baidu.com/place/detail?uid=7446ab39469e57332db17e6d&output=html&source=placeapi_v2,,,,,,,,,,,,,,,,,,,,0
f9eb422872c2f05b902ca348,海门区化工原料厂,公司企业,厂矿,江苏省,南通市,海门区,江苏省南通市海门区s336,,1,0,121.32459,31.889622,,enterprise,http://api.map.baidu.com/place/detail?uid=f9eb422872c2f05b902ca348&output=html&source=placeapi_v2,,,,,,,,,,,,,,,,,,,,0
165f403dcec16db38b2fb5d3,海门区启鲁油罐厂,公司企业,厂矿,江苏省,南通市,海门区,南通市海门区沿江公路南50米,,1,0,121.328263,31.892029,,enterprise,http://api.map.baidu.com/place/detail?uid=165f403dcec16db38b2fb5d3&output=html&source=placeapi_v2,,,,,,,,,,,,,,,,,,,,0
e89c8856f3046c2484154110,飞鸿服装厂,公司企业,厂矿,江苏省,南通市,海门区,南通市海门区正麒线中国石化加油站(汤家站)东北侧约100米,e89c8856f3046c2484154110,1,0,121.342876,31.892735,13101985129,enterprise,http://api.map.baidu.com/place/detail?uid=e89c8856f3046c2484154110&output=html&source=placeapi_v2,,,,,,,,,,,,,,,,,,,,0
02bb509641e82dc72b3a9faf,炫宇红木工艺品厂,公司企业,厂矿,江苏省,南通市,海门区,南通市海门区G345中国石化加油站(汤家站)东侧约240米,,1,1,121.344624,31.891964,13962746527,enterprise,http://api.map.baidu.com/place/detail?uid=02bb509641e82dc72b3a9faf&output=html&source=placeapi_v2,,,,,,,,,,,,,,,,,,,,1
dd87b1c4c5f0e6204d776eaa,本真红木工艺品厂,公司企业,厂矿,江苏省,南通市,海门区,南通市海门区三厂街道中兴村七组41号,,1,0,121.30809,31.899444,13912898515,enterprise,http://api.map.baidu.com/place/detail?uid=dd87b1c4c5f0e6204d776eaa&output=html&source=placeapi_v2,,,,,,,,,,,,,,,,,,,,0
3067afd67c84495072210bf0,海门区环宇化工厂,公司企业,厂矿,江苏省,南通市,海门市,江苏省南通市海门市大新河西路,,1,0,121.355942,31.880766,,enterprise,http://api.map.baidu.com/place/detail?uid=3067afd67c84495072210bf0&output=html&source=placeapi_v2,,,0.0,,,,,,,,1,,,,,,,,,0
3b8b6323c42b9b22e115f9d8,海门嘉馨尔制衣厂,公司企业,厂矿,江苏省,南通市,海门区,S336(大新桥),,1,0,121.354291,31.890989,,enterprise,http://api.map.baidu.com/place/detail?uid=3b8b6323c42b9b22e115f9d8&output=html&source=placeapi_v2,,,,,,,,,,,,,,,,,,121.35431066232,31.891368878243,0
38a47bcf8d56bf9a38221c94,祥狗羽绒服厂,公司企业,厂矿,江苏省,南通市,海门区,南通市海门区大新河东路汤家集贸市场北侧约40米,,1,0,121.356188,31.8916,13814684780,enterprise,http://api.map.baidu.com/place/detail?uid=38a47bcf8d56bf9a38221c94&output=html&source=placeapi_v2,,,,,,,,,,,,,,,,,,,,0
20627a18bab2fdd3f942b2be,伟伟羽绒服厂工厂店,公司企业,厂矿,江苏省,南通市,海门区,江苏省南通市海门区G345汤家集贸市场东北侧约50米,20627a18bab2fdd3f942b2be,1,0,121.357008,31.891513,13801468147,enterprise,http://api.map.baidu.com/place/detail?uid=20627a18bab2fdd3f942b2be&output=html&source=placeapi_v2,,,,,,,,,,,,,,,,,,,,0
5536a57dc5e27c846c3e1b05,海门市御木红木工艺品厂,公司企业,厂矿,江苏省,南通市,海门区,南通市海门区坚平村15组33号,,1,0,121.411472,31.888815,13962906824,enterprise,http://api.map.baidu.com/place/detail?uid=5536a57dc5e27c846c3e1b05&output=html&source=placeapi_v2,,,,,,,,,,,,,,,,,,,,0
1256479558e00369471a3231,飞腾服饰厂,公司企业,厂矿,江苏省,南通市,崇川区,江苏省南通市崇川区福州路12号2楼,,1,0,120.936409,31.930382,,enterprise,http://api.map.baidu.com/place/detail?uid=1256479558e00369471a3231&output=html&source=placeapi_v2,,,,,,,,,,,,,,,,,,,,0
ad022ac2e89848538f1a8925,南通金库服装厂,公司企业,厂矿,江苏省,南通市,崇川区,江苏省南通市崇川区上海路3号52区2楼,,1,0,120.935343,31.929887,,enterprise,http://api.map.baidu.com/place/detail?uid=ad022ac2e89848538f1a8925&output=html&source=placeapi_v2,,,,,,,,,,,,,,,,,,,,0
fff4741d3f0989edc42ba1a8,南通帝人公司织一工厂,公司企业,厂矿,江苏省,南通市,崇川区,江苏省南通市崇川区中央路19号,,1,1,120.936195,31.920827,,enterprise,http://api.map.baidu.com/place/detail?uid=fff4741d3f0989edc42ba1a8&output=html&source=placeapi_v2,,,,,,,,,,,,,,,,,,,,1
e85e25279c060f2e94f08c84,南通金梭花边厂,公司企业,厂矿,江苏省,南通市,崇川区,江苏省南通市崇川区育才路3号,e85e25279c060f2e94f08c84,1,0,120.939216,31.920921,,enterprise,http://api.map.baidu.com/place/detail?uid=e85e25279c060f2e94f08c84&output=html&source=placeapi_v2,,,,,,,,,,,,,,,,,,120.93914872514,31.920927445207,0
227a3586f56835346849f398,富凯服装厂,公司企业,厂矿,江苏省,南通市,崇川区,江苏省南通市崇川区民兴路5号3楼,,1,0,120.940146,31.919081,,enterprise,http://api.map.baidu.com/place/detail?uid=227a3586f56835346849f398&output=html&source=placeapi_v2,,,,,,,,,,,,,,,,,,120.94023156775,31.91929613393,0
b9847a61f3dc7658b5f42f20,南通科德宝新工厂,公司企业,厂矿,江苏省,南通市,崇川区,南通市崇川区吉兴路与中央路交叉路口往东北约200米,,1,0,120.931648,31.918867,,enterprise,http://api.map.baidu.com/place/detail?uid=b9847a61f3dc7658b5f42f20&output=html&source=placeapi_v2,,,,,,,,,,,,,,,,,,,,0
1097cc7eb2e10871213bf25f,通州市张芝山中心印刷厂,公司企业,厂矿,江苏省,南通市,通州区,江苏省南通市通州区通启路35号,1097cc7eb2e10871213bf25f,1,1,121.017232,31.936912,,enterprise,http://api.map.baidu.com/place/detail?uid=1097cc7eb2e10871213bf25f&output=html&source=placeapi_v2,,,3.5,,,,,,,,2,,,,,,,121.01742588241,31.937140895129,1
81390a1a32e1d2d1f8221311,顺丰压花厂,公司企业,厂矿,江苏省,南通市,通州区,江苏省南通市通州区凉棚西路,,1,0,121.042047,31.92572,,enterprise,http://api.map.baidu.com/place/detail?uid=81390a1a32e1d2d1f8221311&output=html&source=placeapi_v2,,,,,,,,,,,,,,,,,,121.04204645837,31.925489680528,0
c3ff5db1814b3f172fe67b15,通州市张芝山镇为民铸件厂,公司企业,厂矿,江苏省,南通市,通州区,南通市通州区兴张路南通市张芝山镇政府东侧约90米,c3ff5db1814b3f172fe67b15,1,1,121.020969,31.945042,,enterprise,http://api.map.baidu.com/place/detail?uid=c3ff5db1814b3f172fe67b15&output=html&source=placeapi_v2,,,,,,,,,,,,,,,,,,121.02097591212,31.944891637018,1
6ca3c78a65b741dae4e965ad,南通德尔馨织布厂,公司企业,厂矿,江苏省,南通市,通州区,江苏省南通市通州区兴张路北50米,,1,0,121.026894,31.944833,,enterprise,http://api.map.baidu.com/place/detail?uid=6ca3c78a65b741dae4e965ad&output=html&source=placeapi_v2,,,,,,,,,,,,,,,,,,,,0
ac7c2d0cc5cf30705cbe86a5,通州区第三印刷厂,公司企业,厂矿,江苏省,南通市,通州区,南通市通州区姜竹线通州区张芝山小学(北校区)西北侧约240米,,1,0,121.017434,31.939446,13862926963,enterprise,http://api.map.baidu.com/place/detail?uid=ac7c2d0cc5cf30705cbe86a5&output=html&source=placeapi_v2,,,,,,,,,,,,,,,,,,,,0
a5c0ee169b29325ef82d61f7,乐顺线厂,公司企业,厂矿,江苏省,南通市,通州区,南通市通州区小闸路通州区川港中学南侧约200米,,1,0,121.070104,31.928736,13901467810,enterprise,http://api.map.baidu.com/place/detail?uid=a5c0ee169b29325ef82d61f7&output=html&source=placeapi_v2,,,,,,,,,,,,,,,,,,,,0
e73c86db4989f2fa15764393,兴昌机械厂,公司企业,厂矿,江苏省,南通市,通州区,南通市通州区创新路与镇北路交叉路口往南约120米,,1,0,121.071561,31.9356,,enterprise,http://api.map.baidu.com/place/detail?uid=e73c86db4989f2fa15764393&output=html&source=placeapi_v2,,,,,,,,,,,,,,,,,,,,0
b4d33e15f9c1380d7c29bd30,皇城磨毛厂,公司企业,厂矿,江苏省,南通市,通州区,南通市通州区S223与斜桥北路交叉路口往北约140米,,1,0,121.05645,31.92731,,enterprise,http://api.map.baidu.com/place/detail?uid=b4d33e15f9c1380d7c29bd30&output=html&source=placeapi_v2,,,,,,,,,,,,,,,,,,,,0
232acde5398f665454bfff91,通州区川姜镇宏飞食品厂,公司企业,厂矿,江苏省,南通市,通州区,江苏省南通市通州区斜桥校西南侧约280米,,1,0,121.064382,31.917906,,enterprise,http://api.map.baidu.com/place/detail?uid=232acde5398f665454bfff91&output=html&source=placeapi_v2,,,,,,,,,,,,,,,,,,121.06457966158,31.918016242144,0
8ab0dfc428119f16d8eced39,南通宏伟织造厂,公司企业,厂矿,江苏省,南通市,通州区,江苏省南通市通州区川港镇斜桥村十六组42号西北方向120米,8ab0dfc428119f16d8eced39,1,1,121.054052,31.932443,(0513)82534058,enterprise,http://api.map.baidu.com/place/detail?uid=8ab0dfc428119f16d8eced39&output=html&source=placeapi_v2,,,,,,,,,,,,,,,,,,121.05404861768,31.932255815691,1
4d986f9cc9c6b708441a32a9,科达设备厂,公司企业,厂矿,江苏省,南通市,通州区,南通市通州区S223与斜桥北路交叉路口往北约260米,,1,1,121.055399,31.928408,,enterprise,http://api.map.baidu.com/place/detail?uid=4d986f9cc9c6b708441a32a9&output=html&source=placeapi_v2,,,,,,,,,,,,,,,,,,121.0556325387,31.928344441832,1
91a618ebd45e22dc2002205d,南通市通州区川港康力金属制造厂,公司企业,厂矿,江苏省,南通市,通州区,南通市通州区川叠路凌澜尔家纺南侧约150米,,1,0,121.078882,31.917354,,enterprise,http://api.map.baidu.com/place/detail?uid=91a618ebd45e22dc2002205d&output=html&source=placeapi_v2,,,,,,,,,,,,,,,,,,121.07908069482,31.917390183353,0
16ad1bb75a9ffa7ea20464b8,杨帆加工厂,公司企业,厂矿,江苏省,南通市,通州区,川姜镇川南村十二组5号,,1,0,121.084,31.921459,,enterprise,http://api.map.baidu.com/place/detail?uid=16ad1bb75a9ffa7ea20464b8&output=html&source=placeapi_v2,,,,,,,,,,,,,,,,,,,,0
cff7788575eaab3b28b97c88,海门区凯隆铸造厂,公司企业,厂矿,江苏省,南通市,海门区,南通市海门区永新路银庭现代家纺科创园西南侧约100米,,1,0,121.094584,31.930751,,enterprise,http://api.map.baidu.com/place/detail?uid=cff7788575eaab3b28b97c88&output=html&source=placeapi_v2,,,,,,,,,,,,,,,,,,,,0
33127c3ea211002257bfffaf,海门区万锦无胶棉厂,公司企业,厂矿,江苏省,南通市,海门区,南通市海门区环镇南路与茅程路交叉路口往东北约60米,,1,0,121.108443,31.913931,,enterprise,http://api.map.baidu.com/place/detail?uid=33127c3ea211002257bfffaf&output=html&source=placeapi_v2,,,,,,,,,,,,,,,,,,121.108042042,31.914070219425,0
f4a33da9fb2625093010afcf,海门区天鑫无胶棉厂,公司企业,厂矿,江苏省,南通市,海门区,江苏省南通市海门区彦英村2组51,,1,0,121.122833,31.914848,,enterprise,http://api.map.baidu.com/place/detail?uid=f4a33da9fb2625093010afcf&output=html&source=placeapi_v2,,,,,,,,,,,,,,,,,,121.12286257571,31.914763742474,0
3790f70f4d26a170d1f49ec8,天补黄氏卷闸门厂,公司企业,厂矿,江苏省,南通市,海门区,江苏省南通市海门区三星镇通启路66号,,1,0,121.121902,31.930423,"(0513)82240955,15162713228,15190837158",enterprise,http://api.map.baidu.com/place/detail?uid=3790f70f4d26a170d1f49ec8&output=html&source=placeapi_v2,,,,,,,,,,,,,,,,,,,,0
c4602a1a9870b01ec7f025d0,海门市天补卷闸门厂,公司企业,厂矿,江苏省,南通市,海门区,南通市海门区富民路补南幼儿园北侧,c4602a1a9870b01ec7f025d0,1,0,121.126473,31.928452,"(0513)82240955,15190837158",enterprise,http://api.map.baidu.com/place/detail?uid=c4602a1a9870b01ec7f025d0&output=html&source=placeapi_v2,,,,,,,,,,,,,,,,,,121.12632743333,31.928445669479,0
6eeebc756bdbef1ac2f1cf04,海门区标牌一厂,公司企业,厂矿,江苏省,南通市,海门区,南通市海门区沿河路补南幼儿园北侧约200米,,1,1,121.126497,31.93,,enterprise,http://api.map.baidu.com/place/detail?uid=6eeebc756bdbef1ac2f1cf04&output=html&source=placeapi_v2,,,,,,,,,,,,,,,,,,,,1
04bdf4a3c07cea4f354aaecf,海门市一鸣文教用品厂,公司企业,厂矿,江苏省,南通市,海门区,江苏省南通市海门区通启路26号,04bdf4a3c07cea4f354aaecf,1,0,121.126158,31.917123,,enterprise,http://api.map.baidu.com/place/detail?uid=04bdf4a3c07cea4f354aaecf&output=html&source=placeapi_v2,,,,,,,,,,,,,,,,,,121.126200006,31.91723567993,0
0c0eb2c29a944c608bf15d40,上海光学仪器厂海门分厂,公司企业,厂矿,江苏省,南通市,海门区,南通市海门区海天西路天补镇派出所东北侧约280米,,1,0,121.126895,31.932175,,enterprise,http://api.map.baidu.com/place/detail?uid=0c0eb2c29a944c608bf15d40&output=html&source=placeapi_v2,,,,,,,,,,,,,,,,,,,,0
410c42c316469d766318093b,海门市逸兔毛毯厂,公司企业,厂矿,江苏省,南通市,海门区,南通市海门区振兴路南通市海门区天补小学东南侧约80米,,1,1,121.124505,31.932019,,enterprise,http://api.map.baidu.com/place/detail?uid=410c42c316469d766318093b&output=html&source=placeapi_v2,,,,,,,,,,,,,,,,,,,,1
a565ed3aebd50c22e5073826,海门市亚欧家用纺织品厂,公司企业,厂矿,江苏省,南通市,通州区,江苏省南通市通州区通启路197号,,1,0,121.090987,31.931087,,enterprise,http://api.map.baidu.com/place/detail?uid=a565ed3aebd50c22e5073826&output=html&source=placeapi_v2,,,,,,,,,,,,,,,,,,121.0909897762,31.931157133578,0
f5fa70ccf3adbf47ebe58298,海门区天瑞有色金属铸造厂,公司企业,厂矿,江苏省,南通市,海门区,南通市海门区环镇北路与彦英东路交叉路口往西北约90米,,1,0,121.119825,31.916798,(0513)82243168,enterprise,http://api.map.baidu.com/place/detail?uid=f5fa70ccf3adbf47ebe58298&output=html&source=placeapi_v2,,,,,,,,,,,,,,,,,,,,0
2a4a8911a57cf2fa5cbe86ba,海门区后时代家具有限责任公司,公司企业,厂矿,江苏省,南通市,海门区,江苏省南通市海门区北海西路663号,2a4a8911a57cf2fa5cbe86ba,1,0,121.155982,31.912185,13706289127,enterprise,http://api.map.baidu.com/place/detail?uid=2a4a8911a57cf2fa5cbe86ba&output=html&source=placeapi_v2,,,,,,,,,,,,,,,,,,121.15589241667,31.912070100486,0
968c63361fc40dd29122e075,新海砖瓦厂,公司企业,厂矿,江苏省,南通市,海门区,海门区高新区德海线城北医院北450米,968c63361fc40dd29122e075,1,0,121.171809,31.92151,,enterprise,http://api.map.baidu.com/place/detail?uid=968c63361fc40dd29122e075&output=html&source=placeapi_v2,,,0,,,,,,,,1,,,,,,,,,0
f58f9db44d7ac631b35c6a68,海门区飞龙工程机械厂,公司企业,厂矿,江苏省,南通市,海门区,南通市海门区G228,,1,0,121.206106,31.92612,,enterprise,http://api.map.baidu.com/place/detail?uid=f58f9db44d7ac631b35c6a68&output=html&source=placeapi_v2,,,,,,,,,,,,,,,,,,121.2061040781,31.925988074414,0
6ee01020d220f19253e5c5ac,海门区飞达标准件厂,公司企业,厂矿,江苏省,南通市,海门区,南通市海门区新德路与新西中路交叉路口往北约190米,,1,0,121.178492,31.939125,18012217019,enterprise,http://api.map.baidu.com/place/detail?uid=6ee01020d220f19253e5c5ac&output=html&source=placeapi_v2,,,,,,,,,,,,,,,,,,121.1785925969,31.938993213381,0
7099eb4c599a6f11adb22a2f,雪飞制冰厂,公司企业,厂矿,江苏省,南通市,海门区,江苏省南通市海门区长久路168号,,1,0,121.193289,31.942448,17851680788,enterprise,http://api.map.baidu.com/place/detail?uid=7099eb4c599a6f11adb22a2f&output=html&source=placeapi_v2,,,,,,,,,,,,,,,,,,,,0
504d61139aa1d7b3465726ce,颐生酿造厂,公司企业,厂矿,江苏省,南通市,海门区,江苏省南通市海门区颐生路与中颐路交叉路口东北侧,504d61139aa1d7b3465726ce,1,0,121.253484,31.937884,,enterprise,http://api.map.baidu.com/place/detail?uid=504d61139aa1d7b3465726ce&output=html&source=placeapi_v2,,,0.0,,,,,,,,,,,,,,,121.25336711457,31.937835669672,0
0ff18363914d4c6a102935d6,海门区常乐镇颐园酒厂,公司企业,厂矿,江苏省,南通市,海门区,南通市海门区G40沪陕高速南150米,,1,0,121.246278,31.93092,,enterprise,http://api.map.baidu.com/place/detail?uid=0ff18363914d4c6a102935d6&output=html&source=placeapi_v2,,,,,,,,,,,,,,,,,,,,0
df7e7f1b471d526057bfffa5,海门区焊割工具厂,公司企业,厂矿,江苏省,南通市,海门区,南通市海门区农场常青路28号,,1,1,121.258874,31.928369,,enterprise,http://api.map.baidu.com/place/detail?uid=df7e7f1b471d526057bfffa5&output=html&source=placeapi_v2,,,,,,,,,,,,,,,,,,,,1
e65c5867570ec10294ec84d4,天久冷冻厂,公司企业,厂矿,江苏省,南通市,海门区,江苏省南通市海门区常胜路200号,e65c5867570ec10294ec84d4,1,0,121.271491,31.933457,13815238166,enterprise,http://api.map.baidu.com/place/detail?uid=e65c5867570ec10294ec84d4&output=html&source=placeapi_v2,,,,,,,,,,,,,,,,,,121.27166481449,31.934206121461,0
79f773fc7d4cc5ca9e95de5c,浩洋电子厂区,公司企业,厂矿,江苏省,南通市,海门区,江苏省南通市海门区麒麟镇麒振路888号,,1,0,121.327765,31.939966,,enterprise,http://api.map.baidu.com/place/detail?uid=79f773fc7d4cc5ca9e95de5c&output=html&source=placeapi_v2,,,,,,,,,,,,,,,,,,,,0
1959f9aec241398243e19238,海门区明雅居红木工艺品厂,公司企业,厂矿,江苏省,南通市,海门区,麒麟镇广南村11组,,1,0,121.34464,31.926398,,enterprise,http://api.map.baidu.com/place/detail?uid=1959f9aec241398243e19238&output=html&source=placeapi_v2,,,,,,,,,,,,,,,,,,,,0
e4194553a020788833169bec,海门区亚洲鞋件厂,公司企业,厂矿,江苏省,南通市,海门区,南通市海门区保卫北路与通海路交叉路口往东北约260米,,1,0,121.370257,31.940395,(0513)82662466,enterprise,http://api.map.baidu.com/place/detail?uid=e4194553a020788833169bec&output=html&source=placeapi_v2,,,,,,,,,,,,,,,,,,121.3708284067,31.940279297966,0
7c635ba6e8a0ec95e856fa86,海门市浩霞红木制品厂,公司企业,厂矿,江苏省,南通市,海门区,江苏省南通市海门市常乐镇广南村24组11号,,1,0,121.356648,31.933229,,enterprise,http://api.map.baidu.com/place/detail?uid=7c635ba6e8a0ec95e856fa86&output=html&source=placeapi_v2,,,,,,,,,,,,,,,,,,,,0
de54d152b5801c66b54f54fd,海门县造纸毛毯厂,公司企业,厂矿,江苏省,南通市,海门区,江苏省南通市海门区三条桥路153号,,1,0,121.383657,31.939215,,enterprise,http://api.map.baidu.com/place/detail?uid=de54d152b5801c66b54f54fd&output=html&source=placeapi_v2,,,,,,,,,,,,,,,,,,,,0
b89e8552da1471002d4733ba,海门区小峰阁红木工艺品厂,公司企业,厂矿,江苏省,南通市,海门区,南通市海门区六匡镇安庄村6组,,1,0,121.402192,31.937794,,enterprise,http://api.map.baidu.com/place/detail?uid=b89e8552da1471002d4733ba&output=html&source=placeapi_v2,,,,,,,,,,,,,,,,,,,,0
cde9e2c7d03268b4e81e97ce,海门区兴马机械厂,公司企业,厂矿,江苏省,南通市,海门区,江苏省南通市海门区三条桥路2号,,1,0,121.397661,31.936207,(0513)82662488,enterprise,http://api.map.baidu.com/place/detail?uid=cde9e2c7d03268b4e81e97ce&output=html&source=placeapi_v2,,,,,,,,,,,,,,,,,,121.39764494977,31.936025742136,0
722f842f09df38bc4e776eac,南通市崇川城南机械配件厂,公司企业,厂矿,江苏省,南通市,崇川区,静海街9N-11号,,1,0,120.901429,31.957576,13585218113,enterprise,http://api.map.baidu.com/place/detail?uid=722f842f09df38bc4e776eac&output=html&source=placeapi_v2,,,,,,,,,,,,,,,,,,120.90138530806,31.957829995823,0
42929a18919aee7e5810938a,南通市崇川机械制造厂,公司企业,厂矿,江苏省,南通市,崇川区,江苏省南通市崇川区紫琅路69号,42929a18919aee7e5810938a,1,0,120.885449,31.973651,(0513)85050028,enterprise,http://api.map.baidu.com/place/detail?uid=42929a18919aee7e5810938a&output=html&source=placeapi_v2,,,,,,,,,,,,,,,,,,120.88554194678,31.973715623775,0
b74dc48d95549453eedfca20,高易纺织厂,公司企业,厂矿,江苏省,南通市,崇川区,江苏省南通市崇川区源兴路399号,,1,0,120.940155,31.95272,,enterprise,http://api.map.baidu.com/place/detail?uid=b74dc48d95549453eedfca20&output=html&source=placeapi_v2,,,,,,,,,,,,,,,,,,,,0
2637cceb259bd97925e0a0e6,南通中联包装制品有限公司,公司企业,厂矿,江苏省,南通市,崇川区,江苏省南通市崇川区滨水路28号7号楼5层,,1,0,120.938772,31.949442,,enterprise,http://api.map.baidu.com/place/detail?uid=2637cceb259bd97925e0a0e6&output=html&source=placeapi_v2,,08:00-20:59,,,,,,,,,,,,,,,,,,0
dffd4642a9aa98b23c9a5ec0,爱慕希机械(锻造工场),公司企业,厂矿,江苏省,南通市,崇川区,江苏省南通市崇川区新东路19号,dffd4642a9aa98b23c9a5ec0,1,0,120.938952,31.94599,(0513)83599179,enterprise,http://api.map.baidu.com/place/detail?uid=dffd4642a9aa98b23c9a5ec0&output=html&source=placeapi_v2,,,3,,,,,,,,1,,,,,,,120.93861926926,31.945496661065,0
199f6eb6783b41cabf4842ec,南通开发区精业滤清器厂,公司企业,厂矿,江苏省,南通市,崇川区,南通市崇川区希望路江通集团住宅楼南侧约240米,199f6eb6783b41cabf4842ec,1,0,120.981644,31.956161,,enterprise,http://api.map.baidu.com/place/detail?uid=199f6eb6783b41cabf4842ec&output=html&source=placeapi_v2,,,,,,,,,,,,,,,,,,,,0
f97c7864794d916ea104641b,坂顶石材厂,公司企业,厂矿,江苏省,南通市,崇川区,南通市崇川区通启路江通集团住宅楼南侧约90米,,1,0,120.981277,31.957533,13814704849,enterprise,http://api.map.baidu.com/place/detail?uid=f97c7864794d916ea104641b&output=html&source=placeapi_v2,,,,,,,,,,,,,,,,,,,,0
f0421b307ebc5a15c8213d3b,御丰包装永安厂区,公司企业,厂矿,江苏省,南通市,通州区,南通市通州区南通明达色织厂,,1,1,120.987199,31.971033,,enterprise,http://api.map.baidu.com/place/detail?uid=f0421b307ebc5a15c8213d3b&output=html&source=placeapi_v2,,,,,,,,,,,,,,,,,,120.98735382717,31.970980420558,1
c41ae2b4f8d85f71af080f0f,南通明达色织厂,公司企业,厂矿,江苏省,南通市,通州区,南通市通州区永安村30组,,1,0,120.986401,31.971647,,enterprise,http://api.map.baidu.com/place/detail?uid=c41ae2b4f8d85f71af080f0f&output=html&source=placeapi_v2,,,,,,,,,,,,,,,,,,120.98700199774,31.972065407708,0
68e0e5da3227d7a1095cb371,宏通磨毛厂,公司企业,厂矿,江苏省,南通市,崇川区,南通市崇川区东方大道与源兴路交叉路口往东约230米,,1,0,120.988161,31.953172,,enterprise,http://api.map.baidu.com/place/detail?uid=68e0e5da3227d7a1095cb371&output=html&source=placeapi_v2,,,0.0,,,,,,,,,,,,,,,120.98827244158,31.953169218381,0
ae3c0186dc106dc3354aaecc,南通川跃织布厂,公司企业,厂矿,江苏省,南通市,通州区,海学路东50米,,1,1,120.974249,31.975041,,enterprise,http://api.map.baidu.com/place/detail?uid=ae3c0186dc106dc3354aaecc&output=html&source=placeapi_v2,,,,,,,,,,,,,,,,,,,,1
1c6304a98934bdfe5abbbc21,紫罗兰北厂,公司企业,厂矿,江苏省,南通市,通州区,江苏省南通市通州区张川路11号,1c6304a98934bdfe5abbbc21,1,0,121.022387,31.970363,(0513)85356601,enterprise,http://api.map.baidu.com/place/detail?uid=1c6304a98934bdfe5abbbc21&output=html&source=placeapi_v2,,,,,,,,,,,1,,,,,,,121.02270064433,31.970541158212,0
314216564e7bcb1f94ec842f,通州区张芝山高忠织布厂,公司企业,厂矿,江苏省,南通市,通州区,南通市通州区塘坊村二十九组(原薛沙村一组),,1,0,121.028872,31.959054,,enterprise,http://api.map.baidu.com/place/detail?uid=314216564e7bcb1f94ec842f&output=html&source=placeapi_v2,,,,,,,,,,,,,,,,,,,,0
5faa682774425190e3110389,南通市威力斯金属制品厂,公司企业,厂矿,江苏省,南通市,通州区,江苏省南通市通州区张芝山镇园区路通协码头东100米,5faa682774425190e3110389,1,1,121.025273,31.951814,,enterprise,http://api.map.baidu.com/place/detail?uid=5faa682774425190e3110389&output=html&source=placeapi_v2,,,,,,,,,,,,,,,,,,121.02579082966,31.952505400412,1
a6a6ba7f725c428c1811d574,南通金之鼎毛巾,公司企业,厂矿,江苏省,南通市,通州区,江苏省南通市通州区川姜镇石江公路路口,a6a6ba7f725c428c1811d574,1,0,121.021716,31.971163,,enterprise,http://api.map.baidu.com/place/detail?uid=a6a6ba7f725c428c1811d574&output=html&source=placeapi_v2,,,5.0,,,,,,,,1,,,,,,,,,0
b01fd82c172c7a1b2cb908b8,惠兵织布厂,公司企业,厂矿,江苏省,南通市,通州区,江苏省南通市通州区S223张芝山镇政府,b01fd82c172c7a1b2cb908b8,1,1,121.021058,31.949976,,enterprise,http://api.map.baidu.com/place/detail?uid=b01fd82c172c7a1b2cb908b8&output=html&source=placeapi_v2,,,,,,,,,,,,,,,,,,121.02102063696,31.950026583726,1
c3ff5db1814b3f172fe67b15,通州市张芝山镇为民铸件厂,公司企业,厂矿,江苏省,南通市,通州区,南通市通州区兴张路南通市张芝山镇政府东侧约90米,c3ff5db1814b3f172fe67b15,1,1,121.020969,31.945042,,enterprise,http://api.map.baidu.com/place/detail?uid=c3ff5db1814b3f172fe67b15&output=html&source=placeapi_v2,,,,,,,,,,,,,,,,,,121.02097591212,31.944891637018,1
6ca3c78a65b741dae4e965ad,南通德尔馨织布厂,公司企业,厂矿,江苏省,南通市,通州区,江苏省南通市通州区兴张路北50米,,1,0,121.026894,31.944833,,enterprise,http://api.map.baidu.com/place/detail?uid=6ca3c78a65b741dae4e965ad&output=html&source=placeapi_v2,,,,,,,,,,,,,,,,,,,,0
2d75b212d5dfc1bb9d82ea06,通州市宏盛夹芯彩钢厂,公司企业,厂矿,江苏省,南通市,通州区,南通市通州区姜竹线南通市张芝山镇政府西侧约90米,2d75b212d5dfc1bb9d82ea06,1,1,121.017783,31.945781,,enterprise,http://api.map.baidu.com/place/detail?uid=2d75b212d5dfc1bb9d82ea06&output=html&source=placeapi_v2,,,,,,,,,,,,,,,,,,,,1
1dfeed29c5684dd0a8f72987,通州区日秀纺织厂,公司企业,厂矿,江苏省,南通市,通州区,南通市通州区G345与油厂路交叉路口往东约160米,,1,0,121.033576,31.949023,,enterprise,http://api.map.baidu.com/place/detail?uid=1dfeed29c5684dd0a8f72987&output=html&source=placeapi_v2,,,,,,,,,,,,,,,,,,,,0
d0db17d08c72b9758d772796,多多缘枕业工厂,公司企业,厂矿,江苏省,南通市,通州区,江苏省南通市通州区f区2楼,,1,0,121.058238,31.963419,,enterprise,http://api.map.baidu.com/place/detail?uid=d0db17d08c72b9758d772796&output=html&source=placeapi_v2,,,,,,,,,,,,,,,,,,,,0
4fb2fa189d2105c582288ac7,华垠杰实业有限公司工厂,公司企业,厂矿,江苏省,南通市,通州区,南通市通州区磨框8组路颐荷家纺北侧约70米,,1,0,121.067106,31.973556,,enterprise,http://api.map.baidu.com/place/detail?uid=4fb2fa189d2105c582288ac7&output=html&source=placeapi_v2,,,0.0,,,,,,,,1,,,,,,,,,0
b1e75c9c818010c41811d57d,通州区川姜镇余朵纺织品厂,公司企业,厂矿,江苏省,南通市,通州区,南通市通州区华欣路南通家纺城汽车客运站西侧约140米,,1,0,121.068047,31.969018,,enterprise,http://api.map.baidu.com/place/detail?uid=b1e75c9c818010c41811d57d&output=html&source=placeapi_v2,,,,,,,,,,,,,,,,,,121.06816611251,31.968822963488,0
9ee7cc788fed3a7317c905af,南通市通州区川港砖瓦厂,公司企业,厂矿,江苏省,南通市,通州区,南通市通州区川姜镇双桥村1组,,1,1,121.063485,31.954076,,enterprise,http://api.map.baidu.com/place/detail?uid=9ee7cc788fed3a7317c905af&output=html&source=placeapi_v2,,,,,,,,,,,,,,,,,,,,1
b6cfa106a2a9fd96b5147fd1,品尚工厂,公司企业,厂矿,江苏省,南通市,通州区,南通市通州区金三路南通农村商业银行西南侧约160米,,1,0,121.077489,31.969269,,enterprise,http://api.map.baidu.com/place/detail?uid=b6cfa106a2a9fd96b5147fd1&output=html&source=placeapi_v2,,,,,,,,,,,,,,,,,,,,0
f6fc04bec52c0d35095cb394,兴昌机械厂,公司企业,厂矿,江苏省,南通市,通州区,江苏省南通市通州区川港老街215号,f6fc04bec52c0d35095cb394,1,0,121.07442,31.970717,"13951321938,15162829869",enterprise,http://api.map.baidu.com/place/detail?uid=f6fc04bec52c0d35095cb394&output=html&source=placeapi_v2,,,0,,,,,,,,2,,,,,,,121.07439441283,31.970828489315,0
d1f546c721271b42d8d89199,运达编织袋,公司企业,厂矿,江苏省,南通市,海门区,江苏省南通市海门区金茂路76号,d1f546c721271b42d8d89199,1,0,121.077111,31.971533,13222172638,enterprise,http://api.map.baidu.com/place/detail?uid=d1f546c721271b42d8d89199&output=html&source=placeapi_v2,,,,,,,,,,,,,,,,,,121.07698085987,31.971526558988,0
56c7bf2e7ea87fc1d2f49e4d,姜灶毛巾厂,公司企业,厂矿,江苏省,南通市,通州区,江苏省南通市通州区川姜镇姜灶工业园区,56c7bf2e7ea87fc1d2f49e4d,1,0,121.061351,31.979311,,enterprise,http://api.map.baidu.com/place/detail?uid=56c7bf2e7ea87fc1d2f49e4d&output=html&source=placeapi_v2,,,,,,,,,,,,,,,,,,,,0
b060c2adb61d5c70f4e73b7a,通州区舒怡纺织品厂,公司企业,厂矿,江苏省,南通市,通州区,江苏省南通市通州区双桥村一组2号,,1,0,121.060788,31.952276,(0513)81227727,enterprise,http://api.map.baidu.com/place/detail?uid=b060c2adb61d5c70f4e73b7a&output=html&source=placeapi_v2,,,,,,,,,,,,,,,,,,,,0
760fd156f438b7223904b183,小杨码布打卷厂,公司企业,厂矿,江苏省,南通市,通州区,江苏省南通市通州区川姜镇志浩村十二组启程床垫西路口往南,760fd156f438b7223904b183,1,0,121.080008,31.958223,15262856886,enterprise,http://api.map.baidu.com/place/detail?uid=760fd156f438b7223904b183&output=html&source=placeapi_v2,,,0.0,,,,,,,,1,,,,,,,,,0
6c325c7c1ecb211010293536,崇川区元宝家用纺织品厂,公司企业,厂矿,江苏省,南通市,通州区,南通市通州区志南村22组,,1,0,121.084368,31.952499,15962832744,enterprise,http://api.map.baidu.com/place/detail?uid=6c325c7c1ecb211010293536&output=html&source=placeapi_v2,,,,,,,,,,,,,,,,,,,,0
31ca6ded3a31e9b5b52655fb,崇川区逸群家用纺织品厂,公司企业,厂矿,江苏省,南通市,海门区,南通市海门区国际家纺城布艺广场二楼2048号,,1,0,121.085079,31.972265,,enterprise,http://api.map.baidu.com/place/detail?uid=31ca6ded3a31e9b5b52655fb&output=html&source=placeapi_v2,,,,,,,,,,,,,,,,,,,,0
60c936f7f851ef7d276e984e,双子编织袋,公司企业,厂矿,江苏省,南通市,海门区,南通市海门区叠林路中国叠石桥国际家纺城北一门西北侧约70米,,1,0,121.079409,31.974874,18962867587,enterprise,http://api.map.baidu.com/place/detail?uid=60c936f7f851ef7d276e984e&output=html&source=placeapi_v2,,,,,,,,,,,,,,,,,,,,0
b4be9dcf849ce042f03cbab7,东北人特种工艺加工,公司企业,厂矿,江苏省,南通市,海门区,南通市海门区秀竹路猫王文化创意基地东侧约130米,b4be9dcf849ce042f03cbab7,1,0,121.106619,31.965905,15152899699,life,http://api.map.baidu.com/place/detail?uid=b4be9dcf849ce042f03cbab7&output=html&source=placeapi_v2,,,,,,,,,,7,,,,,,,,,,0
ac007b039ac813f8c9c3db07,新兴卷闸门厂,公司企业,厂矿,江苏省,南通市,海门市,江苏省南通市海门市叠三路好又多购物中心,ac007b039ac813f8c9c3db07,1,0,121.113179,31.970798,13815239955,enterprise,http://api.map.baidu.com/place/detail?uid=ac007b039ac813f8c9c3db07&output=html&source=placeapi_v2,,,5,,,,,,,,1,,,,,,,,,0
44194543fc79624ce7e96559,硕彤羽丝棉厂,公司企业,厂矿,江苏省,南通市,海门区,南通市海门区叠三路金色阳光花苑东北侧约240米,,1,0,121.112124,31.970841,13160377106,enterprise,http://api.map.baidu.com/place/detail?uid=44194543fc79624ce7e96559&output=html&source=placeapi_v2,,,,,,,,,,,,,,,,,,121.11211381744,31.970703464586,0
af4b84cfbc32732ddbeced4c,卫丰特种开边,公司企业,厂矿,江苏省,南通市,海门区,江苏省南通市海门区海门工业园区三星镇叠石桥汽车站向东150米路北,af4b84cfbc32732ddbeced4c,1,0,121.100162,31.9719,"15906279678,18362168000",life,http://api.map.baidu.com/place/detail?uid=af4b84cfbc32732ddbeced4c&output=html&source=placeapi_v2,,,,,,,,,,21,,,,,,,,,,0
4ade46a9418536e4220220b7,百合压花厂,公司企业,厂矿,江苏省,南通市,海门区,江苏省南通市海门区星光路5号楼,4ade46a9418536e4220220b7,1,0,121.102949,31.970127,"(0513)82353352,13073250812,15335087378",enterprise,http://api.map.baidu.com/place/detail?uid=4ade46a9418536e4220220b7&output=html&source=placeapi_v2,,,,,,,,,,,,,,,,,,121.10295050566,31.96995247115,0
3c51e615b746d5d08e77273b,海门市天盛化纤厂,公司企业,厂矿,江苏省,南通市,海门区,南通市海门区联东路与洋海线交叉路口往东南约290米,3c51e615b746d5d08e77273b,1,1,121.126788,31.953515,,enterprise,http://api.map.baidu.com/place/detail?uid=3c51e615b746d5d08e77273b&output=html&source=placeapi_v2,,,,,,,,,,,,,,,,,,121.12650978486,31.952900302581,1
d5f20879d6fe2530fbf0cbb5,海门市焊接钢管厂,公司企业,厂矿,江苏省,南通市,海门区,江苏省南通市海门区兰贵人小区(金三角购物中心东南),d5f20879d6fe2530fbf0cbb5,1,0,121.125079,31.968647,,enterprise,http://api.map.baidu.com/place/detail?uid=d5f20879d6fe2530fbf0cbb5&output=html&source=placeapi_v2,,,,,,,,,,,,,,,,,,121.12466163266,31.968676353297,0
8560040d0cdfb45c1d580072,海门市腾飞纯净水厂,公司企业,厂矿,江苏省,南通市,海门区,五星路南通市海门区三星小学东北侧约210米,8560040d0cdfb45c1d580072,1,0,121.122293,31.968811,,enterprise,http://api.map.baidu.com/place/detail?uid=8560040d0cdfb45c1d580072&output=html&source=placeapi_v2,,,,,,,,,,,,,,,,,,,,0
38529178c56c169c601809c9,南通海门区江南复合厂(原汇南综合厂),公司企业,厂矿,江苏省,南通市,海门区,江苏省南通市海门区星海路1560号,,1,0,121.125386,31.965985,,enterprise,http://api.map.baidu.com/place/detail?uid=38529178c56c169c601809c9&output=html&source=placeapi_v2,,,,,,,,,,,,,,,,,,,,0
5fcb07a884c7d01c7adbd21f,海门区天三油米厂,公司企业,厂矿,江苏省,南通市,海门区,江苏省南通市海门区海门工业园区,5fcb07a884c7d01c7adbd21f,1,0,121.124353,31.951838,,enterprise,http://api.map.baidu.com/place/detail?uid=5fcb07a884c7d01c7adbd21f&output=html&source=placeapi_v2,,,,,,,,,,,,,,,,,,,,0
d24e48eb498e8cb4afee7ace,海门市新星绗缝机械,公司企业,厂矿,江苏省,南通市,海门区,江苏省南通市海门区星海路829号,,1,1,121.129263,31.965334,(0513)82358268,enterprise,http://api.map.baidu.com/place/detail?uid=d24e48eb498e8cb4afee7ace&output=html&source=placeapi_v2,,,,,,,,,,,,,,,,,,121.12932905382,31.965905402051,1
9af266dabd5e6941bb17e78f,海门区神威液压件厂,公司企业,厂矿,江苏省,南通市,海门区,江苏省南通市海门区舒馨托老院旁边,,1,0,121.160653,31.954183,,enterprise,http://api.map.baidu.com/place/detail?uid=9af266dabd5e6941bb17e78f&output=html&source=placeapi_v2,,,0.0,,,,,,,,,,,,,,,,,0
090409eeecf2d6e1616858f6,海门区好运来米白酒厂,公司企业,厂矿,江苏省,南通市,海门区,合理路北100米,,1,0,121.146595,31.951226,(0513)82247993,enterprise,http://api.map.baidu.com/place/detail?uid=090409eeecf2d6e1616858f6&output=html&source=placeapi_v2,,,,,,,,,,,,,,,,,,,,0
ad22670f31155064724b87f6,小张针刺絮片棉厂,公司企业,厂矿,江苏省,南通市,海门区,江苏省南通市海门区德三路与益南路交叉路口往东南约60米,,1,0,121.142986,31.966379,13791356683,enterprise,http://api.map.baidu.com/place/detail?uid=ad22670f31155064724b87f6&output=html&source=placeapi_v2,,,,,,,,,,,,,,,,,,121.14295855195,31.966663311886,0
0e1cf512313f16aac92915b8,海门区德胜喷胶棉厂,公司企业,厂矿,江苏省,南通市,海门区,南通市海门区江海北路与振邦路交叉路口往西北约190米,,1,1,121.170086,31.972802,,enterprise,http://api.map.baidu.com/place/detail?uid=0e1cf512313f16aac92915b8&output=html&source=placeapi_v2,,,,,,,,,,,,,,,,,,121.17099993458,31.972469336868,1
83e653839dda78b70f0a70cb,德胜华鼎复合厂,公司企业,厂矿,江苏省,南通市,海门区,南通市海门区德三路与江海北路交叉路口往东北约100米,83e653839dda78b70f0a70cb,1,0,121.17246,31.96876,(0513)82288444,enterprise,http://api.map.baidu.com/place/detail?uid=83e653839dda78b70f0a70cb&output=html&source=placeapi_v2,,,,,,,,,,,,,,,,,,121.17225984309,31.968084381782,0
dc66783eab8ec86ff90cad49,海门通宇链条有限公司工厂,公司企业,厂矿,江苏省,南通市,海门区,江苏省南通市海门区昌盛路28号,,1,0,121.170975,31.964549,13806280655,enterprise,http://api.map.baidu.com/place/detail?uid=dc66783eab8ec86ff90cad49&output=html&source=placeapi_v2,,,0.0,,,,,,,,1,,,,,,,121.17095824422,31.964340414098,0
ecd3aa5a9b7cf3ee4354d791,好当家鹅绒工厂,公司企业,厂矿,江苏省,南通市,海门区,江苏省南通市海门区汇南28组,,1,0,121.139651,31.971384,18018418111,enterprise,http://api.map.baidu.com/place/detail?uid=ecd3aa5a9b7cf3ee4354d791&output=html&source=placeapi_v2,,,,,,,,,,,,,,,,,,,,0
eb5803c12edbc4c0cd04ef76,暖心床垫厂,公司企业,厂矿,江苏省,南通市,海门区,南通市海门区汇南村28组,,1,0,121.140876,31.971216,,enterprise,http://api.map.baidu.com/place/detail?uid=eb5803c12edbc4c0cd04ef76&output=html&source=placeapi_v2,,,,,,,,,,,,,,,,,,,,0
bfe6b025634df43e9fec2bc1,海门市凌云液压机械厂,公司企业,厂矿,江苏省,南通市,海门区,江苏省南通市海门区江海北路644号,,1,0,121.172029,31.95879,(0513)82281586,enterprise,http://api.map.baidu.com/place/detail?uid=bfe6b025634df43e9fec2bc1&output=html&source=placeapi_v2,,,,,,,,,,,,,,,,,,,,0
bd4760b1fa60727f4e776e72,海门区德胜新新联合螺丝厂,公司企业,厂矿,江苏省,南通市,海门区,南通市海门区工业园区管理委员会德胜镇坝头街14号,,1,0,121.173138,31.961607,13358098856,enterprise,http://api.map.baidu.com/place/detail?uid=bd4760b1fa60727f4e776e72&output=html&source=placeapi_v2,0.0,,,,,,,,,,,,,,,,,,,0
469bf3147490ddda0a5cb368,梦幻毛巾绣加工厂,公司企业,厂矿,江苏省,南通市,海门区,江苏省南通市海门区昌盛路28号,,1,0,121.170993,31.964116,,enterprise,http://api.map.baidu.com/place/detail?uid=469bf3147490ddda0a5cb368&output=html&source=placeapi_v2,,,0.0,,,,,,,,1,,,,,,,121.17116652893,31.964119102247,0
fd1d0af4a70e7b557c29bd8e,欣诚布料海绵复合厂,公司企业,厂矿,江苏省,南通市,海门区,江苏省南通市海门区江海北路644号,,1,1,121.1724,31.958983,,enterprise,http://api.map.baidu.com/place/detail?uid=fd1d0af4a70e7b557c29bd8e&output=html&source=placeapi_v2,,,,,,,,,,,,,,,,,,121.17194513613,31.958801210354,1
ba8e838b1f031f0ca21de935,海门市茂林制衣厂,公司企业,厂矿,江苏省,南通市,海门区,江苏省南通市海门区瑞江路33号,,1,1,121.202045,31.964631,13962896821,enterprise,http://api.map.baidu.com/place/detail?uid=ba8e838b1f031f0ca21de935&output=html&source=placeapi_v2,,,5.0,,,,,,,,1,,,,,,,121.20156658066,31.964966469214,1
e11fd1f3a73c1fffbe484203,海门市宏盛制衣厂,公司企业,厂矿,江苏省,南通市,海门区,江苏省南通市海门区瑞祥路27号,,1,1,121.204664,31.966904,(0513)82270990,enterprise,http://api.map.baidu.com/place/detail?uid=e11fd1f3a73c1fffbe484203&output=html&source=placeapi_v2,,,,,,,,,,,,,,,,,,121.204471159,31.96676606669,1
3d4c0d41cdf2f9e595f08c32,海门区炜大针织服装厂,公司企业,厂矿,江苏省,南通市,海门区,江苏省南通市海门区瑞江路12号,,1,0,121.202126,31.955982,,enterprise,http://api.map.baidu.com/place/detail?uid=3d4c0d41cdf2f9e595f08c32&output=html&source=placeapi_v2,,,,,,,,,,,,,,,,,,,,0
b63584c58cf914f58a36eec3,海门区上真真空泵厂,公司企业,厂矿,江苏省,南通市,海门区,江苏省南通市海门区瑞江路15号,,1,0,121.202326,31.957871,(0513)82271153,enterprise,http://api.map.baidu.com/place/detail?uid=b63584c58cf914f58a36eec3&output=html&source=placeapi_v2,,,,,,,,,,,,,,,,,,121.20186912996,31.957848365207,0
85b6ca62342780a62bd7ab5e,鑫盛电动卷闸门厂,公司企业,厂矿,江苏省,南通市,海门区,南通市海门区瑞南路海门市瑞祥中心幼儿园(瑞南路)北侧约100米,,1,0,121.20116,31.96565,"18862818838,18862838868",enterprise,http://api.map.baidu.com/place/detail?uid=85b6ca62342780a62bd7ab5e&output=html&source=placeapi_v2,,,,,,,,,,,,,,,,,,,,0
5db9714a606b92804d55477d,恒源祥集团彩羊Fazeya毛裤总厂,公司企业,厂矿,江苏省,南通市,海门区,江苏省南通市海门区镇南路12号,,1,0,121.204047,31.966406,,enterprise,http://api.map.baidu.com/place/detail?uid=5db9714a606b92804d55477d&output=html&source=placeapi_v2,,,,,,,,,,,,,,,,,,121.2039457428,31.966243949922,0
4e1f435b5bc1664279dbd2fd,油神液压(海门)工厂,公司企业,厂矿,江苏省,南通市,海门区,江苏省南通市海门区瑞江路10号,,1,0,121.202306,31.954968,18906280388,enterprise,http://api.map.baidu.com/place/detail?uid=4e1f435b5bc1664279dbd2fd&output=html&source=placeapi_v2,,,,,,,,,,,,,,,,,,121.20214498071,31.954956257761,0
7a33539fc217db69d1f49ee3,海门区瑞祥压缩机配件厂,公司企业,厂矿,江苏省,南通市,海门区,南通市海门区北海线与三万线交叉路口往南约170米,,1,0,121.201709,31.973847,,enterprise,http://api.map.baidu.com/place/detail?uid=7a33539fc217db69d1f49ee3&output=html&source=placeapi_v2,,,,,,,,,,,,,,,,,,,,0
d5ad404629f0baabfbdc852e,海门区求精泵业制造厂,公司企业,厂矿,江苏省,南通市,海门区,江苏省南通市海门区连元路,,1,0,121.198241,31.947415,13906281301,enterprise,http://api.map.baidu.com/place/detail?uid=d5ad404629f0baabfbdc852e&output=html&source=placeapi_v2,,,0.0,,,,,,,,1,,,,,,,,,0
854ae2b79ebbc468c9fa5f94,南通永旺胶带厂,公司企业,厂矿,江苏省,南通市,海门区,南通市海门区复兴南路与新乔中路交叉路口往北约110米,,1,0,121.180477,31.969458,,enterprise,http://api.map.baidu.com/place/detail?uid=854ae2b79ebbc468c9fa5f94&output=html&source=placeapi_v2,,,,,,,,,,,,,,,,,,,,0
e27c19b2ed758390e115f927,海门区德胜镇海婷砌块砖厂,公司企业,厂矿,江苏省,南通市,海门区,江苏省南通市海门区高新区瑞祥镇文俊村,,1,0,121.206284,31.950047,13912891777,enterprise,http://api.map.baidu.com/place/detail?uid=e27c19b2ed758390e115f927&output=html&source=placeapi_v2,,,0.0,,,,,,,,1,,,,,,,121.20627558618,31.949994989898,0
638bb459c1851918e856fae7,海门区常乐镇天峰玻璃制品厂,公司企业,厂矿,江苏省,南通市,海门区,江苏省南通市海门区S222,,1,0,121.255793,31.95573,(0513)82715760,enterprise,http://api.map.baidu.com/place/detail?uid=638bb459c1851918e856fae7&output=html&source=placeapi_v2,,,0.0,,,,,,,,,,,,,,,,,0
2fcb02f8e83f2d7196f08c69,海门恒大热处理厂,公司企业,厂矿,江苏省,南通市,海门区,金发路与222省道交叉口东北100米,,1,0,121.259199,31.964284,,enterprise,http://api.map.baidu.com/place/detail?uid=2fcb02f8e83f2d7196f08c69&output=html&source=placeapi_v2,,,,,,,,,,,,,,,,,,121.25860584546,31.964292071708,0
aa40108b6ed95616c4effbaf,常乐砖瓦厂,公司企业,厂矿,江苏省,南通市,海门区,通启运河西90米(秦李路北),,1,0,121.287721,31.948221,,enterprise,http://api.map.baidu.com/place/detail?uid=aa40108b6ed95616c4effbaf&output=html&source=placeapi_v2,,,,,,,,,,,,,,,,,,,,0
6f3ec7c1eb01be9daaf0cd53,海门区常乐匡北塑料厂,公司企业,厂矿,江苏省,南通市,海门区,江苏省南通市海门区常乐镇匡北村11组8号,,1,0,121.300132,31.958503,,enterprise,http://api.map.baidu.com/place/detail?uid=6f3ec7c1eb01be9daaf0cd53&output=html&source=placeapi_v2,,,5.0,,,,,,,,1,,,,,,,121.30025159792,31.958505318271,0
0fed64f0852dccd095f08ca0,海门区丽华织带厂,公司企业,厂矿,江苏省,南通市,海门区,江苏省南通市海门区中南CBD20栋705室,,1,0,121.285598,31.975455,"(0513)81189477,(0513)82682077",enterprise,http://api.map.baidu.com/place/detail?uid=0fed64f0852dccd095f08ca0&output=html&source=placeapi_v2,,,,,,,,,,,,,,,,,,121.28559753924,31.975613504158,0
250398e0f8eae0e24d776ed9,海门区春华五金制品厂,公司企业,厂矿,江苏省,南通市,海门区,南通市海门区王川线与振复北路交叉路口南侧,,1,0,121.270256,31.975978,,enterprise,http://api.map.baidu.com/place/detail?uid=250398e0f8eae0e24d776ed9&output=html&source=placeapi_v2,,,,,,,,,,,,,,,,,,,,0
29179aaaa9daa91c9ff77917,琦虎红木工艺品厂,公司企业,厂矿,江苏省,南通市,海门区,江苏省南通市海门区长德村五组24号,,1,0,121.322969,31.955728,,enterprise,http://api.map.baidu.com/place/detail?uid=29179aaaa9daa91c9ff77917&output=html&source=placeapi_v2,,,0.0,,,,,,,,1,,,,,,,,,0
4089172c7ee8b17a0a5cb37b,海门区麒威力橡塑制品厂,公司企业,厂矿,江苏省,南通市,海门区,江苏省南通市海门区长匡路与紫浪路交叉路口往南约140米,4089172c7ee8b17a0a5cb37b,1,0,121.314925,31.951356,(0513)82708028,enterprise,http://api.map.baidu.com/place/detail?uid=4089172c7ee8b17a0a5cb37b&output=html&source=placeapi_v2,,,,,,,,,,,,,,,,,,,,0
677670ab83394bdca11de9b4,东方雁食品有限公司屠宰厂,公司企业,厂矿,江苏省,南通市,海门区,凤凰村凤星东路北350米,,1,0,121.382461,31.972196,,enterprise,http://api.map.baidu.com/place/detail?uid=677670ab83394bdca11de9b4&output=html&source=placeapi_v2,,,,,,,,,,,,,,,,,,,,0
196a1a94117c7d490c0e6ba7,海门区万年秀玉五金针配厂,公司企业,厂矿,江苏省,南通市,海门区,江苏省南通市海门区万年镇万盛村,,1,0,121.40545,31.976031,,enterprise,http://api.map.baidu.com/place/detail?uid=196a1a94117c7d490c0e6ba7&output=html&source=placeapi_v2,,,,,,,,,,,,,,,,,,,,0
6c832341e6cedc14d23ce35f,海门区久发电线电缆厂,公司企业,厂矿,江苏省,南通市,海门区,南通市海门区向民路,,1,0,121.394864,31.964975,,enterprise,http://api.map.baidu.com/place/detail?uid=6c832341e6cedc14d23ce35f&output=html&source=placeapi_v2,,,,,,,,,,,,,,,,,,121.39506780828,31.964939296381,0
8a7d8e246b8443d19e95deb8,苏源印刷厂,公司企业,厂矿,江苏省,南通市,崇川区,江苏省南通市崇川区G204(外环西路),8a7d8e246b8443d19e95deb8,1,0,120.844194,32.012411,,enterprise,http://api.map.baidu.com/place/detail?uid=8a7d8e246b8443d19e95deb8&output=html&source=placeapi_v2,,,,,,,,,,,,,,,,,,,,0
5c46c38bed655adda4c756e4,中空玻璃厂,公司企业,厂矿,江苏省,南通市,崇川区,江苏省南通市崇川区兴盛路虹桥新村207栋106室,5c46c38bed655adda4c756e4,1,0,120.847155,32.012538,,enterprise,http://api.map.baidu.com/place/detail?uid=5c46c38bed655adda4c756e4&output=html&source=placeapi_v2,,,,,,,,,,,,,,,,,,,,0
5f3bcf0b48ed2f30c61e51a6,华原绣花厂,公司企业,厂矿,江苏省,南通市,崇川区,江苏省南通市崇川区段家坝路135号,,1,0,120.879716,32.002505,,enterprise,http://api.map.baidu.com/place/detail?uid=5f3bcf0b48ed2f30c61e51a6&output=html&source=placeapi_v2,,,,,,,,,,,,,,,,,,,,0
38027a819b4d3838725e8011,大咖Livehouse工厂,公司企业,厂矿,江苏省,南通市,崇川区,江苏省南通市崇川区青年东路79号大学生公寓2楼,38027a819b4d3838725e8011,1,0,120.90189,32.01146,15651302268,enterprise,http://api.map.baidu.com/place/detail?uid=38027a819b4d3838725e8011&output=html&source=placeapi_v2,,,5.0,,,,,,,,5,,,,,,,,,0
ae6695ddfb8ce4a9b23c817f,石港佳润染布,公司企业,厂矿,江苏省,南通市,崇川区,南通市崇川区八一路八一花园南侧约230米,,1,0,120.943029,32.011271,"13382385886,13515229551",enterprise,http://api.map.baidu.com/place/detail?uid=ae6695ddfb8ce4a9b23c817f&output=html&source=placeapi_v2,,,,,,,,,,,,,,,,,,,,0
1150876499650f132fe67b35,南通鑫辉拉链有限公司,公司企业,厂矿,江苏省,南通市,通州区,江苏省南通市通州区周三北路富峰大厦,1150876499650f132fe67b35,1,1,120.985182,31.999731,(0513)86555257,enterprise,http://api.map.baidu.com/place/detail?uid=1150876499650f132fe67b35&output=html&source=placeapi_v2,,,,,,,,,,,,,,,,,,120.98504369172,31.999805215914,1
3b7ba7a1843a359e3010af8b,小玉陶瓷加工厂,公司企业,厂矿,江苏省,南通市,通州区,富锋路富峰大厦东南侧约90米,,1,0,120.988421,31.999864,15962906458,enterprise,http://api.map.baidu.com/place/detail?uid=3b7ba7a1843a359e3010af8b&output=html&source=placeapi_v2,,,0,,,,,,,,1,,,,,,,120.98856993431,31.999676202613,0
e591533fe0129855873304f8,金川木门厂,公司企业,厂矿,江苏省,南通市,通州区,南通市通州区先锋镇花园村八组,,1,1,120.964017,31.996836,(0513)85273669,enterprise,http://api.map.baidu.com/place/detail?uid=e591533fe0129855873304f8&output=html&source=placeapi_v2,,,,,,,,,,,,,,,,,,120.96411317334,31.996972667715,1
5ddfd93a5eeead33774ff194,棉锦纺织厂,公司企业,厂矿,江苏省,南通市,通州区,南通市通州区先锋镇富锋路富锋大厦西6号三杰拖浆厂内,,1,0,120.987239,32.001009,,enterprise,http://api.map.baidu.com/place/detail?uid=5ddfd93a5eeead33774ff194&output=html&source=placeapi_v2,,,,,,,,,,,,,,,,,,120.98752739327,32.001103500085,0
f2562cac5fb800e79e82ea6a,南通创亿灯箱厂,公司企业,厂矿,江苏省,南通市,通州区,南通市通州区花园路花园新村东南侧约50米,,1,0,120.969772,31.993964,13962738639,enterprise,http://api.map.baidu.com/place/detail?uid=f2562cac5fb800e79e82ea6a&output=html&source=placeapi_v2,,,,,,,,,,,,,,,,,,120.96997563817,31.994011138822,0
6e22c406616e8ff4b23c8125,兴明拉头厂,公司企业,厂矿,江苏省,南通市,通州区,南通市通州区海锋路先锋初级中学西北侧约40米,,1,0,121.000283,31.998576,13901512643,enterprise,http://api.map.baidu.com/place/detail?uid=6e22c406616e8ff4b23c8125&output=html&source=placeapi_v2,,,,,,,,,,,,,,,,,,121.00042087287,31.998625423932,0
85a71d11f42ff57bc03644c9,南通亿佳门厂,公司企业,厂矿,江苏省,南通市,通州区,南通市通州区海锋路先锋初级中学西北侧约280米,85a71d11f42ff57bc03644c9,1,0,120.998997,32.000496,,enterprise,http://api.map.baidu.com/place/detail?uid=85a71d11f42ff57bc03644c9&output=html&source=placeapi_v2,,,,,,,,,,,,,,,,,,,,0
b6b65c19c29b3547b320a8bd,卓盛绣花厂,公司企业,厂矿,江苏省,南通市,通州区,江苏省南通市通州区青年东路596号,,1,0,120.987209,32.006863,,enterprise,http://api.map.baidu.com/place/detail?uid=b6b65c19c29b3547b320a8bd&output=html&source=placeapi_v2,,,,,,,,,,,,,,,,,,,,0
7051158559758118a5da39c9,常州联庆织布厂(南通分厂),公司企业,厂矿,江苏省,南通市,通州区,南通市通州区花园村三组(盛凯纺织厂),,1,0,120.970159,31.993221,,enterprise,http://api.map.baidu.com/place/detail?uid=7051158559758118a5da39c9&output=html&source=placeapi_v2,,,,,,,,,,,,,,,,,,,,0
aa9ed0118ab0cea161685833,新一代刀模,公司企业,厂矿,江苏省,南通市,通州区,南通市通州区先锋驾校高架桥南,aa9ed0118ab0cea161685833,1,0,120.999937,31.999914,"(0513)86677033,15962863606,15962863616",enterprise,http://api.map.baidu.com/place/detail?uid=aa9ed0118ab0cea161685833&output=html&source=placeapi_v2,,,,,,,,,,,,,,,,,,120.99983940869,31.999840074845,0
4cab9fc6e1be55407ec876bc,全佳印花厂,公司企业,厂矿,江苏省,南通市,通州区,江苏省南通市通州区十六墩振先大楼4楼,,1,0,121.00239,31.994209,,enterprise,http://api.map.baidu.com/place/detail?uid=4cab9fc6e1be55407ec876bc&output=html&source=placeapi_v2,,,,,,,,,,,,,,,,,,121.00268310528,31.994375734551,0
cfd2f09e2bd690da4107c13a,通州区先锋街道赛通纺织品厂,公司企业,厂矿,江苏省,南通市,通州区,南通市通州区周圩村三十四组30号福明超市往南,,1,0,120.971237,31.983931,,enterprise,http://api.map.baidu.com/place/detail?uid=cfd2f09e2bd690da4107c13a&output=html&source=placeapi_v2,,,,,,,,,,,,,,,,,,,,0
0adce3e29234e86180a00c3b,南通先锋汉明色织厂,公司企业,厂矿,江苏省,南通市,通州区,江苏省南通市通州区先锋汉明色织厂(东通线南),0adce3e29234e86180a00c3b,1,0,120.971779,32.012028,,enterprise,http://api.map.baidu.com/place/detail?uid=0adce3e29234e86180a00c3b&output=html&source=placeapi_v2,,,,,,,,,,,,,,,,,,120.97173214793,32.012135306259,0
bd202610a679c8332911d174,南通小草纺织有限公司通州区先锋亮华色织厂,公司企业,厂矿,江苏省,南通市,通州区,江苏省南通市通州区先锋街道---先锋街道-花园路西50米先锋镇花园村8组,bd202610a679c8332911d174,1,0,120.964023,31.997072,,enterprise,http://api.map.baidu.com/place/detail?uid=bd202610a679c8332911d174&output=html&source=placeapi_v2,,,,,,,,,,,,,,,,,,,,0
e1b08e64e43f13c749fd3ffc,南通和达压铸厂,公司企业,厂矿,江苏省,南通市,通州区,江苏省南通市通州区姜灶工业园西区,e1b08e64e43f13c749fd3ffc,1,0,121.02524,31.984971,15162862888,enterprise,http://api.map.baidu.com/place/detail?uid=e1b08e64e43f13c749fd3ffc&output=html&source=placeapi_v2,,,,,,,,,,,,,,,,,,,,0
76a247fa11a47da229d7ab83,莱福拉链,公司企业,厂矿,江苏省,南通市,通州区,江苏省南通市通州区国道345号,,1,0,121.024074,32.000324,,enterprise,http://api.map.baidu.com/place/detail?uid=76a247fa11a47da229d7ab83&output=html&source=placeapi_v2,,,,,,,,,,,,,,,,,,,,0
224b7aae82bd3e81ae045773,朝阳拉链,公司企业,厂矿,江苏省,南通市,通州区,南通市通州区三圩北路与世纪大道交叉路口往东南约260米,224b7aae82bd3e81ae045773,1,0,121.034565,31.989261,"13901467172,18248589888",enterprise,http://api.map.baidu.com/place/detail?uid=224b7aae82bd3e81ae045773&output=html&source=placeapi_v2,,,,,,,,,,,,,,,,,,121.03418725443,31.98967257029,0
66db84a139e008096240a97f,乔德乐包装厂,公司企业,厂矿,江苏省,南通市,通州区,江苏省南通市通州区永安北路与振先路交叉口东南方向50米,,1,0,121.005312,31.989478,,enterprise,http://api.map.baidu.com/place/detail?uid=66db84a139e008096240a97f&output=html&source=placeapi_v2,,,,,,,,,,,,,,,,,,,,0
9062a7a77496ae66b04c495d,塔吉玛电脑绣花,公司企业,厂矿,江苏省,南通市,通州区,江苏省南通市通州区川姜镇姜竹线姜灶中心幼儿园附近,9062a7a77496ae66b04c495d,1,0,121.045602,31.997434,13962954716,enterprise,http://api.map.baidu.com/place/detail?uid=9062a7a77496ae66b04c495d&output=html&source=placeapi_v2,,,,,,,,,,,,,,,,,,,,0
d58e5db723abbfc3c5effbeb,新丰拉链厂,公司企业,厂矿,江苏省,南通市,通州区,南通市通州区S223,,1,0,121.054424,31.98353,"18260528793,18392638429",enterprise,http://api.map.baidu.com/place/detail?uid=d58e5db723abbfc3c5effbeb&output=html&source=placeapi_v2,,,,,,,,,,,,,,,,,,,,0
2e73d4392d177117c929158d,新丝路卧室用品厂,公司企业,厂矿,江苏省,南通市,通州区,南通市通州区磨框集居区路,,1,0,121.063563,31.98169,,enterprise,http://api.map.baidu.com/place/detail?uid=2e73d4392d177117c929158d&output=html&source=placeapi_v2,,,,,,,,,,,,,,,,,,,,0
c971eb5c6dbd1291a0acc4f1,海门雷米卓纺织品厂,公司企业,厂矿,江苏省,南通市,海门区,江苏省南通市海门区叠石村二十七组,,1,0,121.079166,31.987375,13814681210,enterprise,http://api.map.baidu.com/place/detail?uid=c971eb5c6dbd1291a0acc4f1&output=html&source=placeapi_v2,,,,,,,,,,,,,,,,,,121.07917009598,31.987263325808,0
a8cdb4664b26a8bc8f55eca3,通州市姜灶纺织厂,公司企业,厂矿,江苏省,南通市,通州区,江苏省南通市通州区姜叠公路与223省道交叉口西北侧约120米,a8cdb4664b26a8bc8f55eca3,1,0,121.051671,32.000624,(0513)82533610,enterprise,http://api.map.baidu.com/place/detail?uid=a8cdb4664b26a8bc8f55eca3&output=html&source=placeapi_v2,0.0,,5,,,,,,,,2,,,,,,,,,0
276af20c1f240e592d4733f9,崇川区译淘家用纺织品厂,公司企业,厂矿,江苏省,南通市,通州区,南通市通州区姜灶煤气站旁家家乐家纺,,1,0,121.077533,32.00028,,enterprise,http://api.map.baidu.com/place/detail?uid=276af20c1f240e592d4733f9&output=html&source=placeapi_v2,,,,,,,,,,,,,,,,,,,,0
c3ae6c87214d3f255d0d02dc,通州区川姜镇思绣毛巾厂,公司企业,厂矿,江苏省,南通市,通州区,江苏省南通市通州区川姜镇姜川村金鼎毛巾路口里200米,c3ae6c87214d3f255d0d02dc,1,0,121.057033,31.981363,13358084818,enterprise,http://api.map.baidu.com/place/detail?uid=c3ae6c87214d3f255d0d02dc&output=html&source=placeapi_v2,,,0.0,,,,,,,,,,,,,,,,,0
15850373b43bca23bd48427f,海门区添彩数码印花厂,公司企业,厂矿,江苏省,南通市,海门区,南通市海门区三海线与太林路交叉路口往东约150米,,1,0,121.087733,31.996136,13806289089,enterprise,http://api.map.baidu.com/place/detail?uid=15850373b43bca23bd48427f&output=html&source=placeapi_v2,,,5.0,,,,,,,,1,,,,,,,,,0
58d964ac065f86235a3ac8a0,崇川区文韵家用纺织品厂,公司企业,厂矿,江苏省,南通市,海门区,南通市海门区G228与太林路交叉路口往东约190米,,1,0,121.097817,31.999698,,enterprise,http://api.map.baidu.com/place/detail?uid=58d964ac065f86235a3ac8a0&output=html&source=placeapi_v2,,,,,,,,,,,,,,,,,,,,0
a7eb016423f41c11744ff17a,七七棉厂科技有限公司,公司企业,厂矿,江苏省,南通市,海门区,江苏省南通市海门区心齐六组,,1,0,121.125131,31.99877,15162583608,enterprise,http://api.map.baidu.com/place/detail?uid=a7eb016423f41c11744ff17a&output=html&source=placeapi_v2,,,,,,,,,,,,,,,,,,,,0
aacac26144c9f4b1badf8f65,海门区三星兴达电脑刺绣厂,公司企业,厂矿,江苏省,南通市,海门区,南通市海门区太益路海门区阳光幼儿园南侧约170米,,1,0,121.099201,31.982711,,enterprise,http://api.map.baidu.com/place/detail?uid=aacac26144c9f4b1badf8f65&output=html&source=placeapi_v2,,,,,,,,,,,,,,,,,,121.09920441178,31.982642957294,0
9b8070388c50c158f7eafcac,海门区兴达绵厂,公司企业,厂矿,江苏省,南通市,海门区,江苏省南通市海门区双汇中路,9b8070388c50c158f7eafcac,1,0,121.162835,31.988361,,enterprise,http://api.map.baidu.com/place/detail?uid=9b8070388c50c158f7eafcac&output=html&source=placeapi_v2,,,,,,,,,,,,,,,,,,,,0
0ec44e0cd9f3ea01e50738d5,静杰机械厂,公司企业,厂矿,江苏省,南通市,通州区,江苏省南通市通州区二甲南路,,1,0,121.160738,32.008993,,enterprise,http://api.map.baidu.com/place/detail?uid=0ec44e0cd9f3ea01e50738d5&output=html&source=placeapi_v2,,,,,,,,,,,,,,,,,,,,0
4baf59627c2657e2220262b1,南通市通州区神虎发条带锯厂,公司企业,厂矿,江苏省,南通市,通州区,南通市通州区二甲南路80号,,1,0,121.161215,32.011214,13801486781,enterprise,http://api.map.baidu.com/place/detail?uid=4baf59627c2657e2220262b1&output=html&source=placeapi_v2,,,,,,,,,,,,,,,,,,,,0
58160fbe0f7270d3f72310a3,海门飞鹰灯箱厂,公司企业,厂矿,江苏省,南通市,通州区,南通市通州区北海线与定北路交叉路口东北侧,,1,0,121.201904,32.008425,,enterprise,http://api.map.baidu.com/place/detail?uid=58160fbe0f7270d3f72310a3&output=html&source=placeapi_v2,,,,,,,,,,,,,,,,,,,,0
4ed853974750828f0e3ddae8,海门区版纸厂,公司企业,厂矿,江苏省,南通市,海门区,摆渡路与222省道交叉口东南100米,4ed853974750828f0e3ddae8,1,1,121.258844,31.996169,,enterprise,http://api.map.baidu.com/place/detail?uid=4ed853974750828f0e3ddae8&output=html&source=placeapi_v2,,,,,,,,,,,,,,,,,,121.25809675057,31.995948910697,1
bc7fc52a3a5968aba1a93437,海门区尚艺红木工艺品厂,公司企业,厂矿,江苏省,南通市,海门区,四甲镇合兴村16组,,1,0,121.268073,32.002521,,enterprise,http://api.map.baidu.com/place/detail?uid=bc7fc52a3a5968aba1a93437&output=html&source=placeapi_v2,,,,,,,,,,,,,,,,,,121.26804829579,32.002267807527,0
9d1f36ad97de0d9a4002456e,恒日塑料厂,公司企业,厂矿,江苏省,南通市,海门区,江苏省南通市海门区四惠路128号,,1,0,121.278561,32.010483,,enterprise,http://api.map.baidu.com/place/detail?uid=9d1f36ad97de0d9a4002456e&output=html&source=placeapi_v2,,,,,,,,,,,,,,,,,,121.27865484766,32.010468584584,0
3415759fa0220d03057ce872,南通龙坤矿山机械有限公司,公司企业,厂矿,江苏省,南通市,海门区,合德路南山诊所东250米,,1,0,121.264287,32.005558,,enterprise,http://api.map.baidu.com/place/detail?uid=3415759fa0220d03057ce872&output=html&source=placeapi_v2,0.0,00:00-24:00,5.0,,,,,,,,3,,,,,,,121.26437662473,32.005257163919,0
72e57fd7a3222aacf9dc85af,树勋织布厂,公司企业,厂矿,江苏省,南通市,海门区,南通市海门区新中北路金凤花园西侧约250米,,1,0,121.358579,31.997917,,enterprise,http://api.map.baidu.com/place/detail?uid=72e57fd7a3222aacf9dc85af&output=html&source=placeapi_v2,,,,,,,,,,,,,,,,,,,,0
b8bb140872be019432870a2f,星燎焊割,公司企业,厂矿,江苏省,南通市,海门区,江苏省南通市海门区健康路6号,,1,0,121.360333,31.981799,,enterprise,http://api.map.baidu.com/place/detail?uid=b8bb140872be019432870a2f&output=html&source=placeapi_v2,,,,,,,,,,,,,,,,,,121.36030821343,31.981640465213,0
09b130dd9aec7f1976e5b6fa,昌海服装厂,公司企业,厂矿,江苏省,南通市,海门区,江苏省南通市海门区沿河路8号,,1,0,121.362356,31.984431,,enterprise,http://api.map.baidu.com/place/detail?uid=09b130dd9aec7f1976e5b6fa&output=html&source=placeapi_v2,,,,,,,,,,,,,,,,,,,,0
897dd7e9219ff8a14d776ecc,华盛橡塑,公司企业,厂矿,江苏省,南通市,海门区,江苏省南通市海门区沿河路1号,,1,0,121.362241,31.983194,(0513)82785988,enterprise,http://api.map.baidu.com/place/detail?uid=897dd7e9219ff8a14d776ecc&output=html&source=placeapi_v2,0.0,,,,,,,,,,,,,,,,,,,0
2a20773e5a35e084f90cad7e,天乐服装厂,公司企业,厂矿,江苏省,南通市,海门区,南通市海门区东通路树勋中学东南侧约120米,,1,0,121.363096,31.985052,,enterprise,http://api.map.baidu.com/place/detail?uid=2a20773e5a35e084f90cad7e&output=html&source=placeapi_v2,,,,,,,,,,,,,,,,,,,,0
19ba2666c7fd66a4b5147f38,万邦制衣厂,公司企业,厂矿,江苏省,南通市,海门区,南通市海门区东通线与盛凯路交叉路口往东约110米,,1,0,121.42103,31.985741,,enterprise,http://api.map.baidu.com/place/detail?uid=19ba2666c7fd66a4b5147f38&output=html&source=placeapi_v2,,,,,,,,,,,,,,,,,,121.42103256369,31.985860118524,0
45247b8bf0e762f12902e15c,爱林玻璃工艺品厂,公司企业,厂矿,江苏省,南通市,海门区,南通市海门区季长路与名人路交叉路口往西约210米,,1,0,121.401159,32.009304,,enterprise,http://api.map.baidu.com/place/detail?uid=45247b8bf0e762f12902e15c&output=html&source=placeapi_v2,,,,,,,,,,,,,,,,,,,,0
2901a11e376369ce97ec848b,南通市大达冷冻加工二厂,公司企业,厂矿,江苏省,南通市,崇川区,江苏省南通市崇川区泽生街水产医院,2901a11e376369ce97ec848b,1,0,120.763208,32.041156,,enterprise,http://api.map.baidu.com/place/detail?uid=2901a11e376369ce97ec848b&output=html&source=placeapi_v2,,,,,,,,,,,,,,,,,,120.76323894875,32.040949320322,0
ed7a3d321385d13a26e0a0d7,天河工贸印刷厂,公司企业,厂矿,江苏省,南通市,崇川区,天生港镇街道龙潭村21组34号,,1,0,120.775042,32.045719,"(0513)85563057,13016774430",enterprise,http://api.map.baidu.com/place/detail?uid=ed7a3d321385d13a26e0a0d7&output=html&source=placeapi_v2,,,,,,,,,,,,,,,,,,120.77500458152,32.045739732539,0
d5464cf899d8a557fda7780e,南通晨光工贸有限公司,公司企业,厂矿,江苏省,南通市,崇川区,江苏省南通市崇川区天通路8号,d5464cf899d8a557fda7780e,1,0,120.777914,32.042955,(0513)85567595,enterprise,http://api.map.baidu.com/place/detail?uid=d5464cf899d8a557fda7780e&output=html&source=placeapi_v2,,,,,,,,,,,,,,,,,,,,0
338f00d61115c166c0364418,讲东船务公司通州船厂,公司企业,厂矿,江苏省,南通市,崇川区,江苏南通市崇川区沿江路15号1号,338f00d61115c166c0364418,1,0,120.807237,32.028169,,enterprise,http://api.map.baidu.com/place/detail?uid=338f00d61115c166c0364418&output=html&source=placeapi_v2,,,,,,,,,,,,,,,,,,120.8072954855,32.028376088789,0
45b24f2cee2b62849fec2bff,江苏省食品公司南通肉联厂,公司企业,厂矿,江苏省,南通市,崇川区,江苏省南通市崇川区沿江路11号,45b24f2cee2b62849fec2bff,1,0,120.799625,32.029027,,enterprise,http://api.map.baidu.com/place/detail?uid=45b24f2cee2b62849fec2bff&output=html&source=placeapi_v2,,,,,,,,,,,,,,,,,,120.79917870683,32.03002312692,0
c503964034f4feee54bfff58,银河洗染中央工厂,公司企业,厂矿,江苏省,南通市,崇川区,江苏省南通市崇川区兴泰路18号b座,,1,0,120.814976,32.030193,,enterprise,http://api.map.baidu.com/place/detail?uid=c503964034f4feee54bfff58&output=html&source=placeapi_v2,,,,,,,,,,,,,,,,,,,,0
eb3675033aa30e1b00ec010e,南通汽运实业集团有限公司客车厂,公司企业,厂矿,江苏省,南通市,崇川区,江苏南通市崇川区城港路143号,eb3675033aa30e1b00ec010e,1,0,120.8084,32.040844,(0513)85605953,enterprise,http://api.map.baidu.com/place/detail?uid=eb3675033aa30e1b00ec010e&output=html&source=placeapi_v2,,,,,,,,,,,,,,,,,,120.80832411897,32.040886034194,0
cb4fd146881e14419d9d680e,南通市港闸造船厂,公司企业,厂矿,江苏省,南通市,崇川区,江苏省南通市崇川区沿江路11号,cb4fd146881e14419d9d680e,1,0,120.796761,32.02936,,enterprise,http://api.map.baidu.com/place/detail?uid=cb4fd146881e14419d9d680e&output=html&source=placeapi_v2,,,0,,,,,,,,0,,,,,,,120.79591816594,32.030731572005,0
ace449ae1c11fd73be48423c,明一绣花厂,公司企业,厂矿,江苏省,南通市,崇川区,江苏省南通市崇川区越江路88号,ace449ae1c11fd73be48423c,1,0,120.818672,32.025747,,enterprise,http://api.map.baidu.com/place/detail?uid=ace449ae1c11fd73be48423c&output=html&source=placeapi_v2,,,,,,,,,,,,,,,,,,120.81873658654,32.025686707296,0
8cba4bb02bebf6f9ac0457a9,江苏南通二棉有限公司,公司企业,厂矿,江苏省,南通市,崇川区,江苏省南通市崇川区大生路1号,8cba4bb02bebf6f9ac0457a9,1,0,120.808418,32.044935,,enterprise,http://api.map.baidu.com/place/detail?uid=8cba4bb02bebf6f9ac0457a9&output=html&source=placeapi_v2,,,,,,,,,,,,,,,,,,120.8086590944,32.044867241214,0
dfd2c9a98309b0d343024507,飞天实业厂,公司企业,厂矿,江苏省,南通市,崇川区,江苏省南通市崇川区长江北路299号,dfd2c9a98309b0d343024507,1,0,120.795122,32.038629,(0513)85507107,enterprise,http://api.map.baidu.com/place/detail?uid=dfd2c9a98309b0d343024507&output=html&source=placeapi_v2,,,,,,,,,,,,,,,,,,,,0
6ee0102046691dec52e5c578,南通市锅炉电控设备厂,公司企业,厂矿,江苏省,南通市,崇川区,城港路208号,6ee0102046691dec52e5c578,1,0,120.801689,32.04372,,enterprise,http://api.map.baidu.com/place/detail?uid=6ee0102046691dec52e5c578&output=html&source=placeapi_v2,,,,,,,,,,,,,,,,,,120.80170980567,32.043527526571,0
373cf757427bc26e4354d70f,南通三昌盛服装有限公司,公司企业,厂矿,江苏省,南通市,崇川区,江苏省南通市崇川区永兴路36号,373cf757427bc26e4354d70f,1,1,120.814403,32.042166,,enterprise,http://api.map.baidu.com/place/detail?uid=373cf757427bc26e4354d70f&output=html&source=placeapi_v2,,,,,,,,,,,,,,,,,,120.81461967395,32.042183278613,1
6b365edefe7bf367d518b7d0,南通朝利卷闸门厂,公司企业,厂矿,江苏省,南通市,崇川区,南通市崇川区江海大道高架南通市阳光幼儿园西北侧约220米,6b365edefe7bf367d518b7d0,1,0,120.828899,32.033867,"13160368666,13912261519",enterprise,http://api.map.baidu.com/place/detail?uid=6b365edefe7bf367d518b7d0&output=html&source=placeapi_v2,,,,,,,,,,,,,,,,,,120.82898149319,32.033796916251,0
b94fc21627638692c929157c,通海大理石厂,公司企业,厂矿,江苏省,南通市,崇川区,南通市崇川区外环西路节制闸新村北侧约40米,b94fc21627638692c929157c,1,0,120.840313,32.028221,,enterprise,http://api.map.baidu.com/place/detail?uid=b94fc21627638692c929157c&output=html&source=placeapi_v2,,,,,,,,,,,,,,,,,,120.84045397923,32.028329837831,0
6d32b641d406e943f82d6126,钢丝绳厂,公司企业,厂矿,江苏省,南通市,崇川区,南通市崇川区外环西路汇达广场7号楼1层,6d32b641d406e943f82d6126,1,0,120.840291,32.02835,13773671136,enterprise,http://api.map.baidu.com/place/detail?uid=6d32b641d406e943f82d6126&output=html&source=placeapi_v2,,,0,,,,,,,,0,,,,,,,,,0
0938b66a5f32fbaef02d83a0,仁汇广告发光字厂,公司企业,厂矿,江苏省,南通市,崇川区,江苏省南通市崇川区外环西路277号,0938b66a5f32fbaef02d83a0,1,0,120.842727,32.023328,"18051411969,18051412269",enterprise,http://api.map.baidu.com/place/detail?uid=0938b66a5f32fbaef02d83a0&output=html&source=placeapi_v2,,,,,,,,,,,,,,,,,,,,0
effd62623e35ca7b6b49f3b9,南通友生塑料制品加工厂,公司企业,厂矿,江苏省,南通市,崇川区,江苏省南通市崇川区起凤街20号,effd62623e35ca7b6b49f3b9,1,0,120.861045,32.020596,13003577678,enterprise,http://api.map.baidu.com/place/detail?uid=effd62623e35ca7b6b49f3b9&output=html&source=placeapi_v2,,,0,,,,,,,,1,,,,,,,,,0
33fbfa83e40b8ec10bf5ebfb,南通电子计算机厂,公司企业,厂矿,江苏省,南通市,崇川区,江苏省南通市崇川区工农路557号,33fbfa83e40b8ec10bf5ebfb,1,1,120.887729,32.035676,(0513)83563506,enterprise,http://api.map.baidu.com/place/detail?uid=33fbfa83e40b8ec10bf5ebfb&output=html&source=placeapi_v2,,,,,,,,,,,,,,,,,,120.88772932069,32.035648959054,1
9ae862d086223ed09868b45e,耐特自动门设备厂,公司企业,厂矿,江苏省,南通市,崇川区,南通市崇川区五一路新世界商贸城5幢118号,,1,0,120.902176,32.036326,,enterprise,http://api.map.baidu.com/place/detail?uid=9ae862d086223ed09868b45e&output=html&source=placeapi_v2,,,0.0,,,,,,,,,,,,,,,,,0
28835ccc6ee05d6aabf0cd59,南通市医用卫生材料厂(人民东路),公司企业,厂矿,江苏省,南通市,崇川区,江苏省南通市崇川区人民中路200号,28835ccc6ee05d6aabf0cd59,1,0,120.890966,32.027518,,enterprise,http://api.map.baidu.com/place/detail?uid=28835ccc6ee05d6aabf0cd59&output=html&source=placeapi_v2,,,,,,,,,,,,,,,,,,,,0
c0f33b68d87bc28d9703197a,网咖梦工厂,公司企业,厂矿,江苏省,南通市,崇川区,江苏省南通市崇川区中新一路18-1号润楼大厦5楼,c0f33b68d87bc28d9703197a,1,0,120.902922,32.035215,,enterprise,http://api.map.baidu.com/place/detail?uid=c0f33b68d87bc28d9703197a&output=html&source=placeapi_v2,,,,,,,,,,,,,,,,,,,,0
af6131ae8f4a3a8baeb22a5e,新生织布厂,公司企业,厂矿,江苏省,南通市,崇川区,江苏省南通市崇川区濠东路258号,af6131ae8f4a3a8baeb22a5e,1,0,120.876535,32.035259,(0513)85280000,enterprise,http://api.map.baidu.com/place/detail?uid=af6131ae8f4a3a8baeb22a5e&output=html&source=placeapi_v2,,,,,,,,,,,,,,,,,,120.87653494375,32.035258408847,0
6c192a7f3870083be011036f,气动元件,公司企业,厂矿,江苏省,南通市,崇川区,南通市崇川区大达五金机电城5幢111号,6c192a7f3870083be011036f,1,0,120.908652,32.031091,18951412211,shopping,http://api.map.baidu.com/place/detail?uid=6c192a7f3870083be011036f&output=html&source=placeapi_v2,,,,,,,,,,,,,,,,,,120.90868221676,32.03117598279,0
0d678fbc26882e1b76e5b642,南通市恬达金属装饰电器厂,公司企业,厂矿,江苏省,南通市,崇川区,南通市崇川区新紫路东方花苑西北侧约30米,0d678fbc26882e1b76e5b642,1,0,120.889581,32.036957,"(0513)85292686,13301483636,13301483638",enterprise,http://api.map.baidu.com/place/detail?uid=0d678fbc26882e1b76e5b642&output=html&source=placeapi_v2,,,,,,,,,,,,,,,,,,,,0
8828a5c52416c7eb43d63e9f,利江铜件,公司企业,厂矿,江苏省,南通市,崇川区,江苏省南通市崇川区大达五金机电城3-112号,8828a5c52416c7eb43d63e9f,1,0,120.908439,32.031506,"(0513)89060102,13348091288",enterprise,http://api.map.baidu.com/place/detail?uid=8828a5c52416c7eb43d63e9f&output=html&source=placeapi_v2,,,5,,,,,,,,1,,,,,,,120.90843682321,32.031403964473,0
0b4ab9d8dde6805dd3ff23b0,崇川区通杭酒店用品厂,公司企业,厂矿,江苏省,南通市,崇川区,南通市崇川区工农路,,1,0,120.889574,32.0424,,enterprise,http://api.map.baidu.com/place/detail?uid=0b4ab9d8dde6805dd3ff23b0&output=html&source=placeapi_v2,,,,,,,,,,,,,,,,,,,,0
905fab3322d9778d8605bfbc,南通市特种门窗厂,公司企业,厂矿,江苏省,南通市,崇川区,南通市崇川区建材路与江海大道辅路交叉路口往南约250米,,1,1,120.891169,32.046505,,enterprise,http://api.map.baidu.com/place/detail?uid=905fab3322d9778d8605bfbc&output=html&source=placeapi_v2,,,,,,,,,,,,,,,,,,,,1
757653ca3cade732b34c49f3,南通市中沙织布厂,公司企业,厂矿,江苏省,南通市,崇川区,江苏省南通市崇川区新胜路196号,,1,0,120.944622,32.034634,,enterprise,http://api.map.baidu.com/place/detail?uid=757653ca3cade732b34c49f3&output=html&source=placeapi_v2,,,,,,,,,,,,,,,,,,120.9446100696,32.03478654702,0
d8056efa1aa7955be6e96514,在野发光字厂,公司企业,厂矿,江苏省,南通市,崇川区,江苏省南通市崇川区人民东路未来锦城4幢106号,d8056efa1aa7955be6e96514,1,0,120.927854,32.027367,"13862931017,15051272767",enterprise,http://api.map.baidu.com/place/detail?uid=d8056efa1aa7955be6e96514&output=html&source=placeapi_v2,,,0,,,,,,,,1,,,,,,,,,0
6cd6839f87481c4f3a04b1a5,南通市明佳加湿器厂(门市部),公司企业,厂矿,江苏省,南通市,崇川区,江苏省南通市崇川区通甲路744号,6cd6839f87481c4f3a04b1a5,1,0,120.93738,32.015942,13862966118,enterprise,http://api.map.baidu.com/place/detail?uid=6cd6839f87481c4f3a04b1a5&output=html&source=placeapi_v2,,,,,,,,,,,,,,,,,,120.9373761878,32.015788011961,0
05eb8ed0aec57435c8213d4a,东方印刷厂,公司企业,厂矿,江苏省,南通市,崇川区,江苏省南通市崇川区学田北路18号,,1,0,120.951016,32.039651,,enterprise,http://api.map.baidu.com/place/detail?uid=05eb8ed0aec57435c8213d4a&output=html&source=placeapi_v2,,,,,,,,,,,,,,,,,,120.951004802,32.039507040742,0
a0d81d33fe1b4024c4f50d76,速鑫织布工厂,公司企业,厂矿,江苏省,南通市,崇川区,南通市崇川区通甲路八一花园西北侧约70米,,1,0,120.942124,32.014569,"13861991972,15162763695",enterprise,http://api.map.baidu.com/place/detail?uid=a0d81d33fe1b4024c4f50d76&output=html&source=placeapi_v2,,,,,,,,,,,,,,,,,,,,0
2be041c95c80e947eb56fa53,和谐钢化玻璃厂,公司企业,厂矿,江苏省,南通市,通州区,江苏省南通市通州区先锋镇双盟村东,,1,0,120.993497,32.024085,13485103723,enterprise,http://api.map.baidu.com/place/detail?uid=2be041c95c80e947eb56fa53&output=html&source=placeapi_v2,,,,,,,,,,,,,,,,,,,,0
7a8c9b40685dee6fe115f993,南通华拓橱柜厂,公司企业,厂矿,江苏省,南通市,通州区,南通市通州区先唐路北段路与民平路交叉口北150米,,1,0,120.994963,32.033751,13921615179,enterprise,http://api.map.baidu.com/place/detail?uid=7a8c9b40685dee6fe115f993&output=html&source=placeapi_v2,,,,,,,,,,,,,,,,,,120.99517384074,32.033751789156,0
9118265b0f869a65f40e77a1,南通红金顶织造有限公司(毛巾分厂),公司企业,厂矿,江苏省,南通市,通州区,南通市通州区通海路富锋花苑-西区西侧约210米,9118265b0f869a65f40e77a1,1,0,120.980708,32.015345,,enterprise,http://api.map.baidu.com/place/detail?uid=9118265b0f869a65f40e77a1&output=html&source=placeapi_v2,,,,,,,,,,,,,,,,,,,,0
817d51f2842f93a717c8f6ee,顺成磨毛厂,公司企业,厂矿,江苏省,南通市,通州区,江苏省南通市通州区人民东路与利民路交叉口北70米,,1,0,121.002676,32.03062,,enterprise,http://api.map.baidu.com/place/detail?uid=817d51f2842f93a717c8f6ee&output=html&source=placeapi_v2,,,,,,,,,,,,,,,,,,121.00264149667,32.030092644625,0
233aba9cb9a61293130daaf4,东二组织布厂,公司企业,厂矿,江苏省,南通市,通州区,南通市通州区双盟村十一大队(世纪华联超市往东),,1,0,120.999151,32.022112,,enterprise,http://api.map.baidu.com/place/detail?uid=233aba9cb9a61293130daaf4&output=html&source=placeapi_v2,,,,,,,,,,,,,,,,,,,,0
dcee216c46180e8eeb1e9768,通州区先锋镇李辉印花厂,公司企业,厂矿,江苏省,南通市,通州区,江苏省南通市通州区先锋街道(南通云利色织有限公司三楼),dcee216c46180e8eeb1e9768,1,0,120.979972,32.014691,,enterprise,http://api.map.baidu.com/place/detail?uid=dcee216c46180e8eeb1e9768&output=html&source=placeapi_v2,,,,,,,,,,,,,,,,,,,,0
35622695b2cc448d4d776e48,王三东塑料包装制品加工厂,公司企业,厂矿,江苏省,南通市,通州区,南通市通州区先唐路与杨家埭路交叉路口往东北约120米,,1,0,120.995136,32.024064,,enterprise,http://api.map.baidu.com/place/detail?uid=35622695b2cc448d4d776e48&output=html&source=placeapi_v2,,,,,,,,,,,,,,,,,,120.99517678808,32.023970003565,0
a2fc7b66c7a8d14033621266,通州市先锋街道超楠包装辅料厂,公司企业,厂矿,江苏省,南通市,通州区,南通市通州区先锋街道双盟村东三组318号,,1,0,120.996198,32.019797,13962855117,enterprise,http://api.map.baidu.com/place/detail?uid=a2fc7b66c7a8d14033621266&output=html&source=placeapi_v2,,,0,,,,,,,,1,,,,,,,120.99612113804,32.019981374647,0
05dd7d16708055cb29fc4865,小成纺织厂,公司企业,厂矿,江苏省,南通市,通州区,高新技术产业开发区通州高新技术产业开发区利民村七组,,1,0,120.996026,32.043416,,enterprise,http://api.map.baidu.com/place/detail?uid=05dd7d16708055cb29fc4865&output=html&source=placeapi_v2,,,,,,,,,,,,,,,,,,120.99586860819,32.043433379889,0
c8e032a401489716dbeced31,海门市三厂卫兵雨衣厂,公司企业,厂矿,江苏省,南通市,通州区,三厂大洪桥北,c8e032a401489716dbeced31,1,0,121.014967,32.016161,,enterprise,http://api.map.baidu.com/place/detail?uid=c8e032a401489716dbeced31&output=html&source=placeapi_v2,,,,,,,,,,,,,,,,,,,,0
64c15688a71f85f49cec2ba9,南通市通州区正信机械配件厂,公司企业,厂矿,江苏省,南通市,通州区,南通市通州区金新街道正场村九组,,1,0,121.032994,32.038657,,enterprise,http://api.map.baidu.com/place/detail?uid=64c15688a71f85f49cec2ba9&output=html&source=placeapi_v2,,,,,,,,,,,,,,,,,,,,0
5d172680a061a3554d554757,大文化不锈钢橱柜厂,公司企业,厂矿,江苏省,南通市,通州区,江苏省南通市通州区正场镇民平村天之蓝家具厂对面,,1,0,121.014597,32.040145,,enterprise,http://api.map.baidu.com/place/detail?uid=5d172680a061a3554d554757&output=html&source=placeapi_v2,,,,,,,,,,,,,,,,,,,,0
7c6ecae33f377b4a8936eeab,南通荣卫软木制品厂,公司企业,厂矿,江苏省,南通市,通州区,江苏省南通市通州区金新街道油榨村7组,,1,0,121.076087,32.023603,,enterprise,http://api.map.baidu.com/place/detail?uid=7c6ecae33f377b4a8936eeab&output=html&source=placeapi_v2,,,0.0,,,,,,,,,,,,,,,121.07635476608,32.022996341279,0
82036582464ee6be13293577,鑫盛大理石加工厂,公司企业,厂矿,江苏省,南通市,通州区,南通市通州区金川路与锦绣路交叉路口往西约120米,,1,0,121.069578,32.043814,"13901469294,17321582888",enterprise,http://api.map.baidu.com/place/detail?uid=82036582464ee6be13293577&output=html&source=placeapi_v2,,,,,,,,,,,,,,,,,,,,0
b923b490dc3e6c8548cc4a78,南通华宇印铁制罐厂,公司企业,厂矿,江苏省,南通市,通州区,南通市通州区东通线南通市农村商业银行(袁灶支行)东南侧约290米,,1,1,121.12213,32.021634,(0513)82545555,enterprise,http://api.map.baidu.com/place/detail?uid=b923b490dc3e6c8548cc4a78&output=html&source=placeapi_v2,,,,,,,,,,,,,,,,,,121.12234451738,32.021780087501,1
0e716d36ffdedd8be115f907,水泉不锈钢制品厂,公司企业,厂矿,江苏省,南通市,通州区,江苏省南通市通州区二甲镇通运桥村十五组014号,0e716d36ffdedd8be115f907,1,0,121.128225,32.030634,,enterprise,http://api.map.baidu.com/place/detail?uid=0e716d36ffdedd8be115f907&output=html&source=placeapi_v2,,,,,,,,,,,,,,,,,,,,0
b50001584424200b1e1d11aa,南通通州区万事成机械制造厂,公司企业,厂矿,江苏省,南通市,通州区,南通市通州区二甲镇袁南居四十一组046号,b50001584424200b1e1d11aa,1,0,121.123643,32.019691,,enterprise,http://api.map.baidu.com/place/detail?uid=b50001584424200b1e1d11aa&output=html&source=placeapi_v2,,,,,,,,,,,,,,,,,,121.1238547504,32.019650193284,0
d7f16b344717d11ead045799,通州市华能特种蓄电池厂,公司企业,厂矿,江苏省,南通市,通州区,江苏省南通市通州区大华加油站(东通线北),,1,0,121.197363,32.030571,,enterprise,http://api.map.baidu.com/place/detail?uid=d7f16b344717d11ead045799&output=html&source=placeapi_v2,,,,,,,,,,,,,,,,,,,,0
b96978fa5cbf62ba81288a69,达瑞服装厂,公司企业,厂矿,江苏省,南通市,通州区,江苏省南通市通州区二甲镇光明西路25号欧意塑胶有限公司三楼,,1,0,121.183462,32.029951,,enterprise,http://api.map.baidu.com/place/detail?uid=b96978fa5cbf62ba81288a69&output=html&source=placeapi_v2,,,,,,,,,,,,,,,,,,121.18338692168,32.029768245659,0
1d8dd50eaee7c6a48605bf70,通州区二甲广德通风管道加工厂,公司企业,厂矿,江苏省,南通市,通州区,江苏省南通市通州区二甲镇路中村31组,,1,0,121.202218,32.040465,,enterprise,http://api.map.baidu.com/place/detail?uid=1d8dd50eaee7c6a48605bf70&output=html&source=placeapi_v2,,,5,,,,,,,,3,,,,,,,121.20155123221,32.040587423659,0
79cceb3688872b8a1e580019,海门区兴盛钢管厂,公司企业,厂矿,江苏省,南通市,海门区,江苏省南通市海门区国新路8号,,1,0,121.237437,32.031376,(0513)82390168,enterprise,http://api.map.baidu.com/place/detail?uid=79cceb3688872b8a1e580019&output=html&source=placeapi_v2,,,,,,,,,,,,,,,,,,121.23766516724,32.031508413019,0
a1de3bc35f36e9ab77026924,海门区四甲新航服装厂,公司企业,厂矿,江苏省,南通市,海门区,四甲镇健康路第四人民医院东北350米,,1,0,121.286048,32.018942,,enterprise,http://api.map.baidu.com/place/detail?uid=a1de3bc35f36e9ab77026924&output=html&source=placeapi_v2,,,,,,,,,,,,,,,,,,121.28605480818,32.018984561593,0
620a842dc6f291cce115f9bb,海门区鄂飞金属制品加工厂,公司企业,厂矿,江苏省,南通市,海门市,江苏省南通市海门市吕通线四甲中学东150米,,1,0,121.28884,32.014276,,enterprise,http://api.map.baidu.com/place/detail?uid=620a842dc6f291cce115f9bb&output=html&source=placeapi_v2,,,,,,,,,,,,,,,,,,,,0
60d15f19c626bea8ac080fc8,海门市四甲耐火材料厂,公司企业,厂矿,江苏省,南通市,海门区,022乡道与543乡道交叉口南150米,,1,0,121.285291,32.036406,,enterprise,http://api.map.baidu.com/place/detail?uid=60d15f19c626bea8ac080fc8&output=html&source=placeapi_v2,,,,,,,,,,,,,,,,,,,,0
c44299189b5ce08ac7f025b0,四甲轧花厂,公司企业,厂矿,江苏省,南通市,海门区,南通市海门区惠民路与同苍路交叉路口往西约70米,,1,0,121.289003,32.021383,,enterprise,http://api.map.baidu.com/place/detail?uid=c44299189b5ce08ac7f025b0&output=html&source=placeapi_v2,,,,,,,,,,,,,,,,,,,,0
05193137ba376a2297ec8418,海门区源祥管带厂,公司企业,厂矿,江苏省,南通市,海门区,江苏省南通市海门区兴创路15号,,1,0,121.268956,32.017953,,enterprise,http://api.map.baidu.com/place/detail?uid=05193137ba376a2297ec8418&output=html&source=placeapi_v2,,,,,,,,,,,,,,,,,,,,0
da6291139e0f2e5c5bf6be18,合兴油脂有限责任公司,公司企业,厂矿,江苏省,南通市,海门区,江苏省南通市海门区惠民路278号,da6291139e0f2e5c5bf6be18,1,1,121.289608,32.020336,,enterprise,http://api.map.baidu.com/place/detail?uid=da6291139e0f2e5c5bf6be18&output=html&source=placeapi_v2,,,,,,,,,,,,,,,,,,121.28968603932,32.020365335682,1
4d0ae100a1934b428605bf05,南通市锦维豪钢化玻璃厂,公司企业,厂矿,江苏省,南通市,海门区,江苏省南通市海门区兴创路9号,,1,0,121.269688,32.017751,13358061669,enterprise,http://api.map.baidu.com/place/detail?uid=4d0ae100a1934b428605bf05&output=html&source=placeapi_v2,,,,,,,,,,,,,,,,,,121.26968751381,32.017832587123,0
858d36bfe1083004b54f5469,皓江服装厂,公司企业,厂矿,江苏省,南通市,海门区,江苏省南通市海门区农民街52号,,1,0,121.266699,32.021996,13814632422,enterprise,http://api.map.baidu.com/place/detail?uid=858d36bfe1083004b54f5469&output=html&source=placeapi_v2,,,,,,,,,,,,,,,,,,,,0
35c42dbef74a7b054d554708,四甲大理石加工厂,公司企业,厂矿,江苏省,南通市,海门区,南通市海门区惠民路南通市海门四甲中学东北侧约210米,,1,0,121.290372,32.016175,"13101985690,13814682424",enterprise,http://api.map.baidu.com/place/detail?uid=35c42dbef74a7b054d554708&output=html&source=placeapi_v2,,,,,,,,,,,,,,,,,,,,0
d0aba9c578c964cd3b221cc6,海门区东娇羊毛衫厂,公司企业,厂矿,江苏省,南通市,海门区,南通市海门区通圩路余东汽车站北侧约190米,,1,0,121.362478,32.026498,,enterprise,http://api.map.baidu.com/place/detail?uid=d0aba9c578c964cd3b221cc6&output=html&source=placeapi_v2,,,,,,,,,,,,,,,,,,,,0
cb6cb38eba0a03b7b05c6a56,德生米酒厂,公司企业,厂矿,江苏省,南通市,海门区,江苏省南通市海门区正麒线,,1,0,121.362956,32.030722,13813761598,enterprise,http://api.map.baidu.com/place/detail?uid=cb6cb38eba0a03b7b05c6a56&output=html&source=placeapi_v2,,,,,,,,,,,,,,,,,,121.36270929423,32.030643649005,0
77a41a7dc3ebd32813293572,海门区腾飞橡塑厂,公司企业,厂矿,江苏省,南通市,海门区,江苏省南通市海门区创业路8号,,1,0,121.367508,32.019637,,enterprise,http://api.map.baidu.com/place/detail?uid=77a41a7dc3ebd32813293572&output=html&source=placeapi_v2,,,,,,,,,,,,,,,,,,121.36759647775,32.018835677171,0
e6d7613a2e53bfcd41ab9a27,海门区华优不锈钢制品厂,公司企业,厂矿,江苏省,南通市,海门区,南通市海门区吕通线与锡成路交叉路口往西约70米,,1,0,121.376586,32.029299,18962906226,enterprise,http://api.map.baidu.com/place/detail?uid=e6d7613a2e53bfcd41ab9a27&output=html&source=placeapi_v2,,,,,,,,,,,,,,,,,,,,0
00f1c7fbad38b71cc056ac19,海门区强华电碳厂,公司企业,厂矿,江苏省,南通市,海门区,南通市海门区弥陀山山前路与正麒线交叉路口往南约60米,,1,0,121.364971,32.045315,,enterprise,http://api.map.baidu.com/place/detail?uid=00f1c7fbad38b71cc056ac19&output=html&source=placeapi_v2,,,,,,,,,,,,,,,,,,,,0
ed974329ac573d0b10293592,海门区盛宇橡塑制品厂,公司企业,厂矿,江苏省,南通市,海门区,江苏省南通市海门区刘余线,,1,0,121.380307,32.029712,,enterprise,http://api.map.baidu.com/place/detail?uid=ed974329ac573d0b10293592&output=html&source=placeapi_v2,,,,,,,,,,,,,,,,,,121.38024976033,32.02990837332,0
f428311a7e4b66e39ff779dc,亿锋精密厂,公司企业,厂矿,江苏省,南通市,海门区,江苏省南通市海门区创业路9号,,1,0,121.371315,32.018276,,enterprise,http://api.map.baidu.com/place/detail?uid=f428311a7e4b66e39ff779dc&output=html&source=placeapi_v2,,,,,,,,,,,,,,,,,,,,0
c2da35e5090a3ea20bb93a09,海门区包场铜材厂,公司企业,厂矿,江苏省,南通市,海门区,扇子路与648乡道交叉口西100米,,1,0,121.414469,32.032491,,enterprise,http://api.map.baidu.com/place/detail?uid=c2da35e5090a3ea20bb93a09&output=html&source=placeapi_v2,,,,,,,,,,,,,,,,,,,,0
a06690960a8e05551d580064,海门区华平电动工具配件厂,公司企业,厂矿,江苏省,南通市,海门区,五泰线与623乡道交叉口南150米,,1,0,121.398805,32.042976,,enterprise,http://api.map.baidu.com/place/detail?uid=a06690960a8e05551d580064&output=html&source=placeapi_v2,,,,,,,,,,,,,,,,,,,,0
b6d56111516cca41f72310db,通州区五接镇云云五金冷作加工厂,公司企业,厂矿,江苏省,南通市,通州区,江苏省南通市通州区瑞诚路五接镇司法所附近,,1,0,120.716382,32.063308,,enterprise,http://api.map.baidu.com/place/detail?uid=b6d56111516cca41f72310db&output=html&source=placeapi_v2,,,,,,,,,,,,,,,,,,120.71628362143,32.063212539334,0
670cba9f514e38d2d7b74e5c,通州区平潮镇利秦服装厂,公司企业,厂矿,江苏省,南通市,通州区,南通市通州区曾川路与沿江路交叉口北50米,,1,0,120.740917,32.073244,,enterprise,http://api.map.baidu.com/place/detail?uid=670cba9f514e38d2d7b74e5c&output=html&source=placeapi_v2,,,,,,,,,,,,,,,,,,120.74103360549,32.073083751132,0
17c17ab5913b7b497069d3b2,电脑雕刻厂,公司企业,厂矿,江苏省,南通市,通州区,南通市通州区吉颜路星球石材北侧约90米,,1,0,120.743799,32.062871,,enterprise,http://api.map.baidu.com/place/detail?uid=17c17ab5913b7b497069d3b2&output=html&source=placeapi_v2,,,,,,,,,,,,,,,,,,,,0
6507e63ab7730e5e22f01773,老杨石材加工厂,公司企业,厂矿,江苏省,南通市,通州区,南通市通州区吉颜路星球石材北侧约90米,,1,0,120.743768,32.062864,"13914398100,18662821987",enterprise,http://api.map.baidu.com/place/detail?uid=6507e63ab7730e5e22f01773&output=html&source=placeapi_v2,,,,,,,,,,,,,,,,,,,,0
219107d6c5d7659425e0a0cf,忠举石材・线条厂,公司企业,厂矿,江苏省,南通市,通州区,南通市通州区吉颜路星球石材西侧约80米,,1,0,120.743127,32.062115,13862815191,enterprise,http://api.map.baidu.com/place/detail?uid=219107d6c5d7659425e0a0cf&output=html&source=placeapi_v2,,,,,,,,,,,,,,,,,,120.74328147938,32.062290565811,0
bee17a558dae837b15764338,南通捏合机厂,公司企业,厂矿,江苏省,南通市,崇川区,江苏省南通市崇川区城港路808号,bee17a558dae837b15764338,1,0,120.767225,32.056074,(0513)85566333,enterprise,http://api.map.baidu.com/place/detail?uid=bee17a558dae837b15764338&output=html&source=placeapi_v2,,,,,,,,,,,,,,,,,,120.7673692389,32.056036662202,0
c5745b7e2d69a66ad4851f18,宏光风机厂,公司企业,厂矿,江苏省,南通市,崇川区,江苏省南通市崇川区城港路838号,,1,0,120.764959,32.053836,,enterprise,http://api.map.baidu.com/place/detail?uid=c5745b7e2d69a66ad4851f18&output=html&source=placeapi_v2,,,,,,,,,,,,,,,,,,,,0
226bd1276d412c6172210be3,南通油缸厂,公司企业,厂矿,江苏省,南通市,崇川区,南通市崇川区天生港八一工业园黄海路与城北大道交叉路口南通奔腾精密机器有限公司,226bd1276d412c6172210be3,1,0,120.775861,32.062316,,enterprise,http://api.map.baidu.com/place/detail?uid=226bd1276d412c6172210be3&output=html&source=placeapi_v2,,,,,,,,,,,,,,,,,,120.77577421105,32.062125661759,0
34059f979950bb5471455b0f,南通森果王果仁食品厂,公司企业,厂矿,江苏省,南通市,崇川区,江苏省南通市崇川区城港路518号,34059f979950bb5471455b0f,1,0,120.782014,32.052663,(0513)83516351,enterprise,http://api.map.baidu.com/place/detail?uid=34059f979950bb5471455b0f&output=html&source=placeapi_v2,,,3.4,,,,,,,,0,,,,,,,120.78200720714,32.052550934279,0
9ccea32673f683bb29fc4826,南通虹光风机厂,公司企业,厂矿,江苏省,南通市,崇川区,九圩港河路与城港路交叉口西南150米,9ccea32673f683bb29fc4826,1,0,120.757654,32.05807,,enterprise,http://api.map.baidu.com/place/detail?uid=9ccea32673f683bb29fc4826&output=html&source=placeapi_v2,,,,,,,,,,,,,,,,,,120.75770603628,32.057981070736,0
b4f81e0557d2410f0bccdd89,电容器南厂,公司企业,厂矿,江苏省,南通市,通州区,江苏省南通市通州区通扬南路1099号,,1,0,120.756353,32.075096,,enterprise,http://api.map.baidu.com/place/detail?uid=b4f81e0557d2410f0bccdd89&output=html&source=placeapi_v2,,,,,,,,,,,,,,,,,,,,0
871579c44c2a614dc41e5111,通州区平潮镇坤祥喷砂厂,公司企业,厂矿,江苏省,南通市,通州区,南通市通州区西站大道南通汽运集团九圩港汽车站东北侧约230米,,1,0,120.755122,32.063078,,enterprise,http://api.map.baidu.com/place/detail?uid=871579c44c2a614dc41e5111&output=html&source=placeapi_v2,,,,,,,,,,,,,,,,,,120.7551313795,32.063116381241,0
890f1bf35be11ab86b49f390,南通宏诚机械铸造厂,公司企业,厂矿,江苏省,南通市,通州区,南通市通州区平潮镇九圩港汽车站旁,890f1bf35be11ab86b49f390,1,0,120.750802,32.062864,,enterprise,http://api.map.baidu.com/place/detail?uid=890f1bf35be11ab86b49f390&output=html&source=placeapi_v2,,,,,,,,,,,,,,,,,,,,0
423331482acb58c1c81b9536,南通天翔电器成套设备有限公司平潮钣金电器厂,公司企业,厂矿,江苏省,南通市,通州区,江苏省南通市通州区平潮镇云台山村3138组2幢正东方向130米,,1,0,120.757466,32.071154,,enterprise,http://api.map.baidu.com/place/detail?uid=423331482acb58c1c81b9536&output=html&source=placeapi_v2,,,,,,,,,,,,,,,,,,,,0
2b26c2fcf62254ac1ef74d10,南通电力设备厂,公司企业,厂矿,江苏省,南通市,通州区,江苏省南通市通州区龙海路1001号,,1,0,120.753411,32.076301,,enterprise,http://api.map.baidu.com/place/detail?uid=2b26c2fcf62254ac1ef74d10&output=html&source=placeapi_v2,,,,,,,,,,,,,,,,,,,,0
4277e2fb80d46578902ca30c,南通市汉成石墨设备厂,公司企业,厂矿,江苏省,南通市,崇川区,南通市崇川区长江北路康华苑西南侧约190米,4277e2fb80d46578902ca30c,1,0,120.769944,32.050409,,enterprise,http://api.map.baidu.com/place/detail?uid=4277e2fb80d46578902ca30c&output=html&source=placeapi_v2,,,,,,,,,,,,,,,,,,,,0
96342d7dcfd54ef7b6f42f10,南通碳素厂,公司企业,厂矿,江苏省,南通市,崇川区,江苏省南通市崇川区西市街208号,96342d7dcfd54ef7b6f42f10,1,0,120.801554,32.066242,(0513)85559266,enterprise,http://api.map.baidu.com/place/detail?uid=96342d7dcfd54ef7b6f42f10&output=html&source=placeapi_v2,,,,,,,,,,,,,,,,,,120.80161044769,32.066266300611,0
75f3291b19d04325f4eafcb1,吉庆石材厂,公司企业,厂矿,江苏省,南通市,崇川区,南通市崇川区厚生路大南新村东南侧约270米,,1,0,120.821145,32.063159,,enterprise,http://api.map.baidu.com/place/detail?uid=75f3291b19d04325f4eafcb1&output=html&source=placeapi_v2,,,,,,,,,,,,,,,,,,,,0
b945fd46b0598fd6d13ce3ae,南通富士美帽业有限公司箱包车间,公司企业,厂矿,江苏省,南通市,崇川区,南通市崇川区永兴路中国石化(坤隆加油站)西侧约60米,,1,0,120.818935,32.053194,,enterprise,http://api.map.baidu.com/place/detail?uid=b945fd46b0598fd6d13ce3ae&output=html&source=placeapi_v2,,,,,,,,,,,,,,,,,,120.8189193477,32.053150062565,0
1a410e771ced43a3f02d83ee,南通海鑫机械设备厂,公司企业,厂矿,江苏省,南通市,崇川区,南通市崇川区富民路中国石化(坤隆加油站)西北侧约170米,1a410e771ced43a3f02d83ee,1,0,120.818098,32.054292,,enterprise,http://api.map.baidu.com/place/detail?uid=1a410e771ced43a3f02d83ee&output=html&source=placeapi_v2,,,,,,,,,,,,,,,,,,120.81823634446,32.054326042311,0
05dd7d5f669c9501ad080f0e,南通苏通风机有限公司,公司企业,厂矿,江苏省,南通市,崇川区,江苏省南通市崇川区北市街288号,05dd7d5f669c9501ad080f0e,1,0,120.803821,32.076607,(0513)85544205,enterprise,http://api.map.baidu.com/place/detail?uid=05dd7d5f669c9501ad080f0e&output=html&source=placeapi_v2,,,,,,,,,,,,,,,,,,120.80389615731,32.076451452978,0
38e480374a671c49373a710e,惟越集团有限公司南通市棉织十一厂,公司企业,厂矿,江苏省,南通市,崇川区,江苏省南通市崇川区北市街188号,38e480374a671c49373a710e,1,0,120.802322,32.080011,,enterprise,http://api.map.baidu.com/place/detail?uid=38e480374a671c49373a710e&output=html&source=placeapi_v2,,,,,,,,,,,,,,,,,,120.80246524467,32.080158939194,0
5464de0fcae2ac93c909f03b,恒生电子设备厂,公司企业,厂矿,江苏省,南通市,崇川区,江苏省南通市崇川区深南路188号d座5楼,5464de0fcae2ac93c909f03b,1,0,120.816054,32.052658,,enterprise,http://api.map.baidu.com/place/detail?uid=5464de0fcae2ac93c909f03b&output=html&source=placeapi_v2,,,,,,,,,,,,,,,,,,,,0
2c5b4005b0fd6879c92915f5,南通市三和新型石墨制品厂,公司企业,厂矿,江苏省,南通市,崇川区,江苏省南通市崇川区北市街184号,,1,0,120.805052,32.077382,(0513)85544824,enterprise,http://api.map.baidu.com/place/detail?uid=2c5b4005b0fd6879c92915f5&output=html&source=placeapi_v2,,,,,,,,,,,,,,,,,,,,0
f1e1c914188c74f7b5f42fe7,南通市崇川区银露纯净水饮品厂,公司企业,厂矿,江苏省,南通市,崇川区,南通市崇川区通生路永泰佳园东侧约170米,,1,0,120.851743,32.062091,15950811140,enterprise,http://api.map.baidu.com/place/detail?uid=f1e1c914188c74f7b5f42fe7&output=html&source=placeapi_v2,,,,,,,,,,,,,,,,,,120.85105066591,32.061853673833,0
fd13a3f2507838fab1077d0e,宏丰色织厂,公司企业,厂矿,江苏省,南通市,崇川区,江苏省南通市崇川区长泰路691号,fd13a3f2507838fab1077d0e,1,1,120.838559,32.064451,(0513)85658698,enterprise,http://api.map.baidu.com/place/detail?uid=fd13a3f2507838fab1077d0e&output=html&source=placeapi_v2,,,4,,,,,,,,1,,,,,,,120.83901530972,32.063832636882,1
855148d8d529f783eb56fa42,吉贸力车厂,公司企业,厂矿,江苏省,南通市,崇川区,江苏省南通市崇川区文俊路3号,855148d8d529f783eb56fa42,1,0,120.855129,32.079317,15162768929,enterprise,http://api.map.baidu.com/place/detail?uid=855148d8d529f783eb56fa42&output=html&source=placeapi_v2,,,,,,,,,,,,,,,,,,,,0
d7b6818ec65ec783f219372f,爱尚家床垫厂,公司企业,厂矿,江苏省,南通市,崇川区,江苏省南通市崇川区文俊路2号,d7b6818ec65ec783f219372f,1,0,120.856769,32.078582,13773799158,enterprise,http://api.map.baidu.com/place/detail?uid=d7b6818ec65ec783f219372f&output=html&source=placeapi_v2,0.0,,0,,,,,,,,1,,,,,,,,,0
2e5ad0c3a357068a2806ce39,正大印刷厂,公司企业,厂矿,江苏省,南通市,崇川区,江苏省南通市崇川区幸余路8号,2e5ad0c3a357068a2806ce39,1,0,120.853107,32.082057,(0513)85651489,enterprise,http://api.map.baidu.com/place/detail?uid=2e5ad0c3a357068a2806ce39&output=html&source=placeapi_v2,,,,,,,,,,,,,,,,,,120.85310305505,32.082353511155,0
637df60a4a8b107140afe678,南通石墨设备厂(文俊路),公司企业,厂矿,江苏省,南通市,崇川区,江苏省南通市崇川区顺达路66号,637df60a4a8b107140afe678,1,0,120.85487,32.079029,13906295852,enterprise,http://api.map.baidu.com/place/detail?uid=637df60a4a8b107140afe678&output=html&source=placeapi_v2,,,,,,,,,,,,,,,,,,120.85477291875,32.079246611578,0
2e93bd308a4431e0157643f3,港闸区华岳模具加工厂,公司企业,厂矿,江苏省,南通市,崇川区,南通市崇川区国强路与永达路交叉路口西北侧,2e93bd308a4431e0157643f3,1,0,120.899133,32.065926,,enterprise,http://api.map.baidu.com/place/detail?uid=2e93bd308a4431e0157643f3&output=html&source=placeapi_v2,,,,,,,,,,,,,,,,,,120.89932414067,32.06592591181,0
39142f2dfd6c6e2ad7851fae,南通市惠隆纺织有限公司,公司企业,厂矿,江苏省,南通市,崇川区,南通市崇川区江通路,39142f2dfd6c6e2ad7851fae,1,1,120.906577,32.076403,(0513)85558101,enterprise,http://api.map.baidu.com/place/detail?uid=39142f2dfd6c6e2ad7851fae&output=html&source=placeapi_v2,,,,,,,,,,,,,,,,,,120.90648199977,32.07638302447,1
3abaa6f56cef2785a8175ad7,崇川区英凯模具加工厂,公司企业,厂矿,江苏省,南通市,崇川区,崇川区国强路111号,3abaa6f56cef2785a8175ad7,1,0,120.899808,32.057564,13390988808,enterprise,http://api.map.baidu.com/place/detail?uid=3abaa6f56cef2785a8175ad7&output=html&source=placeapi_v2,,,,,,,,,,,,,,,,,,120.8997312838,32.057565545048,0
49d959389c962740c61e5170,三力船舶修造厂,公司企业,厂矿,江苏省,南通市,崇川区,江苏省南通市崇川区富美路8号,49d959389c962740c61e5170,1,1,120.902081,32.052619,,enterprise,http://api.map.baidu.com/place/detail?uid=49d959389c962740c61e5170&output=html&source=placeapi_v2,,,,,,,,,,,,,,,,,,120.90190551678,32.052497455921,1
c27e3d59aa0acc4293114c36,通力彩钢厂,公司企业,厂矿,江苏省,南通市,崇川区,南通市崇川区江海大道江海财富大厦东南侧,c27e3d59aa0acc4293114c36,1,0,120.889904,32.049368,(0513)85667059,enterprise,http://api.map.baidu.com/place/detail?uid=c27e3d59aa0acc4293114c36&output=html&source=placeapi_v2,,,,,,,,,,,,,,,,,,,,0
d04173e7a77bef76102935d7,打包机厂,公司企业,厂矿,江苏省,南通市,崇川区,江苏省南通市崇川区国强路533号,d04173e7a77bef76102935d7,1,0,120.899588,32.078402,,enterprise,http://api.map.baidu.com/place/detail?uid=d04173e7a77bef76102935d7&output=html&source=placeapi_v2,,,,,,,,,,,,,,,,,,120.89940279181,32.078401224592,0
a87ecdaffa70a55a7adbd2b4,拓驰鞋厂,公司企业,厂矿,江苏省,南通市,崇川区,江苏省南通市崇川区通京大道333号,,1,0,120.907576,32.05607,,enterprise,http://api.map.baidu.com/place/detail?uid=a87ecdaffa70a55a7adbd2b4&output=html&source=placeapi_v2,,,,,,,,,,,,,,,,,,,,0
7ea3a4b1ab2b2289cafa5fb2,南通德怡精密机械厂,公司企业,厂矿,江苏省,南通市,崇川区,江苏南通市崇川区江通路383号,7ea3a4b1ab2b2289cafa5fb2,1,0,120.904142,32.07116,(0513)85661531,enterprise,http://api.map.baidu.com/place/detail?uid=7ea3a4b1ab2b2289cafa5fb2&output=html&source=placeapi_v2,,,,,,,,,,,,,,,,,,,,0
5976b60f09f9ed9ed13ce39e,南通东华花边厂,公司企业,厂矿,江苏省,南通市,崇川区,秦灶镇袁桥村十组,,1,0,120.908344,32.073886,,enterprise,http://api.map.baidu.com/place/detail?uid=5976b60f09f9ed9ed13ce39e&output=html&source=placeapi_v2,,,,,,,,,,,,,,,,,,,,0
d2b116dfcf8c65878605bfe1,上海局集团有限公司南京东机辆段南通车辆运用车间,公司企业,厂矿,江苏省,南通市,崇川区,南通市崇川区工农北路与顺达路交叉路口往西南约180米,d2b116dfcf8c65878605bfe1,1,0,120.885321,32.077332,,enterprise,http://api.map.baidu.com/place/detail?uid=d2b116dfcf8c65878605bfe1&output=html&source=placeapi_v2,,,5,,,,,,,,1,,,,,,,120.88543035837,32.077340741371,0
933834a5821efca6725e807e,南通顺航装饰材料厂,公司企业,厂矿,江苏省,南通市,崇川区,南通市崇川区江通路与江通线交叉口东北马林公司对面,933834a5821efca6725e807e,1,0,120.906676,32.075838,,enterprise,http://api.map.baidu.com/place/detail?uid=933834a5821efca6725e807e&output=html&source=placeapi_v2,,,,,,,,,,,,,,,,,,,,0
09d401af43f2c6d8f942b261,南通豪之瑞纺织品有限公司,公司企业,厂矿,江苏省,南通市,崇川区,江苏省南通市崇川区国强路518号,,1,0,120.902006,32.076606,15962984428,enterprise,http://api.map.baidu.com/place/detail?uid=09d401af43f2c6d8f942b261&output=html&source=placeapi_v2,,,,,,,,,,,,,,,,,,,,0
9161ff4f7e6eefe2f1193712,南通市崇川炜诚液压设备厂,公司企业,厂矿,江苏省,南通市,崇川区,江苏省南通市崇川区秦灶街道袁桥村十组,,1,0,120.906679,32.076584,,enterprise,http://api.map.baidu.com/place/detail?uid=9161ff4f7e6eefe2f1193712&output=html&source=placeapi_v2,,,,,,,,,,,,,,,,,,120.90644792525,32.076559323577,0
