uid,name,cat_L1,cat_L2,province,city,area,address,street_id,detail,child_num,loc_lng,loc_lat,telephone,type,detail_url,price,shop_hours,overall_rating,taste_rating,service_rating,environment_rating,facility_rating,hygiene_rating,technology_rating,image_num,comment_num,groupon_num,discount_num,favorite_num,checkin_num,brand,content_tag,naviloc_lng,naviloc_lat,child_num
6f6244b7efe8a9ed40e1921c,停车场(江海路),交通设施,停车场,江苏省,南通市,崇川区,江苏省南通市崇川区振华路南(通盛南路32-9号),6f6244b7efe8a9ed40e1921c,1,0,120.945529,31.871545,,life,http://api.map.baidu.com/place/detail?uid=6f6244b7efe8a9ed40e1921c&output=html&source=placeapi_v2,,00:00-24:00,,,,,,,,,,,,,,,,,,0
b479de06e78ecc2aa0acc42a,停车场(江韵路),交通设施,停车场,江苏省,南通市,崇川区,南通市崇川区江韵路318-3号附近,,1,0,120.947452,31.875849,,life,http://api.map.baidu.com/place/detail?uid=b479de06e78ecc2aa0acc42a&output=html&source=placeapi_v2,,00:00-24:00,,,,,,,,,,,,,,,,,,0
1a7f1926e78c596d3b221c5b,迈图集团-停车场,交通设施,停车场,江苏省,南通市,崇川区,开发区南通开发区江海路9号迈图集团,,1,1,120.974782,31.864263,,life,http://api.map.baidu.com/place/detail?uid=1a7f1926e78c596d3b221c5b&output=html&source=placeapi_v2,,,,,,,,,,,,,,,,,,120.9767982254,31.865289883947,1
f798c3f801fa60de0c0a70c2,班车停车场,交通设施,停车场,江苏省,南通市,崇川区,南通市崇川区江山路与通达路交叉路口往南约150米,f798c3f801fa60de0c0a70c2,1,0,120.969974,31.853048,,life,http://api.map.baidu.com/place/detail?uid=f798c3f801fa60de0c0a70c2&output=html&source=placeapi_v2,,00:00-24:00,,,,,,,,1,,,,,,,,,,0
8ce49641b4fa2567f6c59ce0,奇华顿食用香精香料(南通)有限公司-停车场,交通设施,停车场,江苏省,南通市,崇川区,南通市崇川区江海路7号,,1,1,120.978271,31.86449,,life,http://api.map.baidu.com/place/detail?uid=8ce49641b4fa2567f6c59ce0&output=html&source=placeapi_v2,,,,,,,,,,,,,,,,,,120.97892688517,31.865590068957,1
b9e6fcb7ee8493c81e1d119f,信越有机硅(南通)有限公司-停车场,交通设施,停车场,江苏省,南通市,崇川区,南通市崇川区通达路85号,,1,1,120.972153,31.853124,,life,http://api.map.baidu.com/place/detail?uid=b9e6fcb7ee8493c81e1d119f&output=html&source=placeapi_v2,,,,,,,,,,,,,,,,,,120.97025272679,31.853132836552,1
70dcf02a84631437b2077dfa,斯福瑞(南通)制药有限公司-停车场,交通设施,停车场,江苏省,南通市,崇川区,南通市崇川区通顺路5号,,1,1,120.979662,31.847114,,life,http://api.map.baidu.com/place/detail?uid=70dcf02a84631437b2077dfa&output=html&source=placeapi_v2,,,,,,,,,,,,,,,,,,120.98152115285,31.848599689616,1
bc79b10c841a5d50bd4842ce,南通新宙邦电子材料有限公司-停车场,交通设施,停车场,江苏省,南通市,崇川区,南通市崇川区江山路986号,bc79b10c841a5d50bd4842ce,1,3,120.970949,31.855339,,life,http://api.map.baidu.com/place/detail?uid=bc79b10c841a5d50bd4842ce&output=html&source=placeapi_v2,,,,,,,,,,,,,,,,,,120.9701786103,31.855619570844,3
bcc2fd6f415fadb5a6da3953,丝路咖精机(南通)有限公司-停车场,交通设施,停车场,江苏省,南通市,崇川区,南通市崇川区通达路100号,,1,1,120.967344,31.868231,,life,http://api.map.baidu.com/place/detail?uid=bcc2fd6f415fadb5a6da3953&output=html&source=placeapi_v2,,,,,,,,,,,,,,,,,,120.96744952313,31.867386050442,1
654dee57c8b42daefbf0cbe5,停车场,交通设施,停车场,江苏省,南通市,崇川区,南通市崇川区太湖路农场农贸市场北侧约100米,654dee57c8b42daefbf0cbe5,1,0,121.007084,31.860923,,life,http://api.map.baidu.com/place/detail?uid=654dee57c8b42daefbf0cbe5&output=html&source=placeapi_v2,,,,,,,,,,,,,,,,,,121.00678070879,31.860898022491,0
97028f4aa8e35d6dc51b758f,停车场(江山路),交通设施,停车场,江苏省,南通市,崇川区,南通市崇川区江山路健康新村小区东侧,,1,0,121.004769,31.856292,,life,http://api.map.baidu.com/place/detail?uid=97028f4aa8e35d6dc51b758f&output=html&source=placeapi_v2,,,,,,,,,,,,,,,,,,,,0
6b085193413a2809c41b75e7,金科醇墅-地下停车场,交通设施,停车场,江苏省,南通市,崇川区,江苏省南通市崇川区乐成路与江嘉路交叉口西南金科醇墅,,1,1,121.018414,31.845182,,life,http://api.map.baidu.com/place/detail?uid=6b085193413a2809c41b75e7&output=html&source=placeapi_v2,,,,,,,,,,,,,,,,,,,,1
dc7c1d21d9f2b7aefa0cad26,星河湾花园-停车场,交通设施,停车场,江苏省,南通市,崇川区,"南通市崇川区经济技术开发区张江公路西,长江中路南星河湾花园",,1,1,121.010234,31.854166,,life,http://api.map.baidu.com/place/detail?uid=dc7c1d21d9f2b7aefa0cad26&output=html&source=placeapi_v2,,,,,,,,,,,,,,,,,,,,1
def230c71b5b943b715e8032,金科醇墅-停车场,交通设施,停车场,江苏省,南通市,崇川区,江苏省南通市崇川区乐成路与江嘉路交叉口西南金科醇墅,,1,1,121.018459,31.844322,,life,http://api.map.baidu.com/place/detail?uid=def230c71b5b943b715e8032&output=html&source=placeapi_v2,,,,,,,,,,,,,,,,,,,,1
afae311aee8c2b17f32d836f,沿江渔场-停车场,交通设施,停车场,江苏省,南通市,海门区,江苏省南通市海门区经济技术开发区长海路沿江渔村沿江渔场,,1,1,121.144366,31.851431,,life,http://api.map.baidu.com/place/detail?uid=afae311aee8c2b17f32d836f&output=html&source=placeapi_v2,,,,,,,,,,,,,,,,,,121.14748993642,31.851673340095,1
43fe1f9a0998d661a2046492,金牛寨度假农庄-停车场,交通设施,停车场,江苏省,南通市,海门市,江苏省南通市海门市三民南路北50米,43fe1f9a0998d661a2046492,1,0,121.152046,31.859835,,life,http://api.map.baidu.com/place/detail?uid=43fe1f9a0998d661a2046492&output=html&source=placeapi_v2,,00:00-24:00,5.0,,,,,,,5,2,,,,,,,,,0
e533221dc3b903f66c3e1bf7,地上停车场,交通设施,停车场,江苏省,南通市,海门区,上海路与黄浦江路交叉口西北200米,,1,0,121.146267,31.849858,,life,http://api.map.baidu.com/place/detail?uid=e533221dc3b903f66c3e1bf7&output=html&source=placeapi_v2,,,,,,,,,,,,,,,,,,,,0
37d6900676723b58c9c3db27,停车场(高店村路),交通设施,停车场,江苏省,南通市,海门区,南通市海门区富江南路与高店村路交叉路口往东约150米,,1,0,121.15641,31.86952,,life,http://api.map.baidu.com/place/detail?uid=37d6900676723b58c9c3db27&output=html&source=placeapi_v2,,00:00-24:00,,,,,,,,1,,,,,,,,121.15620998473,31.869366791804,0
45a3347bf91d4f15744ff1e3,停车场,交通设施,停车场,江苏省,南通市,海门区,江苏省南通市海门区沿江公路行政服务中心(海门市政府旁),45a3347bf91d4f15744ff1e3,1,0,121.189797,31.877982,,life,http://api.map.baidu.com/place/detail?uid=45a3347bf91d4f15744ff1e3&output=html&source=placeapi_v2,,,,,,,,,,,,,,,,,,,,0
5c2967a9e7efc13f774ff1f7,停车场(南京中路),交通设施,停车场,江苏省,南通市,海门区,南通市海门区南京中路海门江海文化公园,,1,0,121.188268,31.872269,,life,http://api.map.baidu.com/place/detail?uid=5c2967a9e7efc13f774ff1f7&output=html&source=placeapi_v2,,,,,,,,,,,,,,,,,,,,0
a19c1f32692174a494031997,中南总部基地-停车场,交通设施,停车场,江苏省,南通市,海门区,江苏省南通市海门区高新区上海路899号中南集团新总部基地,,1,0,121.187762,31.857289,,life,http://api.map.baidu.com/place/detail?uid=a19c1f32692174a494031997&output=html&source=placeapi_v2,,,,,,,,,,,,,,,,,,,,0
e0a2a0d4ec2a541314948e70,嘉陵江商务大厦-停车场,交通设施,停车场,江苏省,南通市,海门区,江苏省-南通市-海门市-张謇大道897号,e0a2a0d4ec2a541314948e70,1,1,121.184946,31.868546,,life,http://api.map.baidu.com/place/detail?uid=e0a2a0d4ec2a541314948e70&output=html&source=placeapi_v2,,,,,,,,,,,,,,,,,,121.18484983826,31.868623993962,1
f2cd8d86aa4b5843a104649b,中南总部基地-地下停车场,交通设施,停车场,江苏省,南通市,海门区,江苏省南通市海门区高新区上海路899号中南集团新总部基地,,1,3,121.18578,31.859008,,life,http://api.map.baidu.com/place/detail?uid=f2cd8d86aa4b5843a104649b&output=html&source=placeapi_v2,,,,,,,,,,,,,,,,,,,,3
005e82e79a3f9994c72ba15b,南通市海门区教育体育局-地下停车场,交通设施,停车场,江苏省,南通市,海门区,南通市海门区张謇大道899号,,1,0,121.185456,31.866626,,life,http://api.map.baidu.com/place/detail?uid=005e82e79a3f9994c72ba15b&output=html&source=placeapi_v2,,00:00-24:00,,,,,,,,,,,,,,,,,,0
ad5e1730f50cb01d2ab97c52,汇智嘉园-地下停车场,交通设施,停车场,江苏省,南通市,海门区,南通市海门区瑞江南路汇智嘉园,,1,0,121.207071,31.874677,,life,http://api.map.baidu.com/place/detail?uid=ad5e1730f50cb01d2ab97c52&output=html&source=placeapi_v2,,,,,,,,,,,,,,,,,,,,0
20aee3065ca42089c72ba157,海门市行政审批局-停车场,交通设施,停车场,江苏省,南通市,海门区,南通市海门区长江南路海门区人民政府,,1,0,121.192469,31.874759,,life,http://api.map.baidu.com/place/detail?uid=20aee3065ca42089c72ba157&output=html&source=placeapi_v2,,00:00-24:00,,,,,,,,,,,,,,,,,,0
0f9cffa9641cc24726e0a03c,停车场(长江南路),交通设施,停车场,江苏省,南通市,海门区,南通市海门区长江南路海门区人民政府,0f9cffa9641cc24726e0a03c,1,0,121.191432,31.877347,,life,http://api.map.baidu.com/place/detail?uid=0f9cffa9641cc24726e0a03c&output=html&source=placeapi_v2,,00:00-24:00,,,,,,,,,,,,,,,,,,0
9ec6e1483c0ba6deb020a846,中南总部基地-停车场,交通设施,停车场,江苏省,南通市,海门区,江苏省南通市海门区高新区上海路899号中南集团新总部基地,,1,3,121.186443,31.857016,,life,http://api.map.baidu.com/place/detail?uid=9ec6e1483c0ba6deb020a846&output=html&source=placeapi_v2,,,,,,,,,,,,,,,,,,121.18825207605,31.856946388126,3
431be9f189b92781931fc945,浦民小区-地下停车场,交通设施,停车场,江苏省,南通市,海门区,江苏省南通市海门区浦民小区(沿江公路南120米),,1,1,121.201615,31.877837,,life,http://api.map.baidu.com/place/detail?uid=431be9f189b92781931fc945&output=html&source=placeapi_v2,,,,,,,,,,,,,,,,,,,,1
71f7c6a885f81aa8ce04efcc,浦民小区-停车场,交通设施,停车场,江苏省,南通市,海门区,江苏省南通市海门区浦民小区(沿江公路南120米),,1,1,121.203025,31.877834,,life,http://api.map.baidu.com/place/detail?uid=71f7c6a885f81aa8ce04efcc&output=html&source=placeapi_v2,,,,,,,,,,,,,,,,,,121.20523054516,31.877933012088,1
58f4b94d3ce3ddcefbdc8526,停车场,交通设施,停车场,江苏省,南通市,崇川区,江苏省南通市崇川区中央路先正达南通作物保护有限公司,58f4b94d3ce3ddcefbdc8526,1,0,120.929132,31.908011,,life,http://api.map.baidu.com/place/detail?uid=58f4b94d3ce3ddcefbdc8526&output=html&source=placeapi_v2,,00:00-24:00,,,,,,,,1,,,,,,,,,,0
338b14bfddd41a957702697b,智慧园-停车场,交通设施,停车场,江苏省,南通市,崇川区,南通市崇川区新东路9号,,1,2,120.948538,31.89901,,life,http://api.map.baidu.com/place/detail?uid=338b14bfddd41a957702697b&output=html&source=placeapi_v2,,,,,,,,,,,,,,,,,,120.94749448817,31.899042605626,2
bde6894e09c4f66da1a934de,南通瑞翔新材料有限公司-停车场,交通设施,停车场,江苏省,南通市,崇川区,南通市崇川区新开南路11号,,1,1,120.941495,31.900864,,life,http://api.map.baidu.com/place/detail?uid=bde6894e09c4f66da1a934de&output=html&source=placeapi_v2,,,,,,,,,,,,,,,,,,120.94064259552,31.901298889695,1
5b1da7361df63c984bcc4a0a,南通励成生物工程有限公司-停车场,交通设施,停车场,江苏省,南通市,崇川区,南通市崇川区新兴东路333号,,1,3,120.950767,31.905038,,life,http://api.map.baidu.com/place/detail?uid=5b1da7361df63c984bcc4a0a&output=html&source=placeapi_v2,,,,,,,,,,,,,,,,,,120.94930909854,31.904981731344,3
b67e2d21b3b9fb2e0782c298,大王(南通)生活用品有限公司-停车场,交通设施,停车场,江苏省,南通市,崇川区,江苏省南通市崇川区通盛大道66号(通盛大道与常兴路交叉口西北角)大王(南通)生活用品有限公司,b67e2d21b3b9fb2e0782c298,1,1,120.954566,31.895664,,life,http://api.map.baidu.com/place/detail?uid=b67e2d21b3b9fb2e0782c298&output=html&source=placeapi_v2,,,,,,,,,,,,,,,,,,120.95415096524,31.8940913897,1
392a6c7dc7d8006d59bbbc3f,东丽高新聚化(南通)有限公司-停车场,交通设施,停车场,江苏省,南通市,崇川区,南通市崇川区新开南路56号,,1,1,120.940275,31.903852,,life,http://api.map.baidu.com/place/detail?uid=392a6c7dc7d8006d59bbbc3f&output=html&source=placeapi_v2,,,,,,,,,,,,,,,,,,120.93725831665,31.903739115393,1
ded8b532202312822b06cef0,南通银宝山新科技有限公司-停车场,交通设施,停车场,江苏省,南通市,崇川区,南通市崇川区新景路32号,,1,1,120.953412,31.904482,,life,http://api.map.baidu.com/place/detail?uid=ded8b532202312822b06cef0&output=html&source=placeapi_v2,,,,,,,,,,,,,,,,,,120.95356049286,31.904299135514,1
2d2021b70018f68d9cec2b3e,赫尔思曼汽车技术(南通)有限公司-停车场,交通设施,停车场,江苏省,南通市,崇川区,南通市崇川区新景路22号,,1,1,120.951487,31.900672,,life,http://api.map.baidu.com/place/detail?uid=2d2021b70018f68d9cec2b3e&output=html&source=placeapi_v2,,,,,,,,,,,,,,,,,,120.95064757375,31.900421894403,1
3170095aa64c87073210af65,停车场,交通设施,停车场,江苏省,南通市,崇川区,南通市崇川区瑞兴路南通经济开发区公安分局竹行派出所东北侧约250米,3170095aa64c87073210af65,1,0,120.99906,31.903702,,life,http://api.map.baidu.com/place/detail?uid=3170095aa64c87073210af65&output=html&source=placeapi_v2,,00:00-24:00,,,,,,,,,,,,,,,,,,0
19dfea894833e7fb42d63e04,人力三轮车-停车场,交通设施,停车场,江苏省,南通市,崇川区,南通市崇川区瑞兴路星辰花园,19dfea894833e7fb42d63e04,1,0,120.985911,31.906051,,life,http://api.map.baidu.com/place/detail?uid=19dfea894833e7fb42d63e04&output=html&source=placeapi_v2,,00:00-24:00,,,,,,,,1,,,,,,,,,,0
12df9915186dafdbf60e7719,乐活邻里-停车场,交通设施,停车场,江苏省,南通市,崇川区,南通市崇川区竹林路星怡花园-东区东南侧约70米,,1,1,120.992184,31.909837,,life,http://api.map.baidu.com/place/detail?uid=12df9915186dafdbf60e7719&output=html&source=placeapi_v2,,,,,,,,,,1,,,,,,,,120.99225963706,31.909945449511,1
50ab9e8fc484d1f199005064,瑞兴花园-地下停车场,交通设施,停车场,江苏省,南通市,崇川区,江苏省南通市崇川区瑞兴花园(竹林路东200米)瑞兴花园,,1,1,120.9953,31.905427,,life,http://api.map.baidu.com/place/detail?uid=50ab9e8fc484d1f199005064&output=html&source=placeapi_v2,,,,,,,,,,,,,,,,,,,,1
e61c62e1125935d5f7b916ec,瑞兴花园-地下停车场,交通设施,停车场,江苏省,南通市,崇川区,江苏省南通市崇川区瑞兴花园(竹林路东200米)瑞兴花园,,1,1,120.993711,31.905423,,life,http://api.map.baidu.com/place/detail?uid=e61c62e1125935d5f7b916ec&output=html&source=placeapi_v2,,,,,,,,,,,,,,,,,,,,1
76c4613c3da32afb9eec2b40,瑞兴花园-停车场,交通设施,停车场,江苏省,南通市,崇川区,江苏省南通市崇川区瑞兴花园(竹林路东200米)瑞兴花园,,1,1,120.992744,31.906659,,life,http://api.map.baidu.com/place/detail?uid=76c4613c3da32afb9eec2b40&output=html&source=placeapi_v2,,,,,,,,,,,,,,,,,,120.99406363754,31.904815045119,1
b419c1b1eccf092fb6147fd5,星辰花园-停车场,交通设施,停车场,江苏省,南通市,崇川区,江苏省南通市崇川区瑞兴路112号,,1,0,120.983873,31.906492,,life,http://api.map.baidu.com/place/detail?uid=b419c1b1eccf092fb6147fd5&output=html&source=placeapi_v2,,,,,,,,,,,,,,,,,,,,0
392ed422cedba9158bb98875,竹行星怡农贸市场-停车场,交通设施,停车场,江苏省,南通市,崇川区,江苏省南通市崇川区星怡花园(东区),392ed422cedba9158bb98875,1,0,120.991467,31.910677,,life,http://api.map.baidu.com/place/detail?uid=392ed422cedba9158bb98875&output=html&source=placeapi_v2,,00:00-24:00,,,,,,,,1,,,,,,,,,,0
22f0ec126b1d17aef60e77d1,星辰花园-停车场,交通设施,停车场,江苏省,南通市,崇川区,南通市崇川区瑞兴路100号星辰花园,,1,1,120.98667,31.906659,,life,http://api.map.baidu.com/place/detail?uid=22f0ec126b1d17aef60e77d1&output=html&source=placeapi_v2,,,,,,,,,,,,,,,,,,120.98615918685,31.90612954561,1
7119a0cd70ad90f015c90538,竹行村-临时停车场,交通设施,停车场,江苏省,南通市,崇川区,南通市崇川区瑞兴路85号,7119a0cd70ad90f015c90538,1,0,120.989527,31.904947,,life,http://api.map.baidu.com/place/detail?uid=7119a0cd70ad90f015c90538&output=html&source=placeapi_v2,,00:00-24:00,,,,,,,,2,,,,,,,,120.98953989046,31.905106874577,0
84d90ce28fe6669d5fd4fe05,瑞兴花园-地下停车场,交通设施,停车场,江苏省,南通市,崇川区,江苏省南通市崇川区瑞兴花园(竹林路东200米)瑞兴花园,84d90ce28fe6669d5fd4fe05,1,1,120.994731,31.907276,,life,http://api.map.baidu.com/place/detail?uid=84d90ce28fe6669d5fd4fe05&output=html&source=placeapi_v2,,,,,,,,,,,,,,,,,,,,1
cf7efe57396d37e0accb664d,星辰花园-地下停车场,交通设施,停车场,江苏省,南通市,崇川区,南通市崇川区瑞兴路100号星辰花园,,1,1,120.986104,31.907449,,life,http://api.map.baidu.com/place/detail?uid=cf7efe57396d37e0accb664d&output=html&source=placeapi_v2,,,,,,,,,,,,,,,,,,,,1
acaf10ea4d5187df2a02e185,星竹花园-停车场,交通设施,停车场,江苏省,南通市,崇川区,江苏省南通市崇川区瑞兴路98号星竹花园,,1,1,120.989904,31.905686,,life,http://api.map.baidu.com/place/detail?uid=acaf10ea4d5187df2a02e185&output=html&source=placeapi_v2,,,,,,,,,,,,,,,,,,120.98962345533,31.905477469658,1
c266f7d76724a79f1ef74d09,星辰花园-地下停车场,交通设施,停车场,江苏省,南通市,崇川区,南通市崇川区瑞兴路100号星辰花园,,1,1,120.986174,31.908629,,life,http://api.map.baidu.com/place/detail?uid=c266f7d76724a79f1ef74d09&output=html&source=placeapi_v2,,,,,,,,,,,,,,,,,,,,1
a4b2cd7c0b01274f4bcc4af9,玫斯江苏宠物食品科技有限公司-停车场,交通设施,停车场,江苏省,南通市,崇川区,南通市崇川区景兴路22号,,1,1,120.967145,31.888804,,life,http://api.map.baidu.com/place/detail?uid=a4b2cd7c0b01274f4bcc4af9&output=html&source=placeapi_v2,,,,,,,,,,,,,,,,,,120.96766200202,31.888112434337,1
c05bc7024793bde03b221c34,江苏人先医疗科技有限公司-停车场,交通设施,停车场,江苏省,南通市,崇川区,东方大道与长洪路交叉口东100米,,1,0,120.981871,31.885357,,life,http://api.map.baidu.com/place/detail?uid=c05bc7024793bde03b221c34&output=html&source=placeapi_v2,,00:00-24:00,,,,,,,,,,,,,,,,120.98176028897,31.885413667367,0
bfebc8c1193b33aae115f9d3,南通市竹行街道社区卫生服务中心-停车场,交通设施,停车场,江苏省,南通市,崇川区,南通市崇川区竹林路南通市竹行小学东侧约120米,bfebc8c1193b33aae115f9d3,1,0,120.992708,31.909351,,life,http://api.map.baidu.com/place/detail?uid=bfebc8c1193b33aae115f9d3&output=html&source=placeapi_v2,,00:00-24:00,,,,,,,,,,,,,,,,,,0
8870c825ae63b25ced74f8cf,炜赋・星怡花园-停车场,交通设施,停车场,江苏省,南通市,崇川区,南通市崇川区东方大道,8870c825ae63b25ced74f8cf,1,1,120.987105,31.910427,,life,http://api.map.baidu.com/place/detail?uid=8870c825ae63b25ced74f8cf&output=html&source=placeapi_v2,,,,,,,,,,,,,,,,,,120.98512807854,31.909974652136,1
0f627d2c4ce1fed409b93ad8,格林联盟酒店(南通开发区竹行镇店)-停车场,交通设施,停车场,江苏省,南通市,崇川区,开发区竹行街道星竹花园26幢(工贸技师学校向东2000米)格林联盟酒店(竹行店)附近,0f627d2c4ce1fed409b93ad8,1,0,120.99172,31.907165,,life,http://api.map.baidu.com/place/detail?uid=0f627d2c4ce1fed409b93ad8&output=html&source=placeapi_v2,,00:00-24:00,,,,,,,,,,,,,,,,,,0
baa7f9d6f1475d129cf779b2,星怡花园西区-地下停车场,交通设施,停车场,江苏省,南通市,崇川区,南通市崇川区振兴东路259号星怡花园西区,,1,1,120.984083,31.910563,,life,http://api.map.baidu.com/place/detail?uid=baa7f9d6f1475d129cf779b2&output=html&source=placeapi_v2,,,,,,,,,,,,,,,,,,,,1
cdb37d576afa99cd6fc02c23,炜赋・星怡花园-停车场,交通设施,停车场,江苏省,南通市,崇川区,南通市崇川区振兴东路与星宇路交叉口西南150米,,1,1,120.987467,31.911584,,life,http://api.map.baidu.com/place/detail?uid=cdb37d576afa99cd6fc02c23&output=html&source=placeapi_v2,,,,,,,,,,,,,,,,,,120.98796731774,31.911290287406,1
99cee608ad830a47cd04ef64,停车场(竹行政法综治工作中心西),交通设施,停车场,江苏省,南通市,崇川区,南通市崇川区瑞兴路南通市竹行中学北侧约40米,,1,0,120.995155,31.904235,,life,http://api.map.baidu.com/place/detail?uid=99cee608ad830a47cd04ef64&output=html&source=placeapi_v2,,,,,,,,,,1,,,,,,,,,,0
39c4e7a8b6b1e3c84002454d,星怡花园西区-地下停车场,交通设施,停车场,江苏省,南通市,崇川区,南通市崇川区振兴东路259号星怡花园西区,,1,0,120.984156,31.911685,,life,http://api.map.baidu.com/place/detail?uid=39c4e7a8b6b1e3c84002454d&output=html&source=placeapi_v2,,,,,,,,,,,,,,,,,,,,0
81e5fa89b27f6dedc909f0da,星怡花园西区-地下停车场,交通设施,停车场,江苏省,南通市,崇川区,南通市崇川区振兴东路259号星怡花园西区,,1,1,120.986816,31.910151,,life,http://api.map.baidu.com/place/detail?uid=81e5fa89b27f6dedc909f0da&output=html&source=placeapi_v2,,,,,,,,,,,,,,,,,,,,1
954404d99dbd36423913fd4c,星怡花园东区-停车场,交通设施,停车场,江苏省,南通市,崇川区,南通市崇川区竹行镇振兴东路星怡花园东区,,1,0,120.989148,31.911378,,life,http://api.map.baidu.com/place/detail?uid=954404d99dbd36423913fd4c&output=html&source=placeapi_v2,,,,,,,,,,,,,,,,,,,,0
e8e4242b37ab025c21026266,星怡花园西区-地下停车场,交通设施,停车场,江苏省,南通市,崇川区,南通市崇川区振兴东路259号星怡花园西区,,1,1,120.986674,31.911169,,life,http://api.map.baidu.com/place/detail?uid=e8e4242b37ab025c21026266&output=html&source=placeapi_v2,,,,,,,,,,,,,,,,,,,,1
578781e751058f19c7f025e3,南通好得家装饰城-停车场,交通设施,停车场,江苏省,南通市,通州区,江苏省南通市通州区S336南通好得家装饰城东南侧约220米,,1,0,121.021522,31.91174,,life,http://api.map.baidu.com/place/detail?uid=578781e751058f19c7f025e3&output=html&source=placeapi_v2,,,,,,,,,,,,,,,,,,,,0
e9cb0bb4521814ee95f08c6d,停车场(张江公路),交通设施,停车场,江苏省,南通市,崇川区,江苏省南通市崇川区瑞兴路2号,e9cb0bb4521814ee95f08c6d,1,0,121.00771,31.901833,,life,http://api.map.baidu.com/place/detail?uid=e9cb0bb4521814ee95f08c6d&output=html&source=placeapi_v2,,00:00-24:00,,,,,,,,,,,,,,,,,,0
267324e56d7ee488ebe582f2,汪洋创业园-停车场,交通设施,停车场,江苏省,南通市,通州区,南通市通州区G345汪洋创业园,,1,0,121.028633,31.910145,,life,http://api.map.baidu.com/place/detail?uid=267324e56d7ee488ebe582f2&output=html&source=placeapi_v2,,00:00-24:00,,,,,,,,,,,,,,,,,,0
2905fb53845031aaf942b29a,五洲幸福湾-停车场,交通设施,停车场,江苏省,南通市,通州区,南通市通州区银杏路五洲幸福湾,,1,1,121.029803,31.907245,,life,http://api.map.baidu.com/place/detail?uid=2905fb53845031aaf942b29a&output=html&source=placeapi_v2,,00:00-24:00,,,,,,,,,,,,,,,,121.02986132141,31.907154049398,1
ac004c515a810bd8e6e965de,南通五洲国际汽车博览城-停车场,交通设施,停车场,江苏省,南通市,通州区,南通市通州区G345五洲国际汽车博览城,,1,0,121.035747,31.907847,,life,http://api.map.baidu.com/place/detail?uid=ac004c515a810bd8e6e965de&output=html&source=placeapi_v2,,00:00-24:00,,,,,,,,,,,,,,,,,,0
9a119c6bcaa3a4f0593ac857,南通五洲国际汽车博览城-停车场,交通设施,停车场,江苏省,南通市,通州区,南通市通州区G345五洲国际汽车博览城,,1,0,121.033311,31.908694,,life,http://api.map.baidu.com/place/detail?uid=9a119c6bcaa3a4f0593ac857&output=html&source=placeapi_v2,,,,,,,,,,,,,,,,,,,,0
c6893e60d80f815802294f68,停车场,交通设施,停车场,江苏省,南通市,海门区,南通市海门区金天路中国石化加油站(三和站)南侧约150米,,1,0,121.13034,31.891656,,life,http://api.map.baidu.com/place/detail?uid=c6893e60d80f815802294f68&output=html&source=placeapi_v2,,,,,,,,,,,,,,,,,,,,0
1644e9c615335895d1f49e0e,停车场,交通设施,停车场,江苏省,南通市,海门区,南通市海门区人民西路鑫博商务酒店西侧约210米,,1,0,121.158117,31.897657,,life,http://api.map.baidu.com/place/detail?uid=1644e9c615335895d1f49e0e&output=html&source=placeapi_v2,,,,,,,,,,1,,,,,,,,,,0
b51e4af9503a0941364aae1e,停车场,交通设施,停车场,江苏省,南通市,海门区,南通市海门区富江路海门大千商贸城东南侧约60米,,1,0,121.154323,31.894356,,life,http://api.map.baidu.com/place/detail?uid=b51e4af9503a0941364aae1e&output=html&source=placeapi_v2,,00:00-24:00,,,,,,,,1,,,,,,,,,,0
a5e4894b07445f0e16a19053,停车场,交通设施,停车场,江苏省,南通市,海门区,江苏省南通市海门区秀山西路长秀花苑,,1,0,121.148481,31.887847,,life,http://api.map.baidu.com/place/detail?uid=a5e4894b07445f0e16a19053&output=html&source=placeapi_v2,,,,,,,,,,1,,,,,,,,,,0
852ff51cd087cfdb230220b2,停车场,交通设施,停车场,江苏省,南通市,海门区,江苏省南通市海门区海兴中路五港新村,,1,0,121.16855,31.887929,,life,http://api.map.baidu.com/place/detail?uid=852ff51cd087cfdb230220b2&output=html&source=placeapi_v2,,,,,,,,,,1,,,,,,,,,,0
ccbd9f59dcf640c5da2f280f,停车场,交通设施,停车场,江苏省,南通市,海门区,南通市海门区秀山路南通市海门区直机关幼儿园西南侧约130米,,1,0,121.17164,31.890578,,life,http://api.map.baidu.com/place/detail?uid=ccbd9f59dcf640c5da2f280f&output=html&source=placeapi_v2,,,,,,,,,,,,,,,,,,,,0
9c46b93c8675323f081cc720,停车场,交通设施,停车场,江苏省,南通市,海门区,南通市海门区富江路嘉禾苑东侧约60米,,1,0,121.154343,31.904288,,life,http://api.map.baidu.com/place/detail?uid=9c46b93c8675323f081cc720&output=html&source=placeapi_v2,,,,,,,,,,,,,,,,,,,,0
690f930ed26a91a6a6da39e2,停车场,交通设施,停车场,江苏省,南通市,海门区,南通市海门区人民西路中国石化加油站(三和站)东南侧约260米,,1,0,121.13258,31.892025,,life,http://api.map.baidu.com/place/detail?uid=690f930ed26a91a6a6da39e2&output=html&source=placeapi_v2,,,,,,,,,,1,,,,,,,,,,0
e4809c896bc5db44130daaed,停车场,交通设施,停车场,江苏省,南通市,海门区,南通市海门区通江路九龙墅云起苑西南侧约40米,,1,0,121.159604,31.880861,,life,http://api.map.baidu.com/place/detail?uid=e4809c896bc5db44130daaed&output=html&source=placeapi_v2,,,,,,,,,,1,,,,,,,,,,0
93d542bb95459f1a2bd7abdd,停车场,交通设施,停车场,江苏省,南通市,海门区,南通市海门区新海路富江一品花园-东区,,1,0,121.160776,31.902147,,life,http://api.map.baidu.com/place/detail?uid=93d542bb95459f1a2bd7abdd&output=html&source=placeapi_v2,,,,,,,,,,,,,,,,,,,,0
6052572e5bdc6fa8a1d230d5,停车场,交通设施,停车场,江苏省,南通市,海门区,南通市海门区通江路富江一品花园-东区,,1,0,121.158442,31.903125,,life,http://api.map.baidu.com/place/detail?uid=6052572e5bdc6fa8a1d230d5&output=html&source=placeapi_v2,,,,,,,,,,,,,,,,,,,,0
850e23502147b12488f15da3,地上停车场,交通设施,停车场,江苏省,南通市,海门区,南通市海门区富江路海门大千商贸城东侧约30米,,1,0,121.154293,31.895294,,life,http://api.map.baidu.com/place/detail?uid=850e23502147b12488f15da3&output=html&source=placeapi_v2,,00:00-24:00,,,,,,,,,,,,,,,,,,0
00f0a3e4bae92e0aad31e52b,凯盛家纺股份有限公司(富江路店)-停车场,交通设施,停车场,江苏省,南通市,海门区,南通市海门区富江路海门大千汽车客运站东北侧约210米,,1,0,121.154272,31.898501,,life,http://api.map.baidu.com/place/detail?uid=00f0a3e4bae92e0aad31e52b&output=html&source=placeapi_v2,,00:00-24:00,,,,,,,,1,,,,,,,,,,0
d87580d70c616457b8bd633e,海门大千商贸城-停车场,交通设施,停车场,江苏省,南通市,海门区,南通市海门区富江路海门大千商贸城东南侧,d87580d70c616457b8bd633e,1,1,121.154003,31.895069,,life,http://api.map.baidu.com/place/detail?uid=d87580d70c616457b8bd633e&output=html&source=placeapi_v2,,,,,,,,,,,,,,,,,,121.15403611087,31.895340882725,1
64d787d561f09d7c0b1cc73c,停车场,交通设施,停车场,江苏省,南通市,海门区,江海路192-196号附近,64d787d561f09d7c0b1cc73c,1,0,121.172287,31.901354,,life,http://api.map.baidu.com/place/detail?uid=64d787d561f09d7c0b1cc73c&output=html&source=placeapi_v2,,00:00-24:00,,,,,,,,1,,,,,,,,,,0
25045b258b7685f6c9c3db9d,老的公安局-停车场,交通设施,停车场,江苏省,南通市,海门区,南通市海门区经济技术开发区江海路58号,25045b258b7685f6c9c3db9d,1,0,121.172449,31.898238,,life,http://api.map.baidu.com/place/detail?uid=25045b258b7685f6c9c3db9d&output=html&source=placeapi_v2,,,,,,,,,,2,,,,,,,,,,0
772809480d04850dc929158d,停车场(解放西路),交通设施,停车场,江苏省,南通市,海门区,南通市海门区海兴路腾达花园-北区,,1,0,121.165758,31.900965,,life,http://api.map.baidu.com/place/detail?uid=772809480d04850dc929158d&output=html&source=placeapi_v2,,,,,,,,,,1,,,,,,,,,,0
d3faaadb0591dba857bfffa5,三联大厦(秀山路)-停车场,交通设施,停车场,江苏省,南通市,海门区,江苏省南通市海门区秀山西路588号,d3faaadb0591dba857bfffa5,1,1,121.163603,31.889461,,life,http://api.map.baidu.com/place/detail?uid=d3faaadb0591dba857bfffa5&output=html&source=placeapi_v2,,00:00-24:00,,,,,,,,1,,,,,,,,121.16353887402,31.889572380219,1
abdc165a976729fbc356ac5f,地上停车场,交通设施,停车场,江苏省,南通市,海门区,南通市海门区张南弄海兴新村,,1,0,121.162909,31.897242,,life,http://api.map.baidu.com/place/detail?uid=abdc165a976729fbc356ac5f&output=html&source=placeapi_v2,,,,,,,,,,1,,,,,,,,,,0
0a8cd3000f8ded82a10464d0,海悦名都-停车场,交通设施,停车场,江苏省,南通市,海门区,江苏省南通市海门区海兴中路555号,0a8cd3000f8ded82a10464d0,1,1,121.16536,31.894824,,life,http://api.map.baidu.com/place/detail?uid=0a8cd3000f8ded82a10464d0&output=html&source=placeapi_v2,,,,,,,,,,,,,,,,,,121.16544316671,31.894795508323,1
d2bd549f31e243ed72210be2,皇储家纺(秀山路店)-停车场,交通设施,停车场,江苏省,南通市,海门区,南通市海门区秀山西路海门皇家花园酒店(秀山西路店)西侧约150米,d2bd549f31e243ed72210be2,1,0,121.154661,31.889555,,life,http://api.map.baidu.com/place/detail?uid=d2bd549f31e243ed72210be2&output=html&source=placeapi_v2,,00:00-24:00,,,,,,,,1,,,,,,,,,,0
c87bccac7059f5fc246e987e,海门文峰广场-停车场,交通设施,停车场,江苏省,南通市,海门区,南通市海门区江海路海门文峰广场,c87bccac7059f5fc246e987e,1,1,121.171811,31.900324,,life,http://api.map.baidu.com/place/detail?uid=c87bccac7059f5fc246e987e&output=html&source=placeapi_v2,,00:00-24:00,,,,,,,,4,,,,,,,,121.1718582107,31.900278476628,1
fb0779e101ae74b0b34c49b8,海门区党风廉政建设教育中心-停车场,交通设施,停车场,江苏省,南通市,海门区,南通市海门区秀山西路海门皇家花园酒店(秀山西路店)东北侧约60米,,1,0,121.157869,31.889813,,life,http://api.map.baidu.com/place/detail?uid=fb0779e101ae74b0b34c49b8&output=html&source=placeapi_v2,,00:00-24:00,,,,,,,,,,,,,,,,,,0
a1b8c5e50115b1af42d63e10,千禧花园酒店-停车场,交通设施,停车场,江苏省,南通市,海门区,江苏省南通市海门区秀山西路海门皇家花园酒店(秀山西路店),,1,1,121.156805,31.889465,,life,http://api.map.baidu.com/place/detail?uid=a1b8c5e50115b1af42d63e10&output=html&source=placeapi_v2,,00:00-24:00,,,,,,,,,,,,,,,,121.15714932574,31.888461239757,1
cca2be33f8f0a55957bfff78,地上停车场,交通设施,停车场,江苏省,南通市,海门区,江苏省南通市海门区南海路第一实验小学北侧约270米,,1,0,121.16798,31.884819,,life,http://api.map.baidu.com/place/detail?uid=cca2be33f8f0a55957bfff78&output=html&source=placeapi_v2,,00:00-24:00,,,,,,,,1,,,,,,,,,,0
ea472ff237d18c8688db7399,橙子快捷酒店-停车场,交通设施,停车场,江苏省,南通市,海门区,江苏省南通市海门区人民西路420号(海门汽车站东),ea472ff237d18c8688db7399,1,0,121.1668,31.895196,,life,http://api.map.baidu.com/place/detail?uid=ea472ff237d18c8688db7399&output=html&source=placeapi_v2,,00:00-24:00,,,,,,,,1,,,,,,,,,,0
8fd468f8a03bfcff5c0d0270,万和家园-停车场,交通设施,停车场,江苏省,南通市,海门区,江苏省南通市海门区黄海中路2060号万和家园,,1,3,121.160713,31.885494,,life,http://api.map.baidu.com/place/detail?uid=8fd468f8a03bfcff5c0d0270&output=html&source=placeapi_v2,,,,,,,,,,,,,,,,,,121.16058774998,31.886679787372,3
d61780bedd3316f61d580005,千禧花园酒店-停车场(秀山西路店),交通设施,停车场,江苏省,南通市,海门区,南通市海门区秀山西路海门皇家花园酒店(秀山西路店),d61780bedd3316f61d580005,1,0,121.157512,31.88881,,life,http://api.map.baidu.com/place/detail?uid=d61780bedd3316f61d580005&output=html&source=placeapi_v2,,00:00-24:00,,,,,,,,,,,,,,,,,,0
9cca7e7e6f6c1bfcf8f0cbb5,南通华驰汽车贸易有限公司-停车场,交通设施,停车场,江苏省,南通市,海门区,南通市海门区人民西路1518号,,1,1,121.135538,31.893477,,life,http://api.map.baidu.com/place/detail?uid=9cca7e7e6f6c1bfcf8f0cbb5&output=html&source=placeapi_v2,,,,,,,,,,,,,,,,,,121.13596009537,31.893693074361,1
8f0444c19a2860cdca213d17,文峰广场-南广场停车场,交通设施,停车场,江苏省,南通市,海门区,南通市海门区江海路63-73号附近,8f0444c19a2860cdca213d17,1,1,121.171793,31.899842,,life,http://api.map.baidu.com/place/detail?uid=8f0444c19a2860cdca213d17&output=html&source=placeapi_v2,,00:00-24:00,,,,,,,,2,,,,,,,,121.17114559662,31.899912295234,1
e854e6aafc15c04707fef55b,江苏省苏中农副产品交易中心-停车场,交通设施,停车场,江苏省,南通市,海门区,南通市海门区富江路水果批发市场,e854e6aafc15c04707fef55b,1,0,121.153832,31.8878,,life,http://api.map.baidu.com/place/detail?uid=e854e6aafc15c04707fef55b&output=html&source=placeapi_v2,,00:00-24:00,,,,,,,,,,,,,,,,,,0
b5ba1a4fdb77326fb9df8f53,南通永泰国际大酒店-停车场,交通设施,停车场,江苏省,南通市,海门区,江苏省南通市海门区解放西路179号,b5ba1a4fdb77326fb9df8f53,1,0,121.165713,31.899874,(0513)82191111,life,http://api.map.baidu.com/place/detail?uid=b5ba1a4fdb77326fb9df8f53&output=html&source=placeapi_v2,,00:00-24:00,0.0,,,,,,,1,,,,,,,,121.16576032875,31.900234725236,0
4913192f0caf5f605f0d02fa,金色维也纳-停车场,交通设施,停车场,江苏省,南通市,海门区,南通市海门区江海路307号,,1,1,121.170443,31.904646,,life,http://api.map.baidu.com/place/detail?uid=4913192f0caf5f605f0d02fa&output=html&source=placeapi_v2,,,,,,,,,,,,,,,,,,,,1
12424c9f1d4a749e1f3894ae,长秀花苑-停车场,交通设施,停车场,江苏省,南通市,海门区,南通市海门区秀山西路长秀花苑,,1,1,121.147845,31.888528,,life,http://api.map.baidu.com/place/detail?uid=12424c9f1d4a749e1f3894ae&output=html&source=placeapi_v2,,00:00-24:00,,,,,,,,1,,,,,,,,121.14787243491,31.888523631114,1
d6fef0cccd408a91754ff145,欣和家园-停车场,交通设施,停车场,江苏省,南通市,海门区,南通市海门区丝绸西路328号,,1,1,121.163105,31.904203,,life,http://api.map.baidu.com/place/detail?uid=d6fef0cccd408a91754ff145&output=html&source=placeapi_v2,,,,,,,,,,,,,,,,,,,,1
c7b62268204753bfe31103ab,海上海现代综合社区-停车场,交通设施,停车场,江苏省,南通市,海门区,江苏省南通市海门区海兴中路555号,c7b62268204753bfe31103ab,1,0,121.165133,31.895947,,life,http://api.map.baidu.com/place/detail?uid=c7b62268204753bfe31103ab&output=html&source=placeapi_v2,,,,,,,,,,1,,,,,,,,,,0
2f41118c88bb632c0f0a7073,南通市海门区能仁小学-停车场,交通设施,停车场,江苏省,南通市,海门区,南通市海门区新海路南通市海门区能仁小学西南侧约30米,,1,0,121.163426,31.902024,,life,http://api.map.baidu.com/place/detail?uid=2f41118c88bb632c0f0a7073&output=html&source=placeapi_v2,,,,,,,,,,1,,,,,,,,,,0
7e979c4790b9b650f603b8e2,东海新村-停车场,交通设施,停车场,江苏省,南通市,海门区,江苏省南通市海门区南海路与新秀中路交叉口东南方向东海新村,7e979c4790b9b650f603b8e2,1,1,121.166162,31.88232,,life,http://api.map.baidu.com/place/detail?uid=7e979c4790b9b650f603b8e2&output=html&source=placeapi_v2,,,,,,,,,,,,,,,,,,121.16748913656,31.883508242982,1
86e7f858decdfa7b26e0a0eb,港南小区-停车场,交通设施,停车场,江苏省,南通市,海门区,南通市海门区黄海中路1602号-1号附近,86e7f858decdfa7b26e0a0eb,1,3,121.166079,31.885485,,life,http://api.map.baidu.com/place/detail?uid=86e7f858decdfa7b26e0a0eb&output=html&source=placeapi_v2,,,,,,,,,,,,,,,,,,121.16615553915,31.884252868524,3
2ec492db88a6c38c0869d9c3,香菜馆(人民西路店)-停车场,交通设施,停车场,江苏省,南通市,海门区,南通市海门区人民西路与毕经路交叉路口往西约150米,,1,0,121.138812,31.895603,,life,http://api.map.baidu.com/place/detail?uid=2ec492db88a6c38c0869d9c3&output=html&source=placeapi_v2,,00:00-24:00,,,,,,,,,,,,,,,,,,0
afeca0035acfe7a9eee4a521,海门市党风廉政建设教育中心-停车场,交通设施,停车场,江苏省,南通市,海门区,南通市海门区秀山西路海门皇家花园酒店(秀山西路店)东侧约200米,,1,0,121.15981,31.889794,,life,http://api.map.baidu.com/place/detail?uid=afeca0035acfe7a9eee4a521&output=html&source=placeapi_v2,,,,,,,,,,1,,,,,,,,,,0
1aa467c395a130cbb23c81d4,欣和家园-地下停车场,交通设施,停车场,江苏省,南通市,海门区,南通市海门区丝绸路欣和家园,,1,1,121.163608,31.904759,,life,http://api.map.baidu.com/place/detail?uid=1aa467c395a130cbb23c81d4&output=html&source=placeapi_v2,,,,,,,,,,,,,,,,,,,,1
afb449ec7251fbdfeb1e9748,海秀花园-地下停车场,交通设施,停车场,江苏省,南通市,海门区,南通市海门区海兴中路319号海秀花园,afb449ec7251fbdfeb1e9748,1,1,121.164896,31.892554,,life,http://api.map.baidu.com/place/detail?uid=afb449ec7251fbdfeb1e9748&output=html&source=placeapi_v2,,,,,,,,,,,,,,,,,,,,1
60a9ab8ee2d6bddc9b68b4f0,万和家园-地下停车场,交通设施,停车场,江苏省,南通市,海门区,南通市海门区黄海中路2060号万和家园,60a9ab8ee2d6bddc9b68b4f0,1,1,121.160373,31.886226,,life,http://api.map.baidu.com/place/detail?uid=60a9ab8ee2d6bddc9b68b4f0&output=html&source=placeapi_v2,,,,,,,,,,,,,,,,,,,,1
128f3bb1e89b2a4b06026f16,海秀花园-地下停车场,交通设施,停车场,江苏省,南通市,海门区,南通市海门区海兴中路319号海秀花园,,1,1,121.165314,31.890378,,life,http://api.map.baidu.com/place/detail?uid=128f3bb1e89b2a4b06026f16&output=html&source=placeapi_v2,,,,,,,,,,,,,,,,,,,,1
a6214f5d277e2c8aae0457bf,九龙墅云起苑-停车场,交通设施,停车场,江苏省,南通市,海门区,南通市海门区通江中路198号九龙墅云起苑,a6214f5d277e2c8aae0457bf,1,1,121.161734,31.882352,,life,http://api.map.baidu.com/place/detail?uid=a6214f5d277e2c8aae0457bf&output=html&source=placeapi_v2,,,,,,,,,,,,,,,,,,121.16321436654,31.882868400413,1
9a4d3ac3b8409c7df82d61e6,一号车库,交通设施,停车场,江苏省,南通市,海门区,江苏省南通市海门区高新区港南小区9幢,,1,0,121.16712,31.886371,,life,http://api.map.baidu.com/place/detail?uid=9a4d3ac3b8409c7df82d61e6&output=html&source=placeapi_v2,,,,,,,,,,,,,,,,,,,,0
e9eff13c4aafe77d32870aff,九龙墅云起苑-地下停车场,交通设施,停车场,江苏省,南通市,海门区,南通市海门区通江中路198号九龙墅云起苑,,1,1,121.163095,31.882935,,life,http://api.map.baidu.com/place/detail?uid=e9eff13c4aafe77d32870aff&output=html&source=placeapi_v2,,,,,,,,,,,,,,,,,,121.16321436654,31.882868400413,1
c71a2e50c450405bc41b75b9,港南小区-地下停车场,交通设施,停车场,江苏省,南通市,海门区,南通市海门区黄海中路1608号港南小区,c71a2e50c450405bc41b75b9,1,1,121.166202,31.884852,,life,http://api.map.baidu.com/place/detail?uid=c71a2e50c450405bc41b75b9&output=html&source=placeapi_v2,,,,,,,,,,,,,,,,,,,,1
e39c2b7c8eb6a4bef603b8db,东海新村-地下停车场,交通设施,停车场,江苏省,南通市,海门区,江苏省南通市海门区南海路与新秀中路交叉口东南方向东海新村,e39c2b7c8eb6a4bef603b8db,1,1,121.165644,31.881823,,life,http://api.map.baidu.com/place/detail?uid=e39c2b7c8eb6a4bef603b8db&output=html&source=placeapi_v2,,,,,,,,,,,,,,,,,,,,1
005b14f45d2fc48f725e8094,金色维也纳-室内停车场,交通设施,停车场,江苏省,南通市,海门区,南通市海门区江海路283号金色维也纳,,1,1,121.170413,31.903851,,life,http://api.map.baidu.com/place/detail?uid=005b14f45d2fc48f725e8094&output=html&source=placeapi_v2,,,,,,,,,,,,,,,,,,121.17035262012,31.903857120485,1
02823309314acf66601c6748,停车场,交通设施,停车场,江苏省,南通市,海门区,南通市海门区秀山东路鑫苑庄,,1,0,121.192426,31.894901,,life,http://api.map.baidu.com/place/detail?uid=02823309314acf66601c6748&output=html&source=placeapi_v2,,,,,,,,,,,,,,,,,,,,0
3ea1cb36d6b00647d3ff23ec,停车场,交通设施,停车场,江苏省,南通市,海门区,南通市海门区长江南路鑫苑庄西侧约30米,,1,1,121.191832,31.894471,,life,http://api.map.baidu.com/place/detail?uid=3ea1cb36d6b00647d3ff23ec&output=html&source=placeapi_v2,,,,,,,,,,,,,,,,,,,,1
cff7dff3981130c4bea24062,停车场,交通设施,停车场,江苏省,南通市,海门区,南通市海门区解放中路贵都之星,cff7dff3981130c4bea24062,1,1,121.190786,31.901775,(0513)69819915,life,http://api.map.baidu.com/place/detail?uid=cff7dff3981130c4bea24062&output=html&source=placeapi_v2,,,,,,,,,,1,,,,,,,,121.19092914864,31.90177855426,1
2a22d78999c00172d13ce3a0,停车场,交通设施,停车场,江苏省,南通市,海门区,南通市海门区解放中路南通市海门区少年宫幼儿园西北侧约100米,,1,0,121.193279,31.900773,,life,http://api.map.baidu.com/place/detail?uid=2a22d78999c00172d13ce3a0&output=html&source=placeapi_v2,,,,,,,,,,1,,,,,,,,,,0
18bc1aa7e80f52f2b21e3665,停车场,交通设施,停车场,江苏省,南通市,海门区,人民中路384-406号附近,,1,0,121.194998,31.89874,,life,http://api.map.baidu.com/place/detail?uid=18bc1aa7e80f52f2b21e3665&output=html&source=placeapi_v2,,,,,,,,,,,,,,,,,,,,0
f27f2fb908613c679ff77914,停车场,交通设施,停车场,江苏省,南通市,海门区,南通市海门区瑞江路首开・理想城西北侧约120米,,1,0,121.205672,31.891107,,life,http://api.map.baidu.com/place/detail?uid=f27f2fb908613c679ff77914&output=html&source=placeapi_v2,,,,,,,,,,,,,,,,,,121.20563689186,31.890798432946,0
9b128aebcde56f4a902ca358,停车场,交通设施,停车场,江苏省,南通市,海门区,南通市海门区人民中路金三角花园东南侧约30米,,1,0,121.197677,31.899444,,life,http://api.map.baidu.com/place/detail?uid=9b128aebcde56f4a902ca358&output=html&source=placeapi_v2,,,,,,,,,,1,,,,,,,,121.19767502867,31.899388297863,0
d05900ef75cb94bad7851f36,停车场,交通设施,停车场,江苏省,南通市,海门区,南通市海门区解放中路海影新村东南侧约50米,,1,0,121.187249,31.900889,,life,http://api.map.baidu.com/place/detail?uid=d05900ef75cb94bad7851f36&output=html&source=placeapi_v2,,,,,,,,,,,,,,,,,,,,0
469ca5bc1dd9bbf6715e8054,停车场,交通设施,停车场,江苏省,南通市,海门区,南通市海门区长江南路龙馨家园西侧约30米,469ca5bc1dd9bbf6715e8054,1,0,121.192291,31.884259,,life,http://api.map.baidu.com/place/detail?uid=469ca5bc1dd9bbf6715e8054&output=html&source=placeapi_v2,,00:00-24:00,,,,,,,,,,,,,,,,,,0
4559353ab7ebfdffeee4a524,停车场,交通设施,停车场,江苏省,南通市,海门区,南通市海门区洱海路青海新村南侧,,1,0,121.190184,31.903204,,life,http://api.map.baidu.com/place/detail?uid=4559353ab7ebfdffeee4a524&output=html&source=placeapi_v2,,,,,,,,,,1,,,,,,,,,,0
09e8a737b0458fb3adcb662b,停车场,交通设施,停车场,江苏省,南通市,海门区,南通市海门区东海东路嘉北小区西北侧约80米,,1,0,121.206265,31.883308,,life,http://api.map.baidu.com/place/detail?uid=09e8a737b0458fb3adcb662b&output=html&source=placeapi_v2,,,,,,,,,,,,,,,,,,,,0
cf9652c9bb35365f9c09f789,停车场,交通设施,停车场,江苏省,南通市,海门区,南通市海门区瑞江路一心苑东侧约80米,,1,0,121.205255,31.898833,,life,http://api.map.baidu.com/place/detail?uid=cf9652c9bb35365f9c09f789&output=html&source=placeapi_v2,,,,,,,,,,,,,,,,,,,,0
99052bf59d8831a8f60e774c,停车场,交通设施,停车场,江苏省,南通市,海门区,南通市海门区张謇大道世纪光华苑,,1,0,121.180613,31.888707,,life,http://api.map.baidu.com/place/detail?uid=99052bf59d8831a8f60e774c&output=html&source=placeapi_v2,,,,,,,,,,,,,,,,,,,,0
a9137c966fac3ffd88fc06bd,停车场,交通设施,停车场,江苏省,南通市,海门区,南通市海门区珠江路金石商务酒店(海港城店)北侧约60米,a9137c966fac3ffd88fc06bd,1,0,121.201533,31.903244,,life,http://api.map.baidu.com/place/detail?uid=a9137c966fac3ffd88fc06bd&output=html&source=placeapi_v2,,,,,,,,,,,,,,,,,,,,0
447df4e999eae7a68a36ee52,文峰大世界-停车场,交通设施,停车场,江苏省,南通市,海门区,江苏省南通市海门区长江路608号,447df4e999eae7a68a36ee52,1,1,121.192314,31.895708,,life,http://api.map.baidu.com/place/detail?uid=447df4e999eae7a68a36ee52&output=html&source=placeapi_v2,,,,,,,,,,1,,,,,,,,121.19315612885,31.895390413994,1
581a83df2796d20d88b98841,停车场,交通设施,停车场,江苏省,南通市,海门区,江苏省南通市海门区人民中路东方巴黎公寓,,1,0,121.203427,31.903064,,life,http://api.map.baidu.com/place/detail?uid=581a83df2796d20d88b98841&output=html&source=placeapi_v2,,,,,,,,,,,,,,,,,,,,0
2ad774aa0f836d7f3a04b1f7,停车场,交通设施,停车场,江苏省,南通市,海门区,江苏省南通市海门区丝绸路中南世纪雅苑,,1,0,121.204676,31.907482,,life,http://api.map.baidu.com/place/detail?uid=2ad774aa0f836d7f3a04b1f7&output=html&source=placeapi_v2,,,,,,,,,,,,,,,,,,,,0
3bf78d201164851b76e5b65d,停车场,交通设施,停车场,江苏省,南通市,海门区,南通市海门区东海中路思杰大酒店西侧约80米,,1,0,121.191503,31.883166,,life,http://api.map.baidu.com/place/detail?uid=3bf78d201164851b76e5b65d&output=html&source=placeapi_v2,,00:00-24:00,,,,,,,,,,,,,,,,,,0
8b9159cb9ea55a5a3517dcce,停车场,交通设施,停车场,江苏省,南通市,海门区,南通市海门区秀山路海南新村,,1,0,121.181499,31.8925,,life,http://api.map.baidu.com/place/detail?uid=8b9159cb9ea55a5a3517dcce&output=html&source=placeapi_v2,,,,,,,,,,1,,,,,,,,,,0
4b948310840f2b9d4151c0e9,停车场,交通设施,停车场,江苏省,南通市,海门区,江苏省南通市海门区越秀路海南小学,,1,0,121.18645,31.888513,,life,http://api.map.baidu.com/place/detail?uid=4b948310840f2b9d4151c0e9&output=html&source=placeapi_v2,,,,,,,,,,1,,,,,,,,,,0
6ab8b4f9f0745a2463180980,停车场,交通设施,停车场,江苏省,南通市,海门区,南通市海门区南海路世纪光华苑南门西南侧约90米,6ab8b4f9f0745a2463180980,1,0,121.178619,31.885345,,life,http://api.map.baidu.com/place/detail?uid=6ab8b4f9f0745a2463180980&output=html&source=placeapi_v2,,00:00-24:00,,,,,,,,1,,,,,,,,,,0
775c23b10e0d0a7fd518b787,大东方百货公司-停车场,交通设施,停车场,江苏省,南通市,海门区,南通市海门区解放中路贵都之星,,1,0,121.188124,31.901468,,life,http://api.map.baidu.com/place/detail?uid=775c23b10e0d0a7fd518b787&output=html&source=placeapi_v2,,00:00-24:00,,,,,,,,1,,,,,,,,121.18798694298,31.90146194654,0
e7d35965bb4d08295bf6be04,停车场,交通设施,停车场,江苏省,南通市,海门区,南通市海门区丝绸路南通市海门区通源小学,,1,0,121.200105,31.907415,,life,http://api.map.baidu.com/place/detail?uid=e7d35965bb4d08295bf6be04&output=html&source=placeapi_v2,,,,,,,,,,,,,,,,,,,,0
86e61e47122e429b9de321bb,停车场,交通设施,停车场,江苏省,南通市,海门区,南通市海门区张謇大道海南市场,,1,0,121.179098,31.891031,,life,http://api.map.baidu.com/place/detail?uid=86e61e47122e429b9de321bb&output=html&source=placeapi_v2,,,,,,,,,,,,,,,,,,,,0
d518d083c9f407c1d13ce337,停车场,交通设施,停车场,江苏省,南通市,海门区,南通市海门区南海东路永泓花园,d518d083c9f407c1d13ce337,1,0,121.210331,31.887114,,life,http://api.map.baidu.com/place/detail?uid=d518d083c9f407c1d13ce337&output=html&source=placeapi_v2,,,,,,,,,,1,,,,,,,,,,0
45a3347bf91d4f15744ff1e3,停车场,交通设施,停车场,江苏省,南通市,海门区,江苏省南通市海门区沿江公路行政服务中心(海门市政府旁),45a3347bf91d4f15744ff1e3,1,0,121.189797,31.877982,,life,http://api.map.baidu.com/place/detail?uid=45a3347bf91d4f15744ff1e3&output=html&source=placeapi_v2,,,,,,,,,,,,,,,,,,,,0
813b2b08c8bf146e17a19073,大润发(海门店)-停车场,交通设施,停车场,江苏省,南通市,海门区,江苏省南通市海门区黄海中路530号,813b2b08c8bf146e17a19073,1,3,121.19509,31.891001,,life,http://api.map.baidu.com/place/detail?uid=813b2b08c8bf146e17a19073&output=html&source=placeapi_v2,,,,,,,,,,,,,,,,,,121.19494933529,31.891359199073,3
58d2cd38ac4d1de1f60e772c,龙信广场-停车场,交通设施,停车场,江苏省,南通市,海门区,南通市海门区越秀路龙信广场西南侧,58d2cd38ac4d1de1f60e772c,1,1,121.188924,31.885616,,life,http://api.map.baidu.com/place/detail?uid=58d2cd38ac4d1de1f60e772c&output=html&source=placeapi_v2,,,,,,,,,,1,,,,,,,,121.18869697264,31.886151428921,1
ef4f7482f840d9d2b75f1e4f,停车场,交通设施,停车场,江苏省,南通市,海门区,南通市海门区五一路海南新村,ef4f7482f840d9d2b75f1e4f,1,0,121.180927,31.892515,,life,http://api.map.baidu.com/place/detail?uid=ef4f7482f840d9d2b75f1e4f&output=html&source=placeapi_v2,,,,,,,,,,,,,,,,,,,,0
2eb221dcc205786f2cb96d38,万众新世界广场-停车场,交通设施,停车场,江苏省,南通市,海门区,南通市海门区人民中路万众新世界广场,2eb221dcc205786f2cb96d38,1,1,121.19256,31.89846,,life,http://api.map.baidu.com/place/detail?uid=2eb221dcc205786f2cb96d38&output=html&source=placeapi_v2,,00:00-24:00,0.0,,,,,,,,0,,,,,,,121.19256016962,31.898460021435,1
42a56934906347f25cbe8684,大润发(海门店)-顶层停车场,交通设施,停车场,江苏省,南通市,海门区,江苏省南通市海门区黄海中路530号,42a56934906347f25cbe8684,1,2,121.193394,31.890462,,life,http://api.map.baidu.com/place/detail?uid=42a56934906347f25cbe8684&output=html&source=placeapi_v2,,00:00-24:00,0,,,,,,,3,0,,,,,,,121.19318299178,31.890248975841,2
db0bb9e1eb4492e55dd4fefd,通源新村-停车场,交通设施,停车场,江苏省,南通市,海门区,南通市海门区人民中路财富广场,db0bb9e1eb4492e55dd4fefd,1,0,121.199596,31.900476,,life,http://api.map.baidu.com/place/detail?uid=db0bb9e1eb4492e55dd4fefd&output=html&source=placeapi_v2,,,,,,,,,,,,,,,,,,,,0
ae0c32d4ab9496dffd0eb03b,万众新世界广场-停车场,交通设施,停车场,江苏省,南通市,海门区,南通市海门区经济技术开发区长江路万众新世界广场,ae0c32d4ab9496dffd0eb03b,1,0,121.192316,31.899448,,life,http://api.map.baidu.com/place/detail?uid=ae0c32d4ab9496dffd0eb03b&output=html&source=placeapi_v2,,00:00-24:00,,,,,,,,,,,,,,,,,,0
deb2bf17092430feb3077d54,财富广场-停车场,交通设施,停车场,江苏省,南通市,海门区,南通市海门区珠江路209号,,1,1,121.199724,31.899358,,life,http://api.map.baidu.com/place/detail?uid=deb2bf17092430feb3077d54&output=html&source=placeapi_v2,,,,,,,,,,,,,,,,,,121.20034789,31.898812482355,1
3ba155fb28bcac98118824bc,停车场(江苏省海门区路政大队东),交通设施,停车场,江苏省,南通市,海门区,南通市海门区长江路595号,,1,0,121.191797,31.897176,,life,http://api.map.baidu.com/place/detail?uid=3ba155fb28bcac98118824bc&output=html&source=placeapi_v2,,,,,,,,,,,,,,,,,,,,0
b4af68319304dfd596ec840b,停车场(保险路),交通设施,停车场,江苏省,南通市,海门区,江苏省南通市海门区狮山路39-41附近,b4af68319304dfd596ec840b,1,0,121.182167,31.898951,,life,http://api.map.baidu.com/place/detail?uid=b4af68319304dfd596ec840b&output=html&source=placeapi_v2,,00:00-24:00,,,,,,,,1,,,,,,,,,,0
f7660d234ee0700c41d63ee8,文峰大世界-停车场,交通设施,停车场,江苏省,南通市,海门区,江苏省南通市海门区长江路608号,f7660d234ee0700c41d63ee8,1,1,121.192336,31.897112,,life,http://api.map.baidu.com/place/detail?uid=f7660d234ee0700c41d63ee8&output=html&source=placeapi_v2,,00:00-24:00,,,,,,,,,,,,,,,,121.19250576464,31.897293209978,1
c25dcd870e483d012fe67bba,财富广场-地下停车场,交通设施,停车场,江苏省,南通市,海门区,南通市海门区海门镇珠江路209号财富广场,,1,1,121.200134,31.898707,,life,http://api.map.baidu.com/place/detail?uid=c25dcd870e483d012fe67bba&output=html&source=placeapi_v2,,,,,,,,,,,,,,,,,,121.20034789,31.898812482355,1
d59708f3a2a187444f3a59f5,财富广场-停车场,交通设施,停车场,江苏省,南通市,海门区,江苏省南通市海门区解放中路19号附近,d59708f3a2a187444f3a59f5,1,2,121.200055,31.900414,,life,http://api.map.baidu.com/place/detail?uid=d59708f3a2a187444f3a59f5&output=html&source=placeapi_v2,,00:00-24:00,,,,,,,,,,,,,,,,121.20043300175,31.900273047595,2
1fa50fcc01ca76de7ec876c1,停车场(黄海中路),交通设施,停车场,江苏省,南通市,海门区,南通市海门区黄海中路映翠园东南侧,,1,0,121.189328,31.891255,,life,http://api.map.baidu.com/place/detail?uid=1fa50fcc01ca76de7ec876c1&output=html&source=placeapi_v2,,00:00-24:00,,,,,,,,,,,,,,,,,,0
be8c3ac3d3a064fbf6b916ea,停车场(东苑弄),交通设施,停车场,江苏省,南通市,海门区,江苏省南通市海门区育才路东洲幼儿园(海门市东洲公园西),be8c3ac3d3a064fbf6b916ea,1,0,121.18375,31.899302,,life,http://api.map.baidu.com/place/detail?uid=be8c3ac3d3a064fbf6b916ea&output=html&source=placeapi_v2,,00:00-24:00,,,,,,,,,,,,,,,,,,0
6c7eea486391993d8bb98889,思杰大酒店-停车场,交通设施,停车场,江苏省,南通市,海门区,南通市海门区东海中路思杰大酒店,,1,1,121.192852,31.882999,,life,http://api.map.baidu.com/place/detail?uid=6c7eea486391993d8bb98889&output=html&source=placeapi_v2,,00:00-24:00,,,,,,,,,,,,,,,,,,1
622ed6259e5d524288f15da0,停车场(长江路),交通设施,停车场,江苏省,南通市,海门区,南通市海门区解放中路城建大厦(解放中路),622ed6259e5d524288f15da0,1,0,121.191111,31.900786,(0513)69819915,life,http://api.map.baidu.com/place/detail?uid=622ed6259e5d524288f15da0&output=html&source=placeapi_v2,,00:00-24:00,,,,,,,,1,,,,,,,,,,0
e062c43f563ec4f426d2bb28,地下停车场,交通设施,停车场,江苏省,南通市,海门区,南通市海门区越秀路龙信广场西南侧,,1,0,121.188979,31.885648,,life,http://api.map.baidu.com/place/detail?uid=e062c43f563ec4f426d2bb28&output=html&source=placeapi_v2,,,,,,,,,,,,,,,,,,,,0
fbfbbe7d59ff1a59f82d616b,商和不夜城-地下停车场B区,交通设施,停车场,江苏省,南通市,海门区,南通市海门区公平路与政法南路交叉口东南50米,,1,1,121.195404,31.888045,,life,http://api.map.baidu.com/place/detail?uid=fbfbbe7d59ff1a59f82d616b&output=html&source=placeapi_v2,,00:00-24:00,,,,,,,,2,,,,,,,,121.19548798892,31.88804317011,1
24ec3a34124d55e614b54b1a,格林豪泰停车场,交通设施,停车场,江苏省,南通市,海门区,S336(南海路),,1,0,121.195846,31.887483,,life,http://api.map.baidu.com/place/detail?uid=24ec3a34124d55e614b54b1a&output=html&source=placeapi_v2,,,,,,,,,,1,,,,,,,,,,0
70a866c730bdf0940ab93a63,地下停车场,交通设施,停车场,江苏省,南通市,海门区,南通市海门区东海东路嘉北小区北侧,70a866c730bdf0940ab93a63,1,1,121.209043,31.883288,,life,http://api.map.baidu.com/place/detail?uid=70a866c730bdf0940ab93a63&output=html&source=placeapi_v2,,,,,,,,,,,,,,,,,,,,1
ed55381f0d7903246140a9be,地下停车场,交通设施,停车场,江苏省,南通市,海门区,南通市海门区宁海路东恒盛国际大酒店西北侧约80米,,1,0,121.184629,31.880117,,life,http://api.map.baidu.com/place/detail?uid=ed55381f0d7903246140a9be&output=html&source=placeapi_v2,,00:00-24:00,,,,,,,,1,,,,,,,,,,0
e65ed5a8061c38839ef77902,欣乐金都之星连锁商务酒店-停车场,交通设施,停车场,江苏省,南通市,海门区,南通市海门区人民中路文峰大世界北侧约40米,,1,0,121.192855,31.897661,,life,http://api.map.baidu.com/place/detail?uid=e65ed5a8061c38839ef77902&output=html&source=placeapi_v2,,00:00-24:00,,,,,,,,1,,,,,,,,,,0
dd7950cad1e0f0af5ebe8657,龙信广场-停车场,交通设施,停车场,江苏省,南通市,海门区,江苏省南通市海门区长江南路99号,dd7950cad1e0f0af5ebe8657,1,1,121.191462,31.884426,(0513)68705066,life,http://api.map.baidu.com/place/detail?uid=dd7950cad1e0f0af5ebe8657&output=html&source=placeapi_v2,,,,,,,,,,,,,,,,,,121.18869697264,31.886151428921,1
c2e47fa68ba22f9699005081,莫泰酒店(长江路店)-停车场,交通设施,停车场,江苏省,南通市,海门区,南通市海门区长江路327号,c2e47fa68ba22f9699005081,1,1,121.191921,31.903995,,life,http://api.map.baidu.com/place/detail?uid=c2e47fa68ba22f9699005081&output=html&source=placeapi_v2,,00:00-24:00,,,,,,,,5,,,,,,,,121.19190182037,31.903923875627,1
595e2e951193675229201a47,邻里市场停车场,交通设施,停车场,江苏省,南通市,海门区,南通市海门区嘉陵江南路108号,595e2e951193675229201a47,1,1,121.198449,31.883103,,life,http://api.map.baidu.com/place/detail?uid=595e2e951193675229201a47&output=html&source=placeapi_v2,,00:00-24:00,,,,,,,,,,,,,,,,121.19847075038,31.882857800586,1
adb052b254487941c929154b,云顶浴场-停车场,交通设施,停车场,江苏省,南通市,海门区,南通市海门区越秀路海德花园北门西南侧约80米,,1,0,121.187503,31.887632,,life,http://api.map.baidu.com/place/detail?uid=adb052b254487941c929154b&output=html&source=placeapi_v2,,00:00-24:00,,,,,,,,,,,,,,,,,,0
df8ad09501e9ba0e1d1d11b7,停车场(东洲路),交通设施,停车场,江苏省,南通市,海门区,南通市海门区东洲市场北大门,df8ad09501e9ba0e1d1d11b7,1,0,121.181755,31.898266,,life,http://api.map.baidu.com/place/detail?uid=df8ad09501e9ba0e1d1d11b7&output=html&source=placeapi_v2,,,0.0,,,,,,,,0,,,,,,,,,0
e468e8e9805736392e473327,金牛广场-地下停车场,交通设施,停车场,江苏省,南通市,海门区,南通市海门区浦江路780号金牛广场,e468e8e9805736392e473327,1,1,121.211649,31.900344,,life,http://api.map.baidu.com/place/detail?uid=e468e8e9805736392e473327&output=html&source=placeapi_v2,,,,,,,,,,,,,,,,,,121.21164395153,31.900259958521,1
fb8257dc2edf2178704b87c5,海门中南世纪城三期西区-地下停车场,交通设施,停车场,江苏省,南通市,海门区,南通市海门区丝绸东路117号,fb8257dc2edf2178704b87c5,1,2,121.208233,31.908161,,life,http://api.map.baidu.com/place/detail?uid=fb8257dc2edf2178704b87c5&output=html&source=placeapi_v2,,,,,,,,,,,,,,,,,,121.20825387589,31.907969687238,2
472967a9094a296fc5effbaf,光华国际大酒店-停车场,交通设施,停车场,江苏省,南通市,海门区,江苏省南通市海门区南海路999号光华国际大酒店,472967a9094a296fc5effbaf,1,1,121.182305,31.886492,,life,http://api.map.baidu.com/place/detail?uid=472967a9094a296fc5effbaf&output=html&source=placeapi_v2,,,,,,,,,,,,,,,,,,121.18314023711,31.886505282851,1
2d16cfc3f574b741f8dc859d,中南锦苑-地下停车场,交通设施,停车场,江苏省,南通市,海门区,南通市海门区嘉陵江南路西50米,2d16cfc3f574b741f8dc859d,1,1,121.196723,31.880548,,life,http://api.map.baidu.com/place/detail?uid=2d16cfc3f574b741f8dc859d&output=html&source=placeapi_v2,,,,,,,,,,,,,,,,,,121.19686681332,31.880710690758,1
48ac28d15cdebb5ff5c59cfc,海门市正中停车场,交通设施,停车场,江苏省,南通市,海门区,江苏省南通市海门区镇中路大同新村-306幢,48ac28d15cdebb5ff5c59cfc,1,1,121.175227,31.899721,15262833333,life,http://api.map.baidu.com/place/detail?uid=48ac28d15cdebb5ff5c59cfc&output=html&source=placeapi_v2,,00:00-24:00,,,,,,,,4,,,,,,,,,,1
96af31c1b7c35da5a5da3925,原市政府-停车场,交通设施,停车场,江苏省,南通市,海门区,南通市海门区解放中路885号,96af31c1b7c35da5a5da3925,1,0,121.176272,31.899021,,life,http://api.map.baidu.com/place/detail?uid=96af31c1b7c35da5a5da3925&output=html&source=placeapi_v2,,,,,,,,,,1,,,,,,,,,,0
fcb6c0df186fca57bb17e7ca,尚贤新村-地下停车场,交通设施,停车场,江苏省,南通市,海门区,南通市海门区嘉陵江路御庭尚城东南侧约210米,,1,0,121.197456,31.888605,,life,http://api.map.baidu.com/place/detail?uid=fcb6c0df186fca57bb17e7ca&output=html&source=placeapi_v2,,,,,,,,,,,,,,,,,,,,0
391e03bb4d4eff48e311033d,向西车库,交通设施,停车场,江苏省,南通市,海门区,南通市海门区经济技术开发区通源新村901幢向西车库,,1,0,121.198765,31.906853,,life,http://api.map.baidu.com/place/detail?uid=391e03bb4d4eff48e311033d&output=html&source=placeapi_v2,,,,,,,,,,1,,,,,,,,,,0
b458f194944c0b062e4733f0,青海新村-地下停车场,交通设施,停车场,江苏省,南通市,海门区,南通市海门区青海东路80-1号青海新村,,1,1,121.191003,31.905284,,life,http://api.map.baidu.com/place/detail?uid=b458f194944c0b062e4733f0&output=html&source=placeapi_v2,,00:00-24:00,,,,,,,,,,,,,,,,121.19095471442,31.905156222882,1
c88d8e3e1636abf32102201b,东江嘉园-地下停车场,交通设施,停车场,江苏省,南通市,海门区,南通市海门区珠江南路东江嘉园,,1,0,121.199416,31.88593,,life,http://api.map.baidu.com/place/detail?uid=c88d8e3e1636abf32102201b&output=html&source=placeapi_v2,,,,,,,,,,,,,,,,,,,,0
40f6eb3eef15b8ebe9f85393,锦绣花园-停车场,交通设施,停车场,江苏省,南通市,海门区,锦绣路南50米,40f6eb3eef15b8ebe9f85393,1,1,121.176439,31.892987,,life,http://api.map.baidu.com/place/detail?uid=40f6eb3eef15b8ebe9f85393&output=html&source=placeapi_v2,,00:00-24:00,,,,,,,,,,,,,,,,121.17649365218,31.894502162738,1
ea2c93780bf6c3a93b221cdc,海上名门-地下停车场,交通设施,停车场,江苏省,南通市,海门区,南通市海门区青海东路433号海上名门,,1,3,121.202976,31.905829,,life,http://api.map.baidu.com/place/detail?uid=ea2c93780bf6c3a93b221cdc&output=html&source=placeapi_v2,,,,,,,,,,,,,,,,,,,,3
acaa0d1ea0dedb494f6d46e7,嘉南花苑地下停车场,交通设施,停车场,江苏省,南通市,海门区,南通市海门区北京中路海门嘉南花苑南侧,acaa0d1ea0dedb494f6d46e7,1,0,121.198861,31.879182,,life,http://api.map.baidu.com/place/detail?uid=acaa0d1ea0dedb494f6d46e7&output=html&source=placeapi_v2,,,,,,,,,,,,,,,,,,,,0
9aeda47561829ac00f0a7034,龙世界酒楼(人民路店)-停车场,交通设施,停车场,江苏省,南通市,海门区,人民中路银海桥东南,9aeda47561829ac00f0a7034,1,0,121.179555,31.895254,,life,http://api.map.baidu.com/place/detail?uid=9aeda47561829ac00f0a7034&output=html&source=placeapi_v2,,00:00-24:00,0.0,,,,,,,,0,,,,,,,121.17946579747,31.895596470159,0
97dea5758ba8a6aaab059d53,西头车库,交通设施,停车场,江苏省,南通市,海门区,南通市海门区狮山新村312幢西头车库,,1,0,121.179756,31.903613,,life,http://api.map.baidu.com/place/detail?uid=97dea5758ba8a6aaab059d53&output=html&source=placeapi_v2,,,,,,,,,,1,,,,,,,,,,0
cd867e85321ba22aa8175a82,停车场,交通设施,停车场,江苏省,南通市,海门区,南通市海门区钟楼路中梁壹号院东侧,,1,0,121.255122,31.892226,,life,http://api.map.baidu.com/place/detail?uid=cd867e85321ba22aa8175a82&output=html&source=placeapi_v2,,,,,,,,,,,,,,,,,,,,0
4517422d936368825a3ac8c9,停车场,交通设施,停车场,江苏省,南通市,海门区,南通市海门区中华中路钟楼新村北侧约30米,,1,0,121.25527,31.898229,,life,http://api.map.baidu.com/place/detail?uid=4517422d936368825a3ac8c9&output=html&source=placeapi_v2,,,,,,,,,,,,,,,,,,,,0
6729dfda4d27ac12f21937fe,长江・紫园-地下停车场,交通设施,停车场,江苏省,南通市,海门区,南通市海门区中华西路长江・紫园北侧,6729dfda4d27ac12f21937fe,1,1,121.244302,31.900658,,life,http://api.map.baidu.com/place/detail?uid=6729dfda4d27ac12f21937fe&output=html&source=placeapi_v2,,,,,,,,,,,,,,,,,,121.24439256732,31.900509330617,1
3d9f298bdcd84c5cf50e779b,停车场(人民东路),交通设施,停车场,江苏省,南通市,海门区,南通市海门区人民东路海门经济技术开发区中学东南侧约110米,3d9f298bdcd84c5cf50e779b,1,0,121.222391,31.90421,,life,http://api.map.baidu.com/place/detail?uid=3d9f298bdcd84c5cf50e779b&output=html&source=placeapi_v2,,00:00-24:00,,,,,,,,,,,,,,,,,,0
349bf7e2bd99f71a72455b3f,海门市第二人民医院-停车场,交通设施,停车场,江苏省,南通市,海门区,江苏省南通市海门区中华中路189号,349bf7e2bd99f71a72455b3f,1,0,121.256473,31.898201,,life,http://api.map.baidu.com/place/detail?uid=349bf7e2bd99f71a72455b3f&output=html&source=placeapi_v2,,00:00-24:00,,,,,,,,,,,,,,,,,,0
90812d58ba8208c5882fb5a7,1996,交通设施,停车场,江苏省,南通市,海门区,南通市海门区少先弄钟楼新村,,1,0,121.256718,31.897487,,life,http://api.map.baidu.com/place/detail?uid=90812d58ba8208c5882fb5a7&output=html&source=placeapi_v2,,,,,,,,,,8,,,,,,,,,,0
546e46f03fa3681f33169b53,停车场(望江北路),交通设施,停车场,江苏省,南通市,海门区,南通市海门区望江北路格林豪泰商务酒店(海门市三厂镇望江北路店),,1,0,121.260656,31.898439,,life,http://api.map.baidu.com/place/detail?uid=546e46f03fa3681f33169b53&output=html&source=placeapi_v2,,00:00-24:00,,,,,,,,,,,,,,,,,,0
7473ca24ececaf0cb34c496f,南通五山森林公园-停车场,交通设施,停车场,江苏省,南通市,崇川区,江苏省南通市崇川区剑纯路南通五山森林公园,,1,1,120.910437,31.939963,,life,http://api.map.baidu.com/place/detail?uid=7473ca24ececaf0cb34c496f&output=html&source=placeapi_v2,,,,,,,,,,1,,,,,,,,120.91071285523,31.940078138441,1
6d2f0e167f4c2db19a005070,南通海事局海巡执法支队-地下停车场,交通设施,停车场,江苏省,南通市,崇川区,南通市崇川区同兴路,6d2f0e167f4c2db19a005070,1,1,120.907506,31.932419,,life,http://api.map.baidu.com/place/detail?uid=6d2f0e167f4c2db19a005070&output=html&source=placeapi_v2,,,,,,,,,,1,,,,,,,,120.90762632062,31.932374578992,1
b72fa988212ae841724b87be,停车场,交通设施,停车场,江苏省,南通市,崇川区,南通市崇川区金桥路金桥公寓东南侧,,1,0,120.935999,31.931253,,life,http://api.map.baidu.com/place/detail?uid=b72fa988212ae841724b87be&output=html&source=placeapi_v2,,,,,,,,,,,,,,,,,,,,0
f6e5009fd29251ef276e9854,停车场,交通设施,停车场,江苏省,南通市,崇川区,南通市崇川区振兴路炜建花苑南侧约40米,,1,0,120.932786,31.9251,,life,http://api.map.baidu.com/place/detail?uid=f6e5009fd29251ef276e9854&output=html&source=placeapi_v2,,00:00-24:00,,,,,,,,1,,,,,,,,,,0
8e1edd13f5a2cb78fe0eb0f8,停车场,交通设施,停车场,江苏省,南通市,崇川区,南通市崇川区振兴路炜建花苑西侧约110米,,1,0,120.930466,31.926359,,life,http://api.map.baidu.com/place/detail?uid=8e1edd13f5a2cb78fe0eb0f8&output=html&source=placeapi_v2,,00:00-24:00,,,,,,,,,,,,,,,,,,0
c6c5eede93b88f9821f017c2,停车场,交通设施,停车场,江苏省,南通市,崇川区,南通市崇川区富民港路富民新村(烟台路),,1,0,120.939488,31.923421,,life,http://api.map.baidu.com/place/detail?uid=c6c5eede93b88f9821f017c2&output=html&source=placeapi_v2,,00:00-24:00,,,,,,,,1,,,,,,,,120.93975635156,31.923775294136,0
9bd41dc61ef2a5a0aeb22a7e,停车场,交通设施,停车场,江苏省,南通市,崇川区,南通市崇川区上海东路明珠花园,9bd41dc61ef2a5a0aeb22a7e,1,0,120.949873,31.924693,,life,http://api.map.baidu.com/place/detail?uid=9bd41dc61ef2a5a0aeb22a7e&output=html&source=placeapi_v2,,,,,,,,,,,,,,,,,,,,0
febced741b72ebf6d42ce21e,停车场,交通设施,停车场,江苏省,南通市,崇川区,南通市崇川区瑞兴路东丽高新聚化(南通)有限公司,,1,0,120.937841,31.917043,,life,http://api.map.baidu.com/place/detail?uid=febced741b72ebf6d42ce21e&output=html&source=placeapi_v2,,,,,,,,,,,,,,,,,,,,0
996efaf35dac1bb58c1a89d9,停车场,交通设施,停车场,江苏省,南通市,崇川区,南通市崇川区德诚嘉园(振兴东路),,1,0,120.945867,31.91965,,life,http://api.map.baidu.com/place/detail?uid=996efaf35dac1bb58c1a89d9&output=html&source=placeapi_v2,,00:00-24:00,,,,,,,,,,,,,,,,,,0
cd12dd12f3a2ac2ba11de982,停车场,交通设施,停车场,江苏省,南通市,崇川区,南通市崇川区广兴路与中央路交叉路口往西北约190米,,1,0,120.941855,31.940666,,life,http://api.map.baidu.com/place/detail?uid=cd12dd12f3a2ac2ba11de982&output=html&source=placeapi_v2,,,,,,,,,,1,,,,,,,,,,0
933faa27ee86c7ed61685836,停车场,交通设施,停车场,江苏省,南通市,崇川区,南通市崇川区上海东路和融・优山美地名邸,,1,0,120.957571,31.921713,,life,http://api.map.baidu.com/place/detail?uid=933faa27ee86c7ed61685836&output=html&source=placeapi_v2,,00:00-24:00,,,,,,,,,,,,,,,,,,0
abb27ce569dd18e088f15d9e,停车场,交通设施,停车场,江苏省,南通市,崇川区,南通市崇川区中央路南通综合保税区物流中心有限公司,,1,0,120.944293,31.940263,,life,http://api.map.baidu.com/place/detail?uid=abb27ce569dd18e088f15d9e&output=html&source=placeapi_v2,,,,,,,,,,1,,,,,,,,,,0
4abcb7bd9648129e9900501a,停车场,交通设施,停车场,江苏省,南通市,崇川区,南通市崇川区宏兴路五湖家园西南2门西南侧约90米,,1,0,120.950568,31.940893,,life,http://api.map.baidu.com/place/detail?uid=4abcb7bd9648129e9900501a&output=html&source=placeapi_v2,,00:00-24:00,,,,,,,,1,,,,,,,,,,0
3242a1c043ba7fddeae582ec,星湖大厦-停车场,交通设施,停车场,江苏省,南通市,崇川区,江苏省南通市崇川区上海路18号东北90米,3242a1c043ba7fddeae582ec,1,1,120.938523,31.928829,,life,http://api.map.baidu.com/place/detail?uid=3242a1c043ba7fddeae582ec&output=html&source=placeapi_v2,,,,,,,,,,,,,,,,,,120.93759388137,31.929371695537,1
5f61961b3120fdf149fc8d44,路边停车场,交通设施,停车场,江苏省,南通市,崇川区,南通市崇川区福州路锦江之星(南通开发区中央路店),,1,0,120.937591,31.931834,,life,http://api.map.baidu.com/place/detail?uid=5f61961b3120fdf149fc8d44&output=html&source=placeapi_v2,,,,,,,,,,,,,,,,,,,,0
93df0dc368632528882fb550,新星商厦-停车场,交通设施,停车场,江苏省,南通市,崇川区,南通市崇川区厦门路新星商厦,93df0dc368632528882fb550,1,1,120.93651,31.92572,13901439249,life,http://api.map.baidu.com/place/detail?uid=93df0dc368632528882fb550&output=html&source=placeapi_v2,,,0.0,,,,,,,1,,,,,,,,120.93665583662,31.925666884248,1
ef895b0d2f5bf573eee4a569,星湖・101广场-停车场,交通设施,停车场,江苏省,南通市,崇川区,南通市崇川区新开南路星湖・101广场,ef895b0d2f5bf573eee4a569,1,0,120.949199,31.929081,,life,http://api.map.baidu.com/place/detail?uid=ef895b0d2f5bf573eee4a569&output=html&source=placeapi_v2,,,,,,,,,,4,,,,,,,,,,0
998b761001b7f54c14c8f663,南通国都大酒店(开发区店)-停车场,交通设施,停车场,江苏省,南通市,崇川区,江苏省南通市崇川区上海路炜建大厦南门(星湖大厦附近),998b761001b7f54c14c8f663,1,0,120.938372,31.928036,,life,http://api.map.baidu.com/place/detail?uid=998b761001b7f54c14c8f663&output=html&source=placeapi_v2,,00:00-24:00,,,,,,,,,,,,,,,,,,0
6fde6accabfa18883be4a6fa,停车场(上海路),交通设施,停车场,江苏省,南通市,崇川区,江苏省南通市崇川区金桥路8号,6fde6accabfa18883be4a6fa,1,0,120.935071,31.929404,,life,http://api.map.baidu.com/place/detail?uid=6fde6accabfa18883be4a6fa&output=html&source=placeapi_v2,,00:00-24:00,,,,,,,,,,,,,,,,120.93525861223,31.92931314849,0
c455c5d54156765fd518b7db,开发区公交停车场,交通设施,停车场,江苏省,南通市,崇川区,南通市崇川区新开南路苏通商业广场南侧约270米,c455c5d54156765fd518b7db,1,1,120.944515,31.913361,,life,http://api.map.baidu.com/place/detail?uid=c455c5d54156765fd518b7db&output=html&source=placeapi_v2,,00:00-24:00,,,,,,,,5,,,,,,,,120.94462334566,31.913461449121,1
3ba77dc1903cecb0a8f72982,停车场(温州路),交通设施,停车场,江苏省,南通市,崇川区,南通市崇川区厦门路富民新村(烟台路)西南侧,,1,0,120.937961,31.924839,,life,http://api.map.baidu.com/place/detail?uid=3ba77dc1903cecb0a8f72982&output=html&source=placeapi_v2,,,,,,,,,,,,,,,,,,,,0
b5d28f430d0f2ba66e20b9c0,停车场(星中路),交通设施,停车场,江苏省,南通市,崇川区,南通市崇川区星中路爱玛花苑,,1,0,120.945937,31.928333,,life,http://api.map.baidu.com/place/detail?uid=b5d28f430d0f2ba66e20b9c0&output=html&source=placeapi_v2,,,,,,,,,,1,,,,,,,,,,0
5be16095c406d75226e0a047,停车场(启秀克拉戴斯酒店东北),交通设施,停车场,江苏省,南通市,崇川区,南通市崇川区中央路鑫景佳园西北侧约30米,5be16095c406d75226e0a047,1,0,120.937952,31.930478,,life,http://api.map.baidu.com/place/detail?uid=5be16095c406d75226e0a047&output=html&source=placeapi_v2,,00:00-24:00,,,,,,,,,,,,,,,,,,0
1a3e08181b1eb083220262a3,中天黄海宾馆-停车场,交通设施,停车场,江苏省,南通市,崇川区,南通市崇川区中天路3号,1a3e08181b1eb083220262a3,1,0,120.935667,31.939467,,life,http://api.map.baidu.com/place/detail?uid=1a3e08181b1eb083220262a3&output=html&source=placeapi_v2,,00:00-24:00,,,,,,,,2,,,,,,,,,,0
ec9c3789f521956e3586f4df,海瑞温泉停车场(开发区广场东北),交通设施,停车场,江苏省,南通市,崇川区,南通市崇川区中央路星海大厦,ec9c3789f521956e3586f4df,1,0,120.93708,31.929136,,life,http://api.map.baidu.com/place/detail?uid=ec9c3789f521956e3586f4df&output=html&source=placeapi_v2,,,,,,,,,,1,,,,,,,,,,0
4962dfe192f94835d518b742,富新社区-停车场,交通设施,停车场,江苏省,南通市,崇川区,南通市崇川区育才路富新园,4962dfe192f94835d518b742,1,0,120.942703,31.924058,,life,http://api.map.baidu.com/place/detail?uid=4962dfe192f94835d518b742&output=html&source=placeapi_v2,,00:00-24:00,,,,,,,,1,,,,,,,,120.94273006259,31.924041297169,0
b2ff275516e987aebea24002,星湖・101广场-地下停车场,交通设施,停车场,江苏省,南通市,崇川区,江苏省南通市崇川区金陵能达酒店西北(星湖・101),b2ff275516e987aebea24002,1,1,120.950764,31.928099,,life,http://api.map.baidu.com/place/detail?uid=b2ff275516e987aebea24002&output=html&source=placeapi_v2,,,,,,,,,,1,,,,,,,,120.95059857208,31.929469886925,1
1f1930fbb9b6d3fdb220a890,停车场(中兴花苑西),交通设施,停车场,江苏省,南通市,崇川区,江苏省南通市崇川区中央路(盛源豪庭娱乐会所),1f1930fbb9b6d3fdb220a890,1,0,120.935156,31.92498,,life,http://api.map.baidu.com/place/detail?uid=1f1930fbb9b6d3fdb220a890&output=html&source=placeapi_v2,,,,,,,,,,,,,,,,,,,,0
32989e288f56802bd42ce2b6,书香世家酒店(南通星湖街店)-停车场,交通设施,停车场,江苏省,南通市,崇川区,江苏省南通市崇川区星湖101街区A区22_26幢东南方向80米,32989e288f56802bd42ce2b6,1,1,120.953036,31.927472,,life,http://api.map.baidu.com/place/detail?uid=32989e288f56802bd42ce2b6&output=html&source=placeapi_v2,,00:00-24:00,,,,,,,,,,,,,,,,120.95147284702,31.927946506041,1
5f17fe7af5c89f38018972ba,苏通商业广场-停车场,交通设施,停车场,江苏省,南通市,崇川区,南通市崇川区新开南路苏通商业广场,5f17fe7af5c89f38018972ba,1,1,120.946442,31.916445,,life,http://api.map.baidu.com/place/detail?uid=5f17fe7af5c89f38018972ba&output=html&source=placeapi_v2,,,,,,,,,,,,,,,,,,120.94645069041,31.916522080684,1
bd2b78f43f225ece9c09f7bb,星湖・101广场-停车场,交通设施,停车场,江苏省,南通市,崇川区,南通市崇川区星湖大道1101号星湖・101广场B1,bd2b78f43f225ece9c09f7bb,1,1,120.949031,31.927569,,life,http://api.map.baidu.com/place/detail?uid=bd2b78f43f225ece9c09f7bb&output=html&source=placeapi_v2,,,,,,,,,,1,,,,,,,,120.94868740285,31.92787241969,1
ae9036ce6e8838dcf8dc85aa,舒凯花苑-地下停车场,交通设施,停车场,江苏省,南通市,崇川区,南通市崇川区上海东路舒凯花苑,ae9036ce6e8838dcf8dc85aa,1,1,120.949766,31.922736,,life,http://api.map.baidu.com/place/detail?uid=ae9036ce6e8838dcf8dc85aa&output=html&source=placeapi_v2,,00:00-24:00,,,,,,,,1,,,,,,,,120.94976597672,31.922736252132,1
9a3d05c3494636c161685871,朝阳车库,交通设施,停车场,江苏省,南通市,崇川区,南通市崇川区中兴街道开发区炜建花苑6号楼,,1,0,120.933354,31.925906,,life,http://api.map.baidu.com/place/detail?uid=9a3d05c3494636c161685871&output=html&source=placeapi_v2,,,,,,,,,,1,,,,,,,,,,0
a1832ae37dd55a9700ff2de6,南通世茂广场-停车场,交通设施,停车场,江苏省,南通市,崇川区,江苏省南通市崇川区经济开发区新东路101号南通世茂广场B1,a1832ae37dd55a9700ff2de6,1,1,120.958243,31.926922,,life,http://api.map.baidu.com/place/detail?uid=a1832ae37dd55a9700ff2de6&output=html&source=placeapi_v2,,00:00-24:00,,,,,,,,,,,,,,,,120.95812185108,31.928040234403,1
6aff753516e113f572210b4d,停车场(复兴路),交通设施,停车场,江苏省,南通市,崇川区,南通市崇川区复兴路四海家园,,1,0,120.948605,31.93607,,life,http://api.map.baidu.com/place/detail?uid=6aff753516e113f572210b4d&output=html&source=placeapi_v2,,,,,,,,,,1,,,,,,,,,,0
458532c419095c8bb8bd6368,星湖・101广场-地下停车场,交通设施,停车场,江苏省,南通市,崇川区,江苏省南通市崇川区新开街道新开北路星湖・101商务大厦,458532c419095c8bb8bd6368,1,3,120.949909,31.929553,,life,http://api.map.baidu.com/place/detail?uid=458532c419095c8bb8bd6368&output=html&source=placeapi_v2,,00:00-24:00,,,,,,,,,,,,,,,,120.94986060153,31.92970138513,3
1845523bc1f0ec2c4151c0ff,停车场(振兴东路),交通设施,停车场,江苏省,南通市,崇川区,南通市崇川区振兴东路和融・优山美地名邸,,1,0,120.955014,31.918958,,life,http://api.map.baidu.com/place/detail?uid=1845523bc1f0ec2c4151c0ff&output=html&source=placeapi_v2,,,,,,,,,,,,,,,,,,,,0
b86085da142e3c88581093f8,星湖・101广场-地下停车场,交通设施,停车场,江苏省,南通市,崇川区,江苏省南通市崇川区星湖街附近,b86085da142e3c88581093f8,1,1,120.949812,31.927009,,life,http://api.map.baidu.com/place/detail?uid=b86085da142e3c88581093f8&output=html&source=placeapi_v2,,,,,,,,,,,,,,,,,,120.94975111336,31.926812062844,1
3f4865f20cae317f1b94c695,停车场(惠泽路),交通设施,停车场,江苏省,南通市,崇川区,南通市崇川区惠泽路景瑞望府玖园-南区,3f4865f20cae317f1b94c695,1,0,120.954272,31.932059,,life,http://api.map.baidu.com/place/detail?uid=3f4865f20cae317f1b94c695&output=html&source=placeapi_v2,,,,,,,,,,,,,,,,,,,,0
9a526e67e155742852e5c58d,智选假日酒店(星湖店)-停车场,交通设施,停车场,江苏省,南通市,崇川区,江苏省南通市崇川区新开街道疏港线星湖・101(爱玛花苑东),9a526e67e155742852e5c58d,1,0,120.948425,31.927274,,life,http://api.map.baidu.com/place/detail?uid=9a526e67e155742852e5c58d&output=html&source=placeapi_v2,,00:00-24:00,,,,,,,,,,,,,,,,120.94866941878,31.92781613059,0
b0fb51207758cd381894c665,停车场(上海东路),交通设施,停车场,江苏省,南通市,崇川区,南通市崇川区上海东路新开苑-东区,b0fb51207758cd381894c665,1,0,120.954021,31.923697,,life,http://api.map.baidu.com/place/detail?uid=b0fb51207758cd381894c665&output=html&source=placeapi_v2,,,,,,,,,,1,,,,,,,,,,0
01387f6755186d6cae045732,南通世茂广场-停车场,交通设施,停车场,江苏省,南通市,崇川区,上海路以北新河路以东世茂广场(新景路)附近,01387f6755186d6cae045732,1,1,120.958208,31.92592,,life,http://api.map.baidu.com/place/detail?uid=01387f6755186d6cae045732&output=html&source=placeapi_v2,,00:00-24:00,,,,,,,,,,,,,,,,120.95851977437,31.925812172038,1
391a85944ce3dd25c356ac63,南通金陵能达酒店-地下停车场,交通设施,停车场,江苏省,南通市,崇川区,开发区星湖街区A区28号,391a85944ce3dd25c356ac63,1,1,120.951333,31.927847,,life,http://api.map.baidu.com/place/detail?uid=391a85944ce3dd25c356ac63&output=html&source=placeapi_v2,,00:00-24:00,,,,,,,,1,,,,,,,,120.9513563368,31.927984966604,1
1771fb477633f4a23913fdf4,南通良春中医医院-停车场,交通设施,停车场,江苏省,南通市,崇川区,南通市崇川区上海东路68号,1771fb477633f4a23913fdf4,1,1,120.952254,31.924919,,life,http://api.map.baidu.com/place/detail?uid=1771fb477633f4a23913fdf4&output=html&source=placeapi_v2,,00:00-24:00,5.0,,,,,,,,1,,,,,,,120.95205825116,31.924440395612,1
0c3fb4a616ab0be102294f93,非机动车停放处,交通设施,停车场,江苏省,南通市,崇川区,南通市崇川区星湖街星湖街区,,1,0,120.951532,31.926845,,life,http://api.map.baidu.com/place/detail?uid=0c3fb4a616ab0be102294f93&output=html&source=placeapi_v2,,,,,,,,,,3,,,,,,,,,,0
6df01fb7d61d4c61c1f1cfa0,星湖街区-停车场,交通设施,停车场,江苏省,南通市,崇川区,经济技术开发区星湖街区28号南通金陵能达酒店附近,,1,0,120.951496,31.927802,,life,http://api.map.baidu.com/place/detail?uid=6df01fb7d61d4c61c1f1cfa0&output=html&source=placeapi_v2,,,,,,,,,,1,,,,,,,,,,0
b41cf36b741c04e5e115f9a6,南通世茂广场-非机动车停车场,交通设施,停车场,江苏省,南通市,崇川区,江苏省南通市崇川区经济开发区新东路101号南通世茂广场B1,b41cf36b741c04e5e115f9a6,1,0,120.958511,31.927698,,life,http://api.map.baidu.com/place/detail?uid=b41cf36b741c04e5e115f9a6&output=html&source=placeapi_v2,,00:00-24:00,,,,,,,,,,,,,,,,,,0
6df81cd3128b13271b11d5f5,富士新能源南通有限公司-停车场,交通设施,停车场,江苏省,南通市,崇川区,南通市崇川区星湖大道1696号,6df81cd3128b13271b11d5f5,1,0,120.927259,31.940347,,life,http://api.map.baidu.com/place/detail?uid=6df81cd3128b13271b11d5f5&output=html&source=placeapi_v2,,00:00-24:00,,,,,,,,,,,,,,,,120.92737952339,31.940234798438,0
39b150dfeb5cd0ed42d63e24,南通市民广场-地下停车库,交通设施,停车场,江苏省,南通市,崇川区,南通市崇川区惠泽路益兴大厦东北侧约40米,39b150dfeb5cd0ed42d63e24,1,0,120.958229,31.932322,,life,http://api.map.baidu.com/place/detail?uid=39b150dfeb5cd0ed42d63e24&output=html&source=placeapi_v2,,,,,,,,,,,,,,,,,,,,0
49f4fb5890bc0d95fa42b237,星湖街区-地下停车场,交通设施,停车场,江苏省,南通市,崇川区,江苏省南通市崇川区新开街道上海东路炜赋・星湖街区,49f4fb5890bc0d95fa42b237,1,1,120.953205,31.92631,,life,http://api.map.baidu.com/place/detail?uid=49f4fb5890bc0d95fa42b237&output=html&source=placeapi_v2,,,,,,,,,,4,,,,,,,,120.95401487195,31.927432190226,1
a0a91fa2a7ca06774afd3f2f,华润・橡树湾-地下停车场,交通设施,停车场,江苏省,南通市,崇川区,南通市崇川区复兴路与长天路交叉口西150米,,1,1,120.954944,31.935538,,life,http://api.map.baidu.com/place/detail?uid=a0a91fa2a7ca06774afd3f2f&output=html&source=placeapi_v2,,00:00-24:00,,,,,,,,,,,,,,,,120.95494274968,31.935244472123,1
f6146ce3acf88e179b68b4c6,华润・橡树湾北区-地下停车场,交通设施,停车场,江苏省,南通市,崇川区,崇川区复兴东路588号华润・橡树湾北区,f6146ce3acf88e179b68b4c6,1,1,120.95408,31.93889,,life,http://api.map.baidu.com/place/detail?uid=f6146ce3acf88e179b68b4c6&output=html&source=placeapi_v2,,00:00-24:00,,,,,,,,,,,,,,,,120.95435746411,31.938754782327,1
bc93e79943034be43010afff,农房幸福天地-地下停车场,交通设施,停车场,江苏省,南通市,崇川区,南通市崇川区,bc93e79943034be43010afff,1,1,120.955515,31.922942,,life,http://api.map.baidu.com/place/detail?uid=bc93e79943034be43010afff&output=html&source=placeapi_v2,,,,,,,,,,,,,,,,,,,,1
c72d60820edcb416871541f9,炜赋星湖邻里-停车场(炜赋・星湖邻里东北),交通设施,停车场,江苏省,南通市,崇川区,南通市崇川区上海东路80号,c72d60820edcb416871541f9,1,0,120.95096,31.926297,,life,http://api.map.baidu.com/place/detail?uid=c72d60820edcb416871541f9&output=html&source=placeapi_v2,,,,,,,,,,,,,,,,,,,,0
a960ce90df255a2db54f54ef,停车场,交通设施,停车场,江苏省,南通市,崇川区,南通市崇川区育贤路南通市天星湖中学,,1,0,120.964861,31.919848,,life,http://api.map.baidu.com/place/detail?uid=a960ce90df255a2db54f54ef&output=html&source=placeapi_v2,,,0.0,,,,,,,1,1,,,,,,,,,0
b406b902adaad325c9fa5f2f,停车场,交通设施,停车场,江苏省,南通市,崇川区,江苏省南通市崇川区创业外包服务中心C座(长通路东),b406b902adaad325c9fa5f2f,1,0,120.962461,31.930847,,life,http://api.map.baidu.com/place/detail?uid=b406b902adaad325c9fa5f2f&output=html&source=placeapi_v2,,,,,,,,,,,,,,,,,,120.96276849982,31.930852454575,0
cc56acd478c2203a2cb17e7b,停车场(齐心路),交通设施,停车场,江苏省,南通市,崇川区,驰行路与齐心路交叉口南150米,cc56acd478c2203a2cb17e7b,1,0,120.990122,31.927651,,life,http://api.map.baidu.com/place/detail?uid=cc56acd478c2203a2cb17e7b&output=html&source=placeapi_v2,,,,,,,,,,,,,,,,,,,,0
a76d4cfe14d2cb503be4a6b1,爱信(南通)汽车技术中心-停车场,交通设施,停车场,江苏省,南通市,崇川区,南通市崇川区晨阳路万科・翡翠公园东南侧约190米,,1,0,120.985227,31.933809,,life,http://api.map.baidu.com/place/detail?uid=a76d4cfe14d2cb503be4a6b1&output=html&source=placeapi_v2,,00:00-24:00,,,,,,,,,,,,,,,,,,0
70437240da9ac3df0b69d94f,江苏航运职业技术学院-停车场,交通设施,停车场,江苏省,南通市,崇川区,江苏省南通市崇川区育贤路(南通航运职业技术学院),,1,0,120.96992,31.921082,,life,http://api.map.baidu.com/place/detail?uid=70437240da9ac3df0b69d94f&output=html&source=placeapi_v2,,00:00-24:00,,,,,,,,1,,,,,,,,,,0
bedf6aea14a3a228a80dd88f,能达生态通廊-停车场,交通设施,停车场,江苏省,南通市,崇川区,南通市崇川区创兴路能达生态通廊,,1,2,120.974613,31.942672,,life,http://api.map.baidu.com/place/detail?uid=bedf6aea14a3a228a80dd88f&output=html&source=placeapi_v2,,,,,,,,,,1,,,,,,,,120.974418138,31.942803474603,2
2787ae81ef01da93eaf85312,南通世茂广场-停车场,交通设施,停车场,江苏省,南通市,崇川区,江苏省南通市崇川区世茂广场,2787ae81ef01da93eaf85312,1,3,120.960545,31.927352,,life,http://api.map.baidu.com/place/detail?uid=2787ae81ef01da93eaf85312&output=html&source=placeapi_v2,,,,,,,,,,,,,,,,,,120.96079856615,31.926570376735,3
88664c0b62316abccf06a49b,能达生态通廊-停车场,交通设施,停车场,江苏省,南通市,崇川区,南通市崇川区龙腾路能达生态通廊,,1,2,120.978959,31.943752,,life,http://api.map.baidu.com/place/detail?uid=88664c0b62316abccf06a49b&output=html&source=placeapi_v2,,,,,,,,,,1,,,,,,,,120.97891643967,31.944092285813,2
798b50ff56e8bf71c9e33c01,江苏航运职业技术学院-停车场,交通设施,停车场,江苏省,南通市,崇川区,江苏省南通市崇川区通盛大道185号南通航运职业技术学院,,1,0,120.967442,31.924102,(0513)85965588,life,http://api.map.baidu.com/place/detail?uid=798b50ff56e8bf71c9e33c01&output=html&source=placeapi_v2,,00:00-24:00,,,,,,,,,,,,,,,,120.96730620028,31.924238892855,0
872510e081547fa4fca778b8,停车场(星宇路),交通设施,停车场,江苏省,南通市,崇川区,南通市崇川区星宇路龙田花苑二期西侧,,1,0,120.988452,31.913906,,life,http://api.map.baidu.com/place/detail?uid=872510e081547fa4fca778b8&output=html&source=placeapi_v2,,00:00-24:00,,,,,,,,,,,,,,,,,,0
e313b2cb4ac4ad7c5a3ac899,创业外包服务中心南区-地下停车场(鑫湖国贸中心南),交通设施,停车场,江苏省,南通市,崇川区,南通市崇川区经济开发区通盛大道188号创业外包服务中心南区,e313b2cb4ac4ad7c5a3ac899,1,1,120.963564,31.931605,,life,http://api.map.baidu.com/place/detail?uid=e313b2cb4ac4ad7c5a3ac899&output=html&source=placeapi_v2,,00:00-24:00,0,,,,,,,1,0,,,,,,,120.96399136312,31.931781373214,1
8f26dfcee08c4e5c3913fd3f,柏悦花园-停车场,交通设施,停车场,江苏省,南通市,崇川区,南通市崇川区宏兴东路柏悦花园,,1,0,120.980102,31.9394,,life,http://api.map.baidu.com/place/detail?uid=8f26dfcee08c4e5c3913fd3f&output=html&source=placeapi_v2,,,,,,,,,,,,,,,,,,,,0
20cf606ff134b88d6f3e1b0e,南通海盟景瑞汽车销售服务有限公司-停车场,交通设施,停车场,江苏省,南通市,崇川区,南通市崇川区星湖大道1008号,20cf606ff134b88d6f3e1b0e,1,0,120.991956,31.922558,,life,http://api.map.baidu.com/place/detail?uid=20cf606ff134b88d6f3e1b0e&output=html&source=placeapi_v2,,00:00-24:00,,,,,,,,,,,,,,,,,,0
f28edc8291f74df51b11d59b,云樾东方-停车场,交通设施,停车场,江苏省,南通市,崇川区,南通市崇川区开发区复兴路与通盛大道交汇处东北角云樾东方,,1,1,120.969275,31.935252,,life,http://api.map.baidu.com/place/detail?uid=f28edc8291f74df51b11d59b&output=html&source=placeapi_v2,,,,,,,,,,,,,,,,,,120.96944694585,31.935082571318,1
40a69bcac3e759e0f32d83c1,永旺梦乐城(星湖店)-南通星湖屋面停车场,交通设施,停车场,江苏省,南通市,崇川区,南通市崇川区星湖大道1066号,,1,0,120.968087,31.92946,,life,http://api.map.baidu.com/place/detail?uid=40a69bcac3e759e0f32d83c1&output=html&source=placeapi_v2,,00:00-24:00,5,,,,,,,,1,,,,,,,120.96855772311,31.930027261499,0
6392f36cdc0febcc40e19238,永旺梦乐城(星湖店)-停车场,交通设施,停车场,江苏省,南通市,崇川区,星湖大道1066号,,1,1,120.967704,31.930692,(0513)55096000,life,http://api.map.baidu.com/place/detail?uid=6392f36cdc0febcc40e19238&output=html&source=placeapi_v2,,00:00-24:00,,,,,,,,1,,,,,,,,120.96774022197,31.931117257493,1
8d1551219266957e4afc8d30,地下停车场,交通设施,停车场,江苏省,南通市,崇川区,江苏省南通市崇川区幸福天地二期(集贤路),8d1551219266957e4afc8d30,1,0,120.963036,31.920983,,life,http://api.map.baidu.com/place/detail?uid=8d1551219266957e4afc8d30&output=html&source=placeapi_v2,,,,,,,,,,,,,,,,,,,,0
f1c6b4ada890716b88db735e,龙田花苑-停车场,交通设施,停车场,江苏省,南通市,崇川区,南通市崇川区星宇路龙田花苑二期,,1,1,120.989442,31.915972,,life,http://api.map.baidu.com/place/detail?uid=f1c6b4ada890716b88db735e&output=html&source=placeapi_v2,,,,,,,,,,1,,,,,,,,,,1
82158e4f2898ff70f4b91657,世家花园-停车场,交通设施,停车场,江苏省,南通市,崇川区,南通市崇川区竹林路世家花园,,1,0,120.992915,31.914862,,life,http://api.map.baidu.com/place/detail?uid=82158e4f2898ff70f4b91657&output=html&source=placeapi_v2,,,,,,,,,,,,,,,,,,,,0
efc234a39190571a5f17c3a3,南通海盟东方汽车销售服务有限公司-停车场,交通设施,停车场,江苏省,南通市,崇川区,南通市崇川区长神路与富康路交叉路口往东北约160米,,1,0,120.99073,31.922959,,life,http://api.map.baidu.com/place/detail?uid=efc234a39190571a5f17c3a3&output=html&source=placeapi_v2,,,,,,,,,,,,,,,,,,120.99084392374,31.922848489723,0
0898c08eef737e674302458d,鑫湖国贸中心-停车场,交通设施,停车场,江苏省,南通市,崇川区,江苏省南通市崇川区开发区鑫湖国贸2号楼103正东方向25米,,1,0,120.962855,31.934821,,life,http://api.map.baidu.com/place/detail?uid=0898c08eef737e674302458d&output=html&source=placeapi_v2,,,,,,,,,,,,,,,,,,120.96287614288,31.934820846894,0
99df095f8a5a179e0f0e6b19,停车场(能达金融广场东),交通设施,停车场,江苏省,南通市,崇川区,南通市崇川区惠泽路8号,99df095f8a5a179e0f0e6b19,1,2,120.9619,31.931567,,life,http://api.map.baidu.com/place/detail?uid=99df095f8a5a179e0f0e6b19&output=html&source=placeapi_v2,,,0.0,,,,,,,1,,,,,,,,120.96164379258,31.930937826845,2
99b8b3a7437e597ed1f49e2a,飞马国际中心-地下停车场,交通设施,停车场,江苏省,南通市,崇川区,江苏省南通市崇川区长通路飞马国际中心(鑫湖国贸中心西北),99b8b3a7437e597ed1f49e2a,1,1,120.962235,31.935924,,life,http://api.map.baidu.com/place/detail?uid=99b8b3a7437e597ed1f49e2a&output=html&source=placeapi_v2,,00:00-24:00,,,,,,,,,,,,,,,,120.96209699041,31.935984091645,1
51498048652eb6f62fb17e87,中港白金大厦-停车场,交通设施,停车场,江苏省,南通市,崇川区,江苏省南通市崇川区鑫湖国贸中心(长虹路西),,1,2,120.96421,31.933415,,life,http://api.map.baidu.com/place/detail?uid=51498048652eb6f62fb17e87&output=html&source=placeapi_v2,,,,,,,,,,,,,,,,,,120.96457295036,31.933745115169,2
d0d9c82cefa8ca08028972ab,飞马国际中心-停车场,交通设施,停车场,江苏省,南通市,崇川区,江苏省南通市崇川区新开街道长虹路华富国际广场南50米,d0d9c82cefa8ca08028972ab,1,3,120.962971,31.935903,,life,http://api.map.baidu.com/place/detail?uid=d0d9c82cefa8ca08028972ab&output=html&source=placeapi_v2,,00:00-24:00,,,,,,,,,,,,,,,,120.96200309951,31.935986687351,3
eaebe4beb22e3f9aabf0cd43,永旺梦乐城(星湖店)-屋面停车场,交通设施,停车场,江苏省,南通市,崇川区,江苏省南通市崇川区永旺路,,1,1,120.969008,31.929081,,life,http://api.map.baidu.com/place/detail?uid=eaebe4beb22e3f9aabf0cd43&output=html&source=placeapi_v2,,,,,,,,,,,,,,,,,,120.97060825096,31.930050139267,1
c9dc42b69070b2b44d776e33,永旺梦乐城(星湖店)-地下停车场,交通设施,停车场,江苏省,南通市,崇川区,江苏省南通市崇川区星湖大道1066号,,1,1,120.970049,31.928424,(0513)55096000,life,http://api.map.baidu.com/place/detail?uid=c9dc42b69070b2b44d776e33&output=html&source=placeapi_v2,,,,,,,,,,,,,,,,,,120.96876346381,31.930858321693,1
5ed18cc307faf8fcd03ce3d2,南通宝宁汽车销售服务有限公司-停车场,交通设施,停车场,江苏省,南通市,崇川区,江苏省南通市崇川区星湖大道1055号南通宝宁汽车销售服务有限公司,,1,1,120.967186,31.927139,,life,http://api.map.baidu.com/place/detail?uid=5ed18cc307faf8fcd03ce3d2&output=html&source=placeapi_v2,,,,,,,,,,,,,,,,,,120.96764443925,31.92735138078,1
f1c80efeadd7daac9fec2bee,世家花园-停车场,交通设施,停车场,江苏省,南通市,崇川区,南通市崇川区竹林路世家花园,,1,0,120.993026,31.917558,,life,http://api.map.baidu.com/place/detail?uid=f1c80efeadd7daac9fec2bee&output=html&source=placeapi_v2,,,,,,,,,,,,,,,,,,,,0
c725069a7f2b889638e4a6b4,世家花园-停车场,交通设施,停车场,江苏省,南通市,崇川区,南通市崇川区竹林路世家花园西门南侧约70米,,1,0,120.992191,31.915515,,life,http://api.map.baidu.com/place/detail?uid=c725069a7f2b889638e4a6b4&output=html&source=placeapi_v2,,,,,,,,,,,,,,,,,,,,0
52b1bcc70eaea2ab2ce67b06,通商・华富国际广场-停车场,交通设施,停车场,江苏省,南通市,崇川区,江苏省南通市崇川区华富国际广场(长虹路西),52b1bcc70eaea2ab2ce67b06,1,0,120.964546,31.938484,,life,http://api.map.baidu.com/place/detail?uid=52b1bcc70eaea2ab2ce67b06&output=html&source=placeapi_v2,,00:00-24:00,,,,,,,,,,,,,,,,,,0
8b7ed07e1927d9f6c356ac5e,龙田花苑-停车场,交通设施,停车场,江苏省,南通市,崇川区,南通市崇川区竹林路龙田花苑二期,,1,1,120.991434,31.914489,,life,http://api.map.baidu.com/place/detail?uid=8b7ed07e1927d9f6c356ac5e&output=html&source=placeapi_v2,,00:00-24:00,,,,,,,,1,,,,,,,,120.99147016934,31.914487912868,1
f2ea28ced657ff22c336446e,创业外包服务中心北区-停车场,交通设施,停车场,江苏省,南通市,崇川区,南通市崇川区经济开发区通盛大道188号创业外包服务中心北区,,1,2,120.962469,31.932608,,life,http://api.map.baidu.com/place/detail?uid=f2ea28ced657ff22c336446e&output=html&source=placeapi_v2,,,,,,,,,,,,,,,,,,120.96177757902,31.932312978553,2
8ad207fadde0625af4e73be9,中天科技新能源产业园-停车场,交通设施,停车场,江苏省,南通市,崇川区,南通市崇川区宏兴东路38号中天科技新能源产业园,,1,1,120.986989,31.940303,,life,http://api.map.baidu.com/place/detail?uid=8ad207fadde0625af4e73be9&output=html&source=placeapi_v2,,,,,,,,,,,,,,,,,,120.98890391442,31.940104563686,1
35f12c7f10d287c3e01103cd,创业外包服务中心北区-地下停车场,交通设施,停车场,江苏省,南通市,崇川区,南通市崇川区经济开发区通盛大道188号创业外包服务中心北区,,1,1,120.961871,31.932549,,life,http://api.map.baidu.com/place/detail?uid=35f12c7f10d287c3e01103cd&output=html&source=placeapi_v2,,,,,,,,,,,,,,,,,,120.96167249883,31.932735414121,1
4fc7a4f475d32a9332f71dfc,世家花园-停车场,交通设施,停车场,江苏省,南通市,崇川区,南通市崇川区竹林路世家花园,,1,0,120.992865,31.913807,,life,http://api.map.baidu.com/place/detail?uid=4fc7a4f475d32a9332f71dfc&output=html&source=placeapi_v2,,,,,,,,,,,,,,,,,,,,0
b74b1abdd0ec3a827c29bd8a,长新花苑地下车库,交通设施,停车场,江苏省,南通市,崇川区,南通市崇川区振兴东路长新花苑,,1,0,120.969055,31.914969,,life,http://api.map.baidu.com/place/detail?uid=b74b1abdd0ec3a827c29bd8a&output=html&source=placeapi_v2,,,,,,,,,,,,,,,,,,,,0
39c4e7a8b6b1e3c84002454d,星怡花园西区-地下停车场,交通设施,停车场,江苏省,南通市,崇川区,南通市崇川区振兴东路259号星怡花园西区,,1,0,120.984156,31.911685,,life,http://api.map.baidu.com/place/detail?uid=39c4e7a8b6b1e3c84002454d&output=html&source=placeapi_v2,,,,,,,,,,,,,,,,,,,,0
04467c125271d209110daa08,锡通园区公交停车场,交通设施,停车场,江苏省,南通市,通州区,江苏省南通市通州区星河家园(星河大药房南边路西),,1,0,121.011076,31.924958,,life,http://api.map.baidu.com/place/detail?uid=04467c125271d209110daa08&output=html&source=placeapi_v2,,,,,,,,,,,,,,,,,,,,0
a11f143a20fb5db84e554727,南通好得家装饰城-停车场,交通设施,停车场,江苏省,南通市,通州区,江苏省南通市通州区锡通产业园336省道与枫杨路交汇处(紫罗兰家纺东侧)南通好得家装饰城,,1,3,121.019363,31.912588,,life,http://api.map.baidu.com/place/detail?uid=a11f143a20fb5db84e554727&output=html&source=placeapi_v2,,,,,,,,,,,,,,,,,,121.01913438583,31.912261670378,3
578781e751058f19c7f025e3,南通好得家装饰城-停车场,交通设施,停车场,江苏省,南通市,通州区,江苏省南通市通州区S336南通好得家装饰城东南侧约220米,,1,0,121.021522,31.91174,,life,http://api.map.baidu.com/place/detail?uid=578781e751058f19c7f025e3&output=html&source=placeapi_v2,,,,,,,,,,,,,,,,,,,,0
3b76cbef593755c37adbd284,凤凰苑-停车场,交通设施,停车场,江苏省,南通市,通州区,江苏省南通市通州区通启路北镇东竹器厂对面凤凰苑,,1,3,121.029299,31.934528,,life,http://api.map.baidu.com/place/detail?uid=3b76cbef593755c37adbd284&output=html&source=placeapi_v2,,,,,,,,,,,,,,,,,,121.02992973636,31.935335898626,3
e622c57fbbea9019cc04ef69,德力新天地-停车场,交通设施,停车场,江苏省,南通市,通州区,江苏省南通市通州区星河家园23号楼附近,,1,3,121.014495,31.928188,,life,http://api.map.baidu.com/place/detail?uid=e622c57fbbea9019cc04ef69&output=html&source=placeapi_v2,,00:00-24:00,,,,,,,,,,,,,,,,121.01453858926,31.92791835198,3
bc2b4d18c559dd47b34c491a,南通市公共交通总公司-张芝山停车场,交通设施,停车场,江苏省,南通市,通州区,南通市通州区星河家园(星河大药房南边路西),,1,1,121.011049,31.924831,,life,http://api.map.baidu.com/place/detail?uid=bc2b4d18c559dd47b34c491a&output=html&source=placeapi_v2,,00:00-24:00,,,,,,,,2,,,,,,,,121.01111324525,31.924915230081,1
1b8cfb4ffc5661e496ca0740,锡通科技产业园-停车场,交通设施,停车场,江苏省,南通市,通州区,南通市通州区张芝山镇张江路8号锡通科技产业园,,1,1,121.013834,31.918673,,life,http://api.map.baidu.com/place/detail?uid=1b8cfb4ffc5661e496ca0740&output=html&source=placeapi_v2,,,,,,,,,,,,,,,,,,121.01351577142,31.918143515754,1
34e4850899b9abe1d8d8914a,江苏省南通市通州区第三人民医院-停车场,交通设施,停车场,江苏省,南通市,通州区,南通市通州区青年路江苏省南通市通州区第三人民医院南侧,34e4850899b9abe1d8d8914a,1,1,121.014575,31.93484,,life,http://api.map.baidu.com/place/detail?uid=34e4850899b9abe1d8d8914a&output=html&source=placeapi_v2,,00:00-24:00,3.0,,,,,,,4,2,,,,,,,121.01502761241,31.934773799672,1
5a7c287fca39dcb79d9d6834,南通市锡通园区小学-停车场,交通设施,停车场,江苏省,南通市,通州区,南通市通州区槐杨路南通市锡通园区小学,,1,0,121.018926,31.916732,,life,http://api.map.baidu.com/place/detail?uid=5a7c287fca39dcb79d9d6834&output=html&source=placeapi_v2,,00:00-24:00,,,,,,,,,,,,,,,,,,0
0a4b25182260ceede115f93f,南通市锡通园区小学-停车场,交通设施,停车场,江苏省,南通市,通州区,江苏省南通市通州区槐杨路锡通园区小学,,1,0,121.01989,31.916422,,life,http://api.map.baidu.com/place/detail?uid=0a4b25182260ceede115f93f&output=html&source=placeapi_v2,,,,,,,,,,,,,,,,,,,,0
4781d491e497b35ea4c75619,德力新天地-停车场,交通设施,停车场,江苏省,南通市,通州区,南通市通州区张江路德力新天地,,1,0,121.014834,31.929975,,life,http://api.map.baidu.com/place/detail?uid=4781d491e497b35ea4c75619&output=html&source=placeapi_v2,,,,,,,,,,,,,,,,,,,,0
4bf48d986c7f3077b2077d48,停车场(银洋河新村北),交通设施,停车场,江苏省,南通市,通州区,南通市通州区开源路银洋河新村-中区,,1,0,121.011852,31.930774,,life,http://api.map.baidu.com/place/detail?uid=4bf48d986c7f3077b2077d48&output=html&source=placeapi_v2,,,,,,,,,,,,,,,,,,,,0
94d32e68b99911bb15a190d6,银洋河新村西区-停车场,交通设施,停车场,江苏省,南通市,通州区,江苏省南通市通州区银洋河新村(姜竹线西200米)西区,,1,3,121.007645,31.931867,,life,http://api.map.baidu.com/place/detail?uid=94d32e68b99911bb15a190d6&output=html&source=placeapi_v2,,,,,,,,,,,,,,,,,,,,3
1f6d968cb216410abd48420f,银洋河新村东区-停车场,交通设施,停车场,江苏省,南通市,通州区,江苏省南通市通州区银洋河新村(姜竹线西200米)东区,,1,1,121.013266,31.93107,,life,http://api.map.baidu.com/place/detail?uid=1f6d968cb216410abd48420f&output=html&source=placeapi_v2,,,,,,,,,,,,,,,,,,121.01255582239,31.930436720767,1
516b6c054a661092940319fe,江苏省南通市通州区第三人民医院-停车场,交通设施,停车场,江苏省,南通市,通州区,南通市通州区健康路大东公寓东北侧约40米,,1,1,121.013056,31.935853,,life,http://api.map.baidu.com/place/detail?uid=516b6c054a661092940319fe&output=html&source=placeapi_v2,,00:00-24:00,,,,,,,,,,,,,,,,121.01305015183,31.93544183635,1
8fc472abb509f0a54d554741,紫罗兰家纺科技股份有限公司-停车场,交通设施,停车场,江苏省,南通市,通州区,江苏省南通市通州区锡通科技产业园336省道紫罗兰家纺科技股份有限公司,,1,1,121.016383,31.914206,,life,http://api.map.baidu.com/place/detail?uid=8fc472abb509f0a54d554741&output=html&source=placeapi_v2,,,,,,,,,,,,,,,,,,121.01636590077,31.914746813837,1
8bf5cdb3a1c0f27d33621276,停车场,交通设施,停车场,江苏省,南通市,通州区,南通市通州区川港小学南门,8bf5cdb3a1c0f27d33621276,1,0,121.074209,31.933074,,life,http://api.map.baidu.com/place/detail?uid=8bf5cdb3a1c0f27d33621276&output=html&source=placeapi_v2,,,,,,,,,,,,,,,,,,,,0
0ab31b121b1c128359bbbcc1,停车场(苏通公路),交通设施,停车场,江苏省,南通市,通州区,南通市通州区苏通公路与G40沪陕高速交叉口西北50米,0ab31b121b1c128359bbbcc1,1,0,121.07489,31.941616,,life,http://api.map.baidu.com/place/detail?uid=0ab31b121b1c128359bbbcc1&output=html&source=placeapi_v2,,,,,,,,,,,,,,,,,,,,0
1212fd2e211ad77c2bb97c33,曙辉停车场,交通设施,停车场,江苏省,南通市,海门区,江苏省南通市海门区永安西路,,1,1,121.087846,31.928321,18706286028,life,http://api.map.baidu.com/place/detail?uid=1212fd2e211ad77c2bb97c33&output=html&source=placeapi_v2,,,0.0,,,,,,,1,2,,,,,,,121.08753136736,31.928413394719,1
2d874614c09a76e2932ca360,银庭现代家纺科创园-停车场,交通设施,停车场,江苏省,南通市,海门区,江苏省南通市海门区通海线银庭现代家纺科创园,,1,1,121.0976,31.932099,,life,http://api.map.baidu.com/place/detail?uid=2d874614c09a76e2932ca360&output=html&source=placeapi_v2,,,,,,,,,,2,,,,,,,,121.09756140741,31.931666660051,1
9c84d120a5301d69c42ba1db,停车场(北海西路),交通设施,停车场,江苏省,南通市,海门区,南通市海门区北海西路与岷江北路交叉路口往西约160米,,1,0,121.159725,31.912095,,life,http://api.map.baidu.com/place/detail?uid=9c84d120a5301d69c42ba1db&output=html&source=placeapi_v2,,00:00-24:00,,,,,,,,1,,,,,,,,,,0
03369e22b7f2f13aa8f0cdf4,海门站-停车场,交通设施,停车场,江苏省,南通市,海门区,南通市海门区新占路与纵一路交叉路口西北侧,,1,2,121.188367,31.931201,(0513)68705066,life,http://api.map.baidu.com/place/detail?uid=03369e22b7f2f13aa8f0cdf4&output=html&source=placeapi_v2,,,,,,,,,,,1,,,,,,,121.1886308313,31.931075774682,2
51bef9d846a657d929d7abc3,张謇生态颐生文博园-停车场,交通设施,停车场,江苏省,南通市,海门区,中颐路与酒厂西路交叉口东150米,,1,0,121.254517,31.937346,15062780327,life,http://api.map.baidu.com/place/detail?uid=51bef9d846a657d929d7abc3&output=html&source=placeapi_v2,,,0.0,,,,,,,1,1,,,,,,,121.25422093779,31.937338521989,0
90f09a9483375c112bb97cfe,麒麟停车区-停车场,交通设施,停车场,江苏省,南通市,海门区,南通市海门区麒麟停车区麒麟停车区,90f09a9483375c112bb97cfe,1,0,121.311009,31.928652,,life,http://api.map.baidu.com/place/detail?uid=90f09a9483375c112bb97cfe&output=html&source=placeapi_v2,,,,,,,,,,,,,,,,,,,,0
90c26a3c57463f4e7702697c,麒麟停车区-停车场,交通设施,停车场,江苏省,南通市,海门区,南通市海门区麒麟停车区麒麟停车区,90c26a3c57463f4e7702697c,1,0,121.309815,31.927697,,life,http://api.map.baidu.com/place/detail?uid=90c26a3c57463f4e7702697c&output=html&source=placeapi_v2,,00:00-24:00,,,,,,,,,,,,,,,,,,0
5f2f9da8030ceb6db1077df9,麒麟停车区,交通设施,停车场,江苏省,南通市,海门区,江苏省南通市海门区麒麟停车区(沪陕高速公路南),5f2f9da8030ceb6db1077df9,1,0,121.310343,31.927595,(0513)85595955,life,http://api.map.baidu.com/place/detail?uid=5f2f9da8030ceb6db1077df9&output=html&source=placeapi_v2,,,5,,,,,,,,1,,,,,,,121.30933020128,31.928237883854,0
62580c0bf6ac43ebb05c6af0,宁启高速/麒麟停车区(路口),交通设施,停车场,江苏省,南通市,海门区,南通市海门区沪陕高速,,1,0,121.307156,31.92871,,life,http://api.map.baidu.com/place/detail?uid=62580c0bf6ac43ebb05c6af0&output=html&source=placeapi_v2,,,,,,,,,,,,,,,,,,,,0
0e2ed9e6ba22c26a1ee999f9,停车场,交通设施,停车场,江苏省,南通市,崇川区,南通市崇川区三鲜街紫琅新村北侧约50米,,1,0,120.893469,31.968443,,life,http://api.map.baidu.com/place/detail?uid=0e2ed9e6ba22c26a1ee999f9&output=html&source=placeapi_v2,,,,,,,,,,,,,,,,,,,,0
a2d8c74ee3d0bd890f0a708d,停车场,交通设施,停车场,江苏省,南通市,崇川区,南通市崇川区花园路五山花苑西南侧约80米,a2d8c74ee3d0bd890f0a708d,1,0,120.908263,31.963483,,life,http://api.map.baidu.com/place/detail?uid=a2d8c74ee3d0bd890f0a708d&output=html&source=placeapi_v2,,00:00-24:00,,,,,,,,,,,,,,,,,,0
511cd881c8d561aa04fef5e5,停车场,交通设施,停车场,江苏省,南通市,崇川区,南通市崇川区永红河东侧路五山家园,,1,0,120.908044,31.967695,,life,http://api.map.baidu.com/place/detail?uid=511cd881c8d561aa04fef5e5&output=html&source=placeapi_v2,,,,,,,,,,1,,,,,,,,,,0
976392cf8e0c86fb3310af29,星光耀广场-停车场,交通设施,停车场,江苏省,南通市,崇川区,江苏省-南通市-崇川区-工农南路100号,,1,1,120.894841,31.970182,,life,http://api.map.baidu.com/place/detail?uid=976392cf8e0c86fb3310af29&output=html&source=placeapi_v2,,00:00-24:00,,,,,,,,3,,,,,,,,120.89604176378,31.972740504673,1
868d0c107b2c157db13c8128,南通狼山风景名胜区-停车场,交通设施,停车场,江苏省,南通市,崇川区,南通市崇川区花园路与紫琅路交叉路口往东北约270米,,1,1,120.89259,31.961927,18862920166,life,http://api.map.baidu.com/place/detail?uid=868d0c107b2c157db13c8128&output=html&source=placeapi_v2,,00:00-24:00,,,,,,,,,,,,,,,,120.89247539658,31.961239849612,1
f486a308bd6be7687069d3a6,星光耀广场-停车场,交通设施,停车场,江苏省,南通市,崇川区,南通市崇川区工农路与桃园路交汇处星光耀广场2F层,f486a308bd6be7687069d3a6,1,4,120.896162,31.972531,,life,http://api.map.baidu.com/place/detail?uid=f486a308bd6be7687069d3a6&output=html&source=placeapi_v2,,00:00-24:00,,,,,,,,,,,,,,,,120.89745691655,31.971871468756,4
98672a826c8c2f33d0ff2339,南通狼山风景名胜区-停车场,交通设施,停车场,江苏省,南通市,崇川区,南通市崇川区花园路南通狼山风景名胜区,98672a826c8c2f33d0ff2339,1,0,120.893629,31.961213,,life,http://api.map.baidu.com/place/detail?uid=98672a826c8c2f33d0ff2339&output=html&source=placeapi_v2,,00:00-24:00,,,,,,,,,,,,,,,,,,0
a1a1e896ee540bfb9ee3218d,中南南通体育会展中心-停车场,交通设施,停车场,江苏省,南通市,崇川区,江苏省南通市崇川区桃园路7号南通体育会展中心,a1a1e896ee540bfb9ee3218d,1,2,120.903907,31.973811,,life,http://api.map.baidu.com/place/detail?uid=a1a1e896ee540bfb9ee3218d&output=html&source=placeapi_v2,,00:00-24:00,,,,,,,,1,,,,,,,,120.90367460531,31.974293439779,2
13e1684a0d3970ed7adbd2bb,五山公寓-停车场,交通设施,停车场,江苏省,南通市,崇川区,南通市崇川区花园路五山公寓,13e1684a0d3970ed7adbd2bb,1,1,120.904154,31.963369,,life,http://api.map.baidu.com/place/detail?uid=13e1684a0d3970ed7adbd2bb&output=html&source=placeapi_v2,,00:00-24:00,,,,,,,,,,,,,,,,120.90517951248,31.963020063847,1
2bee392c334fcda17adbd293,中国农业银行(南通狼山支行)-停车场,交通设施,停车场,江苏省,南通市,崇川区,南通市崇川区城山路仿古商贸街狼山镇59号院北侧约90米,,1,0,120.895935,31.962577,,life,http://api.map.baidu.com/place/detail?uid=2bee392c334fcda17adbd293&output=html&source=placeapi_v2,,00:00-24:00,,,,,,,,,,,,,,,,,,0
20c42a8887e4fbac260bd065,南通狼山风景名胜区-停车场,交通设施,停车场,江苏省,南通市,崇川区,南通市崇川区山水路南通狼山风景名胜区,,1,1,120.896982,31.948907,(0513)85705215,life,http://api.map.baidu.com/place/detail?uid=20c42a8887e4fbac260bd065&output=html&source=placeapi_v2,,00:00-24:00,,,,,,,,1,,,,,,,,120.89653475923,31.948378286841,1
3c5f09d64dc07d760c0e6b37,中南世纪城-停车场,交通设施,停车场,江苏省,南通市,崇川区,南通市崇川区桃园路7号南通体育会展中心,,1,0,120.899686,31.972528,,life,http://api.map.baidu.com/place/detail?uid=3c5f09d64dc07d760c0e6b37&output=html&source=placeapi_v2,,00:00-24:00,,,,,,,,1,,,,,,,,,,0
eb2156dbebd1a06b41d63e4e,南通植物园-西北停车场,交通设施,停车场,江苏省,南通市,崇川区,南通市崇川区工农南路五山公寓南侧约160米,,1,0,120.9054,31.961218,,life,http://api.map.baidu.com/place/detail?uid=eb2156dbebd1a06b41d63e4e&output=html&source=placeapi_v2,,,,,,,,,,,,,,,,,,,,0
1072e24b37a45dccb54f546a,中南西广场-停车场,交通设施,停车场,江苏省,南通市,崇川区,南通市崇川区桃园路12号(工农路辅路),1072e24b37a45dccb54f546a,1,1,120.898367,31.974647,,life,http://api.map.baidu.com/place/detail?uid=1072e24b37a45dccb54f546a&output=html&source=placeapi_v2,,,,,,,,,,,,,,,,,,120.89821835354,31.974675462375,1
78f1d448b3a5c5a2128824a1,中南-B2地下停车场,交通设施,停车场,江苏省,南通市,崇川区,南通市崇川区桃园路12号,,1,1,120.900354,31.974386,(0513)89156119,life,http://api.map.baidu.com/place/detail?uid=78f1d448b3a5c5a2128824a1&output=html&source=placeapi_v2,,,,,,,,,,,,,,,,,,120.90072247986,31.973997307632,1
d16831f84e95d58b71455bcf,中南南通体育会展中心-停车场,交通设施,停车场,江苏省,南通市,崇川区,南通市崇川区桃园路7号南通体育会展中心,d16831f84e95d58b71455bcf,1,1,120.89923,31.973253,(0513)68785809,life,http://api.map.baidu.com/place/detail?uid=d16831f84e95d58b71455bcf&output=html&source=placeapi_v2,,,5,,,,,,,1,1,,,,,,,120.90063262685,31.973650905189,1
36f5b55d5d8cf4d4d1f49eb7,停车场(紫琅新村东南),交通设施,停车场,江苏省,南通市,崇川区,南通市崇川区城山路紫琅新村东北侧,,1,0,120.894761,31.967526,,life,http://api.map.baidu.com/place/detail?uid=36f5b55d5d8cf4d4d1f49eb7&output=html&source=placeapi_v2,,00:00-24:00,,,,,,,,,,,,,,,,,,0
5f3fd969f9d0758431f71dd1,滨江花园-地下停车场,交通设施,停车场,江苏省,南通市,崇川区,南通市崇川区紫琅南路18号滨江花园,,1,1,120.892552,31.965682,,life,http://api.map.baidu.com/place/detail?uid=5f3fd969f9d0758431f71dd1&output=html&source=placeapi_v2,,,,,,,,,,,,,,,,,,,,1
93452f482f8d51eab45f1ed3,滨江停车场,交通设施,停车场,江苏省,南通市,崇川区,南通市崇川区滨江公园路与长江南路交叉路口东侧,93452f482f8d51eab45f1ed3,1,1,120.880082,31.970404,15051261685,life,http://api.map.baidu.com/place/detail?uid=93452f482f8d51eab45f1ed3&output=html&source=placeapi_v2,,00:00-24:00,,,,,,,,,,,,,,,,120.88005758323,31.970502134094,1
0a5704126876d5f8abf0cd28,停车场(江淮路),交通设施,停车场,江苏省,南通市,崇川区,南通市崇川区江淮路中南城购物中心北侧,,1,0,120.900107,31.975422,,life,http://api.map.baidu.com/place/detail?uid=0a5704126876d5f8abf0cd28&output=html&source=placeapi_v2,,,,,,,,,,,,,,,,,,,,0
d94fbc9c2719dd8eadcb6688,南通滨江洲际酒店-停车场,交通设施,停车场,江苏省,南通市,崇川区,江苏省南通市崇川区跃龙南路508号,,1,0,120.88164,31.968217,(0513)80565555,life,http://api.map.baidu.com/place/detail?uid=d94fbc9c2719dd8eadcb6688&output=html&source=placeapi_v2,,00:00-24:00,,,,,,,,,,,,,,,,120.88107372576,31.969015640646,0
cd1b7b0cb4b09bd7246e98b8,滨江公园-停车场,交通设施,停车场,江苏省,南通市,崇川区,南通市崇川区长江中路城山花园西侧约190米,cd1b7b0cb4b09bd7246e98b8,1,1,120.881292,31.970872,,life,http://api.map.baidu.com/place/detail?uid=cd1b7b0cb4b09bd7246e98b8&output=html&source=placeapi_v2,,00:00-24:00,,,,,,,,,,,,,,,,120.87998222797,31.970482538329,1
45645c08384831ea17948ece,中南谷停车场,交通设施,停车场,江苏省,南通市,崇川区,南通市崇川区海韵街南通中央公园,45645c08384831ea17948ece,1,1,120.902208,31.978777,(0513)80989999,life,http://api.map.baidu.com/place/detail?uid=45645c08384831ea17948ece&output=html&source=placeapi_v2,,00:00-24:00,,,,,,,,,,,,,,,,120.90218614742,31.978779784693,1
013a3bfae57d44e783a00c44,五山公寓-地下停车场,交通设施,停车场,江苏省,南通市,崇川区,江苏省南通市崇川区花园路,,1,2,120.90522,31.963352,,life,http://api.map.baidu.com/place/detail?uid=013a3bfae57d44e783a00c44&output=html&source=placeapi_v2,,00:00-24:00,,,,,,,,1,,,,,,,,120.90525753121,31.963046952815,2
0c92cab6f68867102fb96d79,滨江花园-停车场,交通设施,停车场,江苏省,南通市,崇川区,南通市崇川区紫琅南路18号滨江花园,,1,1,120.891091,31.967129,,life,http://api.map.baidu.com/place/detail?uid=0c92cab6f68867102fb96d79&output=html&source=placeapi_v2,,,,,,,,,,,,,,,,,,120.8904425384,31.967337484193,1
f13f66265641a348b13c813e,南通CBD大有境-停车场,交通设施,停车场,江苏省,南通市,崇川区,江苏省南通市崇川区桃园路12号南通CBD大有境B2,,1,0,120.899889,31.974642,,life,http://api.map.baidu.com/place/detail?uid=f13f66265641a348b13c813e&output=html&source=placeapi_v2,,00:00-24:00,,,,,,,,,,,,,,,,120.90044548825,31.973951546774,0
95ff665e16125f79f60e7732,南通大学-停车场,交通设施,停车场,江苏省,南通市,崇川区,江苏省南通市崇川区园林路南通大学,95ff665e16125f79f60e7732,1,0,120.910227,31.973253,,life,http://api.map.baidu.com/place/detail?uid=95ff665e16125f79f60e7732&output=html&source=placeapi_v2,,00:00-24:00,,,,,,,,,,,,,,,,,,0
45475b8504e75a054207c1a0,中南世纪城-停车场,交通设施,停车场,江苏省,南通市,崇川区,南通市崇川区崇文路与桃园路交叉口西北100米,45475b8504e75a054207c1a0,1,2,120.905846,31.975875,(0513)85019755,life,http://api.map.baidu.com/place/detail?uid=45475b8504e75a054207c1a0&output=html&source=placeapi_v2,,00:00-24:00,,,,,,,,,,,,,,,,120.90553667336,31.978665700173,2
6a67842f8a92bb3da2046488,中南世纪城18号楼-地下停车场,交通设施,停车场,江苏省,南通市,崇川区,江苏省南通市崇川区江川东路中南・世纪城东三门,6a67842f8a92bb3da2046488,1,1,120.905417,31.977004,,life,http://api.map.baidu.com/place/detail?uid=6a67842f8a92bb3da2046488&output=html&source=placeapi_v2,,,,,,,,,,,,,,,,,,120.90550637441,31.976815187833,1
fcbb1ea63fc049c8e31103c2,停车场(海韵街),交通设施,停车场,江苏省,南通市,崇川区,江苏省南通市崇川区海韵街南通中央公园,,1,0,120.90248,31.977533,,life,http://api.map.baidu.com/place/detail?uid=fcbb1ea63fc049c8e31103c2&output=html&source=placeapi_v2,,00:00-24:00,,,,,,,,,,,,,,,,,,0
e48c7b3d0711b316e8e58280,南通CBD大有境-停车场,交通设施,停车场,江苏省,南通市,崇川区,江苏省南通市崇川区桃园路12号南通CBD大有境F2,,1,0,120.89983,31.975004,,life,http://api.map.baidu.com/place/detail?uid=e48c7b3d0711b316e8e58280&output=html&source=placeapi_v2,,00:00-24:00,,,,,,,,3,,,,,,,,120.8993810088,31.97537878088,0
2f69bd3c33e41e25fb22135a,中南世纪城-地下停车场,交通设施,停车场,江苏省,南通市,崇川区,桃园路与海风街交叉口北100米,2f69bd3c33e41e25fb22135a,1,1,120.904864,31.97551,18862933257,life,http://api.map.baidu.com/place/detail?uid=2f69bd3c33e41e25fb22135a&output=html&source=placeapi_v2,,00:00-24:00,0,,,,,,,,1,,,,,,,120.90475026348,31.975482613806,1
3dc77034bedfcad117c905d1,停车场(紫琅路),交通设施,停车场,江苏省,南通市,崇川区,南通市崇川区紫琅路国家级・崇川科技创业园,,1,0,120.887263,31.974364,,life,http://api.map.baidu.com/place/detail?uid=3dc77034bedfcad117c905d1&output=html&source=placeapi_v2,,00:00-24:00,,,,,,,,1,,,,,,,,,,0
056345963a132f073686f468,中南南通CBD大有境B座-地下停车场,交通设施,停车场,江苏省,南通市,崇川区,江苏省南通市崇川区桃园路10号,056345963a132f073686f468,1,0,120.903129,31.975253,,life,http://api.map.baidu.com/place/detail?uid=056345963a132f073686f468&output=html&source=placeapi_v2,,,,,,,,,,,,,,,,,,120.90283410327,31.97519901972,0
4bd09cd04a19292fad0457fe,地下停车场(中南城B座西南),交通设施,停车场,江苏省,南通市,崇川区,南通市崇川区江淮路中南城购物中心,,1,0,120.898684,31.975133,,life,http://api.map.baidu.com/place/detail?uid=4bd09cd04a19292fad0457fe&output=html&source=placeapi_v2,,,,,,,,,,5,,,,,,,,,,0
a6de12b96dc69a6cafee7abb,星光耀广场-地下车库,交通设施,停车场,江苏省,南通市,崇川区,南通市崇川区,a6de12b96dc69a6cafee7abb,1,0,120.89633,31.971424,,life,http://api.map.baidu.com/place/detail?uid=a6de12b96dc69a6cafee7abb&output=html&source=placeapi_v2,,,,,,,,,,,,,,,,,,120.89631170638,31.971368738192,0
6ef89a2ed8121bb3a1a93456,滨江花园-地下停车场,交通设施,停车场,江苏省,南通市,崇川区,南通市崇川区紫琅南路18号滨江花园,,1,1,120.890755,31.967784,,life,http://api.map.baidu.com/place/detail?uid=6ef89a2ed8121bb3a1a93456&output=html&source=placeapi_v2,,,,,,,,,,,,,,,,,,,,1
28dd0239a2a73c9c471a3275,98街区停车场,交通设施,停车场,江苏省,南通市,崇川区,南通市崇川区海韵街中南世纪城98街区东侧,,1,0,120.902534,31.97624,,life,http://api.map.baidu.com/place/detail?uid=28dd0239a2a73c9c471a3275&output=html&source=placeapi_v2,,,,,,,,,,,,,,,,,,120.90250280819,31.976291049413,0
b8e003e938620ecba8175a2b,城山家园-地下停车场,交通设施,停车场,江苏省,南通市,崇川区,南通市崇川区城山路城山家园,,1,1,120.892687,31.969946,,life,http://api.map.baidu.com/place/detail?uid=b8e003e938620ecba8175a2b&output=html&source=placeapi_v2,,,,,,,,,,,,,,,,,,,,1
c6f2ae2e87911e5cf6c59cd7,中南新世界广场-地下停车场,交通设施,停车场,江苏省,南通市,崇川区,江苏省南通市崇川区中南城购物中心北中南新世界广场,,1,1,120.900801,31.975998,"(0513)68702747,(0513)89128988",life,http://api.map.baidu.com/place/detail?uid=c6f2ae2e87911e5cf6c59cd7&output=html&source=placeapi_v2,,,,,,,,,,,,,,,,,,120.90082099253,31.975889303293,1
6247281a8985a26738221ca6,中南南通体育会展中心-地下停车场,交通设施,停车场,江苏省,南通市,崇川区,江苏省南通市崇川区桃园路7号(近中南世纪城)体育会展中心,,1,1,120.899386,31.972108,,life,http://api.map.baidu.com/place/detail?uid=6247281a8985a26738221ca6&output=html&source=placeapi_v2,,,,,,,,,,,,,,,,,,120.89954602752,31.972086160219,1
494359e2a4f3844d43ab9a70,鹏欣花园国宾酒店-停车场,交通设施,停车场,江苏省,南通市,崇川区,山水路1号南通鹏欣花园国宾酒店,,1,0,120.893743,31.949363,,life,http://api.map.baidu.com/place/detail?uid=494359e2a4f3844d43ab9a70&output=html&source=placeapi_v2,,00:00-24:00,,,,,,,,,,,,,,,,120.89380891135,31.949628155298,0
f0732c9887065525fbf0cb9a,苏建学府雅居-停车场,交通设施,停车场,江苏省,南通市,崇川区,江苏省南通市崇川区崇川路8号,f0732c9887065525fbf0cb9a,1,1,120.894465,31.977303,(0513)85200000,life,http://api.map.baidu.com/place/detail?uid=f0732c9887065525fbf0cb9a&output=html&source=placeapi_v2,,00:00-24:00,,,,,,,,,,,,,,,,120.89478140791,31.977298622248,1
6be9de59a0568522d8131888,中南新世界广场-地下停车场,交通设施,停车场,江苏省,南通市,崇川区,江苏省南通市崇川区中南城购物中心北中南新世界广场,,1,1,120.900571,31.977104,,life,http://api.map.baidu.com/place/detail?uid=6be9de59a0568522d8131888&output=html&source=placeapi_v2,,,,,,,,,,,,,,,,,,120.89817952518,31.976638273614,1
afb3db24e2b3788c8936ee9f,中南南通CBD大有境B座-停车场,交通设施,停车场,江苏省,南通市,崇川区,江苏省南通市崇川区桃园路12号中南南通CBD大有境B座北门附近,afb3db24e2b3788c8936ee9f,1,1,120.899404,31.975328,,life,http://api.map.baidu.com/place/detail?uid=afb3db24e2b3788c8936ee9f&output=html&source=placeapi_v2,,00:00-24:00,,,,,,,,,,,,,,,,120.89948923395,31.975404786657,1
243beee3eddfbd4f8a36ee7a,聚贤公寓-地下停车场,交通设施,停车场,江苏省,南通市,崇川区,南通市崇川区桃园路66号聚贤公寓,,1,1,120.884494,31.973146,,life,http://api.map.baidu.com/place/detail?uid=243beee3eddfbd4f8a36ee7a&output=html&source=placeapi_v2,,,,,,,,,,,,,,,,,,120.88442341359,31.973136874327,1
1be367f3012aac616f3e1b10,城山花园-地下停车场,交通设施,停车场,江苏省,南通市,崇川区,南通市崇川区桃园路与长江中路交叉路口往东南约50米(紫琅花园别墅西侧约100米)城山花园,,1,1,120.885521,31.971034,,life,http://api.map.baidu.com/place/detail?uid=1be367f3012aac616f3e1b10&output=html&source=placeapi_v2,,,,,,,,,,,,,,,,,,,,1
577c1020320b98a915c9056d,城山花园-地下停车场,交通设施,停车场,江苏省,南通市,崇川区,南通市崇川区桃园路与长江中路交叉路口往东南约50米(紫琅花园别墅西侧约100米)城山花园,,1,1,120.884463,31.971335,,life,http://api.map.baidu.com/place/detail?uid=577c1020320b98a915c9056d&output=html&source=placeapi_v2,,,,,,,,,,,,,,,,,,,,1
93fdf601ed1058309c09f723,停车场,交通设施,停车场,江苏省,南通市,崇川区,通富北路77-2号楼附近,93fdf601ed1058309c09f723,1,0,120.929598,31.969651,,life,http://api.map.baidu.com/place/detail?uid=93fdf601ed1058309c09f723&output=html&source=placeapi_v2,,,,,,,,,,,,,,,,,,,,0
ff17b5f4c81d483c3804b120,停车场,交通设施,停车场,江苏省,南通市,崇川区,南通市崇川区科兴路与通和路交叉路口往东南约130米,,1,0,120.933316,31.947127,,life,http://api.map.baidu.com/place/detail?uid=ff17b5f4c81d483c3804b120&output=html&source=placeapi_v2,,,,,,,,,,1,,,,,,,,,,0
8bf5978166ae0d2fd13ce397,停车场,交通设施,停车场,江苏省,南通市,崇川区,南通市崇川区朝阳路星月花园,,1,0,120.925796,31.967738,,life,http://api.map.baidu.com/place/detail?uid=8bf5978166ae0d2fd13ce397&output=html&source=placeapi_v2,,,,,,,,,,1,,,,,,,,,,0
6eeaada57c9d9424e5e96536,停车场,交通设施,停车场,江苏省,南通市,崇川区,中天路36号附近,6eeaada57c9d9424e5e96536,1,0,120.942662,31.949357,,life,http://api.map.baidu.com/place/detail?uid=6eeaada57c9d9424e5e96536&output=html&source=placeapi_v2,,00:00-24:00,,,,,,,,2,,,,,,,,,,0
bf6337f9eab5bbd7990050f2,停车场,交通设施,停车场,江苏省,南通市,崇川区,南通市崇川区通富南路新星苑东侧约50米,bf6337f9eab5bbd7990050f2,1,0,120.927189,31.948451,,life,http://api.map.baidu.com/place/detail?uid=bf6337f9eab5bbd7990050f2&output=html&source=placeapi_v2,,00:00-24:00,,,,,,,,1,,,,,,,,,,0
c214aa72b0febd467069d3e5,紫琅公园-5号停车场,交通设施,停车场,江苏省,南通市,崇川区,南通市崇川区崇州大道与兴业路交叉路口往东北约240米,,1,2,120.937739,31.96045,,life,http://api.map.baidu.com/place/detail?uid=c214aa72b0febd467069d3e5&output=html&source=placeapi_v2,,,0,,,,,,,1,1,,,,,,,120.9378281837,31.960606944922,2
f69171f13a6e004bb04c4909,罗莱家纺(南通源兴专卖店)-停车场,交通设施,停车场,江苏省,南通市,崇川区,江苏省南通市崇川区罗莱家纺(源兴路南),f69171f13a6e004bb04c4909,1,1,120.938574,31.953798,,life,http://api.map.baidu.com/place/detail?uid=f69171f13a6e004bb04c4909&output=html&source=placeapi_v2,,00:00-24:00,,,,,,,,,,,,,,,,120.93881468664,31.954102800701,1
141701f6a056c45115c905f8,通富妇儿乐城-停车场,交通设施,停车场,江苏省,南通市,崇川区,南通市崇川区通富路88号,141701f6a056c45115c905f8,1,2,120.930888,31.976467,(0513)83590392,life,http://api.map.baidu.com/place/detail?uid=141701f6a056c45115c905f8&output=html&source=placeapi_v2,,,0.0,,,,,,,,0,,,,,,,120.93251878042,31.975767932918,2
dbe52fcbe4ec7cf76e20b94a,紫琅公园-4号停车场,交通设施,停车场,江苏省,南通市,崇川区,南通市崇川区崇州大道紫琅公园北侧约110米,,1,0,120.938438,31.969175,,life,http://api.map.baidu.com/place/detail?uid=dbe52fcbe4ec7cf76e20b94a&output=html&source=placeapi_v2,,,,,,,,,,,,,,,,,,120.93831391366,31.969115256457,0
22dbaec0142ccdd36240a930,停车场(通富南路),交通设施,停车场,江苏省,南通市,崇川区,南通市崇川区通富南路南通红星家居广场西北侧约110米,,1,0,120.928726,31.963456,,life,http://api.map.baidu.com/place/detail?uid=22dbaec0142ccdd36240a930&output=html&source=placeapi_v2,,,,,,,,,,,,,,,,,,,,0
44425af68caf0cea4f3a5955,紫琅公园-6号停车场,交通设施,停车场,江苏省,南通市,崇川区,江苏省南通市崇川区兴业路,,1,0,120.943145,31.958071,,life,http://api.map.baidu.com/place/detail?uid=44425af68caf0cea4f3a5955&output=html&source=placeapi_v2,,,0.0,,,,,,,2,1,,,,,,,120.94313356795,31.957836827762,0
225db37247e1c8e0b64f54b8,停车场(源兴路),交通设施,停车场,江苏省,南通市,崇川区,南通市崇川区源兴路罗莱家纺东北2门西侧约50米,225db37247e1c8e0b64f54b8,1,0,120.939463,31.954542,,life,http://api.map.baidu.com/place/detail?uid=225db37247e1c8e0b64f54b8&output=html&source=placeapi_v2,,,,,,,,,,,,,,,,,,,,0
15b35188406682c2d6b74e69,紫琅公园沙滩-7号停车场,交通设施,停车场,江苏省,南通市,崇川区,江苏省南通市崇川区湖东路,,1,0,120.947259,31.960301,,life,http://api.map.baidu.com/place/detail?uid=15b35188406682c2d6b74e69&output=html&source=placeapi_v2,,,0,,,,,,,,0,,,,,,,120.94754629075,31.960550860564,0
f051236dd2bf9afe9122e03b,东方大厦-停车场,交通设施,停车场,江苏省,南通市,崇川区,南通市崇川区源兴路与通富南路交叉口东南200米,f051236dd2bf9afe9122e03b,1,1,120.928597,31.9544,,life,http://api.map.baidu.com/place/detail?uid=f051236dd2bf9afe9122e03b&output=html&source=placeapi_v2,,,,,,,,,,,,,,,,,,120.92772404242,31.954096145334,1
c2b14db3f78450e060685822,停车场(滨水路),交通设施,停车场,江苏省,南通市,崇川区,南通市崇川区滨水路罗莱家纺(南通源兴专卖店)东南侧约170米,,1,0,120.939721,31.950036,,life,http://api.map.baidu.com/place/detail?uid=c2b14db3f78450e060685822&output=html&source=placeapi_v2,,,,,,,,,,,,,,,,,,,,0
0f86a90ee3e8ad06d2f49eec,景瑞・御府-停车场,交通设施,停车场,江苏省,南通市,崇川区,江苏省南通市崇川区通富南路西200米景瑞・御府,,1,2,120.928052,31.974349,,life,http://api.map.baidu.com/place/detail?uid=0f86a90ee3e8ad06d2f49eec&output=html&source=placeapi_v2,,,,,,,,,,,,,,,,,,120.92732138506,31.974514222591,2
85c63678eda034b88936eedb,星通花园-停车场,交通设施,停车场,江苏省,南通市,崇川区,江苏省南通市崇川区科兴路星通花园,,1,1,120.924797,31.951262,,life,http://api.map.baidu.com/place/detail?uid=85c63678eda034b88936eedb&output=html&source=placeapi_v2,,,,,,,,,,1,,,,,,,,,,1
8611780da3e8d1db09a8d4cc,新港花苑-停车场,交通设施,停车场,江苏省,南通市,崇川区,南通市崇川区花园路新港花苑,,1,1,120.918945,31.965529,,life,http://api.map.baidu.com/place/detail?uid=8611780da3e8d1db09a8d4cc&output=html&source=placeapi_v2,,,,,,,,,,,,,,,,,,120.91896128417,31.96555416924,1
9cfbc636dbdb4d105cbe860d,紫琅公园-3号停车场,交通设施,停车场,江苏省,南通市,崇川区,江苏省南通市崇川区通泸大道辅路,9cfbc636dbdb4d105cbe860d,1,0,120.94228,31.977241,,life,http://api.map.baidu.com/place/detail?uid=9cfbc636dbdb4d105cbe860d&output=html&source=placeapi_v2,,,0.0,,,,,,,2,1,,,,,,,120.94285784296,31.977652174101,0
42ca23f733cc126adf1e52e0,通富驾校-停车场,交通设施,停车场,江苏省,南通市,崇川区,南通市崇川区源兴路东方大厦东侧约250米,42ca23f733cc126adf1e52e0,1,0,120.931891,31.954616,,life,http://api.map.baidu.com/place/detail?uid=42ca23f733cc126adf1e52e0&output=html&source=placeapi_v2,,00:00-24:00,,,,,,,,,,,,,,,,,,0
46a6fd29628deaa18c1a8921,停车场(阳小路),交通设施,停车场,江苏省,南通市,崇川区,江苏省南通市崇川区附小路南通高等师范学校附属小学东南侧,,1,0,120.927115,31.956754,(0513)85993333,life,http://api.map.baidu.com/place/detail?uid=46a6fd29628deaa18c1a8921&output=html&source=placeapi_v2,,,,,,,,,,,,,,,,,,,,0
8d90431b58941455f7e73b67,荟景苑-停车场,交通设施,停车场,江苏省,南通市,崇川区,南通市崇川区新港东路荟景苑,,1,0,120.919074,31.961204,,life,http://api.map.baidu.com/place/detail?uid=8d90431b58941455f7e73b67&output=html&source=placeapi_v2,,,,,,,,,,,,,,,,,,,,0
679ab9c46295417606026f41,停车场(常青路),交通设施,停车场,江苏省,南通市,崇川区,南通市崇川区常青路金河名人世家,,1,0,120.923012,31.953329,,life,http://api.map.baidu.com/place/detail?uid=679ab9c46295417606026f41&output=html&source=placeapi_v2,,00:00-24:00,,,,,,,,,,,,,,,,,,0
f27f77a277a8bcdf3e9a5e4a,炜赋花苑-停车场,交通设施,停车场,江苏省,南通市,崇川区,南通市崇川区安富路炜赋花苑,,1,1,120.924238,31.97103,,life,http://api.map.baidu.com/place/detail?uid=f27f77a277a8bcdf3e9a5e4a&output=html&source=placeapi_v2,,00:00-24:00,,,,,,,,,,,,,,,,120.92406652327,31.97098826893,1
faef85c9963980936cc02cc3,景瑞・御府-地下停车场,交通设施,停车场,江苏省,南通市,崇川区,江苏省南通市崇川区居丽路,,1,2,120.926727,31.972219,,life,http://api.map.baidu.com/place/detail?uid=faef85c9963980936cc02cc3&output=html&source=placeapi_v2,,,,,,,,,,,,,,,,,,120.92670801218,31.972128424109,2
