uid,name,cat_L1,cat_L2,province,city,area,address,street_id,detail,child_num,loc_lng,loc_lat,telephone,type,detail_url,price,shop_hours,overall_rating,taste_rating,service_rating,environment_rating,facility_rating,hygiene_rating,technology_rating,image_num,comment_num,groupon_num,discount_num,favorite_num,checkin_num,brand,content_tag,naviloc_lng,naviloc_lat,child_num
d27d8e9f970efc2ae6e965d3,职工公寓,房地产,宿舍,浙江省,金华市,武义县,浙江省金华市武义县纬一东路3西70米,d27d8e9f970efc2ae6e965d3,1,0,119.962416,28.874617,,house,http://api.map.baidu.com/place/detail?uid=d27d8e9f970efc2ae6e965d3&output=html&source=placeapi_v2,,,,,,,,,,,,,,,,,,,,0
c54340186bb60f30a2d2304c,市场监督管理局宿舍,房地产,宿舍,浙江省,金华市,武义县,金华市武义县城脚路3号,c54340186bb60f30a2d2304c,1,0,119.818565,28.890398,,house,http://api.map.baidu.com/place/detail?uid=c54340186bb60f30a2d2304c&output=html&source=placeapi_v2,,,,,,,,,,,,,,,,,,119.81853625153,28.890457986596,0
96b9b72020cd00b2cbfa5f5c,市场监督管理局宿舍-19幢,房地产,宿舍,浙江省,金华市,武义县,江山新村二路6幢,96b9b72020cd00b2cbfa5f5c,1,0,119.819313,28.89078,,house,http://api.map.baidu.com/place/detail?uid=96b9b72020cd00b2cbfa5f5c&output=html&source=placeapi_v2,,,,,,,,,,,,,,,,,,119.81929062693,28.890842475166,0
b55d7bf2c0a2e887b1077d00,石雕厂宿舍,房地产,宿舍,浙江省,金华市,武义县,金华市武义县熟溪街道大桥南路113号石雕厂宿舍,b55d7bf2c0a2e887b1077d00,1,0,119.830964,28.890592,,house,http://api.map.baidu.com/place/detail?uid=b55d7bf2c0a2e887b1077d00&output=html&source=placeapi_v2,,,,,,,,,,,,,,,,,,119.8311673235,28.890802650494,0
d5e8dc6472c0c290ae31e531,财税宿舍,房地产,宿舍,浙江省,金华市,武义县,金华市武义县大桥南路与环城南路交叉路口往西约70米,d5e8dc6472c0c290ae31e531,1,0,119.828499,28.893733,,house,http://api.map.baidu.com/place/detail?uid=d5e8dc6472c0c290ae31e531&output=html&source=placeapi_v2,,,,,,,,,,,,,,,,,,119.82835941541,28.893957752282,0
f322c9fbd6a393e76fc02cc6,财税宿舍西-1幢,房地产,宿舍,浙江省,金华市,武义县,财税宿舍东1幢,f322c9fbd6a393e76fc02cc6,1,0,119.828386,28.893574,,house,http://api.map.baidu.com/place/detail?uid=f322c9fbd6a393e76fc02cc6&output=html&source=placeapi_v2,,,,,,,,,,,,,,,,,,119.82850005951,28.89337490125,0
cb0e39c40791b4d08c55ec74,财税宿舍东-2幢,房地产,宿舍,浙江省,金华市,武义县,浙江省金华市武义县财税宿舍西2幢,cb0e39c40791b4d08c55ec74,1,0,119.828306,28.893774,,house,http://api.map.baidu.com/place/detail?uid=cb0e39c40791b4d08c55ec74&output=html&source=placeapi_v2,,,,,,,,,,,,,,,,,,119.82823561274,28.893876844268,0
36c9dac265b05558cd04ef41,人民医院宿舍3幢,房地产,宿舍,浙江省,金华市,武义县,金华市武义县供电路武阳名筑东侧约50米,36c9dac265b05558cd04ef41,1,0,119.830054,28.89482,,house,http://api.map.baidu.com/place/detail?uid=36c9dac265b05558cd04ef41&output=html&source=placeapi_v2,,,,,,,,,,,,,,,,,,119.82999918858,28.895054253653,0
8e990da6f33fa040cc06a4c8,浙江双峰锅炉制造有限公司-宿舍,房地产,宿舍,浙江省,金华市,武义县,浙江省金华市武义县振兴路150号院内,8e990da6f33fa040cc06a4c8,1,0,119.833874,28.885194,,house,http://api.map.baidu.com/place/detail?uid=8e990da6f33fa040cc06a4c8&output=html&source=placeapi_v2,,,,,,,,,,,,,,,,,,119.83370086124,28.885172224364,0
18b6c3c757c1c4d66e20b9c9,浙江武义印刷包装厂宿舍,房地产,宿舍,浙江省,金华市,武义县,金华市武义县熟溪街道大桥南路48号浙江武义印刷包装厂宿舍,18b6c3c757c1c4d66e20b9c9,1,0,119.830216,28.891743,,house,http://api.map.baidu.com/place/detail?uid=18b6c3c757c1c4d66e20b9c9&output=html&source=placeapi_v2,,,,,,,,,,,,,,,,,,,,0
550ab4a0234452de48fd3f6c,威特宿舍楼,房地产,宿舍,浙江省,金华市,武义县,浙江省金华市武义县永武路东南工业区,,1,0,119.846461,28.879586,,house,http://api.map.baidu.com/place/detail?uid=550ab4a0234452de48fd3f6c&output=html&source=placeapi_v2,,,,,,,,,,,,,,,,,,119.8464324581,28.878971075826,0
c40cd3631a69f4599a005036,新多集团宿舍,房地产,宿舍,浙江省,金华市,永康市,西城街道西城街道城西工业区蓝天路16号新多集团宿舍,c40cd3631a69f4599a005036,1,0,120.009081,28.893595,,house,http://api.map.baidu.com/place/detail?uid=c40cd3631a69f4599a005036&output=html&source=placeapi_v2,,,,,,,,,,,,,,,,,,120.00898057597,28.89370788846,0
b52bd26847cff13e1c3894f6,恒丰宿舍,房地产,宿舍,浙江省,金华市,永康市,金华市永康市白堪下168号,b52bd26847cff13e1c3894f6,1,1,120.045086,28.888141,,house,http://api.map.baidu.com/place/detail?uid=b52bd26847cff13e1c3894f6&output=html&source=placeapi_v2,,,,,,,,,,,,,,,,,,120.04527223354,28.888277599921,1
63064bad648b2dfc725e80eb,电动小区电动宿舍,房地产,宿舍,浙江省,金华市,永康市,望春西路38-7号,63064bad648b2dfc725e80eb,1,0,120.050291,28.896212,,house,http://api.map.baidu.com/place/detail?uid=63064bad648b2dfc725e80eb&output=html&source=placeapi_v2,,,,,,,,,,,,,,,,,,120.05033057031,28.896281275272,0
0787a27af07c9496ae31e503,电动小区电动宿舍-2号,房地产,宿舍,浙江省,金华市,永康市,金华市永康市望春西路38-13号,0787a27af07c9496ae31e503,1,0,120.050518,28.895914,,house,http://api.map.baidu.com/place/detail?uid=0787a27af07c9496ae31e503&output=html&source=placeapi_v2,,,,,,,,,,,,,,,,,,120.05037504901,28.895983186694,0
98075f5cf03cfaf25e0d02b7,员工宿舍,房地产,宿舍,浙江省,金华市,永康市,浙江省金华市永康市鑫宝大厦康廷大酒店员工宿舍,98075f5cf03cfaf25e0d02b7,1,0,120.048554,28.895089,,house,http://api.map.baidu.com/place/detail?uid=98075f5cf03cfaf25e0d02b7&output=html&source=placeapi_v2,,,,,,,,,,,,,,,,,,,,0
9c779920102916feae31e577,首府宿舍,房地产,宿舍,浙江省,金华市,永康市,金华市永康市东城街道丽州北路193号首府宿舍,9c779920102916feae31e577,1,0,120.049227,28.907234,,house,http://api.map.baidu.com/place/detail?uid=9c779920102916feae31e577&output=html&source=placeapi_v2,,,,,,,,,,,,,,,,,,,,0
d912c1e5e84bf08bbea240b2,丽州高级中学教师宿舍,房地产,宿舍,浙江省,金华市,永康市,金华市永康市城南路丽州高级中学,d912c1e5e84bf08bbea240b2,1,0,120.048853,28.890371,,house,http://api.map.baidu.com/place/detail?uid=d912c1e5e84bf08bbea240b2&output=html&source=placeapi_v2,,,,,,,,,,,,,,,,,,120.04885670429,28.890494106025,0
f7453fc6e0ac741c46572691,康廷宿舍,房地产,宿舍,浙江省,金华市,永康市,浙江省金华市永康市东城街道九铃东路3247号鑫宝大厦康廷宿舍,f7453fc6e0ac741c46572691,1,0,120.048266,28.899034,,house,http://api.map.baidu.com/place/detail?uid=f7453fc6e0ac741c46572691&output=html&source=placeapi_v2,,,,,,,,,,,,,,,,,,120.04853499144,28.899435949688,0
5f4d2237fa8a668a16c905c8,永康市第一人民医院医生公寓,房地产,宿舍,浙江省,金华市,永康市,金华市永康市金山西路599号,5f4d2237fa8a668a16c905c8,1,0,120.065706,28.900711,,house,http://api.map.baidu.com/place/detail?uid=5f4d2237fa8a668a16c905c8&output=html&source=placeapi_v2,,,,,,,,,,,,,,,,,,120.06622013593,28.900874679942,0
6b771ae7c0adc0a09ff77925,电动小区塑料宿舍,房地产,宿舍,浙江省,金华市,永康市,金华市永康市望春西路星牌花苑北侧约30米,6b771ae7c0adc0a09ff77925,1,0,120.051181,28.895478,,house,http://api.map.baidu.com/place/detail?uid=6b771ae7c0adc0a09ff77925&output=html&source=placeapi_v2,,,,,,,,,,,,,,,,,,,,0
35209557bcdd68e5fbf0cb9e,恒力链条,房地产,宿舍,浙江省,金华市,武义县,金华市武义县童炉工业区白洋五路4号,35209557bcdd68e5fbf0cb9e,1,0,119.842826,28.922428,(0579)87682880,life,http://api.map.baidu.com/place/detail?uid=35209557bcdd68e5fbf0cb9e&output=html&source=placeapi_v2,,,,,,,,,,4,,,,,,,,119.84288981066,28.922704463453,0
ecc4872bf4010093f7b91680,长利电器宿舍,房地产,宿舍,浙江省,金华市,永康市,九龙工业区环湖路59号,,1,0,120.059408,28.932797,,house,http://api.map.baidu.com/place/detail?uid=ecc4872bf4010093f7b91680&output=html&source=placeapi_v2,,,,,,,,,,,,,,,,,,,,0
d137212cb15e7503db1318da,群升宿舍,房地产,宿舍,浙江省,金华市,永康市,金华市永康市永方线与永拖路交叉路口往北约170米,d137212cb15e7503db1318da,1,0,120.03816,28.927525,,house,http://api.map.baidu.com/place/detail?uid=d137212cb15e7503db1318da&output=html&source=placeapi_v2,,,,,,,,,,,,,,,,,,,,0
11ec7f0f23065d57b817e7c4,Snail职工公寓,房地产,宿舍,浙江省,金华市,永康市,浙江省金华市永康市经济开发区华夏路383号,11ec7f0f23065d57b817e7c4,1,0,120.071997,28.932895,,house,http://api.map.baidu.com/place/detail?uid=11ec7f0f23065d57b817e7c4&output=html&source=placeapi_v2,,,,,,,,,,,,,,,,,,,,0
edec6660dc55e6eeda2f2878,任氏物流员工宿舍楼,房地产,宿舍,浙江省,金华市,永康市,金华市永康市九鼎路任氏物流(九鼎路),edec6660dc55e6eeda2f2878,1,0,120.095339,28.936067,,house,http://api.map.baidu.com/place/detail?uid=edec6660dc55e6eeda2f2878&output=html&source=placeapi_v2,,,,,,,,,,,,,,,,,,,,0
a0f673351d5121a5c8213d94,浙江宏昌电器科技股份有限公司-公寓楼,房地产,宿舍,浙江省,金华市,婺城区,金华市婺城区双林南街128号,a0f673351d5121a5c8213d94,1,0,119.623548,29.039214,,house,http://api.map.baidu.com/place/detail?uid=a0f673351d5121a5c8213d94&output=html&source=placeapi_v2,,,,,,,,,,,,,,,,,,119.6240908438,29.039135992886,0
270c16e24a5ac9e4343a7127,秀岩晓舍乡宿,房地产,宿舍,浙江省,金华市,永康市,浙江金华永康唐先镇秀岩村岩洞口村小白楼旁,,1,0,120.13818,29.022569,,house,http://api.map.baidu.com/place/detail?uid=270c16e24a5ac9e4343a7127&output=html&source=placeapi_v2,,,,,,,,,,,,,,,,,,120.13771022136,29.022368934144,0
f6c507465a8981ece9f85333,金华职业技术学院学生公寓,房地产,宿舍,浙江省,金华市,婺城区,浙江省金华市婺城区婺州街1188号,f6c507465a8981ece9f85333,1,0,119.638696,29.069433,,house,http://api.map.baidu.com/place/detail?uid=f6c507465a8981ece9f85333&output=html&source=placeapi_v2,,,,,,,,,,,,,,,,,,,,0
bdc16c7c30c505b42b02e18e,金华职业技术学院-女生宿舍,房地产,宿舍,浙江省,金华市,婺城区,金华市婺城区学士路金华职业技术学院,,1,0,119.638712,29.069604,,house,http://api.map.baidu.com/place/detail?uid=bdc16c7c30c505b42b02e18e&output=html&source=placeapi_v2,,,,,,,,,,,,,,,,,,,,0
93eb693bef7e31433617dc76,金华职业技术学院龙川南苑1,房地产,宿舍,浙江省,金华市,婺城区,浙江省金华市婺城区金帆街899号,93eb693bef7e31433617dc76,1,0,119.638854,29.067518,,house,http://api.map.baidu.com/place/detail?uid=93eb693bef7e31433617dc76&output=html&source=placeapi_v2,,,,,,,,,,,,,,,,,,,,0
12af8eb78c648037ed74f886,食品站宿舍,房地产,宿舍,浙江省,金华市,婺城区,金华市婺城区工业街双桥小区东侧约30米,,1,0,119.559671,29.081394,,house,http://api.map.baidu.com/place/detail?uid=12af8eb78c648037ed74f886&output=html&source=placeapi_v2,,,,,,,,,,,,,,,,,,,,0
5c8612ab8778563b0b1cc769,金华市林业和草原局-宿舍,房地产,宿舍,浙江省,金华市,婺城区,浙江省金华市婺城区磐安街181号,5c8612ab8778563b0b1cc769,1,0,119.636697,29.088775,,house,http://api.map.baidu.com/place/detail?uid=5c8612ab8778563b0b1cc769&output=html&source=placeapi_v2,,,,,,,,,,,,,,,,,,,,0
d8ab139e0dfe1c58bda2407b,肉联厂宿舍,房地产,宿舍,浙江省,金华市,婺城区,金华市婺城区解放西路1172号,d8ab139e0dfe1c58bda2407b,1,0,119.637405,29.101511,,house,http://api.map.baidu.com/place/detail?uid=d8ab139e0dfe1c58bda2407b&output=html&source=placeapi_v2,,,,,,,,,,,,,,,,,,119.63794081754,29.101635300382,0
e77118147ae24cccf03cbac5,消防队宿舍,房地产,宿舍,浙江省,金华市,婺城区,金华市婺城区宾虹路新世纪花园(宾虹路)西南侧,e77118147ae24cccf03cbac5,1,0,119.64502,29.089805,,house,http://api.map.baidu.com/place/detail?uid=e77118147ae24cccf03cbac5&output=html&source=placeapi_v2,,,,,,,,,,,,,,,,,,119.6451503283,29.089825558122,0
7f2850ce36b7a28a8c1a8968,热电厂宿舍(双溪西路),房地产,宿舍,浙江省,金华市,婺城区,金华市婺城区双溪西路617号,7f2850ce36b7a28a8c1a8968,1,1,119.644791,29.093146,,house,http://api.map.baidu.com/place/detail?uid=7f2850ce36b7a28a8c1a8968&output=html&source=placeapi_v2,,,,,,,,,,,,,,,,,,119.64474676276,29.093348587465,1
a7011e7cce3d42851fe99922,友谊家具厂宿舍,房地产,宿舍,浙江省,金华市,婺城区,金华市婺城区婺江西路红叶小区东南侧约180米,a7011e7cce3d42851fe99922,1,0,119.639618,29.099645,,house,http://api.map.baidu.com/place/detail?uid=a7011e7cce3d42851fe99922&output=html&source=placeapi_v2,,,,,,,,,,,,,,,,,,,,0
ca67fe873ec7c9e4d62ce287,电信宿舍,房地产,宿舍,浙江省,金华市,婺城区,金华市婺城区双馨路58号电信宿舍,,1,0,119.649389,29.092241,,house,http://api.map.baidu.com/place/detail?uid=ca67fe873ec7c9e4d62ce287&output=html&source=placeapi_v2,,,,,,,,,,,,,,,,,,119.64941665425,29.092099972539,0
6745ee619cc0c3de3a04b13a,粮油公司宿舍楼,房地产,宿舍,浙江省,金华市,婺城区,浙江省金华市婺城区四联路西苑菜市场对面,6745ee619cc0c3de3a04b13a,1,0,119.640623,29.084462,,house,http://api.map.baidu.com/place/detail?uid=6745ee619cc0c3de3a04b13a&output=html&source=placeapi_v2,,,,,,,,,,,,,,,,,,,,0
3865fc97c0b536da25e0a0eb,理工教职工宿舍,房地产,宿舍,浙江省,金华市,婺城区,金华市婺城区西关街道宾虹路1195号理工教职工宿舍,,1,0,119.645891,29.086912,,house,http://api.map.baidu.com/place/detail?uid=3865fc97c0b536da25e0a0eb&output=html&source=placeapi_v2,,,,,,,,,,,,,,,,,,,,0
91d04defd3f01292c8213d3c,老南站宿舍,房地产,宿舍,浙江省,金华市,婺城区,浙江省金华市婺城区宾虹路956号,91d04defd3f01292c8213d3c,1,0,119.649513,29.090212,,house,http://api.map.baidu.com/place/detail?uid=91d04defd3f01292c8213d3c&output=html&source=placeapi_v2,,,,,,,,,,,,,,,,,,,,0
52c972f18e86531e1b94c69f,金华市农机管理站宿舍,房地产,宿舍,浙江省,金华市,婺城区,金华市婺城区永康街173号,52c972f18e86531e1b94c69f,1,0,119.64776,29.090656,,house,http://api.map.baidu.com/place/detail?uid=52c972f18e86531e1b94c69f&output=html&source=placeapi_v2,,,,,,,,,,,,,,,,,,119.64738096102,29.090601498663,0
bd28b0c7583900a8ca213d4d,章宅章宅试验机总厂宿舍,房地产,宿舍,浙江省,金华市,婺城区,金华市婺城区建教路金华市云富高级中学东侧约40米,bd28b0c7583900a8ca213d4d,1,0,119.647494,29.094969,,house,http://api.map.baidu.com/place/detail?uid=bd28b0c7583900a8ca213d4d&output=html&source=placeapi_v2,,,,,,,,,,,,,,,,,,119.64772731169,29.095001779782,0
b7c6ba8d551d7a03ca2915a7,九号教师公寓,房地产,宿舍,浙江省,金华市,婺城区,金华市婺城区宾虹路1159号9号,b7c6ba8d551d7a03ca2915a7,1,0,119.646337,29.088996,,house,http://api.map.baidu.com/place/detail?uid=b7c6ba8d551d7a03ca2915a7&output=html&source=placeapi_v2,,,,,,,,,,,,,,,,,,,,0
aece50219c16dc4b3ce23172,人行宿舍,房地产,宿舍,浙江省,金华市,婺城区,金华市婺城区亚峰路115号,aece50219c16dc4b3ce23172,1,2,119.662178,29.095914,,house,http://api.map.baidu.com/place/detail?uid=aece50219c16dc4b3ce23172&output=html&source=placeapi_v2,,,5,,,,,,,,,,,,,,,119.66201932001,29.095860882381,2
0423d48218aefd8b5b1093e1,八中宿舍,房地产,宿舍,浙江省,金华市,婺城区,金华市婺城区八一南街85号,0423d48218aefd8b5b1093e1,1,0,119.660217,29.096653,,house,http://api.map.baidu.com/place/detail?uid=0423d48218aefd8b5b1093e1&output=html&source=placeapi_v2,,,,,,,,,,,,,,,,,,,,0
85ca41039dbfc2d2c91b95c2,建行宿舍(亚峰路),房地产,宿舍,浙江省,金华市,婺城区,金华市婺城区亚峰路168号,85ca41039dbfc2d2c91b95c2,1,0,119.663232,29.096798,,house,http://api.map.baidu.com/place/detail?uid=85ca41039dbfc2d2c91b95c2&output=html&source=placeapi_v2,,,,,,,,,,,,,,,,,,,,0
691839c3d72b2f9d15948eab,水利局宿舍,房地产,宿舍,浙江省,金华市,婺城区,金华市婺城区三江街道东莱路969号水利局宿舍,691839c3d72b2f9d15948eab,1,0,119.661461,29.080299,,house,http://api.map.baidu.com/place/detail?uid=691839c3d72b2f9d15948eab&output=html&source=placeapi_v2,,,,,,,,,,,,,,,,,,,,0
e598d8a52939d710e81e9795,中国银行宿舍,房地产,宿舍,浙江省,金华市,婺城区,浙江省金华市婺城区双溪西路59号,e598d8a52939d710e81e9795,1,0,119.659148,29.092292,,house,http://api.map.baidu.com/place/detail?uid=e598d8a52939d710e81e9795&output=html&source=placeapi_v2,,,,,,,,,,,,,,,,,,119.65904351683,29.092276102053,0
8af866a3c043a62203ff2d19,高畈社区公路管理处宿舍,房地产,宿舍,浙江省,金华市,婺城区,金华市婺城区江南街道八一南街138号,8af866a3c043a62203ff2d19,1,1,119.658894,29.096021,,house,http://api.map.baidu.com/place/detail?uid=8af866a3c043a62203ff2d19&output=html&source=placeapi_v2,,,,,,,,,,,,,,,,,,119.6591320116,29.096288972172,1
f803b2eed2ced0f36c4760a1,信息参考报宿舍,房地产,宿舍,浙江省,金华市,婺城区,金华市婺城区江南街道明伦街50号,f803b2eed2ced0f36c4760a1,1,1,119.662439,29.097546,,house,http://api.map.baidu.com/place/detail?uid=f803b2eed2ced0f36c4760a1&output=html&source=placeapi_v2,,,,,,,,,,,,,,,,,,119.66265711692,29.097573063799,1
679bcf52d10d4eef7cc876ac,汪姜街金华一中宿舍,房地产,宿舍,浙江省,金华市,婺城区,金华市婺城区汪姜街77号,679bcf52d10d4eef7cc876ac,1,0,119.657257,29.094618,,house,http://api.map.baidu.com/place/detail?uid=679bcf52d10d4eef7cc876ac&output=html&source=placeapi_v2,,,,,,,,,,,,,,,,,,119.65713541082,29.094586401388,0
68b2c7ad9c450a9338221cfa,风暴SOS员工宿舍,房地产,宿舍,浙江省,金华市,婺城区,金华市婺城区嘉宾巷恒丰大厦东侧约120米,68b2c7ad9c450a9338221cfa,1,0,119.65712,29.095904,,house,http://api.map.baidu.com/place/detail?uid=68b2c7ad9c450a9338221cfa&output=html&source=placeapi_v2,,,,,,,,,,,,,,,,,,119.65721373677,29.095713208148,0
47e6464fa7dbcd64e50738b9,中国银行员工宿舍,房地产,宿舍,浙江省,金华市,婺城区,金华市婺城区江南街道双溪西路中国银行59号员工宿舍,47e6464fa7dbcd64e50738b9,1,0,119.661277,29.098006,,house,http://api.map.baidu.com/place/detail?uid=47e6464fa7dbcd64e50738b9&output=html&source=placeapi_v2,,,,,,,,,,,,,,,,,,119.66122860725,29.098294988265,0
51743f0f2c93c2d495f08c46,上海财经大学浙江学院公寓-12幢,房地产,宿舍,浙江省,金华市,金东区,浙江省金华市金东区上海财经大学浙江学院公寓12幢,51743f0f2c93c2d495f08c46,1,0,119.701577,29.082734,,house,http://api.map.baidu.com/place/detail?uid=51743f0f2c93c2d495f08c46&output=html&source=placeapi_v2,,,,,,,,,,,,,,,,,,119.70157513235,29.082532624741,0
58b312e79c311406095cb3b2,正方交建宿舍,房地产,宿舍,浙江省,金华市,婺城区,婺城区白龙桥镇临江工业园龙乾南街999号正方交建宿舍,58b312e79c311406095cb3b2,1,0,119.549974,29.113672,,house,http://api.map.baidu.com/place/detail?uid=58b312e79c311406095cb3b2&output=html&source=placeapi_v2,,,,,,,,,,,,,,,,,,119.54989344163,29.113903801678,0
8296cc351bd679da03ff2ded,电业局宿舍,房地产,宿舍,浙江省,金华市,婺城区,城西街道凤凰花园9幢,,1,0,119.639162,29.111752,,house,http://api.map.baidu.com/place/detail?uid=8296cc351bd679da03ff2ded&output=html&source=placeapi_v2,,,,,,,,,,,,,,,,,,,,0
5919ed59cfe7ce77d23ce369,三运公司宿舍,房地产,宿舍,浙江省,金华市,婺城区,金华市婺城区城北街道九章路48号三运公司宿舍,,1,0,119.639714,29.108577,,house,http://api.map.baidu.com/place/detail?uid=5919ed59cfe7ce77d23ce369&output=html&source=placeapi_v2,,,,,,,,,,,,,,,,,,119.63972654738,29.108398443472,0
d0b4fc11ec47eb4f79b55cc5,保养厂宿舍,房地产,宿舍,浙江省,金华市,婺城区,金华市婺城区劳动路凤凰家园西南侧,,1,0,119.638169,29.110114,,house,http://api.map.baidu.com/place/detail?uid=d0b4fc11ec47eb4f79b55cc5&output=html&source=placeapi_v2,,,,,,,,,,,,,,,,,,119.63841638586,29.110136960391,0
f3094c2af9953c058936eee2,电信宿舍,房地产,宿舍,浙江省,金华市,婺城区,浙江省金华市婺城区城北街道解放西路700号电信宿舍,f3094c2af9953c058936eee2,1,0,119.643517,29.107651,,house,http://api.map.baidu.com/place/detail?uid=f3094c2af9953c058936eee2&output=html&source=placeapi_v2,,,,,,,,,,,,,,,,,,,,0
54bea2e8ab325802b42655ea,学生宿舍,房地产,宿舍,浙江省,金华市,婺城区,北山路285号,54bea2e8ab325802b42655ea,1,0,119.643484,29.132951,,house,http://api.map.baidu.com/place/detail?uid=54bea2e8ab325802b42655ea&output=html&source=placeapi_v2,,,,,,,,,,,,,,,,,,119.64341953164,29.133064933578,0
1d48000866b47a15ad31e58b,康贝宿舍,房地产,宿舍,浙江省,金华市,婺城区,浙江省金华市婺城区城北街道解放西路花锦巷28号康贝宿舍,,1,0,119.645897,29.110139,,house,http://api.map.baidu.com/place/detail?uid=1d48000866b47a15ad31e58b&output=html&source=placeapi_v2,,,,,,,,,,,,,,,,,,119.64591507914,29.109954942792,0
cb571bdf59102e94fa0cada3,水轮机厂宿舍,房地产,宿舍,浙江省,金华市,婺城区,金华市婺城区劳动路劳动小区西侧约30米,cb571bdf59102e94fa0cada3,1,0,119.641146,29.111069,,house,http://api.map.baidu.com/place/detail?uid=cb571bdf59102e94fa0cada3&output=html&source=placeapi_v2,,,,,,,,,,,,,,,,,,119.64121906941,29.110915138481,0
6bc289628329b666b04c4907,铁路职工宿舍,房地产,宿舍,浙江省,金华市,婺城区,城中街道婺城区解放西路新公寓路22号铁路职工宿舍,6bc289628329b666b04c4907,1,0,119.643691,29.108925,,house,http://api.map.baidu.com/place/detail?uid=6bc289628329b666b04c4907&output=html&source=placeapi_v2,,,,,,,,,,,,,,,,,,,,0
459c59acfe66a8f1f72310f4,金华解放西路单身宿舍,房地产,宿舍,浙江省,金华市,婺城区,金华市婺城区新公寓路22号,459c59acfe66a8f1f72310f4,1,1,119.643537,29.108894,,house,http://api.map.baidu.com/place/detail?uid=459c59acfe66a8f1f72310f4&output=html&source=placeapi_v2,,,,,,,,,,,,,,,,,,119.64351119563,29.109124466311,1
6d21ee7cb4f3a24c1fe9993b,浙师大老家属区,房地产,宿舍,浙江省,金华市,婺城区,金华市婺城区骆家塘街浙师大老生活区西北门北侧约60米,6d21ee7cb4f3a24c1fe9993b,1,0,119.644952,29.133506,,house,http://api.map.baidu.com/place/detail?uid=6d21ee7cb4f3a24c1fe9993b&output=html&source=placeapi_v2,,,,,,,,,,,,,,,,,,119.64490367068,29.133483175435,0
bcb44016a5666885a1a93460,九中宿舍教师楼,房地产,宿舍,浙江省,金华市,婺城区,金华市婺城区九章路金华九中,,1,0,119.637781,29.107609,,house,http://api.map.baidu.com/place/detail?uid=bcb44016a5666885a1a93460&output=html&source=placeapi_v2,,,,,,,,,,,,,,,,,,,,0
43aaad18989d53a1e5e96587,浙江省高师师资培训中心进修教师宿舍,房地产,宿舍,浙江省,金华市,婺城区,金华市婺城区北山路浙江师范大学,43aaad18989d53a1e5e96587,1,0,119.641103,29.134922,,house,http://api.map.baidu.com/place/detail?uid=43aaad18989d53a1e5e96587&output=html&source=placeapi_v2,,,,,,,,,,,,,,,,,,,,0
aa0052d38f3802636ca3cc1e,金华市化系统宿舍,房地产,宿舍,浙江省,金华市,婺城区,金华市婺城区凤凰山路华厦国际数码公寓西南侧约90米,aa0052d38f3802636ca3cc1e,1,0,119.642915,29.10646,,house,http://api.map.baidu.com/place/detail?uid=aa0052d38f3802636ca3cc1e&output=html&source=placeapi_v2,,,,,,,,,,,,,,,,,,119.64301638919,29.106512976514,0
b77a6efd04abeb3932f71dfd,浙江铁道生活实业发展有限公司金华解放西路单身宿舍-南门,房地产,宿舍,浙江省,金华市,婺城区,浙江省金华市婺城区新公寓路22号,b77a6efd04abeb3932f71dfd,1,0,119.643511,29.109124,,house,http://api.map.baidu.com/place/detail?uid=b77a6efd04abeb3932f71dfd&output=html&source=placeapi_v2,,,,,,,,,,,,,,,,,,,,0
70a76e3e6e5bac44a7c75600,铁路宿舍,房地产,宿舍,浙江省,金华市,婺城区,金华市婺城区大陈镇二村,70a76e3e6e5bac44a7c75600,1,1,119.677516,29.118522,,house,http://api.map.baidu.com/place/detail?uid=70a76e3e6e5bac44a7c75600&output=html&source=placeapi_v2,,,,,,,,,,,,,,,,,,119.6774812985,29.11918204061,1
351f40cb689820c95dd4fe8c,卫校宿舍,房地产,宿舍,浙江省,金华市,婺城区,金华市婺城区安居街99号,351f40cb689820c95dd4fe8c,1,0,119.678584,29.118677,,house,http://api.map.baidu.com/place/detail?uid=351f40cb689820c95dd4fe8c&output=html&source=placeapi_v2,,,,,,,,,,,,,,,,,,,,0
31989f8427149ace28b97c83,金医石榴巷宿舍,房地产,宿舍,浙江省,金华市,婺城区,金华市婺城区石榴巷33号,31989f8427149ace28b97c83,1,1,119.669042,29.110623,,house,http://api.map.baidu.com/place/detail?uid=31989f8427149ace28b97c83&output=html&source=placeapi_v2,,,0,,,,,,,,,,,,,,,119.66901208313,29.110815392835,1
63f468cb5c4903a56118094b,卫校宿舍-2号,房地产,宿舍,浙江省,金华市,婺城区,金华市婺城区卫校宿舍2栋,63f468cb5c4903a56118094b,1,0,119.67844,29.118708,,house,http://api.map.baidu.com/place/detail?uid=63f468cb5c4903a56118094b&output=html&source=placeapi_v2,,,,,,,,,,,,,,,,,,119.67866624251,29.118750479124,0
44bfa06090efbd8fb320a839,电机厂宿舍,房地产,宿舍,浙江省,金华市,婺城区,金华市婺城区芙苑路128号,44bfa06090efbd8fb320a839,1,0,119.662698,29.124318,,house,http://api.map.baidu.com/place/detail?uid=44bfa06090efbd8fb320a839&output=html&source=placeapi_v2,,,,,,,,,,,,,,,,,,,,0
846b87bedc5892f3a1d23028,百货站宿舍,房地产,宿舍,浙江省,金华市,婺城区,浙江省金华市婺城区道院街70号,846b87bedc5892f3a1d23028,1,0,119.66746,29.127352,,house,http://api.map.baidu.com/place/detail?uid=846b87bedc5892f3a1d23028&output=html&source=placeapi_v2,,,,,,,,,,,,,,,,,,,,0
6cf5b2bee195a094a6da399b,金华市中心医院青春东区宿舍,房地产,宿舍,浙江省,金华市,婺城区,浙江省金华市婺城区通园路616号,6cf5b2bee195a094a6da399b,1,1,119.675497,29.116369,,house,http://api.map.baidu.com/place/detail?uid=6cf5b2bee195a094a6da399b&output=html&source=placeapi_v2,,,,,,,,,,,,,,,,,,119.67557475015,29.116152721254,1
55e8c7f3887443f10869d941,公安局宿舍,房地产,宿舍,浙江省,金华市,婺城区,金华市婺城区复兴街金江花园,55e8c7f3887443f10869d941,1,0,119.683387,29.107776,,house,http://api.map.baidu.com/place/detail?uid=55e8c7f3887443f10869d941&output=html&source=placeapi_v2,,,,,,,,,,,,,,,,,,119.68321806074,29.107746360066,0
4d3444aa24b0ac5e246e98e9,卫校宿舍-1号,房地产,宿舍,浙江省,金华市,婺城区,金华市婺城区安居街通园小区,4d3444aa24b0ac5e246e98e9,1,0,119.678522,29.118434,,house,http://api.map.baidu.com/place/detail?uid=4d3444aa24b0ac5e246e98e9&output=html&source=placeapi_v2,,,,,,,,,,,,,,,,,,,,0
c7b92252d96441816849f350,大昌宿舍,房地产,宿舍,浙江省,金华市,婺城区,金华市婺城区新狮街道环城北路968号,c7b92252d96441816849f350,1,0,119.658368,29.1274,,house,http://api.map.baidu.com/place/detail?uid=c7b92252d96441816849f350&output=html&source=placeapi_v2,,,,,,,,,,,,,,,,,,119.65867762352,29.127038588751,0
33fbfa83af8ed1bc0bf5eb73,金华市机关宿舍大院,房地产,宿舍,浙江省,金华市,婺城区,金华市婺城区将军路442号,33fbfa83af8ed1bc0bf5eb73,1,3,119.663048,29.111295,,house,http://api.map.baidu.com/place/detail?uid=33fbfa83af8ed1bc0bf5eb73&output=html&source=placeapi_v2,,,,,,,,,,,,,,,,,,119.66241502718,29.110211543576,3
c016fd913313cc66ad0457aa,金医石榴巷宿舍-6号楼,房地产,宿舍,浙江省,金华市,婺城区,浙江省金华市婺城区金医石榴巷宿舍6栋,c016fd913313cc66ad0457aa,1,0,119.669314,29.109838,,house,http://api.map.baidu.com/place/detail?uid=c016fd913313cc66ad0457aa&output=html&source=placeapi_v2,,,,,,,,,,,,,,,,,,119.66969062898,29.10984166572,0
7e694676b33a63f394f08c94,防疫站宿舍,房地产,宿舍,浙江省,金华市,婺城区,金华市婺城区明月街明月华庭,7e694676b33a63f394f08c94,1,0,119.663364,29.11398,,house,http://api.map.baidu.com/place/detail?uid=7e694676b33a63f394f08c94&output=html&source=placeapi_v2,,,,,,,,,,,,,,,,,,,,0
555248fcaffaa73c715e803e,县服宿舍,房地产,宿舍,浙江省,金华市,婺城区,金华市婺城区东市街双井弄28号,555248fcaffaa73c715e803e,1,0,119.677112,29.110576,,house,http://api.map.baidu.com/place/detail?uid=555248fcaffaa73c715e803e&output=html&source=placeapi_v2,,,,,,,,,,,,,,,,,,,,0
83e3fa35a1030f75c036448a,浙江大学金华医院人才公寓楼,房地产,宿舍,浙江省,金华市,婺城区,金华市婺城区通园路静听风语北侧约40米,83e3fa35a1030f75c036448a,1,0,119.675587,29.116268,,house,http://api.map.baidu.com/place/detail?uid=83e3fa35a1030f75c036448a&output=html&source=placeapi_v2,,,,,,,,,,,,,,,,,,119.67564868788,29.116122380004,0
79f0ee0e09658d811ef74d8e,金医石榴巷宿舍-6栋,房地产,宿舍,浙江省,金华市,婺城区,金医石榴巷宿舍6栋,79f0ee0e09658d811ef74d8e,1,0,119.66883,29.110648,,house,http://api.map.baidu.com/place/detail?uid=79f0ee0e09658d811ef74d8e&output=html&source=placeapi_v2,,,,,,,,,,,,,,,,,,119.66876550097,29.110773586748,0
f03765159bfbba518a36ee76,金医石榴巷宿舍-1栋,房地产,宿舍,浙江省,金华市,婺城区,金医石榴巷宿舍1栋,f03765159bfbba518a36ee76,1,0,119.669293,29.110621,,house,http://api.map.baidu.com/place/detail?uid=f03765159bfbba518a36ee76&output=html&source=placeapi_v2,,,,,,,,,,,,,,,,,,,,0
83d89728b0dbb205250bd050,金医石榴巷宿舍-8号楼,房地产,宿舍,浙江省,金华市,婺城区,金华市婺城区石榴巷金华市胜利小学北侧约80米,83d89728b0dbb205250bd050,1,0,119.668916,29.110229,,house,http://api.map.baidu.com/place/detail?uid=83d89728b0dbb205250bd050&output=html&source=placeapi_v2,,,,,,,,,,,,,,,,,,,,0
9b9c2f002c43c7615d0d0271,金医石榴巷宿舍-7号楼,房地产,宿舍,浙江省,金华市,婺城区,金华市婺城区石榴巷金华市胜利小学北侧约100米,9b9c2f002c43c7615d0d0271,1,0,119.669061,29.110433,,house,http://api.map.baidu.com/place/detail?uid=9b9c2f002c43c7615d0d0271&output=html&source=placeapi_v2,,,,,,,,,,,,,,,,,,,,0
af458e9cdc8c5a6ea5da3928,浙江商贸学校教工宿舍-3幢,房地产,宿舍,浙江省,金华市,婺城区,金华市婺城区商贸学校教工宿舍3幢,af458e9cdc8c5a6ea5da3928,1,0,119.665694,29.124015,,house,http://api.map.baidu.com/place/detail?uid=af458e9cdc8c5a6ea5da3928&output=html&source=placeapi_v2,,,,,,,,,,,,,,,,,,,,0
f572f7d7f765911416a19016,新华厂宿舍,房地产,宿舍,浙江省,金华市,婺城区,金华市婺城区上浮桥金藤街48号,f572f7d7f765911416a19016,1,0,119.678951,29.107046,,house,http://api.map.baidu.com/place/detail?uid=f572f7d7f765911416a19016&output=html&source=placeapi_v2,,,,,,,,,,,,,,,,,,,,0
81203a1c531f93d802897251,金医院内宿舍,房地产,宿舍,浙江省,金华市,婺城区,金华市婺城区明月街289号,81203a1c531f93d802897251,1,0,119.664478,29.11087,,house,http://api.map.baidu.com/place/detail?uid=81203a1c531f93d802897251&output=html&source=placeapi_v2,,,,,,,,,,,,,,,,,,,,0
901048336bd9b73796f08c5f,金华市机关宿舍大院-34幢,房地产,宿舍,浙江省,金华市,婺城区,金华市婺城区将军路442号,901048336bd9b73796f08c5f,1,0,119.662694,29.110186,,house,http://api.map.baidu.com/place/detail?uid=901048336bd9b73796f08c5f&output=html&source=placeapi_v2,,,,,,,,,,,,,,,,,,119.66275871528,29.110127760955,0
bced70fd4cdda351f7b91618,金华造漆厂宿舍(华明巷),房地产,宿舍,浙江省,金华市,婺城区,金华市婺城区华明巷1号,bced70fd4cdda351f7b91618,1,1,119.670789,29.113697,,house,http://api.map.baidu.com/place/detail?uid=bced70fd4cdda351f7b91618&output=html&source=placeapi_v2,,,,,,,,,,,,,,,,,,,,1
1d287a8929e0260da7c75644,艾青小学学生公寓-4号楼,房地产,宿舍,浙江省,金华市,婺城区,金华市婺城区明月街艾青小学,1d287a8929e0260da7c75644,1,0,119.663627,29.106882,,house,http://api.map.baidu.com/place/detail?uid=1d287a8929e0260da7c75644&output=html&source=placeapi_v2,,,,,,,,,,,,,,,,,,,,0
0f42c4cfa61b99b45fbe8649,疾控宿舍楼,房地产,宿舍,浙江省,金华市,婺城区,浙江省金华市婺城区明月街458号,0f42c4cfa61b99b45fbe8649,1,0,119.663134,29.113855,,house,http://api.map.baidu.com/place/detail?uid=0f42c4cfa61b99b45fbe8649&output=html&source=placeapi_v2,,,,,,,,,,,,,,,,,,119.66324676466,29.113865831184,0
7945fea3d2346865246e98e4,金华县农业局设计局宿舍,房地产,宿舍,浙江省,金华市,婺城区,金华市婺城区新华街454号,7945fea3d2346865246e98e4,1,0,119.660073,29.114769,,house,http://api.map.baidu.com/place/detail?uid=7945fea3d2346865246e98e4&output=html&source=placeapi_v2,,,,,,,,,,,,,,,,,,119.66038927819,29.114611729663,0
a3ec26117bd1515316c90579,金华广播电视大学浙江贸易学校人民东路校区-1号宿舍楼,房地产,宿舍,浙江省,金华市,婺城区,金华市婺城区人民东路金华电大人民东路校区,a3ec26117bd1515316c90579,1,0,119.679069,29.115517,,house,http://api.map.baidu.com/place/detail?uid=a3ec26117bd1515316c90579&output=html&source=placeapi_v2,,,,,,,,,,,,,,,,,,119.67886156018,29.115421512101,0
84a565b67cee5e806b49f36a,嘉恒员工公寓,房地产,宿舍,浙江省,金华市,婺城区,金华市婺城区府上街中国工商银行(金华分行)南侧约60米,84a565b67cee5e806b49f36a,1,0,119.659168,29.114423,,house,http://api.map.baidu.com/place/detail?uid=84a565b67cee5e806b49f36a&output=html&source=placeapi_v2,,,,,,,,,,,,,,,,,,,,0
8fd955896d0ba5979fec2b57,金华一中宿舍,房地产,宿舍,浙江省,金华市,金东区,浙江省金华市金东区光南路1588号,8fd955896d0ba5979fec2b57,1,0,119.71968,29.111378,,house,http://api.map.baidu.com/place/detail?uid=8fd955896d0ba5979fec2b57&output=html&source=placeapi_v2,,,,,,,,,,,,,,,,,,,,0
b5b548dc33f312dc4e55472f,固德公寓,房地产,宿舍,浙江省,金华市,金东区,金华市金东区法明街与潜溪路交叉路口往东北约90米,b5b548dc33f312dc4e55472f,1,0,119.713986,29.134208,,house,http://api.map.baidu.com/place/detail?uid=b5b548dc33f312dc4e55472f&output=html&source=placeapi_v2,,,,,,,,,,,,,,,,,,119.71511726308,29.134200723337,0
00858fa8e3a70faca3acc4e9,浙江师范大学桃源公寓-9幢,房地产,宿舍,浙江省,金华市,婺城区,浙江省金华市婺城区迎宾大道688号,00858fa8e3a70faca3acc4e9,1,0,119.641258,29.140601,,house,http://api.map.baidu.com/place/detail?uid=00858fa8e3a70faca3acc4e9&output=html&source=placeapi_v2,,,,,,,,,,,,,,,,,,,,0
116f85536b0d6f2c343a7198,浙江师范大学桃源公寓-11幢,房地产,宿舍,浙江省,金华市,婺城区,金华市婺城区同心路浙江师范大学,116f85536b0d6f2c343a7198,1,0,119.641225,29.140899,,house,http://api.map.baidu.com/place/detail?uid=116f85536b0d6f2c343a7198&output=html&source=placeapi_v2,,,,,,,,,,,,,,,,,,119.64140728418,29.140904410011,0
70a803640687b09b6f3e1b47,杏园女生公寓,房地产,宿舍,浙江省,金华市,婺城区,金华市婺城区迎宾大道688号,70a803640687b09b6f3e1b47,1,2,119.644936,29.141008,,house,http://api.map.baidu.com/place/detail?uid=70a803640687b09b6f3e1b47&output=html&source=placeapi_v2,,,,,,,,,,,,,,,,,,119.64499994208,29.140889390126,2
dd170d5647fd6ace82288a85,浙江师范大学桃源公寓-3幢,房地产,宿舍,浙江省,金华市,婺城区,金华市婺城区行知路浙江师范大学,dd170d5647fd6ace82288a85,1,0,119.642438,29.140607,,house,http://api.map.baidu.com/place/detail?uid=dd170d5647fd6ace82288a85&output=html&source=placeapi_v2,,,,,,,,,,,,,,,,,,119.64266729959,29.140570336364,0
f5ec0548c9bfe26ba1a934b2,浙江师范大学桃源公寓-1幢,房地产,宿舍,浙江省,金华市,婺城区,金华市婺城区行知路浙江师范大学,f5ec0548c9bfe26ba1a934b2,1,0,119.642817,29.140329,,house,http://api.map.baidu.com/place/detail?uid=f5ec0548c9bfe26ba1a934b2&output=html&source=placeapi_v2,,,,,,,,,,,,,,,,,,,,0
6848c916511e4a570b5cb33b,浙江师范大学-杏园男生公寓,房地产,宿舍,浙江省,金华市,婺城区,金华市婺城区师范大学北门,6848c916511e4a570b5cb33b,1,1,119.644344,29.141112,,house,http://api.map.baidu.com/place/detail?uid=6848c916511e4a570b5cb33b&output=html&source=placeapi_v2,,,,,,,,,,,,,,,,,,119.64450236257,29.140865116954,1
3853775e48e33c53c61e51e8,浙江师范大学-启明公寓,房地产,宿舍,浙江省,金华市,婺城区,浙江省金华市婺城区迎宾大道688号,3853775e48e33c53c61e51e8,1,1,119.64966,29.144557,,house,http://api.map.baidu.com/place/detail?uid=3853775e48e33c53c61e51e8&output=html&source=placeapi_v2,,,5,,,,,,,,,,,,,,,119.64984728036,29.144090773603,1
8177ea8911a2add32fb96d89,浙江师范大学-桂苑公寓,房地产,宿舍,浙江省,金华市,婺城区,浙江省金华市婺城区迎宾大道688号,8177ea8911a2add32fb96d89,1,1,119.648936,29.143637,,house,http://api.map.baidu.com/place/detail?uid=8177ea8911a2add32fb96d89&output=html&source=placeapi_v2,,,,,,,,,,,,,,,,,,119.64905520756,29.143109042503,1
d0657077775ec66bd92f286f,浙江师范大学学生公寓,房地产,宿舍,浙江省,金华市,婺城区,金华市婺城区同心路浙江师范大学,d0657077775ec66bd92f286f,1,1,119.646508,29.143159,,house,http://api.map.baidu.com/place/detail?uid=d0657077775ec66bd92f286f&output=html&source=placeapi_v2,,,,,,,,,,,,,,,,,,119.64650558386,29.143286340688,1
fd09d953045c4d72940319e4,浙江师范大学桃源公寓-2幢,房地产,宿舍,浙江省,金华市,婺城区,金华市婺城区行知路浙江师范大学,fd09d953045c4d72940319e4,1,0,119.642801,29.140615,,house,http://api.map.baidu.com/place/detail?uid=fd09d953045c4d72940319e4&output=html&source=placeapi_v2,,,,,,,,,,,,,,,,,,119.64266725288,29.14035334419,0
0246df8baf329841177643ce,浙江师范大学桃源公寓-7幢,房地产,宿舍,浙江省,金华市,婺城区,浙江省金华市婺城区迎宾大道688号,0246df8baf329841177643ce,1,0,119.641275,29.140373,,house,http://api.map.baidu.com/place/detail?uid=0246df8baf329841177643ce&output=html&source=placeapi_v2,,,,,,,,,,,,,,,,,,,,0
22cc33cc5d4e63183310af62,浙江师范大学继教院高技能+学历学生公寓,房地产,宿舍,浙江省,金华市,婺城区,金华市婺城区同心路红树林商务宾馆东侧约60米,22cc33cc5d4e63183310af62,1,0,119.644651,29.142772,,house,http://api.map.baidu.com/place/detail?uid=22cc33cc5d4e63183310af62&output=html&source=placeapi_v2,,,,,,,,,,,,,,,,,,119.64453247377,29.142767386046,0
83e0f007f55040742fb17ec3,金华市委党校-教师公寓,房地产,宿舍,浙江省,金华市,婺城区,浙江省金华市婺城区芙峰街1506号,83e0f007f55040742fb17ec3,1,1,119.663548,29.145386,,house,http://api.map.baidu.com/place/detail?uid=83e0f007f55040742fb17ec3&output=html&source=placeapi_v2,,,,,,,,,,,,,,,,,,119.6639699714,29.14526360498,1
9b1b5d5ed2321bc2ebe58284,教工宿舍,房地产,宿舍,浙江省,金华市,金东区,金华市金东区曹宅镇坦溪西路150号教工宿舍,,1,0,119.756431,29.203357,,house,http://api.map.baidu.com/place/detail?uid=9b1b5d5ed2321bc2ebe58284&output=html&source=placeapi_v2,,,,,,,,,,,,,,,,,,,,0
a3ced3dc0fb1f64f400245ad,孝顺镇政府宿舍,房地产,宿舍,浙江省,金华市,金东区,金华市金东区金山大道孝顺镇人民政府西北侧,,1,0,119.874116,29.189206,,house,http://api.map.baidu.com/place/detail?uid=a3ced3dc0fb1f64f400245ad&output=html&source=placeapi_v2,,,,,,,,,,,,,,,,,,,,0
cfe24688fe54aff7c9e33c58,衣行宿舍,房地产,宿舍,浙江省,金华市,兰溪市,金华市兰溪市溪西桥头三市街六号区1幢307室,cfe24688fe54aff7c9e33c58,1,0,119.47238,29.218029,,house,http://api.map.baidu.com/place/detail?uid=cfe24688fe54aff7c9e33c58&output=html&source=placeapi_v2,,,,,,,,,,,,,,,,,,119.4725307558,29.218079248573,0
176e3da76591cf7500ff2d77,胶鞋厂宿舍,房地产,宿舍,浙江省,金华市,兰溪市,金华市兰溪市人民南路城市花苑东侧约60米,176e3da76591cf7500ff2d77,1,0,119.483079,29.216876,,house,http://api.map.baidu.com/place/detail?uid=176e3da76591cf7500ff2d77&output=html&source=placeapi_v2,,,,,,,,,,,,,,,,,,119.48320819475,29.216813441178,0
db6981840fff9ef15cd4fe8c,金华电业局职工宿舍,房地产,宿舍,浙江省,金华市,兰溪市,浙江省金华市兰溪市通洲路9号,db6981840fff9ef15cd4fe8c,1,1,119.472368,29.217055,,house,http://api.map.baidu.com/place/detail?uid=db6981840fff9ef15cd4fe8c&output=html&source=placeapi_v2,,,,,,,,,,,,,,,,,,119.47236906081,29.21703897474,1
682543cca717bc489dec2b2d,大公殿左路六号机床厂宿舍,房地产,宿舍,浙江省,金华市,兰溪市,金华市兰溪市云山街道大公殿左路6号,682543cca717bc489dec2b2d,1,0,119.484343,29.223903,,house,http://api.map.baidu.com/place/detail?uid=682543cca717bc489dec2b2d&output=html&source=placeapi_v2,,,,,,,,,,,,,,,,,,119.4846629574,29.223975470664,0
81bdab14ad0fddf11b11d586,永进集体宿舍,房地产,宿舍,浙江省,金华市,兰溪市,金华市兰溪市永进路,81bdab14ad0fddf11b11d586,1,0,119.497482,29.233741,,house,http://api.map.baidu.com/place/detail?uid=81bdab14ad0fddf11b11d586&output=html&source=placeapi_v2,,,,,,,,,,,,,,,,,,119.49779430476,29.234207545839,0
a3f1793d9bab384021026217,民政局宿舍,房地产,宿舍,浙江省,金华市,兰溪市,金华市兰溪市云山街道曹家路8号民政局宿舍,a3f1793d9bab384021026217,1,0,119.492292,29.21498,,house,http://api.map.baidu.com/place/detail?uid=a3f1793d9bab384021026217&output=html&source=placeapi_v2,,,,,,,,,,,,,,,,,,,,0
158cb10bdf18321b276e98c7,永进集体宿舍-2幢,房地产,宿舍,浙江省,金华市,兰溪市,金华市兰溪市永进路永进集体宿舍,158cb10bdf18321b276e98c7,1,0,119.497499,29.233662,,house,http://api.map.baidu.com/place/detail?uid=158cb10bdf18321b276e98c7&output=html&source=placeapi_v2,,,,,,,,,,,,,,,,,,,,0
43a24a05b4237c944d776e68,永进集体宿舍-1幢,房地产,宿舍,浙江省,金华市,兰溪市,金华市兰溪市永进路永进集体宿舍,43a24a05b4237c944d776e68,1,0,119.497522,29.23339,,house,http://api.map.baidu.com/place/detail?uid=43a24a05b4237c944d776e68&output=html&source=placeapi_v2,,,,,,,,,,,,,,,,,,119.49781654904,29.233433173938,0
ea0ce426d2a4119178f796a2,永进宿舍-12幢,房地产,宿舍,浙江省,金华市,兰溪市,金华市兰溪市永进路嘉禹.和家园东侧约50米,ea0ce426d2a4119178f796a2,1,0,119.497718,29.231368,,house,http://api.map.baidu.com/place/detail?uid=ea0ce426d2a4119178f796a2&output=html&source=placeapi_v2,,,,,,,,,,,,,,,,,,119.4976545416,29.231382957148,0
e1302d616745bff64d554762,灌头厂宿舍,房地产,宿舍,浙江省,金华市,兰溪市,金华市兰溪市云山街道车站东路1号灌头厂宿舍,e1302d616745bff64d554762,1,0,119.487872,29.218786,,house,http://api.map.baidu.com/place/detail?uid=e1302d616745bff64d554762&output=html&source=placeapi_v2,,,,,,,,,,,,,,,,,,,,0
4ee7ffcc2e8501b025d2bb46,兰溪市计算机职业技术学校教师公寓,房地产,宿舍,浙江省,金华市,兰溪市,金华市兰溪市莲花路兰溪市计算机职业技术学校东北侧,4ee7ffcc2e8501b025d2bb46,1,0,119.490489,29.221771,,house,http://api.map.baidu.com/place/detail?uid=4ee7ffcc2e8501b025d2bb46&output=html&source=placeapi_v2,,,,,,,,,,,,,,,,,,119.4907309716,29.222168775055,0
9b1b5d5ed2321bc2ebe58284,教工宿舍,房地产,宿舍,浙江省,金华市,金东区,金华市金东区曹宅镇坦溪西路150号教工宿舍,,1,0,119.756431,29.203357,,house,http://api.map.baidu.com/place/detail?uid=9b1b5d5ed2321bc2ebe58284&output=html&source=placeapi_v2,,,,,,,,,,,,,,,,,,,,0
93cc0b4e946e5c5a96f08c7c,香港欧亚德门业宿舍楼,房地产,宿舍,浙江省,金华市,金东区,潘石线附近,,1,0,119.79662,29.227896,,house,http://api.map.baidu.com/place/detail?uid=93cc0b4e946e5c5a96f08c7c&output=html&source=placeapi_v2,,,,,,,,,,,,,,,,,,,,0
5030d4f311676c5b1029350b,伸华宿舍,房地产,宿舍,浙江省,金华市,金东区,常春路,5030d4f311676c5b1029350b,1,0,119.858938,29.222384,,house,http://api.map.baidu.com/place/detail?uid=5030d4f311676c5b1029350b&output=html&source=placeapi_v2,,,,,,,,,,,,,,,,,,119.85899953928,29.222398075083,0
ecbc1bb5d76d5bbe85420e2d,德诚员工宿舍,房地产,宿舍,浙江省,金华市,金东区,金华市金东区金义快速路前星幼儿园东侧约210米,ecbc1bb5d76d5bbe85420e2d,1,0,119.841816,29.205342,,house,http://api.map.baidu.com/place/detail?uid=ecbc1bb5d76d5bbe85420e2d&output=html&source=placeapi_v2,,,,,,,,,,,,,,,,,,119.84188654803,29.205413357288,0
cbb7cce8943f0f578433048c,百世杰博员工宿舍,房地产,宿舍,浙江省,金华市,金东区,金华市金东区金义快速路前星幼儿园东侧约160米,,1,0,119.84125,29.205197,,house,http://api.map.baidu.com/place/detail?uid=cbb7cce8943f0f578433048c&output=html&source=placeapi_v2,,,,,,,,,,,,,,,,,,,,0
53757ffddbdd3ecd0b69d977,宁波才智人力资源有限公司员工宿舍,房地产,宿舍,浙江省,金华市,金东区,金华市金东区金义快速路前星幼儿园东侧约150米,,1,0,119.841187,29.205522,,house,http://api.map.baidu.com/place/detail?uid=53757ffddbdd3ecd0b69d977&output=html&source=placeapi_v2,,,,,,,,,,,,,,,,,,,,0
e292209d46fa0b6ca5da39d3,菜鸟网络浙江金义园区1期B1宿舍楼,房地产,宿舍,浙江省,金华市,金东区,金华市金东区菜鸟网络浙江金义园区1期,,1,0,119.853146,29.208736,,house,http://api.map.baidu.com/place/detail?uid=e292209d46fa0b6ca5da39d3&output=html&source=placeapi_v2,,,,,,,,,,,,,,,,,,119.85301218933,29.208879844814,0
9da3e284088e141279b55c6b,百世供应链前屋男宿舍,房地产,宿舍,浙江省,金华市,金东区,金华市金东区金义快速路前星幼儿园东侧约110米,,1,0,119.840724,29.205258,,house,http://api.map.baidu.com/place/detail?uid=9da3e284088e141279b55c6b&output=html&source=placeapi_v2,,,,,,,,,,,,,,,,,,,,0
49824c1d46be2838ad080f86,永安宿舍,房地产,宿舍,浙江省,金华市,金东区,金华市金东区法华街尚品购物(胡塘店),,1,0,119.868802,29.223673,,house,http://api.map.baidu.com/place/detail?uid=49824c1d46be2838ad080f86&output=html&source=placeapi_v2,,,,,,,,,,,,,,,,,,,,0
c54ad8620b897534c3364409,糖厂新村,房地产,宿舍,浙江省,金华市,义乌市,金华市义乌市江北路76号,c54ad8620b897534c3364409,1,0,120.021043,29.215389,,house,http://api.map.baidu.com/place/detail?uid=c54ad8620b897534c3364409&output=html&source=placeapi_v2,,,,,,,,,,,,,,,,,,120.02191950174,29.216016693001,0
3c86cb47477b8fc4a10464f1,义乌南塘五舍民宿,房地产,宿舍,浙江省,金华市,义乌市,金华市义乌市佛堂镇古民居6栋,,1,0,120.014561,29.209221,,house,http://api.map.baidu.com/place/detail?uid=3c86cb47477b8fc4a10464f1&output=html&source=placeapi_v2,,,,,,,,,,,,,,,,,,,,0
6c65ce58896240042bd7abb8,增程汽车修理厂宿舍,房地产,宿舍,浙江省,金华市,义乌市,金华市义乌市云黄路佛堂二幼双林分园西侧约50米,6c65ce58896240042bd7abb8,1,0,120.027878,29.211572,,house,http://api.map.baidu.com/place/detail?uid=6c65ce58896240042bd7abb8&output=html&source=placeapi_v2,,,,,,,,,,,,,,,,,,,,0
f74d8f6ea8b214760a5cb303,兰溪市殿山中心学校学生公寓,房地产,宿舍,浙江省,金华市,兰溪市,金华市兰溪市兰黄公路兰溪市殿山初中,f74d8f6ea8b214760a5cb303,1,0,119.439205,29.252119,,house,http://api.map.baidu.com/place/detail?uid=f74d8f6ea8b214760a5cb303&output=html&source=placeapi_v2,,,,,,,,,,,,,,,,,,,,0
552cbd9db33f4c54c27da22d,傅村镇中心小学教师宿舍,房地产,宿舍,浙江省,金华市,金东区,浙江省金华市金东区傅村镇中心小学教师宿舍,,1,0,119.903636,29.248616,,house,http://api.map.baidu.com/place/detail?uid=552cbd9db33f4c54c27da22d&output=html&source=placeapi_v2,,,,,,,,,,,,,,,,,,,,0
6ed4a494c240a521c51b75aa,宗申车辆宿舍,房地产,宿舍,浙江省,金华市,金东区,金华市金东区傅村镇华丰路2388号宗申车辆宿舍,,1,0,119.912588,29.251446,,house,http://api.map.baidu.com/place/detail?uid=6ed4a494c240a521c51b75aa&output=html&source=placeapi_v2,,,,,,,,,,,,,,,,,,,,0
7fd68a87605405a2db13183a,义乌晶澳员工宿舍,房地产,宿舍,浙江省,金华市,义乌市,浙江省金华市义乌市姑塘工业区五联路197号外贸部2楼,7fd68a87605405a2db13183a,1,0,119.988624,29.249346,,house,http://api.map.baidu.com/place/detail?uid=7fd68a87605405a2db13183a&output=html&source=placeapi_v2,,,,,,,,,,,,,,,,,,,,0
01554fec2ffc5a7745e27410,义亭镇政府宿舍,房地产,宿舍,浙江省,金华市,义乌市,金华市义乌市义亭镇镇前街1号,01554fec2ffc5a7745e27410,1,0,119.966446,29.237417,,house,http://api.map.baidu.com/place/detail?uid=01554fec2ffc5a7745e27410&output=html&source=placeapi_v2,,,,,,,,,,,,,,,,,,119.96663175933,29.237485072437,0
6e5fc988bbfec73bfea77856,石塔二村斗明堂-171号,房地产,宿舍,浙江省,金华市,义乌市,浙江省金华市义乌市义亭镇东黄线义亭小学北,,1,0,119.978209,29.263674,,house,http://api.map.baidu.com/place/detail?uid=6e5fc988bbfec73bfea77856&output=html&source=placeapi_v2,,,,,,,,,,,,,,,,,,,,0
60295794373cb8232e47332d,上杨村二区-171号,房地产,宿舍,浙江省,金华市,义乌市,金华市义乌市,,1,0,119.962008,29.292789,,house,http://api.map.baidu.com/place/detail?uid=60295794373cb8232e47332d&output=html&source=placeapi_v2,,,,,,,,,,,,,,,,,,119.96237669364,29.292774987102,0
13faf82611f47eeb4207c1d6,下何宅村下园-171号,房地产,宿舍,浙江省,金华市,义乌市,金华市义乌市富港大道,,1,0,120.018224,29.294581,,house,http://api.map.baidu.com/place/detail?uid=13faf82611f47eeb4207c1d6&output=html&source=placeapi_v2,,,,,,,,,,,,,,,,,,,,0
f3887ed885f7eb6da11de9fa,职工之家,房地产,宿舍,浙江省,金华市,义乌市,金华市义乌市春潭路浙铁绿城玫瑰园西侧约30米,f3887ed885f7eb6da11de9fa,1,0,120.054728,29.285732,,house,http://api.map.baidu.com/place/detail?uid=f3887ed885f7eb6da11de9fa&output=html&source=placeapi_v2,,,,,,,,,,,,,,,,,,,,0
3e42caf43e3163bdc72ba142,城店路员工宿舍,房地产,宿舍,浙江省,金华市,义乌市,金华市义乌市城店路永达印染织造,3e42caf43e3163bdc72ba142,1,0,120.041731,29.28258,,house,http://api.map.baidu.com/place/detail?uid=3e42caf43e3163bdc72ba142&output=html&source=placeapi_v2,,,,,,,,,,,,,,,,,,,,0
62d5855212835f84c6effb58,新科宿舍楼,房地产,宿舍,浙江省,金华市,义乌市,金华市义乌市稠江街道义乌经济开发区管理委员会旁边,62d5855212835f84c6effb58,1,0,120.046198,29.291658,,house,http://api.map.baidu.com/place/detail?uid=62d5855212835f84c6effb58&output=html&source=placeapi_v2,,,,,,,,,,,,,,,,,,120.04630085803,29.291739476623,0
040b2404fc1dbb4c2911d177,恒达职工宿舍楼,房地产,宿舍,浙江省,金华市,义乌市,金华市义乌市文华路下门三区,040b2404fc1dbb4c2911d177,1,0,120.049979,29.290889,,house,http://api.map.baidu.com/place/detail?uid=040b2404fc1dbb4c2911d177&output=html&source=placeapi_v2,,,,,,,,,,,,,,,,,,120.05009114404,29.290981207874,0
08973a2256ec5d6c21026225,旧宿舍楼,房地产,宿舍,浙江省,金华市,义乌市,金华市义乌市塘溪路义乌市中心医院,08973a2256ec5d6c21026225,1,0,120.088962,29.291386,,house,http://api.map.baidu.com/place/detail?uid=08973a2256ec5d6c21026225&output=html&source=placeapi_v2,,,,,,,,,,,,,,,,,,,,0
31e260c06e317878754ff16d,工商学院教师公寓,房地产,宿舍,浙江省,金华市,义乌市,金华市义乌市南山路青岩刘A区东侧约70米,31e260c06e317878754ff16d,1,0,120.10041,29.293234,,house,http://api.map.baidu.com/place/detail?uid=31e260c06e317878754ff16d&output=html&source=placeapi_v2,,,,,,,,,,,,,,,,,,120.10003998552,29.29333835183,0
a8520b3f1efaa81540e19252,义乌工商学院丹桂园公寓1号楼,房地产,宿舍,浙江省,金华市,义乌市,金华市义乌市义东路义乌工商职业技术学院西南门东侧约60米,,1,0,120.104334,29.299619,,house,http://api.map.baidu.com/place/detail?uid=a8520b3f1efaa81540e19252&output=html&source=placeapi_v2,,,,,,,,,,,,,,,,,,,,0
63caf6e0f9752e4d2fe67be9,义乌工商学院丹桂园公寓,房地产,宿舍,浙江省,金华市,义乌市,金华市义乌市南山路义乌工商职业技术学院西南门东北侧约80米,63caf6e0f9752e4d2fe67be9,1,0,120.104507,29.299874,,house,http://api.map.baidu.com/place/detail?uid=63caf6e0f9752e4d2fe67be9&output=html&source=placeapi_v2,,,,,,,,,,,,,,,,,,120.10390231564,29.299142769097,0
fde313b75a8eec6a1d1d1102,员工宿舍,房地产,宿舍,浙江省,金华市,东阳市,金华市东阳市昌盛路白云文化城,,1,0,120.194846,29.29056,,house,http://api.map.baidu.com/place/detail?uid=fde313b75a8eec6a1d1d1102&output=html&source=placeapi_v2,,,,,,,,,,,,,,,,,,,,0
a9e72a5af5a32a6b73210bdb,员工公寓,房地产,宿舍,浙江省,金华市,东阳市,金华市东阳市塘头路塘头小区东北侧约180米,a9e72a5af5a32a6b73210bdb,1,0,120.184598,29.301438,,house,http://api.map.baidu.com/place/detail?uid=a9e72a5af5a32a6b73210bdb&output=html&source=placeapi_v2,,,,,,,,,,,,,,,,,,120.18467003928,29.301417316885,0
965912084395e6c0fe0eb003,赵龙集团第二职工宿舍,房地产,宿舍,浙江省,金华市,义乌市,金华市义乌市雪峰西路沈村二区北侧约280米,965912084395e6c0fe0eb003,1,1,120.04411,29.313553,,house,http://api.map.baidu.com/place/detail?uid=965912084395e6c0fe0eb003&output=html&source=placeapi_v2,,,,,,,,,,,,,,,,,,120.04427526355,29.313652146164,1
2b109e45765ba46ca0acc407,职工之家,房地产,宿舍,浙江省,金华市,义乌市,金华市义乌市春晗路义乌市北苑e电城,,1,0,120.046972,29.327761,,house,http://api.map.baidu.com/place/detail?uid=2b109e45765ba46ca0acc407&output=html&source=placeapi_v2,,,,,,,,,,,,,,,,,,,,0
6b6efa34d70704c13de23101,职工宿舍,房地产,宿舍,浙江省,金华市,义乌市,浙江省金华市义乌市北苑街道北苑路133号电力大厦职工宿舍,6b6efa34d70704c13de23101,1,0,120.05742,29.324879,,house,http://api.map.baidu.com/place/detail?uid=6b6efa34d70704c13de23101&output=html&source=placeapi_v2,,,,,,,,,,,,,,,,,,,,0
58c2d9362a6eeca7601c6750,城镇职业技术学校-学生公寓3,房地产,宿舍,浙江省,金华市,义乌市,金华市义乌市经发大道330号,58c2d9362a6eeca7601c6750,1,1,120.050281,29.305903,,house,http://api.map.baidu.com/place/detail?uid=58c2d9362a6eeca7601c6750&output=html&source=placeapi_v2,,,,,,,,,,,,,,,,,,,,1
2b2df3811a7de53bf21937ce,城镇职业技术学校-学生公寓4,房地产,宿舍,浙江省,金华市,义乌市,经发大道330号义乌市城镇职业技术学校,2b2df3811a7de53bf21937ce,1,1,120.051117,29.305582,,house,http://api.map.baidu.com/place/detail?uid=2b2df3811a7de53bf21937ce&output=html&source=placeapi_v2,,,,,,,,,,,,,,,,,,,,1
9221d8afde46cf302fb96dc2,员工宿舍楼,房地产,宿舍,浙江省,金华市,义乌市,金华市义乌市宾王路103号义乌大酒店,9221d8afde46cf302fb96dc2,1,0,120.09397,29.324289,,house,http://api.map.baidu.com/place/detail?uid=9221d8afde46cf302fb96dc2&output=html&source=placeapi_v2,,,,,,,,,,,,,,,,,,,,0
02e151ef6d61939fabf0cdcb,公安宿舍,房地产,宿舍,浙江省,金华市,义乌市,金华市义乌市城中中路50弄1号,02e151ef6d61939fabf0cdcb,1,0,120.084582,29.314326,,house,http://api.map.baidu.com/place/detail?uid=02e151ef6d61939fabf0cdcb&output=html&source=placeapi_v2,,,,,,,,,,,,,,,,,,,,0
9498d0e3085c55622eb90875,物价局宿舍,房地产,宿舍,浙江省,金华市,义乌市,金华市义乌市乌南门街221号物价局宿舍,9498d0e3085c55622eb90875,1,0,120.080809,29.305524,,house,http://api.map.baidu.com/place/detail?uid=9498d0e3085c55622eb90875&output=html&source=placeapi_v2,,,,,,,,,,,,,,,,,,,,0
c87727cda7abb66e260bd0df,中厨房宿舍楼,房地产,宿舍,浙江省,金华市,义乌市,金华市义乌市稠城街道宾王路103号义乌大酒店中厨房宿舍楼,c87727cda7abb66e260bd0df,1,0,120.093972,29.324312,,house,http://api.map.baidu.com/place/detail?uid=c87727cda7abb66e260bd0df&output=html&source=placeapi_v2,,,,,,,,,,,,,,,,,,,,0
af96e76a385968c44f6d46d2,义乌工商职业技术学院绿竹园公寓-2幢,房地产,宿舍,浙江省,金华市,义乌市,义乌工商职业技术学院绿竹园公寓2幢,,1,0,120.104068,29.303502,,house,http://api.map.baidu.com/place/detail?uid=af96e76a385968c44f6d46d2&output=html&source=placeapi_v2,,,,,,,,,,,,,,,,,,,,0
75478483541dce297c29bdbe,义乌工商职业技术学院绿竹园公寓-1幢,房地产,宿舍,浙江省,金华市,义乌市,义乌工商职业技术学院绿竹园公寓1幢,,1,0,120.104063,29.303944,,house,http://api.map.baidu.com/place/detail?uid=75478483541dce297c29bdbe&output=html&source=placeapi_v2,,,,,,,,,,,,,,,,,,,,0
61f634f671c16d056b49f36e,义乌工商职业技术学院-湖畔公寓,房地产,宿舍,浙江省,金华市,义乌市,金华市义乌市学院路8号义乌市工商学院,61f634f671c16d056b49f36e,1,0,120.102379,29.30443,,house,http://api.map.baidu.com/place/detail?uid=61f634f671c16d056b49f36e&output=html&source=placeapi_v2,,,,,,,,,,,,,,,,,,120.10259955256,29.304272215521,0
4b6e6cdf12b1c13981a12ee6,义乌工商职业技术学院-绿竹园公寓,房地产,宿舍,浙江省,金华市,义乌市,金华市义乌市江东街道学院路2号工商学院经济管理分院,,1,4,120.103813,29.303479,,house,http://api.map.baidu.com/place/detail?uid=4b6e6cdf12b1c13981a12ee6&output=html&source=placeapi_v2,,,,,,,,,,,,,,,,,,,,4
4266211b7960f24495f08cc3,义乌皇冠假日酒店员工宿舍,房地产,宿舍,浙江省,金华市,义乌市,金华市义乌市江东街道南下朱b区29幢,4266211b7960f24495f08cc3,1,0,120.130148,29.323358,,house,http://api.map.baidu.com/place/detail?uid=4266211b7960f24495f08cc3&output=html&source=placeapi_v2,,,,,,,,,,,,,,,,,,,,0
665acbb1190fa2f270210b4a,义乌宏远电脑公司宿舍,房地产,宿舍,浙江省,金华市,义乌市,金华市义乌市东苑路东房新村东侧约50米,665acbb1190fa2f270210b4a,1,0,120.147627,29.316835,,house,http://api.map.baidu.com/place/detail?uid=665acbb1190fa2f270210b4a&output=html&source=placeapi_v2,,,,,,,,,,,,,,,,,,120.14771528492,29.316912928827,0
6e348d7be5d92e7b373a7189,职工之家,房地产,宿舍,浙江省,金华市,义乌市,金华市义乌市振兴西路义乌复旦实验学校西南侧约80米,6e348d7be5d92e7b373a7189,1,0,120.130165,29.332643,,house,http://api.map.baidu.com/place/detail?uid=6e348d7be5d92e7b373a7189&output=html&source=placeapi_v2,,,,,,,,,,,,,,,,,,,,0
a9e72a5af5a32a6b73210bdb,员工公寓,房地产,宿舍,浙江省,金华市,东阳市,金华市东阳市塘头路塘头小区东北侧约180米,a9e72a5af5a32a6b73210bdb,1,0,120.184598,29.301438,,house,http://api.map.baidu.com/place/detail?uid=a9e72a5af5a32a6b73210bdb&output=html&source=placeapi_v2,,,,,,,,,,,,,,,,,,120.18467003928,29.301417316885,0
1f7cf09985e2381e4c6d466f,伊美宿舍,房地产,宿舍,浙江省,金华市,义乌市,浙江省金华市义乌市北苑街道望道路377号伊美宿舍,,1,0,120.048824,29.34129,,house,http://api.map.baidu.com/place/detail?uid=1f7cf09985e2381e4c6d466f&output=html&source=placeapi_v2,,,,,,,,,,,,,,,,,,,,0
dbf02d6356bea78aab059d7e,心迪宿舍,房地产,宿舍,浙江省,金华市,义乌市,义乌市望道路361号心迪宿舍,dbf02d6356bea78aab059d7e,1,0,120.048875,29.339552,,house,http://api.map.baidu.com/place/detail?uid=dbf02d6356bea78aab059d7e&output=html&source=placeapi_v2,,,,,,,,,,,,,,,,,,120.04894208284,29.339651174197,0
6ddb32935f75d82703ec0163,女生宿舍,房地产,宿舍,浙江省,金华市,义乌市,金华市义乌市福田路99号海洋酒店女生宿舍,6ddb32935f75d82703ec0163,1,0,120.113,29.340014,,house,http://api.map.baidu.com/place/detail?uid=6ddb32935f75d82703ec0163&output=html&source=placeapi_v2,,,,,,,,,,,,,,,,,,120.11278478387,29.339848598455,0
1a6526115964c5c6b817e7f1,慧慧公司宿舍,房地产,宿舍,浙江省,金华市,义乌市,金华市义乌市振兴西路42号,1a6526115964c5c6b817e7f1,1,0,120.143701,29.337549,,house,http://api.map.baidu.com/place/detail?uid=1a6526115964c5c6b817e7f1&output=html&source=placeapi_v2,,,,,,,,,,,,,,,,,,,,0
772da557e5a82ac08bfc0667,教工宿舍,房地产,宿舍,浙江省,金华市,义乌市,金华市义乌市下骆宅紫金二区9栋,,1,0,120.14044,29.338324,,house,http://api.map.baidu.com/place/detail?uid=772da557e5a82ac08bfc0667&output=html&source=placeapi_v2,,,,,,,,,,,,,,,,,,,,0
4a9bc88e95a4239af7e73b32,义乌市圣德袜业有限公司宿舍,房地产,宿舍,浙江省,金华市,义乌市,浙江省金华市义乌市银海路1222号,4a9bc88e95a4239af7e73b32,1,0,120.17208,29.34395,,house,http://api.map.baidu.com/place/detail?uid=4a9bc88e95a4239af7e73b32&output=html&source=placeapi_v2,,,,,,,,,,,,,,,,,,,,0
4786bd96eda92473a8175a31,义乌六中教师公寓,房地产,宿舍,浙江省,金华市,义乌市,金华市义乌市中新街166号,4786bd96eda92473a8175a31,1,0,120.171601,29.333894,,house,http://api.map.baidu.com/place/detail?uid=4786bd96eda92473a8175a31&output=html&source=placeapi_v2,,,,,,,,,,,,,,,,,,120.17153594587,29.333889136587,0
0ed662b02f180c3d8f55ecd4,读经宝宝-教师公寓,房地产,宿舍,浙江省,金华市,义乌市,浙江省金华市义乌市福田街道西罗店村65号,,1,0,120.097497,29.372936,,house,http://api.map.baidu.com/place/detail?uid=0ed662b02f180c3d8f55ecd4&output=html&source=placeapi_v2,,,,,,,,,,,,,,,,,,,,0
71325f1d4f36c1e72cb17e19,浙江伟达实业有限公司宿舍管理处,房地产,宿舍,浙江省,金华市,义乌市,金华市义乌市国贸大道义乌市荷叶塘初级中学西侧约150米,71325f1d4f36c1e72cb17e19,1,0,120.125969,29.383734,,house,http://api.map.baidu.com/place/detail?uid=71325f1d4f36c1e72cb17e19&output=html&source=placeapi_v2,,,,,,,,,,,,,,,,,,,,0
620f32c44c1ed7d343afe60c,继红宿舍,房地产,宿舍,浙江省,金华市,义乌市,金华市义乌市高园路西山下综合市场西北侧约50米,620f32c44c1ed7d343afe60c,1,0,120.170425,29.399361,,house,http://api.map.baidu.com/place/detail?uid=620f32c44c1ed7d343afe60c&output=html&source=placeapi_v2,,,5,,,,,,,,,,,,,,,,,0
546ec1c60a75447949fc8d6f,博尼宿舍,房地产,宿舍,浙江省,金华市,义乌市,金华市义乌市苏福路255号,,1,0,120.166331,29.401044,,house,http://api.map.baidu.com/place/detail?uid=546ec1c60a75447949fc8d6f&output=html&source=placeapi_v2,,,,,,,,,,,,,,,,,,120.16627812599,29.401240392804,0
20491b8808a4a5b28bdb7301,烟草公司宿舍,房地产,宿舍,浙江省,金华市,浦江县,金华市浦江县大桥北路13号烟草公司宿舍,20491b8808a4a5b28bdb7301,1,0,119.901213,29.454783,,house,http://api.map.baidu.com/place/detail?uid=20491b8808a4a5b28bdb7301&output=html&source=placeapi_v2,,,,,,,,,,,,,,,,,,,,0
a3430997466deb6ca8059d9c,木材公司宿舍,房地产,宿舍,浙江省,金华市,浦江县,金华市浦江县人民西路16号,a3430997466deb6ca8059d9c,1,1,119.892067,29.459652,,house,http://api.map.baidu.com/place/detail?uid=a3430997466deb6ca8059d9c&output=html&source=placeapi_v2,,,,,,,,,,,,,,,,,,119.89175294482,29.459908012243,1
c99d9d2fc99646da3586f4bb,老县府宿舍,房地产,宿舍,浙江省,金华市,浦江县,浙江省金华市浦江县人民东路38号老县府宿舍,c99d9d2fc99646da3586f4bb,1,0,119.897764,29.45882,,house,http://api.map.baidu.com/place/detail?uid=c99d9d2fc99646da3586f4bb&output=html&source=placeapi_v2,,,,,,,,,,,,,,,,,,119.89772924112,29.458821309511,0
6ee835d998db06227169d3f0,浦江县国土局宿舍,房地产,宿舍,浙江省,金华市,浦江县,浙江省金华市浦江县国土局宿舍,,1,0,119.896436,29.456553,,house,http://api.map.baidu.com/place/detail?uid=6ee835d998db06227169d3f0&output=html&source=placeapi_v2,,,,,,,,,,,,,,,,,,,,0
ef47b85e6f78bb89018972a7,伯虎宿舍,房地产,宿舍,浙江省,金华市,浦江县,金华市浦江县仙华街道奥特路77号伯虎宿舍,,1,0,119.927612,29.459229,,house,http://api.map.baidu.com/place/detail?uid=ef47b85e6f78bb89018972a7&output=html&source=placeapi_v2,,,,,,,,,,,,,,,,,,,,0
19c284e184ac5b04cac3db7a,天虹公司宿舍,房地产,宿舍,浙江省,金华市,浦江县,浙江省金华市浦江县江滨东路121号,19c284e184ac5b04cac3db7a,1,0,119.913649,29.453286,,house,http://api.map.baidu.com/place/detail?uid=19c284e184ac5b04cac3db7a&output=html&source=placeapi_v2,,,,,,,,,,,,,,,,,,119.91334723551,29.453394397198,0
c8c331d38d5e779dafee7a3c,浦江二院宿舍,房地产,宿舍,浙江省,金华市,浦江县,金华市浦江县黄宅镇黄岩路39号,c8c331d38d5e779dafee7a3c,1,0,120.008926,29.455897,,house,http://api.map.baidu.com/place/detail?uid=c8c331d38d5e779dafee7a3c&output=html&source=placeapi_v2,,,,,,,,,,,,,,,,,,120.00925852517,29.456140496348,0
127734e9d44c606fe31103d3,星光小学教师宿舍,房地产,宿舍,浙江省,金华市,义乌市,金华市义乌市稠大线义乌市启东小学(星光校区)西侧约120米,,1,0,120.132437,29.446295,,house,http://api.map.baidu.com/place/detail?uid=127734e9d44c606fe31103d3&output=html&source=placeapi_v2,,,,,,,,,,,,,,,,,,,,0
