uid,name,cat_L1,cat_L2,province,city,area,address,street_id,detail,child_num,loc_lng,loc_lat,telephone,type,detail_url,price,shop_hours,overall_rating,taste_rating,service_rating,environment_rating,facility_rating,hygiene_rating,technology_rating,image_num,comment_num,groupon_num,discount_num,favorite_num,checkin_num,brand,content_tag,naviloc_lng,naviloc_lat,child_num
b40ed4c43432151f7069d3b0,千里马马术俱乐部,运动健身,体育场馆,新疆维吾尔自治区,乌鲁木齐市,天山区,新疆维吾尔自治区乌鲁木齐市天山区红雁路276号,,1,0,87.658075,43.722548,15099144324,life,http://api.map.baidu.com/place/detail?uid=b40ed4c43432151f7069d3b0&output=html&source=placeapi_v2,,,,,,,,,,,,,,,,,,87.658208218813,43.722650561571,0
fe94fe01e5a103118633043c,九龙运动场,运动健身,体育场馆,新疆维吾尔自治区,乌鲁木齐市,沙依巴克区,乌鲁木齐市沙依巴克区苜蓿沟北路中段附近九龙生态园内,,1,0,87.469533,43.763471,(0991)8777666,life,http://api.map.baidu.com/place/detail?uid=fe94fe01e5a103118633043c&output=html&source=placeapi_v2,,,0.0,,,,,,,4,,,,,,,,,,0
e98048fb0708ab3a102935bd,华易体育俱乐部,运动健身,体育场馆,新疆维吾尔自治区,乌鲁木齐市,沙依巴克区,乌鲁木齐市沙依巴克区水泥厂街天山建材小区,e98048fb0708ab3a102935bd,1,0,87.589154,43.763347,,life,http://api.map.baidu.com/place/detail?uid=e98048fb0708ab3a102935bd&output=html&source=placeapi_v2,,,0.0,,,,,,,,1,,,,,,,,,0
11adb30d168ce7b8b320a8ce,牛8台球俱乐部,运动健身,体育场馆,新疆维吾尔自治区,乌鲁木齐市,天山区,乌鲁木齐市天山区南郊停车场,11adb30d168ce7b8b320a8ce,1,0,87.603215,43.752606,,life,http://api.map.baidu.com/place/detail?uid=11adb30d168ce7b8b320a8ce&output=html&source=placeapi_v2,,,,,,,,,,,,,,,,,,,,0
27b6c2aa032fc8608936eed5,8号桌球俱乐部,运动健身,体育场馆,新疆维吾尔自治区,乌鲁木齐市,沙依巴克区,乌鲁木齐市沙依巴克区仓房沟中路天脉商务宾馆东侧约120米,27b6c2aa032fc8608936eed5,1,0,87.586239,43.764169,"13579432321,17716931082",life,http://api.map.baidu.com/place/detail?uid=27b6c2aa032fc8608936eed5&output=html&source=placeapi_v2,,11:00-02:00,,,,,,,,2,,,,,,,,,,0
c5ddcc080ee43bc7d813185c,红雁体育馆,运动健身,体育场馆,新疆维吾尔自治区,乌鲁木齐市,天山区,新疆维吾尔自治区乌鲁木齐市天山区红雁街道延安路红雁池娱乐场旁,c5ddcc080ee43bc7d813185c,1,0,87.627847,43.737285,,life,http://api.map.baidu.com/place/detail?uid=c5ddcc080ee43bc7d813185c&output=html&source=placeapi_v2,,,5.0,,,,,,,1,3,,,,,,,87.628280940423,43.737521078457,0
02396203d450641f4f6d468c,新疆大学(南校区)-运动场,运动健身,体育场馆,新疆维吾尔自治区,乌鲁木齐市,天山区,乌鲁木齐市天山区新大南校区内,,1,0,87.635856,43.745309,,life,http://api.map.baidu.com/place/detail?uid=02396203d450641f4f6d468c&output=html&source=placeapi_v2,,,0.0,,,,,,,,,,,,,,,87.635224514672,43.745575052418,0
09be5cb1fdeacb69fe0eb054,宏雁池游泳馆,运动健身,体育场馆,新疆维吾尔自治区,乌鲁木齐市,天山区,新疆维吾尔自治区乌鲁木齐市天山区延安路139号,,1,0,87.632774,43.732532,(0991)2555646,life,http://api.map.baidu.com/place/detail?uid=09be5cb1fdeacb69fe0eb054&output=html&source=placeapi_v2,,11:00-22:00,2,,,,,,,0,4,,,,,,,87.632154852572,43.731736519125,0
0e1291c97adc60eba0d230f3,赛马场街道赛马场,运动健身,体育场馆,新疆维吾尔自治区,乌鲁木齐市,天山区,新疆维吾尔自治区乌鲁木齐市天山区大湾南路308号三期4号楼1单元,0e1291c97adc60eba0d230f3,1,0,87.626765,43.762397,,life,http://api.map.baidu.com/place/detail?uid=0e1291c97adc60eba0d230f3&output=html&source=placeapi_v2,,08:30-18:30,0,,,,,,,1,0,,,,,,,,,0
8fc99ffbcab6f7ccfb0cadae,新疆骏马拳击俱乐部,运动健身,体育场馆,新疆维吾尔自治区,乌鲁木齐市,天山区,新疆维吾尔自治区乌鲁木齐市天山区大湾南路316号,8fc99ffbcab6f7ccfb0cadae,1,0,87.627766,43.761191,,life,http://api.map.baidu.com/place/detail?uid=8fc99ffbcab6f7ccfb0cadae&output=html&source=placeapi_v2,,,5,,,,,,,1,4,,,,,,,87.627869935289,43.761225101055,0
643bfc8384bc407c8bb988ba,新疆举重训练馆,运动健身,体育场馆,新疆维吾尔自治区,乌鲁木齐市,天山区,乌鲁木齐市天山区大湾南路水清山岚东南侧约130米,,1,0,87.629557,43.760967,,life,http://api.map.baidu.com/place/detail?uid=643bfc8384bc407c8bb988ba&output=html&source=placeapi_v2,,,,,,,,,,,,,,,,,,,,0
fe94fe01e5a103118633043c,九龙运动场,运动健身,体育场馆,新疆维吾尔自治区,乌鲁木齐市,沙依巴克区,乌鲁木齐市沙依巴克区苜蓿沟北路中段附近九龙生态园内,,1,0,87.469533,43.763471,(0991)8777666,life,http://api.map.baidu.com/place/detail?uid=fe94fe01e5a103118633043c&output=html&source=placeapi_v2,,,0.0,,,,,,,4,,,,,,,,,,0
b4a61e248b67d57b79dbd271,星辉桌球,运动健身,体育场馆,新疆维吾尔自治区,乌鲁木齐市,沙依巴克区,新疆维吾尔自治区乌鲁木齐市沙依巴克区苜蓿沟北路2977号紫金城紫和园3楼,b4a61e248b67d57b79dbd271,1,0,87.481073,43.785112,"15509915169,18099611789",life,http://api.map.baidu.com/place/detail?uid=b4a61e248b67d57b79dbd271&output=html&source=placeapi_v2,,10:00-22:00,5,,,,,,,8,3,,,,,,,,,0
81b0105578b019bc04fef5e1,小龙武馆,运动健身,体育场馆,新疆维吾尔自治区,乌鲁木齐市,沙依巴克区,新疆维吾尔自治区乌鲁木齐市沙依巴克区苜蓿沟北路2977号紫东园2楼,,1,0,87.482278,43.779856,19990815119,life,http://api.map.baidu.com/place/detail?uid=81b0105578b019bc04fef5e1&output=html&source=placeapi_v2,,,,,,,,,,50,6,,,,,,,,,0
7715e8a74664cda595f08ccc,撞八台球俱乐部,运动健身,体育场馆,新疆维吾尔自治区,乌鲁木齐市,沙依巴克区,新疆维吾尔自治区乌鲁木齐市沙依巴克区首蓿沟北路3号紫金城紫和园4号铺3楼301室,,1,0,87.479588,43.786114,17590960113,life,http://api.map.baidu.com/place/detail?uid=7715e8a74664cda595f08ccc&output=html&source=placeapi_v2,,10:00-22:00,,,,,,,,,,,,,,,,87.479782832075,43.786126351419,0
b49e91c93a55bed21f389476,凌飞武术,运动健身,体育场馆,新疆维吾尔自治区,乌鲁木齐市,头屯河区,乌鲁木齐市头屯河区西泉街万泰阳光城,,1,0,87.467623,43.796943,,life,http://api.map.baidu.com/place/detail?uid=b49e91c93a55bed21f389476&output=html&source=placeapi_v2,,,,,,,,,,3,,,,,,,,,,0
13d953a879cc80bead31e577,那色尔足球俱乐部训练营,运动健身,体育场馆,新疆维吾尔自治区,乌鲁木齐市,沙依巴克区,新疆维吾尔自治区乌鲁木齐市沙依巴克区大浦沟北路2669号-5-1,,1,0,87.503059,43.780058,15199060636,life,http://api.map.baidu.com/place/detail?uid=13d953a879cc80bead31e577&output=html&source=placeapi_v2,,,,,,,,,,1,,,,,,,,87.503699374746,43.779116019071,0
fe9cb664f3c2e2d70f0a7043,中国路虎卫士俱乐部,运动健身,体育场馆,新疆维吾尔自治区,乌鲁木齐市,沙依巴克区,乌鲁木齐市沙依巴克区连霍高速粤和汽车服务创新产业园,,1,0,87.491323,43.767214,,life,http://api.map.baidu.com/place/detail?uid=fe9cb664f3c2e2d70f0a7043&output=html&source=placeapi_v2,,,,,,,,,,2,,,,,,,,87.491395935268,43.767284319467,0
81b0105578b019bc04fef5e1,小龙武馆,运动健身,体育场馆,新疆维吾尔自治区,乌鲁木齐市,沙依巴克区,新疆维吾尔自治区乌鲁木齐市沙依巴克区苜蓿沟北路2977号紫东园2楼,,1,0,87.482278,43.779856,19990815119,life,http://api.map.baidu.com/place/detail?uid=81b0105578b019bc04fef5e1&output=html&source=placeapi_v2,,,,,,,,,,50,6,,,,,,,,,0
27f5286bbf766856465726d6,佳友桌球(仓房沟北路),运动健身,体育场馆,新疆维吾尔自治区,乌鲁木齐市,沙依巴克区,新疆维吾尔自治区乌鲁木齐市沙依巴克区仓房沟北路202号和平大厦,27f5286bbf766856465726d6,1,0,87.603439,43.781928,13899882121,life,http://api.map.baidu.com/place/detail?uid=27f5286bbf766856465726d6&output=html&source=placeapi_v2,24,12:00-24:00,5,,,,,,,3,1,,,,,,,87.603221809108,43.781968212151,0
50d012e9ad90ae93db2f281c,马琳乒乓球拍(地王商城店),运动健身,体育场馆,新疆维吾尔自治区,乌鲁木齐市,沙依巴克区,乌鲁木齐市沙依巴克区炉院街333号地王商城F1地王商城F1,,1,0,87.597503,43.781674,"(0991)5828821,18602333710",life,http://api.map.baidu.com/place/detail?uid=50d012e9ad90ae93db2f281c&output=html&source=placeapi_v2,,10:00-21:00,,,,,,,,2,,,,,,,,87.596996059473,43.781894341111,0
e98048fb0708ab3a102935bd,华易体育俱乐部,运动健身,体育场馆,新疆维吾尔自治区,乌鲁木齐市,沙依巴克区,乌鲁木齐市沙依巴克区水泥厂街天山建材小区,e98048fb0708ab3a102935bd,1,0,87.589154,43.763347,,life,http://api.map.baidu.com/place/detail?uid=e98048fb0708ab3a102935bd&output=html&source=placeapi_v2,,,0.0,,,,,,,,1,,,,,,,,,0
e678b7316cfe7c0e8c55ec5e,华武文化体育俱乐部,运动健身,体育场馆,新疆维吾尔自治区,乌鲁木齐市,沙依巴克区,新疆维吾尔自治区乌鲁木齐市沙依巴克区经二路229号新丰大厦b座4楼,e678b7316cfe7c0e8c55ec5e,1,0,87.601496,43.793164,(0991)4526626,life,http://api.map.baidu.com/place/detail?uid=e678b7316cfe7c0e8c55ec5e&output=html&source=placeapi_v2,,09:30-22:00,,,,,,,,5,,,,,,,,87.60178885785,43.793109615984,0
06653a9c1052be4594ec842b,博艺体育搏击馆(万达馆),运动健身,体育场馆,新疆维吾尔自治区,乌鲁木齐市,沙依巴克区,新疆维吾尔自治区乌鲁木齐市沙依巴克区德汇万达d栋3楼,06653a9c1052be4594ec842b,1,0,87.592347,43.795534,15099157856,life,http://api.map.baidu.com/place/detail?uid=06653a9c1052be4594ec842b&output=html&source=placeapi_v2,,10:00-22:00,0,,,,,,,1,0,,,,,,,,,0
27b6c2aa032fc8608936eed5,8号桌球俱乐部,运动健身,体育场馆,新疆维吾尔自治区,乌鲁木齐市,沙依巴克区,乌鲁木齐市沙依巴克区仓房沟中路天脉商务宾馆东侧约120米,27b6c2aa032fc8608936eed5,1,0,87.586239,43.764169,"13579432321,17716931082",life,http://api.map.baidu.com/place/detail?uid=27b6c2aa032fc8608936eed5&output=html&source=placeapi_v2,,11:00-02:00,,,,,,,,2,,,,,,,,,,0
001e81b90c297eecae31e5bb,爱尚台球厅,运动健身,体育场馆,新疆维吾尔自治区,乌鲁木齐市,沙依巴克区,新疆维吾尔自治区乌鲁木齐市沙依巴克区长江路418号,001e81b90c297eecae31e5bb,1,0,87.599798,43.791484,"15160969651,18355884008",life,http://api.map.baidu.com/place/detail?uid=001e81b90c297eecae31e5bb&output=html&source=placeapi_v2,,00:00-24:00,3,,,,,,,5,1,,,,,,,87.599464647301,43.79149970092,0
cd9d05dd443d2bb785420e42,银星大酒店游泳池,运动健身,体育场馆,新疆维吾尔自治区,乌鲁木齐市,沙依巴克区,新疆维吾尔自治区乌鲁木齐市沙依巴克区奇台路639号银星大酒店24层,cd9d05dd443d2bb785420e42,1,0,87.594693,43.796193,(0991)5572158,life,http://api.map.baidu.com/place/detail?uid=cd9d05dd443d2bb785420e42&output=html&source=placeapi_v2,,11:00-22:30,1,,,,,,,1,1,,,,,,,87.594529031912,43.796011318378,0
38e4803716b7e048373a715e,新疆大学-体育馆(延安路店),运动健身,体育场馆,新疆维吾尔自治区,乌鲁木齐市,天山区,新疆维吾尔自治区乌鲁木齐市天山区胜利路14号65号楼,38e4803716b7e048373a715e,1,0,87.630176,43.767122,,life,http://api.map.baidu.com/place/detail?uid=38e4803716b7e048373a715e&output=html&source=placeapi_v2,,,1.0,,,,,,,2,1,,,,,,,87.630191273147,43.767448727007,0
1fe5393e1a15b98e7369d3e2,陈氏太极拳馆,运动健身,体育场馆,新疆维吾尔自治区,乌鲁木齐市,天山区,乌鲁木齐市天山区延安路边疆宾馆亚泰后院,1fe5393e1a15b98e7369d3e2,1,0,87.635443,43.77202,,life,http://api.map.baidu.com/place/detail?uid=1fe5393e1a15b98e7369d3e2&output=html&source=placeapi_v2,,,5.0,,,,,,,2,1,,,,,,,87.63558132719,43.772104221826,0
0e1291c97adc60eba0d230f3,赛马场街道赛马场,运动健身,体育场馆,新疆维吾尔自治区,乌鲁木齐市,天山区,新疆维吾尔自治区乌鲁木齐市天山区大湾南路308号三期4号楼1单元,0e1291c97adc60eba0d230f3,1,0,87.626765,43.762397,,life,http://api.map.baidu.com/place/detail?uid=0e1291c97adc60eba0d230f3&output=html&source=placeapi_v2,,08:30-18:30,0,,,,,,,1,0,,,,,,,,,0
fc26de7c3b01fee46fc02cf0,神霸台球厅,运动健身,体育场馆,新疆维吾尔自治区,乌鲁木齐市,天山区,新疆维吾尔自治区乌鲁木齐市天山区延安路912号,fc26de7c3b01fee46fc02cf0,1,0,87.6382,43.768784,(0991)5656566,life,http://api.map.baidu.com/place/detail?uid=fc26de7c3b01fee46fc02cf0&output=html&source=placeapi_v2,,10:00-22:00,5,,,,,,,13,4,,,,,,,87.638288503794,43.768799513423,0
709b3b24a48966ee93114c26,滋巴台球,运动健身,体育场馆,新疆维吾尔自治区,乌鲁木齐市,天山区,新疆维吾尔自治区乌鲁木齐市天山区解放南路258号宝亨商务港负1层,709b3b24a48966ee93114c26,1,0,87.626531,43.794096,13699991136,life,http://api.map.baidu.com/place/detail?uid=709b3b24a48966ee93114c26&output=html&source=placeapi_v2,,11:00-23:00,0.0,,,,,,,3,1,,,,,,,,,0
bd266ccdddd6a7b0c17da26e,拉斯维加斯台球,运动健身,体育场馆,新疆维吾尔自治区,乌鲁木齐市,天山区,乌鲁木齐市天山区大湾南路万科翡翠天骄东南侧约40米,bd266ccdddd6a7b0c17da26e,1,0,87.637509,43.764214,,life,http://api.map.baidu.com/place/detail?uid=bd266ccdddd6a7b0c17da26e&output=html&source=placeapi_v2,,,0.0,,,,,,,1,,,,,,,,,,0
8fc99ffbcab6f7ccfb0cadae,新疆骏马拳击俱乐部,运动健身,体育场馆,新疆维吾尔自治区,乌鲁木齐市,天山区,新疆维吾尔自治区乌鲁木齐市天山区大湾南路316号,8fc99ffbcab6f7ccfb0cadae,1,0,87.627766,43.761191,,life,http://api.map.baidu.com/place/detail?uid=8fc99ffbcab6f7ccfb0cadae&output=html&source=placeapi_v2,,,5,,,,,,,1,4,,,,,,,87.627869935289,43.761225101055,0
46e7bad5894a5f95157643c7,星宝台球厅,运动健身,体育场馆,新疆维吾尔自治区,乌鲁木齐市,天山区,新疆维吾尔自治区乌鲁木齐市天山区解放南路53号,46e7bad5894a5f95157643c7,1,0,87.625368,43.796118,(0991)2836147,life,http://api.map.baidu.com/place/detail?uid=46e7bad5894a5f95157643c7&output=html&source=placeapi_v2,,,,,,,,,,2,,,,,,,,87.625713566926,43.796152746835,0
ca0ae3b4cf54c4a7d1f49ee1,天山区残联体育馆,运动健身,体育场馆,新疆维吾尔自治区,乌鲁木齐市,天山区,新疆维吾尔自治区乌鲁木齐市天山区大湾北路东十三巷268号,ca0ae3b4cf54c4a7d1f49ee1,1,0,87.653987,43.782935,(0991)8878692,life,http://api.map.baidu.com/place/detail?uid=ca0ae3b4cf54c4a7d1f49ee1&output=html&source=placeapi_v2,,09:00-23:00,4,,,,,,,,1,,,,,,,87.653746106098,43.782956083835,0
6fafeace2fc708ed223bf202,杨军羽毛球俱乐部(天山馆),运动健身,体育场馆,新疆维吾尔自治区,乌鲁木齐市,天山区,新疆维吾尔自治区乌鲁木齐市天山区大湾北路73小,,1,0,87.653802,43.783507,(0991)8878692,life,http://api.map.baidu.com/place/detail?uid=6fafeace2fc708ed223bf202&output=html&source=placeapi_v2,,10:00-23:00,4.0,,,,,,,1,1,,,,,,,87.653912380651,43.783490252561,0
7221d37fec99921e6849f339,花园桌球,运动健身,体育场馆,新疆维吾尔自治区,乌鲁木齐市,天山区,新疆维吾尔自治区乌鲁木齐市天山区大湾北路东17巷166号幸福花园一期2楼,7221d37fec99921e6849f339,1,0,87.652166,43.788038,13999949656,life,http://api.map.baidu.com/place/detail?uid=7221d37fec99921e6849f339&output=html&source=placeapi_v2,,10:00-22:00,0,,,,,,,4,3,,,,,,,87.651964375508,43.788059361324,0
b49e91c93a55bed21f389476,凌飞武术,运动健身,体育场馆,新疆维吾尔自治区,乌鲁木齐市,头屯河区,乌鲁木齐市头屯河区西泉街万泰阳光城,,1,0,87.467623,43.796943,,life,http://api.map.baidu.com/place/detail?uid=b49e91c93a55bed21f389476&output=html&source=placeapi_v2,,,,,,,,,,3,,,,,,,,,,0
58e98adab8a5f8f882a12e5c,九点运动中心,运动健身,体育场馆,新疆维吾尔自治区,乌鲁木齐市,沙依巴克区,新疆维吾尔自治区乌鲁木齐市沙依巴克区桐柏山街29号,58e98adab8a5f8f882a12e5c,1,0,87.488269,43.817725,(0991)3766280,life,http://api.map.baidu.com/place/detail?uid=58e98adab8a5f8f882a12e5c&output=html&source=placeapi_v2,,10:00-23:00,5,,,,,,,14,3,,,,,,,87.489098905197,43.817551519973,0
145f13b6a00fd59bf403b8be,骏龙跆拳道,运动健身,体育场馆,新疆维吾尔自治区,乌鲁木齐市,沙依巴克区,新疆维吾尔自治区乌鲁木齐市沙依巴克区西山东街476号,,1,0,87.550248,43.807813,18699020828,life,http://api.map.baidu.com/place/detail?uid=145f13b6a00fd59bf403b8be&output=html&source=placeapi_v2,,,5,,,,,,,4,6,,,,,,,,,0
fe807f4d9e596c5083a00c03,爱尚八桌球俱乐部,运动健身,体育场馆,新疆维吾尔自治区,乌鲁木齐市,沙依巴克区,新疆乌鲁木齐市沙依巴克区西山西街447号美一天超市负1层,,1,0,87.533405,43.80726,13319883939,life,http://api.map.baidu.com/place/detail?uid=fe807f4d9e596c5083a00c03&output=html&source=placeapi_v2,,00:00-24:00,,,,,,,,11,3,,,,,,,,,0
29d4c051c43a9347f92d615d,中豪澜山会所游泳馆,运动健身,体育场馆,新疆维吾尔自治区,乌鲁木齐市,沙依巴克区,新疆维吾尔自治区乌鲁木齐市沙依巴克区西山路276号,,1,0,87.54027,43.803442,(0991)8201999,life,http://api.map.baidu.com/place/detail?uid=29d4c051c43a9347f92d615d&output=html&source=placeapi_v2,,,,,,,,,,,,,,,,,,87.540759028208,43.80337269222,0
f42422b105c05aa3f32d8300,艺武馆新北园春店,运动健身,体育场馆,新疆维吾尔自治区,乌鲁木齐市,沙依巴克区,新疆维吾尔自治区乌鲁木齐市沙依巴克区平川路199号,f42422b105c05aa3f32d8300,1,0,87.556323,43.81676,,life,http://api.map.baidu.com/place/detail?uid=f42422b105c05aa3f32d8300&output=html&source=placeapi_v2,,10:00-22:00,5.0,,,,,,,14,5,,,,,,,,,0
c67e0528b347719d735e80f5,沙区体育馆,运动健身,体育场馆,新疆维吾尔自治区,乌鲁木齐市,沙依巴克区,新疆维吾尔自治区乌鲁木齐市沙依巴克区西北路892号,c67e0528b347719d735e80f5,1,0,87.598852,43.817503,,life,http://api.map.baidu.com/place/detail?uid=c67e0528b347719d735e80f5&output=html&source=placeapi_v2,,,,,,,,,,,,,,,,,,,,0
5a20b4dcd6ac7b132fb96d28,新疆大学科学技术学院-体育馆,运动健身,体育场馆,新疆维吾尔自治区,乌鲁木齐市,沙依巴克区,新疆维吾尔自治区乌鲁木齐市沙依巴克区农大东路311号,5a20b4dcd6ac7b132fb96d28,1,0,87.585853,43.827422,13999844737,life,http://api.map.baidu.com/place/detail?uid=5a20b4dcd6ac7b132fb96d28&output=html&source=placeapi_v2,,,0.0,,,,,,,1,1,,,,,,,87.585972966304,43.82727378031,0
f187ad4fc20d009d71210b17,新农大体育馆,运动健身,体育场馆,新疆维吾尔自治区,乌鲁木齐市,沙依巴克区,新疆维吾尔自治区乌鲁木齐市沙依巴克区农大东路311号,,1,0,87.570361,43.821381,,life,http://api.map.baidu.com/place/detail?uid=f187ad4fc20d009d71210b17&output=html&source=placeapi_v2,,,,,,,,,,,,,,,,,,87.570631195465,43.820659905099,0
912d447869cb7619cf06a478,乌市体育局游泳训练中心,运动健身,体育场馆,新疆维吾尔自治区,乌鲁木齐市,沙依巴克区,新疆维吾尔自治区乌鲁木齐市沙依巴克区滨河南路284号,,1,0,87.610038,43.810613,,life,http://api.map.baidu.com/place/detail?uid=912d447869cb7619cf06a478&output=html&source=placeapi_v2,,,,,,,,,,1,,,,,,,,,,0
a12baa40399c912be956fa85,红山游泳馆,运动健身,体育场馆,新疆维吾尔自治区,乌鲁木齐市,沙依巴克区,新疆维吾尔自治区乌鲁木齐市沙依巴克区滨河南路284号,a12baa40399c912be956fa85,1,1,87.609985,43.81058,,life,http://api.map.baidu.com/place/detail?uid=a12baa40399c912be956fa85&output=html&source=placeapi_v2,,13:00-21:00,3.7,,,,,,,9,18,,,,,,,87.609877832422,43.810518949315,1
08d6e970fd7c500bdc1e52b5,乌鲁木齐德才体育俱乐部,运动健身,体育场馆,新疆维吾尔自治区,乌鲁木齐市,沙依巴克区,乌鲁木齐市沙依巴克区滨河南路218号,08d6e970fd7c500bdc1e52b5,1,1,87.608322,43.812251,,life,http://api.map.baidu.com/place/detail?uid=08d6e970fd7c500bdc1e52b5&output=html&source=placeapi_v2,,,0,,,,,,,3,4,,,,,,,87.607959076125,43.81203135238,1
6feb0615b1947bd36240a91d,新疆农业大学附属中学-运动场,运动健身,体育场馆,新疆维吾尔自治区,乌鲁木齐市,沙依巴克区,农大附中东侧,6feb0615b1947bd36240a91d,1,0,87.578752,43.814695,,life,http://api.map.baidu.com/place/detail?uid=6feb0615b1947bd36240a91d&output=html&source=placeapi_v2,,,0,,,,,,,2,1,,,,,,,,,0
26136cd44b4a33b82e4733fe,乌鲁木齐快乐乒乓球俱乐部,运动健身,体育场馆,新疆维吾尔自治区,乌鲁木齐市,沙依巴克区,新疆维吾尔自治区乌鲁木齐市沙依巴克区西北路1085号金都大厦3楼,26136cd44b4a33b82e4733fe,1,0,87.599961,43.814773,13709918056,life,http://api.map.baidu.com/place/detail?uid=26136cd44b4a33b82e4733fe&output=html&source=placeapi_v2,,10:00-02:00,,,,,,,,2,,,,,,,,87.59931465678,43.814666512524,0
793950c9c81958c49e82eabf,天山绿洲体育馆,运动健身,体育场馆,新疆维吾尔自治区,乌鲁木齐市,沙依巴克区,新疆维吾尔自治区乌鲁木齐市沙依巴克区雅玛里克山旅游风景区南,,1,0,87.58366,43.800576,,life,http://api.map.baidu.com/place/detail?uid=793950c9c81958c49e82eabf&output=html&source=placeapi_v2,,10:30-22:30,0.0,,,,,,,,1,,,,,,,87.583186251664,43.800677665572,0
1be60df6480369baa8059dab,万景游泳馆,运动健身,体育场馆,新疆维吾尔自治区,乌鲁木齐市,沙依巴克区,新疆维吾尔自治区乌鲁木齐市沙依巴克区宝塔路100号,,1,0,87.575339,43.801258,,life,http://api.map.baidu.com/place/detail?uid=1be60df6480369baa8059dab&output=html&source=placeapi_v2,,,1,,,,,,,1,1,,,,,,,87.575224738362,43.800958915759,0
49d8bff954159fd6afb22a40,新疆农业大学羽毛球馆,运动健身,体育场馆,新疆维吾尔自治区,乌鲁木齐市,沙依巴克区,乌鲁木齐市沙依巴克区明德北路新疆农业大学,49d8bff954159fd6afb22a40,1,0,87.570361,43.821381,,life,http://api.map.baidu.com/place/detail?uid=49d8bff954159fd6afb22a40&output=html&source=placeapi_v2,,,3.0,,,,,,,,1,,,,,,,,,0
d5920052a99a1a176c47600c,名将体育飞扬羽毛球馆,运动健身,体育场馆,新疆维吾尔自治区,乌鲁木齐市,沙依巴克区,新疆维吾尔自治区乌鲁木齐市沙依巴克区友好北路739号明园新时代大酒店金座6层(美美12喜来登奥斯卡影城),d5920052a99a1a176c47600c,1,0,87.596673,43.825564,"13079937613,13201346731",life,http://api.map.baidu.com/place/detail?uid=d5920052a99a1a176c47600c&output=html&source=placeapi_v2,,09:00-23:00,5,,,,,,,9,1,,,,,,,,,0
6814560381ba76c7a2a934b3,新疆大学北校区-西院体育场,运动健身,体育场馆,新疆维吾尔自治区,乌鲁木齐市,沙依巴克区,乌鲁木齐市沙依巴克区克拉玛依西街新疆大学(北校区)东南2门南侧约90米,6814560381ba76c7a2a934b3,1,0,87.585732,43.827616,13999844737,life,http://api.map.baidu.com/place/detail?uid=6814560381ba76c7a2a934b3&output=html&source=placeapi_v2,,,0.0,,,,,,,3,1,,,,,,,87.585656884952,43.827688531249,0
5eaa92b548b1569125d2bb07,悦动乒乓球馆,运动健身,体育场馆,新疆维吾尔自治区,乌鲁木齐市,沙依巴克区,新疆维吾尔自治区乌鲁木齐市沙依巴克区友好南路2号明园小区内,5eaa92b548b1569125d2bb07,1,0,87.600867,43.824891,15899218521,life,http://api.map.baidu.com/place/detail?uid=5eaa92b548b1569125d2bb07&output=html&source=placeapi_v2,,15:00-22:00,,,,,,,,1,,,,,,,,87.600483608625,43.824912077586,0
63be1b675936a0495d17c377,融合极致・运动营养馆,运动健身,体育场馆,新疆维吾尔自治区,乌鲁木齐市,沙依巴克区,新疆维吾尔自治区乌鲁木齐市沙依巴克区扬子江路213号红十月小区东二区16号楼,63be1b675936a0495d17c377,1,0,87.600049,43.803205,18699006789,life,http://api.map.baidu.com/place/detail?uid=63be1b675936a0495d17c377&output=html&source=placeapi_v2,,08:30-24:00,,,,,,,,,,,,,,,,,,0
2c4cb05f1679ba501e1d11ea,杨军羽毛球俱乐部(尤尼克斯主题馆),运动健身,体育场馆,新疆维吾尔自治区,乌鲁木齐市,沙依巴克区,新疆维吾尔自治区乌鲁木齐市沙依巴克区宝山路399号天山绿洲四期,,1,0,87.583586,43.800521,(0991)5365588,life,http://api.map.baidu.com/place/detail?uid=2c4cb05f1679ba501e1d11ea&output=html&source=placeapi_v2,,10:00-23:00,5,,,,,,,1,1,,,,,,,87.583162850177,43.800630318783,0
723288ca05aeae2dd7851f23,圣丹亚游泳馆(克西路店),运动健身,体育场馆,新疆维吾尔自治区,乌鲁木齐市,沙依巴克区,乌鲁木齐市沙依巴克区克拉玛依西街700号独山子大酒店B座负1层,723288ca05aeae2dd7851f23,1,0,87.571555,43.823749,15699205560,life,http://api.map.baidu.com/place/detail?uid=723288ca05aeae2dd7851f23&output=html&source=placeapi_v2,,10:00-21:30,,,,,,,,,,,,,,,,,,0
cc309291a456dec8cf06a4fc,乌市红山冬泳俱乐部,运动健身,体育场馆,新疆维吾尔自治区,乌鲁木齐市,沙依巴克区,新疆维吾尔自治区乌鲁木齐市沙依巴克区滨河南路188号,,1,1,87.607258,43.813101,(0991)4508371,life,http://api.map.baidu.com/place/detail?uid=cc309291a456dec8cf06a4fc&output=html&source=placeapi_v2,,,,,,,,,,1,,,,,,,,87.607253823835,43.812593252874,1
20cb1beac88bcac62202620c,仕恒桌球会所,运动健身,体育场馆,新疆维吾尔自治区,乌鲁木齐市,沙依巴克区,新疆维吾尔自治区乌鲁木齐市沙依巴克区扬子江路红十月小区东二区5号楼,20cb1beac88bcac62202620c,1,0,87.600527,43.803047,(0991)5814196,life,http://api.map.baidu.com/place/detail?uid=20cb1beac88bcac62202620c&output=html&source=placeapi_v2,35,11:00-23:00,0,,,,,,,14,1,,,,,,,87.600418359396,43.803177357267,0
2ffd19d30cd3023a2b3a9f2c,云海游泳馆,运动健身,体育场馆,新疆维吾尔自治区,乌鲁木齐市,沙依巴克区,新疆维吾尔自治区乌鲁木齐市沙依巴克区友好北路739号新时代大酒店2楼,2ffd19d30cd3023a2b3a9f2c,1,0,87.59641,43.825846,(0991)7518090,life,http://api.map.baidu.com/place/detail?uid=2ffd19d30cd3023a2b3a9f2c&output=html&source=placeapi_v2,,10:00-22:00,0,,,,,,,2,1,,,,,,,,,0
fc65930921c89ad84e6d469d,杜锋篮球训练营(农大店),运动健身,体育场馆,新疆维吾尔自治区,乌鲁木齐市,沙依巴克区,新疆维吾尔自治区乌鲁木齐市沙依巴克区农大东路311号,,1,0,87.570039,43.822775,"13899973233,13999910517",life,http://api.map.baidu.com/place/detail?uid=fc65930921c89ad84e6d469d&output=html&source=placeapi_v2,,10:00-23:00,3.3,,,,,,,,3,,,,,,,87.570184589406,43.822415612324,0
3803bcdf4545eaad54bfff96,刚正尚武跆拳道,运动健身,体育场馆,新疆维吾尔自治区,乌鲁木齐市,沙依巴克区,新疆维吾尔自治区乌鲁木齐市沙依巴克区克拉玛依西街333号万科都会传奇1栋2层201室,,1,0,87.579679,43.828126,13319885518,life,http://api.map.baidu.com/place/detail?uid=3803bcdf4545eaad54bfff96&output=html&source=placeapi_v2,,10:00-22:00,,,,,,,,1,,,,,,,,,,0
06653a9c1052be4594ec842b,博艺体育搏击馆(万达馆),运动健身,体育场馆,新疆维吾尔自治区,乌鲁木齐市,沙依巴克区,新疆维吾尔自治区乌鲁木齐市沙依巴克区德汇万达d栋3楼,06653a9c1052be4594ec842b,1,0,87.592347,43.795534,15099157856,life,http://api.map.baidu.com/place/detail?uid=06653a9c1052be4594ec842b&output=html&source=placeapi_v2,,10:00-22:00,0,,,,,,,1,0,,,,,,,,,0
1d0715e7df4535420ab93a64,华武武术俱乐部,运动健身,体育场馆,新疆维吾尔自治区,乌鲁木齐市,沙依巴克区,新疆维吾尔自治区乌鲁木齐市沙依巴克区农大东路311号,,1,0,87.571042,43.820923,13209981685,life,http://api.map.baidu.com/place/detail?uid=1d0715e7df4535420ab93a64&output=html&source=placeapi_v2,,,0.0,,,,,,,2,1,,,,,,,,,0
34341d65fe0c1a921d58005e,独山子大酒店-游泳池,运动健身,体育场馆,新疆维吾尔自治区,乌鲁木齐市,沙依巴克区,新疆维吾尔自治区乌鲁木齐市沙依巴克区克拉玛依西街700号独山子大酒店B座负1层,34341d65fe0c1a921d58005e,1,0,87.571304,43.823749,,life,http://api.map.baidu.com/place/detail?uid=34341d65fe0c1a921d58005e&output=html&source=placeapi_v2,,,,,,,,,,,,,,,,,,,,0
cf0735d237a7d5bc71210bd7,樱花台球俱乐部,运动健身,体育场馆,新疆维吾尔自治区,乌鲁木齐市,沙依巴克区,新疆维吾尔自治区乌鲁木齐市沙依巴克区公园北街168号,,1,0,87.607098,43.80278,18999978850,life,http://api.map.baidu.com/place/detail?uid=cf0735d237a7d5bc71210bd7&output=html&source=placeapi_v2,,10:00-22:00,,,,,,,,2,,,,,,,,87.60694985872,43.802806219428,0
9963699efad516202cb17e30,海豚游泳俱乐部,运动健身,体育场馆,新疆维吾尔自治区,乌鲁木齐市,沙依巴克区,乌鲁木齐市沙依巴克区滨河南路284号,9963699efad516202cb17e30,1,0,87.60994,43.810772,,life,http://api.map.baidu.com/place/detail?uid=9963699efad516202cb17e30&output=html&source=placeapi_v2,,11:00-21:30,,,,,,,,,,,,,,,,87.609755089323,43.810591939042,0
f403fabc0dfeb55f25e0a0bf,跆跟跆拳道俱乐部,运动健身,体育场馆,新疆维吾尔自治区,乌鲁木齐市,沙依巴克区,新疆维吾尔自治区乌鲁木齐市沙依巴克区平顶山东二路39号,f403fabc0dfeb55f25e0a0bf,1,0,87.578099,43.828075,13095025566,life,http://api.map.baidu.com/place/detail?uid=f403fabc0dfeb55f25e0a0bf&output=html&source=placeapi_v2,,12:30-20:00,5,,,,,,,3,1,,,,,,,,,0
cd9d05dd443d2bb785420e42,银星大酒店游泳池,运动健身,体育场馆,新疆维吾尔自治区,乌鲁木齐市,沙依巴克区,新疆维吾尔自治区乌鲁木齐市沙依巴克区奇台路639号银星大酒店24层,cd9d05dd443d2bb785420e42,1,0,87.594693,43.796193,(0991)5572158,life,http://api.map.baidu.com/place/detail?uid=cd9d05dd443d2bb785420e42&output=html&source=placeapi_v2,,11:00-22:30,1,,,,,,,1,1,,,,,,,87.594529031912,43.796011318378,0
14e1e3d1c42046e916c9058e,友好南路343,运动健身,体育场馆,新疆维吾尔自治区,乌鲁木齐市,沙依巴克区,乌鲁木齐市沙依巴克区友好南路郑泰教育大厦东侧约60米,14e1e3d1c42046e916c9058e,1,0,87.601253,43.817299,,life,http://api.map.baidu.com/place/detail?uid=14e1e3d1c42046e916c9058e&output=html&source=placeapi_v2,,,,,,,,,,1,,,,,,,,87.601011084997,43.81723840129,0
c7eca12b80579d4ae015f985,红山体育中心体育馆,运动健身,体育场馆,新疆维吾尔自治区,乌鲁木齐市,水磨沟区,新疆维吾尔自治区乌鲁木齐市水磨沟区新民西街92号,c7eca12b80579d4ae015f985,1,7,87.616127,43.815061,,life,http://api.map.baidu.com/place/detail?uid=c7eca12b80579d4ae015f985&output=html&source=placeapi_v2,,,4.2,,,,,,,1,14,,,,,,,87.615193327934,43.81554064933,7
f2f5bdd0a0aaafcd44572641,新疆教育学院-综合运动场,运动健身,体育场馆,新疆维吾尔自治区,乌鲁木齐市,天山区,乌鲁木齐市天山区光明路333号,f2f5bdd0a0aaafcd44572641,1,0,87.623713,43.810895,,life,http://api.map.baidu.com/place/detail?uid=f2f5bdd0a0aaafcd44572641&output=html&source=placeapi_v2,,,0,,,,,,,,1,,,,,,,87.623615964182,43.810879520154,0
593850fbe5deb620de1e52be,华瑞体育俱乐部,运动健身,体育场馆,新疆维吾尔自治区,乌鲁木齐市,天山区,新疆维吾尔自治区乌鲁木齐市天山区五星南路198号,593850fbe5deb620de1e52be,1,0,87.638838,43.81392,,life,http://api.map.baidu.com/place/detail?uid=593850fbe5deb620de1e52be&output=html&source=placeapi_v2,,,2,,,,,,,6,7,,,,,,,87.638751149008,43.813940241315,0
1362f63e80de464b2cb908cf,联勤俱乐部,运动健身,体育场馆,新疆维吾尔自治区,乌鲁木齐市,天山区,新疆乌鲁木齐市天山区青年路55号,1362f63e80de464b2cb908cf,1,0,87.629972,43.809083,,life,http://api.map.baidu.com/place/detail?uid=1362f63e80de464b2cb908cf&output=html&source=placeapi_v2,,,,,,,,,,,,,,,,,,,,0
b4290889dc5dfa652e473369,乌鲁木齐体育公园-网球场,运动健身,体育场馆,新疆维吾尔自治区,乌鲁木齐市,天山区,新疆维吾尔自治区乌鲁木齐市天山区三道湾路120号,b4290889dc5dfa652e473369,1,0,87.642333,43.798951,,life,http://api.map.baidu.com/place/detail?uid=b4290889dc5dfa652e473369&output=html&source=placeapi_v2,,09:00-22:00,0.0,,,,,,,,,,,,,,,,,0
3fe4c4ed99c1dd0e9cf7791c,水磨沟区城区篮球场,运动健身,体育场馆,新疆维吾尔自治区,乌鲁木齐市,水磨沟区,新疆维吾尔自治区乌鲁木齐市水磨沟区红山路北八巷199号185号,3fe4c4ed99c1dd0e9cf7791c,1,0,87.633713,43.820835,,life,http://api.map.baidu.com/place/detail?uid=3fe4c4ed99c1dd0e9cf7791c&output=html&source=placeapi_v2,,,0,,,,,,,,1,,,,,,,87.633909651872,43.820855030729,0
08d6e970fd7c500bdc1e52b5,乌鲁木齐德才体育俱乐部,运动健身,体育场馆,新疆维吾尔自治区,乌鲁木齐市,沙依巴克区,乌鲁木齐市沙依巴克区滨河南路218号,08d6e970fd7c500bdc1e52b5,1,1,87.608322,43.812251,,life,http://api.map.baidu.com/place/detail?uid=08d6e970fd7c500bdc1e52b5&output=html&source=placeapi_v2,,,0,,,,,,,3,4,,,,,,,87.607959076125,43.81203135238,1
912d447869cb7619cf06a478,乌市体育局游泳训练中心,运动健身,体育场馆,新疆维吾尔自治区,乌鲁木齐市,沙依巴克区,新疆维吾尔自治区乌鲁木齐市沙依巴克区滨河南路284号,,1,0,87.610038,43.810613,,life,http://api.map.baidu.com/place/detail?uid=912d447869cb7619cf06a478&output=html&source=placeapi_v2,,,,,,,,,,1,,,,,,,,,,0
1848fc07a7257fd3ce04efa1,上清社跆拳道(北门馆),运动健身,体育场馆,新疆维吾尔自治区,乌鲁木齐市,天山区,新疆维吾尔自治区乌鲁木齐市天山区文艺路106号恒福大厦3楼,,1,0,87.62456,43.80435,15099195070,life,http://api.map.baidu.com/place/detail?uid=1848fc07a7257fd3ce04efa1&output=html&source=placeapi_v2,,,5.0,,,,,,,,1,,,,,,,87.624156893757,43.80450825591,0
a12baa40399c912be956fa85,红山游泳馆,运动健身,体育场馆,新疆维吾尔自治区,乌鲁木齐市,沙依巴克区,新疆维吾尔自治区乌鲁木齐市沙依巴克区滨河南路284号,a12baa40399c912be956fa85,1,1,87.609985,43.81058,,life,http://api.map.baidu.com/place/detail?uid=a12baa40399c912be956fa85&output=html&source=placeapi_v2,,13:00-21:00,3.7,,,,,,,9,18,,,,,,,87.609877832422,43.810518949315,1
6e215b239694b05bacee7a05,天一篮球训练营,运动健身,体育场馆,新疆维吾尔自治区,乌鲁木齐市,天山区,新疆维吾尔自治区乌鲁木齐市天山区翠泉路260号,6e215b239694b05bacee7a05,1,0,87.638903,43.81398,,life,http://api.map.baidu.com/place/detail?uid=6e215b239694b05bacee7a05&output=html&source=placeapi_v2,,09:00-22:00,2,,,,,,,3,3,,,,,,,,,0
88c37c57979e25b64c3a59e3,小精灵乒乓球馆,运动健身,体育场馆,新疆维吾尔自治区,乌鲁木齐市,天山区,乌鲁木齐市天山区建设路徕远宾馆对面新崇正培训学校院内,88c37c57979e25b64c3a59e3,1,0,87.622965,43.80506,13999167299,life,http://api.map.baidu.com/place/detail?uid=88c37c57979e25b64c3a59e3&output=html&source=placeapi_v2,,,,,,,,,,,,,,,,,,87.622941325875,43.80466974811,0
d17e4d3bc96e0c70774ff1f7,杨军羽毛球俱乐部,运动健身,体育场馆,新疆维吾尔自治区,乌鲁木齐市,水磨沟区,新疆维吾尔自治区乌鲁木齐市水磨沟区新民西街90号,d17e4d3bc96e0c70774ff1f7,1,0,87.614765,43.814757,(0991)4601566,life,http://api.map.baidu.com/place/detail?uid=d17e4d3bc96e0c70774ff1f7&output=html&source=placeapi_v2,,09:00-23:00,0,,,,,,,4,0,,,,,,,87.614736734191,43.814773224996,0
06b6bd99f6abf978b9df8ff6,乐点台球俱乐部,运动健身,体育场馆,新疆维吾尔自治区,乌鲁木齐市,天山区,新疆维吾尔自治区乌鲁木齐市天山区碱泉街道青年路527号优诗美地中信银行旁,,1,0,87.648782,43.813602,13609995161,life,http://api.map.baidu.com/place/detail?uid=06b6bd99f6abf978b9df8ff6&output=html&source=placeapi_v2,,12:00-04:00,,,,,,,,3,,,,,,,,,,0
3ee960e93199f37ef4e73bac,众星跆拳道俱乐部,运动健身,体育场馆,新疆维吾尔自治区,乌鲁木齐市,水磨沟区,新疆维吾尔自治区乌鲁木齐市水磨沟区新民路新兴街248号,3ee960e93199f37ef4e73bac,1,0,87.623506,43.816092,"18099207672,19999126963",life,http://api.map.baidu.com/place/detail?uid=3ee960e93199f37ef4e73bac&output=html&source=placeapi_v2,,10:00-20:00,,,,,,,,3,,,,,,,,87.623560204473,43.816016097842,0
bcc93cfa4308b9434154d746,乐高俱乐部,运动健身,体育场馆,新疆维吾尔自治区,乌鲁木齐市,天山区,新疆维吾尔自治区乌鲁木齐市天山区解放北路万宴城2楼,bcc93cfa4308b9434154d746,1,0,87.627855,43.800809,18599142086,life,http://api.map.baidu.com/place/detail?uid=bcc93cfa4308b9434154d746&output=html&source=placeapi_v2,,11:00-20:00,5,,,,,,,13,4,,,,,,,87.626680435963,43.800305880109,0
3ef0c0fec9b09819afee7a92,吾空台球,运动健身,体育场馆,新疆维吾尔自治区,乌鲁木齐市,水磨沟区,新疆维吾尔自治区乌鲁木齐市水磨沟区新民西街242号,3ef0c0fec9b09819afee7a92,1,0,87.620077,43.819672,,life,http://api.map.baidu.com/place/detail?uid=3ef0c0fec9b09819afee7a92&output=html&source=placeapi_v2,,,,,,,,,,3,,,,,,,,87.620051745643,43.819734643046,0
6f3f9d9e6820f7373310af74,滑启轮滑体验馆,运动健身,体育场馆,新疆维吾尔自治区,乌鲁木齐市,天山区,新疆维吾尔自治区乌鲁木齐市天山区中山路462号,6f3f9d9e6820f7373310af74,1,0,87.630071,43.799632,,life,http://api.map.baidu.com/place/detail?uid=6f3f9d9e6820f7373310af74&output=html&source=placeapi_v2,,,,,,,,,,,,,,,,,,,,0
d1e7483c30385883eb56fa38,华顺天连乒乓球俱乐部,运动健身,体育场馆,新疆维吾尔自治区,乌鲁木齐市,天山区,新疆维吾尔自治区乌鲁木齐市天山区五星南路263号,d1e7483c30385883eb56fa38,1,0,87.639478,43.807746,(0991)2690305,life,http://api.map.baidu.com/place/detail?uid=d1e7483c30385883eb56fa38&output=html&source=placeapi_v2,,10:00-22:00,0,,,,,,,3,0,,,,,,,87.639616015275,43.807821193627,0
b3e0ddf152ed4c9a1811d515,乒乓大世界,运动健身,体育场馆,新疆维吾尔自治区,乌鲁木齐市,水磨沟区,新疆维吾尔自治区乌鲁木齐市水磨沟区新民西街124号,b3e0ddf152ed4c9a1811d515,1,0,87.616627,43.816719,13899808468,life,http://api.map.baidu.com/place/detail?uid=b3e0ddf152ed4c9a1811d515&output=html&source=placeapi_v2,,10:00-21:00,0,,,,,,,11,1,,,,,,,87.616462425752,43.816796867295,0
2311691376dcefe4734b87f9,恒动力台球俱乐部,运动健身,体育场馆,新疆维吾尔自治区,乌鲁木齐市,天山区,新疆维吾尔自治区乌鲁木齐市天山区中山路299号世纪名表大厦4楼,2311691376dcefe4734b87f9,1,0,87.62305,43.800674,(0991)2356000,life,http://api.map.baidu.com/place/detail?uid=2311691376dcefe4734b87f9&output=html&source=placeapi_v2,41,11:00-02:00,1.5,,,,,,,10,3,,,,,,,87.623180780527,43.800700467009,0
72e7724d187a5812bd484220,优能体育,运动健身,体育场馆,新疆维吾尔自治区,乌鲁木齐市,水磨沟区,新疆维吾尔自治区乌鲁木齐市水磨沟区新民西街113-1号,72e7724d187a5812bd484220,1,0,87.616526,43.817258,(0991)8894008,life,http://api.map.baidu.com/place/detail?uid=72e7724d187a5812bd484220&output=html&source=placeapi_v2,,10:00-21:00,,,,,,,,6,,,,,,,,87.616671270554,43.817192728315,0
cc309291a456dec8cf06a4fc,乌市红山冬泳俱乐部,运动健身,体育场馆,新疆维吾尔自治区,乌鲁木齐市,沙依巴克区,新疆维吾尔自治区乌鲁木齐市沙依巴克区滨河南路188号,,1,1,87.607258,43.813101,(0991)4508371,life,http://api.map.baidu.com/place/detail?uid=cc309291a456dec8cf06a4fc&output=html&source=placeapi_v2,,,,,,,,,,1,,,,,,,,87.607253823835,43.812593252874,1
f8fcfc8306c6351f1df74d6e,新疆信达海德酒店-室内恒温游泳池,运动健身,体育场馆,新疆维吾尔自治区,乌鲁木齐市,天山区,乌鲁木齐市天山区健康路219号海德酒店6楼,f8fcfc8306c6351f1df74d6e,1,0,87.628591,43.802115,(0991)2322828,life,http://api.map.baidu.com/place/detail?uid=f8fcfc8306c6351f1df74d6e&output=html&source=placeapi_v2,,08:00-22:00,3.5,,,,,,,3,7,,,,,,,,,0
3010e9d023cb084c5a3ac8fc,鹏飞跆拳道馆(南湖馆),运动健身,体育场馆,新疆维吾尔自治区,乌鲁木齐市,水磨沟区,新疆维吾尔自治区乌鲁木齐市水磨沟区西虹东路505号,3010e9d023cb084c5a3ac8fc,1,0,87.623796,43.823948,(0991)4692949,life,http://api.map.baidu.com/place/detail?uid=3010e9d023cb084c5a3ac8fc&output=html&source=placeapi_v2,,11:00-22:00,0,,,,,,,10,0,,,,,,,,,0
4e552549792c6b537bf79618,杰成鑫奥乒乓球俱乐部,运动健身,体育场馆,新疆维吾尔自治区,乌鲁木齐市,天山区,新疆维吾尔自治区乌鲁木齐市天山区东环路241号1楼,4e552549792c6b537bf79618,1,0,87.640311,43.803682,15981783318,life,http://api.map.baidu.com/place/detail?uid=4e552549792c6b537bf79618&output=html&source=placeapi_v2,,10:00-22:00,,,,,,,,,,,,,,,,87.64024371146,43.803706827198,0
8f857f7fda618745a1a93401,博艺乒乓球馆,运动健身,体育场馆,新疆维吾尔自治区,乌鲁木齐市,天山区,新疆维吾尔自治区乌鲁木齐市天山区青年路优诗美地一期门面BRT车站后,,1,0,87.647642,43.813289,,life,http://api.map.baidu.com/place/detail?uid=8f857f7fda618745a1a93401&output=html&source=placeapi_v2,,10:00-22:00,,,,,,,,2,,,,,,,,87.647653570139,43.813219116307,0
e261471e56cd08bec236445e,风云乔氏台球俱乐部,运动健身,体育场馆,新疆维吾尔自治区,乌鲁木齐市,天山区,新疆维吾尔自治区乌鲁木齐市天山区中山路338号金砖国际大厦7楼,,1,0,87.626469,43.799939,13201233133,life,http://api.map.baidu.com/place/detail?uid=e261471e56cd08bec236445e&output=html&source=placeapi_v2,,11:00-03:00,,,,,,,,1,,,,,,,,87.626484496308,43.80031102097,0
ec0e7347fa0b8b4c95f08c35,华凌雅高美爵大饭店-网球场,运动健身,体育场馆,新疆维吾尔自治区,乌鲁木齐市,水磨沟区,新疆维吾尔自治区乌鲁木齐市水磨沟区西虹东路109号华凌美爵大饭店4楼,ec0e7347fa0b8b4c95f08c35,1,0,87.610075,43.822591,(0991)5188888,life,http://api.map.baidu.com/place/detail?uid=ec0e7347fa0b8b4c95f08c35&output=html&source=placeapi_v2,,,,,,,,,,,,,,,,,,,,0
8fde79cc1dd03ea695ca07d1,众鹏台球俱乐部,运动健身,体育场馆,新疆维吾尔自治区,乌鲁木齐市,天山区,新疆维吾尔自治区乌鲁木齐市天山区和平北路16号,8fde79cc1dd03ea695ca07d1,1,0,87.631883,43.799511,,life,http://api.map.baidu.com/place/detail?uid=8fde79cc1dd03ea695ca07d1&output=html&source=placeapi_v2,,00:00-24:00,0,,,,,,,20,2,,,,,,,,,0
9963699efad516202cb17e30,海豚游泳俱乐部,运动健身,体育场馆,新疆维吾尔自治区,乌鲁木齐市,沙依巴克区,乌鲁木齐市沙依巴克区滨河南路284号,9963699efad516202cb17e30,1,0,87.60994,43.810772,,life,http://api.map.baidu.com/place/detail?uid=9963699efad516202cb17e30&output=html&source=placeapi_v2,,11:00-21:30,,,,,,,,,,,,,,,,87.609755089323,43.810591939042,0
e44f47b108c05253f32d8305,街舞俱乐部,运动健身,体育场馆,新疆维吾尔自治区,乌鲁木齐市,天山区,新疆维吾尔自治区乌鲁木齐市天山区解放北路36号天章大厦3楼,e44f47b108c05253f32d8305,1,0,87.627444,43.799365,(0991)2812099,life,http://api.map.baidu.com/place/detail?uid=e44f47b108c05253f32d8305&output=html&source=placeapi_v2,,,,,,,,,,,,,,,,,,,,0
cf0735d237a7d5bc71210bd7,樱花台球俱乐部,运动健身,体育场馆,新疆维吾尔自治区,乌鲁木齐市,沙依巴克区,新疆维吾尔自治区乌鲁木齐市沙依巴克区公园北街168号,,1,0,87.607098,43.80278,18999978850,life,http://api.map.baidu.com/place/detail?uid=cf0735d237a7d5bc71210bd7&output=html&source=placeapi_v2,,10:00-22:00,,,,,,,,2,,,,,,,,87.60694985872,43.802806219428,0
46e7bad5894a5f95157643c7,星宝台球厅,运动健身,体育场馆,新疆维吾尔自治区,乌鲁木齐市,天山区,新疆维吾尔自治区乌鲁木齐市天山区解放南路53号,46e7bad5894a5f95157643c7,1,0,87.625368,43.796118,(0991)2836147,life,http://api.map.baidu.com/place/detail?uid=46e7bad5894a5f95157643c7&output=html&source=placeapi_v2,,,,,,,,,,2,,,,,,,,87.625713566926,43.796152746835,0
709b3b24a48966ee93114c26,滋巴台球,运动健身,体育场馆,新疆维吾尔自治区,乌鲁木齐市,天山区,新疆维吾尔自治区乌鲁木齐市天山区解放南路258号宝亨商务港负1层,709b3b24a48966ee93114c26,1,0,87.626531,43.794096,13699991136,life,http://api.map.baidu.com/place/detail?uid=709b3b24a48966ee93114c26&output=html&source=placeapi_v2,,11:00-23:00,0.0,,,,,,,3,1,,,,,,,,,0
980f34781792db90130daa93,美丽华酒店-游泳馆,运动健身,体育场馆,新疆维吾尔自治区,乌鲁木齐市,天山区,乌鲁木齐市天山区新华北路305号美丽华酒店7楼,980f34781792db90130daa93,1,0,87.617808,43.802506,(0991)2803368,life,http://api.map.baidu.com/place/detail?uid=980f34781792db90130daa93&output=html&source=placeapi_v2,,11:00-22:00,5.0,,,,,,,1,3,,,,,,,87.617967722224,43.802533559226,0
1285d06ae2def87acc06a4f0,魔法石台球厅,运动健身,体育场馆,新疆维吾尔自治区,乌鲁木齐市,水磨沟区,新疆维吾尔自治区乌鲁木齐市水磨沟区西虹东路371号怡林酒店负1层,1285d06ae2def87acc06a4f0,1,0,87.616964,43.822192,(0991)5187147,life,http://api.map.baidu.com/place/detail?uid=1285d06ae2def87acc06a4f0&output=html&source=placeapi_v2,,11:00-02:00,,,,,,,,1,,,,,,,,87.617041557924,43.821969780977,0
06b6bd99f6abf978b9df8ff6,乐点台球俱乐部,运动健身,体育场馆,新疆维吾尔自治区,乌鲁木齐市,天山区,新疆维吾尔自治区乌鲁木齐市天山区碱泉街道青年路527号优诗美地中信银行旁,,1,0,87.648782,43.813602,13609995161,life,http://api.map.baidu.com/place/detail?uid=06b6bd99f6abf978b9df8ff6&output=html&source=placeapi_v2,,12:00-04:00,,,,,,,,3,,,,,,,,,,0
8f857f7fda618745a1a93401,博艺乒乓球馆,运动健身,体育场馆,新疆维吾尔自治区,乌鲁木齐市,天山区,新疆维吾尔自治区乌鲁木齐市天山区青年路优诗美地一期门面BRT车站后,,1,0,87.647642,43.813289,,life,http://api.map.baidu.com/place/detail?uid=8f857f7fda618745a1a93401&output=html&source=placeapi_v2,,10:00-22:00,,,,,,,,2,,,,,,,,87.647653570139,43.813219116307,0
cc1dee1c3e57d9e5fda77835,卓跃儿童运动馆(天柱山街店),运动健身,体育场馆,新疆维吾尔自治区,乌鲁木齐市,沙依巴克区,新疆维吾尔自治区乌鲁木齐市沙依巴克区天柱山街399号,cc1dee1c3e57d9e5fda77835,1,0,87.504039,43.850628,13325604316,life,http://api.map.baidu.com/place/detail?uid=cc1dee1c3e57d9e5fda77835&output=html&source=placeapi_v2,,15:00-21:30,0.0,,,,,,,4,1,,,,,,,87.504092331844,43.850636593287,0
944777ff39b49e73f50e7788,乌鲁木齐经济技术开发区文体中心-游泳馆,运动健身,体育场馆,新疆维吾尔自治区,乌鲁木齐市,沙依巴克区,新疆维吾尔自治区乌鲁木齐市沙依巴克区万寿山街600号,,1,0,87.516087,43.845323,"(0991)3073611,(0991)3073612",life,http://api.map.baidu.com/place/detail?uid=944777ff39b49e73f50e7788&output=html&source=placeapi_v2,,10:00-21:30,,,,,,,,,1,,,,,,,87.515924552591,43.845782009634,0
76cdcfcc2e180c215e17c393,头屯河区人民政府经开区文体中心游泳馆,运动健身,体育场馆,新疆维吾尔自治区,乌鲁木齐市,沙依巴克区,新疆维吾尔自治区乌鲁木齐市沙依巴克区万寿山街600号,,1,0,87.515546,43.842575,,life,http://api.map.baidu.com/place/detail?uid=76cdcfcc2e180c215e17c393&output=html&source=placeapi_v2,,,,,,,,,,,,,,,,,,,,0
95d9548352574d9df7eafc09,乌鲁木齐经济技术开发区文体中心-综合篮球馆,运动健身,体育场馆,新疆维吾尔自治区,乌鲁木齐市,沙依巴克区,乌鲁木齐市沙依巴克区万寿山街600号乌鲁木齐经济技术开发区文体中心,,1,0,87.516136,43.845391,(0991)3073763,life,http://api.map.baidu.com/place/detail?uid=95d9548352574d9df7eafc09&output=html&source=placeapi_v2,,,,,,,,,,,,,,,,,,87.515924552591,43.845782009634,0
3ae9389d5fa64416a3acc414,羽毛球场,运动健身,体育场馆,新疆维吾尔自治区,乌鲁木齐市,沙依巴克区,乌鲁木齐市沙依巴克区德润街格林威治城金山谷小区西南门西侧约60米,3ae9389d5fa64416a3acc414,1,0,87.497918,43.832643,,life,http://api.map.baidu.com/place/detail?uid=3ae9389d5fa64416a3acc414&output=html&source=placeapi_v2,,,0,,,,,,,,1,,,,,,,,,0
b4b94425caba6d2da8175a4e,聚能量体育俱乐部,运动健身,体育场馆,新疆维吾尔自治区,乌鲁木齐市,沙依巴克区,新疆维吾尔自治区乌鲁木齐市沙依巴克区香山街450号绿谷佳苑112号,b4b94425caba6d2da8175a4e,1,0,87.498719,43.853345,"15109006147,16699061116",life,http://api.map.baidu.com/place/detail?uid=b4b94425caba6d2da8175a4e&output=html&source=placeapi_v2,,10:00-22:00,,,,,,,,,,,,,,,,87.498651538182,43.853296813623,0
618969ab38fa2b179122e02e,博艺跆拳道搏击,运动健身,体育场馆,新疆维吾尔自治区,乌鲁木齐市,沙依巴克区,新疆维吾尔自治区乌鲁木齐市沙依巴克区天柱山街399号25号商铺,,1,0,87.503667,43.851478,18690624143,life,http://api.map.baidu.com/place/detail?uid=618969ab38fa2b179122e02e&output=html&source=placeapi_v2,,,,,,,,,,4,,,,,,,,,,0
19f6a02d5d71c4d6d1f49eb7,富力万达文华酒店-游泳馆,运动健身,体育场馆,新疆维吾尔自治区,乌鲁木齐市,沙依巴克区,新疆维吾尔自治区乌鲁木齐市沙依巴克区武湖路777号1楼,19f6a02d5d71c4d6d1f49eb7,1,0,87.524358,43.845284,13999802616,life,http://api.map.baidu.com/place/detail?uid=19f6a02d5d71c4d6d1f49eb7&output=html&source=placeapi_v2,,08:00-22:00,,,,,,,,,,,,,,,,,,0
b639b4d24885cfcf48cc4a24,好小子跆拳道,运动健身,体育场馆,新疆维吾尔自治区,乌鲁木齐市,沙依巴克区,新疆维吾尔自治区乌鲁木齐市沙依巴克区大明湖路777号,b639b4d24885cfcf48cc4a24,1,0,87.506949,43.852912,,life,http://api.map.baidu.com/place/detail?uid=b639b4d24885cfcf48cc4a24&output=html&source=placeapi_v2,,,,,,,,,,1,,,,,,,,,,0
b7fcfc94b7c68d324afc8d91,尚博跆拳道,运动健身,体育场馆,新疆维吾尔自治区,乌鲁木齐市,沙依巴克区,新疆维吾尔自治区乌鲁木齐市沙依巴克区班公湖路316号,b7fcfc94b7c68d324afc8d91,1,0,87.492431,43.842803,13653141345,life,http://api.map.baidu.com/place/detail?uid=b7fcfc94b7c68d324afc8d91&output=html&source=placeapi_v2,,10:00-22:00,,,,,,,,7,,,,,,,,87.492847876165,43.842796586365,0
8c07a8e2bc136ef68a36eeeb,篮球馆乒乓球馆,运动健身,体育场馆,新疆维吾尔自治区,乌鲁木齐市,沙依巴克区,新疆维吾尔自治区乌鲁木齐市沙依巴克区博香苑小区西北(凤凰山街南),8c07a8e2bc136ef68a36eeeb,1,0,87.526215,43.8404,,life,http://api.map.baidu.com/place/detail?uid=8c07a8e2bc136ef68a36eeeb&output=html&source=placeapi_v2,,10:30-22:00,0,,,,,,,1,3,,,,,,,87.526220962955,43.840775987292,0
1ef3bf5c49eea4e18d77276b,曼巴台球俱乐部,运动健身,体育场馆,新疆维吾尔自治区,乌鲁木齐市,沙依巴克区,新疆维吾尔自治区乌鲁木齐市沙依巴克区玄武湖路666号,,1,0,87.527745,43.842084,"15026001415,18380433600",life,http://api.map.baidu.com/place/detail?uid=1ef3bf5c49eea4e18d77276b&output=html&source=placeapi_v2,,00:00-24:00,,,,,,,,3,,,,,,,,,,0
fc1ccfc7d3039b2085420e7e,新疆亚亚足球俱乐部,运动健身,体育场馆,新疆维吾尔自治区,乌鲁木齐市,头屯河区,新疆维吾尔自治区乌鲁木齐市头屯河区经济开发区庐山街303号,,1,0,87.515932,43.859127,18690282228,life,http://api.map.baidu.com/place/detail?uid=fc1ccfc7d3039b2085420e7e&output=html&source=placeapi_v2,,,,,,,,,,,,,,,,,,,,0
669499564f0f0e1709a8d442,人保俱乐部,运动健身,体育场馆,新疆维吾尔自治区,乌鲁木齐市,头屯河区,乌鲁木齐市头屯河区庐山街与千岛路交叉路口往东约110米,,1,0,87.5073,43.857754,,life,http://api.map.baidu.com/place/detail?uid=669499564f0f0e1709a8d442&output=html&source=placeapi_v2,,,,,,,,,,1,,,,,,,,,,0
19f6a02d5d71c4d6d1f49eb7,富力万达文华酒店-游泳馆,运动健身,体育场馆,新疆维吾尔自治区,乌鲁木齐市,沙依巴克区,新疆维吾尔自治区乌鲁木齐市沙依巴克区武湖路777号1楼,19f6a02d5d71c4d6d1f49eb7,1,0,87.524358,43.845284,13999802616,life,http://api.map.baidu.com/place/detail?uid=19f6a02d5d71c4d6d1f49eb7&output=html&source=placeapi_v2,,08:00-22:00,,,,,,,,,,,,,,,,,,0
1ef3bf5c49eea4e18d77276b,曼巴台球俱乐部,运动健身,体育场馆,新疆维吾尔自治区,乌鲁木齐市,沙依巴克区,新疆维吾尔自治区乌鲁木齐市沙依巴克区玄武湖路666号,,1,0,87.527745,43.842084,"15026001415,18380433600",life,http://api.map.baidu.com/place/detail?uid=1ef3bf5c49eea4e18d77276b&output=html&source=placeapi_v2,,00:00-24:00,,,,,,,,3,,,,,,,,,,0
8c07a8e2bc136ef68a36eeeb,篮球馆乒乓球馆,运动健身,体育场馆,新疆维吾尔自治区,乌鲁木齐市,沙依巴克区,新疆维吾尔自治区乌鲁木齐市沙依巴克区博香苑小区西北(凤凰山街南),8c07a8e2bc136ef68a36eeeb,1,0,87.526215,43.8404,,life,http://api.map.baidu.com/place/detail?uid=8c07a8e2bc136ef68a36eeeb&output=html&source=placeapi_v2,,10:30-22:00,0,,,,,,,1,3,,,,,,,87.526220962955,43.840775987292,0
6113ef77f21b22158f77278f,新疆师范大学-体育馆,运动健身,体育场馆,新疆维吾尔自治区,乌鲁木齐市,沙依巴克区,新疆维吾尔自治区乌鲁木齐市沙依巴克区新医路102号,6113ef77f21b22158f77278f,1,0,87.596569,43.838295,,life,http://api.map.baidu.com/place/detail?uid=6113ef77f21b22158f77278f&output=html&source=placeapi_v2,,,0,,,,,,,3,1,,,,,,,87.596420259385,43.83827691346,0
5a20b4dcd6ac7b132fb96d28,新疆大学科学技术学院-体育馆,运动健身,体育场馆,新疆维吾尔自治区,乌鲁木齐市,沙依巴克区,新疆维吾尔自治区乌鲁木齐市沙依巴克区农大东路311号,5a20b4dcd6ac7b132fb96d28,1,0,87.585853,43.827422,13999844737,life,http://api.map.baidu.com/place/detail?uid=5a20b4dcd6ac7b132fb96d28&output=html&source=placeapi_v2,,,0.0,,,,,,,1,1,,,,,,,87.585972966304,43.82727378031,0
cbc3c1e0c7f70e82a8175a69,儿童公园青少年羽毛球运动中心,运动健身,体育场馆,新疆维吾尔自治区,乌鲁木齐市,沙依巴克区,新疆维吾尔自治区乌鲁木齐市沙依巴克区友好北路29号,cbc3c1e0c7f70e82a8175a69,1,0,87.586062,43.839913,,life,http://api.map.baidu.com/place/detail?uid=cbc3c1e0c7f70e82a8175a69&output=html&source=placeapi_v2,,,0,,,,,,,,0,,,,,,,,,0
315324650c3121e849fd3fb8,环球国际酒店-游泳池,运动健身,体育场馆,新疆维吾尔自治区,乌鲁木齐市,新市区,乌鲁木齐市新市区北京南路76号环球国际酒店1层,315324650c3121e849fd3fb8,1,0,87.581828,43.847232,"(0991)3330105,(0991)3330999",life,http://api.map.baidu.com/place/detail?uid=315324650c3121e849fd3fb8&output=html&source=placeapi_v2,,08:00-23:00,3.0,,,,,,,1,3,,,,,,,,,0
f41e842ae8ca522300ff2d3c,NA健身・运动馆(丝路店),运动健身,体育场馆,新疆维吾尔自治区,乌鲁木齐市,新市区,新疆维吾尔自治区乌鲁木齐市新市区昆明路158号野马国际2层,f41e842ae8ca522300ff2d3c,1,0,87.581874,43.862171,18609915499,life,http://api.map.baidu.com/place/detail?uid=f41e842ae8ca522300ff2d3c&output=html&source=placeapi_v2,,12:00-22:00,0,,,,,,,,0,,,,,,,87.581426843698,43.862187366118,0
0ec0a678d615ca9f593ac8cf,博艺跆拳道搏击,运动健身,体育场馆,新疆维吾尔自治区,乌鲁木齐市,沙依巴克区,新疆维吾尔自治区乌鲁木齐市沙依巴克区阿勒泰路20号嘉和园友好超市2楼,0ec0a678d615ca9f593ac8cf,1,0,87.575956,43.844994,13139870091,life,http://api.map.baidu.com/place/detail?uid=0ec0a678d615ca9f593ac8cf&output=html&source=placeapi_v2,,10:00-22:00,,,,,,,,3,,,,,,,,,,0
0054a0c5c71070c9c61b7552,新疆大学-运动场,运动健身,体育场馆,新疆维吾尔自治区,乌鲁木齐市,沙依巴克区,新疆维吾尔自治区乌鲁木齐市沙依巴克区克拉玛依西街109号12,0054a0c5c71070c9c61b7552,1,0,87.584967,43.830223,,life,http://api.map.baidu.com/place/detail?uid=0054a0c5c71070c9c61b7552&output=html&source=placeapi_v2,,,0.0,,,,,,,,,,,,,,,87.58493328691,43.830167321147,0
ec7b1e076cf12e22b1077dbf,点线力台球厅,运动健身,体育场馆,新疆维吾尔自治区,乌鲁木齐市,沙依巴克区,新疆维吾尔自治区乌鲁木齐市沙依巴克区阿勒泰路352号苏豪酒店1楼,ec7b1e076cf12e22b1077dbf,1,0,87.578812,43.842877,18999980418,life,http://api.map.baidu.com/place/detail?uid=ec7b1e076cf12e22b1077dbf&output=html&source=placeapi_v2,,11:30-02:00,5,,,,,,,4,1,,,,,,,87.578715572043,43.842775917799,0
0a3d7964a6680fd825e0a0c9,精英桌球会所,运动健身,体育场馆,新疆维吾尔自治区,乌鲁木齐市,沙依巴克区,新疆维吾尔自治区乌鲁木齐市沙依巴克区阿勒泰路232号大修厂七天连锁酒店负1层,0a3d7964a6680fd825e0a0c9,1,0,87.580231,43.840746,(0991)4850188,life,http://api.map.baidu.com/place/detail?uid=0a3d7964a6680fd825e0a0c9&output=html&source=placeapi_v2,11,11:30-24:00,,,,,,,,,,,,,,,,,,0
89bbb7964d6de75c03ff2d0f,奔跑者银川路乒乓球馆,运动健身,体育场馆,新疆维吾尔自治区,乌鲁木齐市,新市区,新疆维吾尔自治区乌鲁木齐市新市区西八家户路768号博雅文轩小区高层1号楼,89bbb7964d6de75c03ff2d0f,1,0,87.602458,43.851027,18690631070,life,http://api.map.baidu.com/place/detail?uid=89bbb7964d6de75c03ff2d0f&output=html&source=placeapi_v2,,00:00-24:00,,,,,,,,3,,,,,,,,,,0
6814560381ba76c7a2a934b3,新疆大学北校区-西院体育场,运动健身,体育场馆,新疆维吾尔自治区,乌鲁木齐市,沙依巴克区,乌鲁木齐市沙依巴克区克拉玛依西街新疆大学(北校区)东南2门南侧约90米,6814560381ba76c7a2a934b3,1,0,87.585732,43.827616,13999844737,life,http://api.map.baidu.com/place/detail?uid=6814560381ba76c7a2a934b3&output=html&source=placeapi_v2,,,0.0,,,,,,,3,1,,,,,,,87.585656884952,43.827688531249,0
a5055bfdf601c04688f15d75,亨力台球俱乐部,运动健身,体育场馆,新疆维吾尔自治区,乌鲁木齐市,水磨沟区,新疆维吾尔自治区乌鲁木齐市水磨沟区昆仑路南二巷226号负一楼,a5055bfdf601c04688f15d75,1,0,87.610095,43.841033,,life,http://api.map.baidu.com/place/detail?uid=a5055bfdf601c04688f15d75&output=html&source=placeapi_v2,,10:00-22:00,0.0,,,,,,,4,,,,,,,,,,0
15b44509c7d4aa7c871541db,跆尊道场,运动健身,体育场馆,新疆维吾尔自治区,乌鲁木齐市,沙依巴克区,新疆维吾尔自治区乌鲁木齐市沙依巴克区克拉玛依东街9号中国城2楼,15b44509c7d4aa7c871541db,1,0,87.597671,43.831655,,life,http://api.map.baidu.com/place/detail?uid=15b44509c7d4aa7c871541db&output=html&source=placeapi_v2,,,0.0,,,,,,,3,1,,,,,,,87.597802722999,43.831678449214,0
3803bcdf4545eaad54bfff96,刚正尚武跆拳道,运动健身,体育场馆,新疆维吾尔自治区,乌鲁木齐市,沙依巴克区,新疆维吾尔自治区乌鲁木齐市沙依巴克区克拉玛依西街333号万科都会传奇1栋2层201室,,1,0,87.579679,43.828126,13319885518,life,http://api.map.baidu.com/place/detail?uid=3803bcdf4545eaad54bfff96&output=html&source=placeapi_v2,,10:00-22:00,,,,,,,,1,,,,,,,,,,0
cf8d18be74c05ad016c90531,福润德VIP会员俱乐部,运动健身,体育场馆,新疆维吾尔自治区,乌鲁木齐市,新市区,新疆维吾尔自治区乌鲁木齐市新市区北京南路433号,cf8d18be74c05ad016c90531,1,0,87.575948,43.855314,,life,http://api.map.baidu.com/place/detail?uid=cf8d18be74c05ad016c90531&output=html&source=placeapi_v2,,,,,,,,,,,,,,,,,,,,0
199a9f3e8ce688114d55473a,西南台球俱乐部,运动健身,体育场馆,新疆维吾尔自治区,乌鲁木齐市,水磨沟区,新疆维吾尔自治区乌鲁木齐市水磨沟区昆仑路南一巷35号家园宾馆2楼,199a9f3e8ce688114d55473a,1,0,87.610668,43.842813,16609098040,life,http://api.map.baidu.com/place/detail?uid=199a9f3e8ce688114d55473a&output=html&source=placeapi_v2,,11:00-04:30,,,,,,,,1,,,,,,,,,,0
50364af5ea87d15c8b2fb5c8,铭仕台球厅(前程西二巷店),运动健身,体育场馆,新疆维吾尔自治区,乌鲁木齐市,水磨沟区,乌鲁木齐市水磨沟区昆仑路南二巷银春大酒店西南侧约70米,50364af5ea87d15c8b2fb5c8,1,0,87.609845,43.842598,13609946431,life,http://api.map.baidu.com/place/detail?uid=50364af5ea87d15c8b2fb5c8&output=html&source=placeapi_v2,,10:00-22:00,0.0,,,,,,,8,1,,,,,,,87.609937198577,43.842691399804,0
df4950dbca3d1948dbeceddb,伯爵桌球俱乐部,运动健身,体育场馆,新疆维吾尔自治区,乌鲁木齐市,沙依巴克区,乌鲁木齐市沙依巴克区滨河北路派尚酒店(乌鲁木齐友好路店)西北侧约100米,,1,0,87.598111,43.831868,,life,http://api.map.baidu.com/place/detail?uid=df4950dbca3d1948dbeceddb&output=html&source=placeapi_v2,,00:00-24:00,,,,,,,,7,1,,,,,,,87.598043642697,43.831863698164,0
f403fabc0dfeb55f25e0a0bf,跆跟跆拳道俱乐部,运动健身,体育场馆,新疆维吾尔自治区,乌鲁木齐市,沙依巴克区,新疆维吾尔自治区乌鲁木齐市沙依巴克区平顶山东二路39号,f403fabc0dfeb55f25e0a0bf,1,0,87.578099,43.828075,13095025566,life,http://api.map.baidu.com/place/detail?uid=f403fabc0dfeb55f25e0a0bf&output=html&source=placeapi_v2,,12:30-20:00,5,,,,,,,3,1,,,,,,,,,0
0a14a47eb1f2ca6171455be6,云玖台球俱乐部,运动健身,体育场馆,新疆维吾尔自治区,乌鲁木齐市,水磨沟区,乌鲁木齐市水磨沟区昆仑东街丽云小区西北侧,0a14a47eb1f2ca6171455be6,1,0,87.630914,43.840614,,life,http://api.map.baidu.com/place/detail?uid=0a14a47eb1f2ca6171455be6&output=html&source=placeapi_v2,,,,,,,,,,1,,,,,,,,87.630920573255,43.840653496824,0
5ad6df8a1344e3c74151c034,龙尚苑搏击俱乐部(南湖店),运动健身,体育场馆,新疆维吾尔自治区,乌鲁木齐市,水磨沟区,新疆维吾尔自治区乌鲁木齐市水磨沟区永安巷49号,5ad6df8a1344e3c74151c034,1,0,87.617075,43.846033,(0991)4850975,life,http://api.map.baidu.com/place/detail?uid=5ad6df8a1344e3c74151c034&output=html&source=placeapi_v2,,10:00-24:00,0,,,,,,,10,0,,,,,,,87.617022483395,43.846056160478,0
676952865025ab32f50e778e,桌球吧,运动健身,体育场馆,新疆维吾尔自治区,乌鲁木齐市,水磨沟区,新疆维吾尔自治区乌鲁木齐市水磨沟区培新小学(青田五巷西),676952865025ab32f50e778e,1,0,87.630263,43.837264,,life,http://api.map.baidu.com/place/detail?uid=676952865025ab32f50e778e&output=html&source=placeapi_v2,,,0,,,,,,,5,0,,,,,,,87.63048054441,43.837272630377,0
877573092c9b82eeb45f1e04,火箭台球厅(南湖北路店),运动健身,体育场馆,新疆维吾尔自治区,乌鲁木齐市,水磨沟区,新疆维吾尔自治区乌鲁木齐市水磨沟区南湖北路青新二巷259号,877573092c9b82eeb45f1e04,1,0,87.621174,43.836506,13899933711,life,http://api.map.baidu.com/place/detail?uid=877573092c9b82eeb45f1e04&output=html&source=placeapi_v2,,10:00-22:00,0,,,,,,,16,1,,,,,,,,,0
1288f8c2a4ff22cda4c75660,金星桌球娱乐有限公司,运动健身,体育场馆,新疆维吾尔自治区,乌鲁木齐市,水磨沟区,新疆维吾尔自治区乌鲁木齐市水磨沟区长青三巷17号,,1,0,87.629907,43.836208,,life,http://api.map.baidu.com/place/detail?uid=1288f8c2a4ff22cda4c75660&output=html&source=placeapi_v2,,10:00-22:00,,,,,,,,1,,,,,,,,,,0
a5055bfdf601c04688f15d75,亨力台球俱乐部,运动健身,体育场馆,新疆维吾尔自治区,乌鲁木齐市,水磨沟区,新疆维吾尔自治区乌鲁木齐市水磨沟区昆仑路南二巷226号负一楼,a5055bfdf601c04688f15d75,1,0,87.610095,43.841033,,life,http://api.map.baidu.com/place/detail?uid=a5055bfdf601c04688f15d75&output=html&source=placeapi_v2,,10:00-22:00,0.0,,,,,,,4,,,,,,,,,,0
c5e14a4f7f432cc23517dcdd,龙之影轮滑俱乐部,运动健身,体育场馆,新疆维吾尔自治区,乌鲁木齐市,水磨沟区,新疆维吾尔自治区乌鲁木齐市水磨沟区南湖北路480号金星大厦2楼,c5e14a4f7f432cc23517dcdd,1,0,87.612928,43.850473,15099503655,life,http://api.map.baidu.com/place/detail?uid=c5e14a4f7f432cc23517dcdd&output=html&source=placeapi_v2,,09:00-20:00,0,,,,,,,1,1,,,,,,,87.612892904515,43.850599068365,0
e3f445957964956cbbbd63d0,旋转人生桌球俱乐部,运动健身,体育场馆,新疆维吾尔自治区,乌鲁木齐市,水磨沟区,新疆维吾尔自治区乌鲁木齐市水磨沟区六道湾路103号,e3f445957964956cbbbd63d0,1,0,87.64238,43.839518,,life,http://api.map.baidu.com/place/detail?uid=e3f445957964956cbbbd63d0&output=html&source=placeapi_v2,,12:00-03:00,0,,,,,,,6,1,,,,,,,87.642617747333,43.839480960814,0
96112c21b9dcfc7ea2d2304b,国家级青少年体育俱乐部,运动健身,体育场馆,新疆维吾尔自治区,乌鲁木齐市,水磨沟区,乌鲁木齐市水磨沟区七道湾南路西二巷新疆生产建设兵团建工师第三中学,96112c21b9dcfc7ea2d2304b,1,0,87.649794,43.844471,,life,http://api.map.baidu.com/place/detail?uid=96112c21b9dcfc7ea2d2304b&output=html&source=placeapi_v2,,,,,,,,,,1,,,,,,,,,,0
46eb4efb5f039fe80d3dda41,八方台球厅,运动健身,体育场馆,新疆维吾尔自治区,乌鲁木齐市,水磨沟区,新疆维吾尔自治区乌鲁木齐市水磨沟区温泉西路15号综合楼负1层5-3室,46eb4efb5f039fe80d3dda41,1,0,87.643397,43.836405,15309917268,life,http://api.map.baidu.com/place/detail?uid=46eb4efb5f039fe80d3dda41&output=html&source=placeapi_v2,,11:00-02:00,,,,,,,,1,,,,,,,,,,0
199a9f3e8ce688114d55473a,西南台球俱乐部,运动健身,体育场馆,新疆维吾尔自治区,乌鲁木齐市,水磨沟区,新疆维吾尔自治区乌鲁木齐市水磨沟区昆仑路南一巷35号家园宾馆2楼,199a9f3e8ce688114d55473a,1,0,87.610668,43.842813,16609098040,life,http://api.map.baidu.com/place/detail?uid=199a9f3e8ce688114d55473a&output=html&source=placeapi_v2,,11:00-04:30,,,,,,,,1,,,,,,,,,,0
50364af5ea87d15c8b2fb5c8,铭仕台球厅(前程西二巷店),运动健身,体育场馆,新疆维吾尔自治区,乌鲁木齐市,水磨沟区,乌鲁木齐市水磨沟区昆仑路南二巷银春大酒店西南侧约70米,50364af5ea87d15c8b2fb5c8,1,0,87.609845,43.842598,13609946431,life,http://api.map.baidu.com/place/detail?uid=50364af5ea87d15c8b2fb5c8&output=html&source=placeapi_v2,,10:00-22:00,0.0,,,,,,,8,1,,,,,,,87.609937198577,43.842691399804,0
28786352ba3b95b8e31103e8,虬龙玩家俱乐部,运动健身,体育场馆,新疆维吾尔自治区,乌鲁木齐市,水磨沟区,乌鲁木齐市水磨沟区东一环路亚欧国际风情街,,1,0,87.633655,43.861103,13779000777,life,http://api.map.baidu.com/place/detail?uid=28786352ba3b95b8e31103e8&output=html&source=placeapi_v2,,11:00-20:30,,,,,,,,23,2,,,,,,,,,0
b455537d7079e91b8bdb730a,世界公元游泳馆,运动健身,体育场馆,新疆维吾尔自治区,乌鲁木齐市,水磨沟区,新疆维吾尔自治区乌鲁木齐市水磨沟区温泉东路123号世界公元二期2号,,1,0,87.667923,43.844607,(0991)6853666,life,http://api.map.baidu.com/place/detail?uid=b455537d7079e91b8bdb730a&output=html&source=placeapi_v2,,11:00-21:00,,,,,,,,5,4,,,,,,,87.667762778843,43.844635688757,0
f2f15ffb50d58af4631c67d9,新疆广汇篮球俱乐部有限公司,运动健身,体育场馆,新疆维吾尔自治区,乌鲁木齐市,水磨沟区,新疆维吾尔自治区乌鲁木齐市水磨沟区温泉东路136号,f2f15ffb50d58af4631c67d9,1,0,87.674871,43.840181,,life,http://api.map.baidu.com/place/detail?uid=f2f15ffb50d58af4631c67d9&output=html&source=placeapi_v2,,10:00-21:00,4,,,,,,,1,2,,,,,,,87.674647443475,43.840524587213,0
5c56edd613681d5ba1d2301b,维斯特滑雪场,运动健身,体育场馆,新疆维吾尔自治区,乌鲁木齐市,水磨沟区,新疆维吾尔自治区乌鲁木齐市水磨沟区温泉东路287号,,1,0,87.679861,43.849832,(0991)4886088,life,http://api.map.baidu.com/place/detail?uid=5c56edd613681d5ba1d2301b&output=html&source=placeapi_v2,,11:00-18:00,3.3,,,,,,,9,15,,,,,,,87.679361413388,43.84661406656,0
a8abaafd6200b19f14b54b86,陈家沟陈正雷太极拳馆(陈家沟陈正雷太极拳馆-乌鲁木齐分馆),运动健身,体育场馆,新疆维吾尔自治区,乌鲁木齐市,水磨沟区,新疆维吾尔自治区乌鲁木齐市水磨沟区水磨沟路327号,a8abaafd6200b19f14b54b86,1,0,87.664363,43.835841,15099215997,life,http://api.map.baidu.com/place/detail?uid=a8abaafd6200b19f14b54b86&output=html&source=placeapi_v2,,10:00-22:00,0,,,,,,,2,1,,,,,,,,,0
f4007fcc8f9ba3b8f1193707,铭仕桌球,运动健身,体育场馆,新疆维吾尔自治区,乌鲁木齐市,水磨沟区,乌鲁木齐市水磨沟区沿河路丽都国际西北侧约90米,,1,0,87.655185,43.847598,"13565858882,13999197238",life,http://api.map.baidu.com/place/detail?uid=f4007fcc8f9ba3b8f1193707&output=html&source=placeapi_v2,,,,,,,,,,2,,,,,,,,87.655464750937,43.847724021066,0
96112c21b9dcfc7ea2d2304b,国家级青少年体育俱乐部,运动健身,体育场馆,新疆维吾尔自治区,乌鲁木齐市,水磨沟区,乌鲁木齐市水磨沟区七道湾南路西二巷新疆生产建设兵团建工师第三中学,96112c21b9dcfc7ea2d2304b,1,0,87.649794,43.844471,,life,http://api.map.baidu.com/place/detail?uid=96112c21b9dcfc7ea2d2304b&output=html&source=placeapi_v2,,,,,,,,,,1,,,,,,,,,,0
c27527c91c9bc4c75d0d02d9,雪莲山高尔夫球场(乌鲁木齐店),运动健身,体育场馆,新疆维吾尔自治区,乌鲁木齐市,水磨沟区,新疆维吾尔自治区乌鲁木齐市水磨沟区温泉东路407号,,1,0,87.702157,43.847598,(0991)4681866,life,http://api.map.baidu.com/place/detail?uid=c27527c91c9bc4c75d0d02d9&output=html&source=placeapi_v2,,10:00-19:00,4.0,,,,,,,9,6,,,,,,,87.702252593049,43.854994474404,0
2e88963ae2c5fdad38221c80,台球厅,运动健身,体育场馆,新疆维吾尔自治区,乌鲁木齐市,水磨沟区,乌鲁木齐市水磨沟区温泉东路北四巷与温泉路高架交叉路口北侧,,1,0,87.700076,43.830337,,life,http://api.map.baidu.com/place/detail?uid=2e88963ae2c5fdad38221c80&output=html&source=placeapi_v2,,,,,,,,,,1,,,,,,,,87.700226496412,43.830277545555,0
aa7a9d2ea71b5c24ebf85349,新疆天山雪豹足球俱乐部,运动健身,体育场馆,新疆维吾尔自治区,乌鲁木齐市,水磨沟区,新疆维吾尔自治区乌鲁木齐市水磨沟区温泉东路858号,,1,0,87.693105,43.83204,(0991)4661828,life,http://api.map.baidu.com/place/detail?uid=aa7a9d2ea71b5c24ebf85349&output=html&source=placeapi_v2,,10:30-22:30,,,,,,,,1,,,,,,,,,,0
35debf29d1880a45a6da391a,西域马术俱乐部,运动健身,体育场馆,新疆维吾尔自治区,乌鲁木齐市,水磨沟区,乌鲁木齐市水磨沟区石人子沟中路,35debf29d1880a45a6da391a,1,0,87.790166,43.84257,,life,http://api.map.baidu.com/place/detail?uid=35debf29d1880a45a6da391a&output=html&source=placeapi_v2,,,0,,,,,,,1,0,,,,,,,,,0
2ad32cc341a3e78e9d95de55,乌西体育馆,运动健身,体育场馆,新疆维吾尔自治区,乌鲁木齐市,头屯河区,新疆维吾尔自治区乌鲁木齐市头屯河区中枢南路147号,2ad32cc341a3e78e9d95de55,1,0,87.430555,43.882613,(0991)7936443,life,http://api.map.baidu.com/place/detail?uid=2ad32cc341a3e78e9d95de55&output=html&source=placeapi_v2,,09:00-22:00,0.0,,,,,,,,0,,,,,,,87.431274533736,43.882003012333,0
0003199c417f64e842d63ed0,乌西老年体育馆,运动健身,体育场馆,新疆维吾尔自治区,乌鲁木齐市,头屯河区,新疆维吾尔自治区乌鲁木齐市头屯河区中枢南路24号,0003199c417f64e842d63ed0,1,0,87.430429,43.87787,(0991)7936123,life,http://api.map.baidu.com/place/detail?uid=0003199c417f64e842d63ed0&output=html&source=placeapi_v2,,,,,,,,,,,,,,,,,,,,0
d7fd2ad3a688d9550bccdd55,乌铁西游泳馆,运动健身,体育场馆,新疆维吾尔自治区,乌鲁木齐市,头屯河区,新疆维吾尔自治区乌鲁木齐市头屯河区中枢南路153号,d7fd2ad3a688d9550bccdd55,1,0,87.430994,43.882638,,life,http://api.map.baidu.com/place/detail?uid=d7fd2ad3a688d9550bccdd55&output=html&source=placeapi_v2,,,0,,,,,,,1,2,,,,,,,87.431096195703,43.882628110244,0
4a7316190f4a90b593114cbf,圆梦少林武术馆,运动健身,体育场馆,新疆维吾尔自治区,乌鲁木齐市,头屯河区,乌鲁木齐市头屯河区中枢北路致远景明西北侧约90米,,1,0,87.434328,43.887407,,life,http://api.map.baidu.com/place/detail?uid=4a7316190f4a90b593114cbf&output=html&source=placeapi_v2,,,,,,,,,,1,,,,,,,,,,0
00c12d74889aecedc9fa5f82,勒夫足球俱乐部,运动健身,体育场馆,新疆维吾尔自治区,乌鲁木齐市,头屯河区,乌鲁木齐市头屯河区祥云中街879号天然城市花园17栋3单元402室,,1,0,87.417741,43.866409,15009018061,life,http://api.map.baidu.com/place/detail?uid=00c12d74889aecedc9fa5f82&output=html&source=placeapi_v2,,,,,,,,,,1,,,,,,,,,,0
b6e09e764fb5085195ca0792,合武道武术馆,运动健身,体育场馆,新疆维吾尔自治区,乌鲁木齐市,头屯河区,新疆维吾尔自治区乌鲁木齐市头屯河区北站西路1305号,b6e09e764fb5085195ca0792,1,0,87.44813,43.879332,,life,http://api.map.baidu.com/place/detail?uid=b6e09e764fb5085195ca0792&output=html&source=placeapi_v2,,,,,,,,,,,,,,,,,,,,0
b74759bddd64c816c036445b,超音速8号球馆,运动健身,体育场馆,新疆维吾尔自治区,乌鲁木齐市,头屯河区,新疆乌鲁木齐市头屯河区泰山街280号,,1,0,87.503989,43.865915,18119123708,life,http://api.map.baidu.com/place/detail?uid=b74759bddd64c816c036445b&output=html&source=placeapi_v2,,12:00-23:30,,,,,,,,1,,,,,,,,,,0
4ac5b9dbed5069e5f942b281,小飞虎篮球馆,运动健身,体育场馆,新疆维吾尔自治区,乌鲁木齐市,新市区,北京路街道乌鲁木齐经济技术开发区街道石油新村中国石油天然气运输公司院内,4ac5b9dbed5069e5f942b281,1,0,87.525702,43.879058,,life,http://api.map.baidu.com/place/detail?uid=4ac5b9dbed5069e5f942b281&output=html&source=placeapi_v2,,10:30-23:00,0,,,,,,,,1,,,,,,,,,0
8a3cbe94f3969d4ccac3dbbc,旭峰传承跆拳道馆,运动健身,体育场馆,新疆维吾尔自治区,乌鲁木齐市,头屯河区,新疆维吾尔自治区乌鲁木齐市头屯河区迎宾路608号莱茵庄园d29栋,,1,0,87.502429,43.89469,15299175167,life,http://api.map.baidu.com/place/detail?uid=8a3cbe94f3969d4ccac3dbbc&output=html&source=placeapi_v2,,11:00-20:30,,,,,,,,10,1,,,,,,,87.50250546501,43.894597970707,0
bd0188319a0043a2eedfca62,新疆财经大学体育场,运动健身,体育场馆,新疆维吾尔自治区,乌鲁木齐市,新市区,新疆维吾尔自治区乌鲁木齐市新市区准噶尔路新疆财经大学,,1,0,87.554087,43.888799,,life,http://api.map.baidu.com/place/detail?uid=bd0188319a0043a2eedfca62&output=html&source=placeapi_v2,,10:00-21:00,,,,,,,,,,,,,,,,,,0
38b374b327ccbdd5b5f42fac,体育中心站,运动健身,体育场馆,新疆维吾尔自治区,乌鲁木齐市,新市区,乌鲁木齐市新市区北京中路新疆渡洲中医医院西侧约80米,38b374b327ccbdd5b5f42fac,1,0,87.561547,43.887417,,life,http://api.map.baidu.com/place/detail?uid=38b374b327ccbdd5b5f42fac&output=html&source=placeapi_v2,,,,,,,,,,1,,,,,,,,87.561365038216,43.887351538012,0
a21ecd47eb2835927e29bd01,红楼游泳馆,运动健身,体育场馆,新疆维吾尔自治区,乌鲁木齐市,新市区,新疆维吾尔自治区乌鲁木齐市新市区河南西路169号,a21ecd47eb2835927e29bd01,1,0,87.560651,43.875391,,life,http://api.map.baidu.com/place/detail?uid=a21ecd47eb2835927e29bd01&output=html&source=placeapi_v2,62,,2.4,,,,,,,13,19,,,,,,,87.560874310355,43.875459138846,0
8c07e6026f2715d62cb17e2f,火车头体育中心,运动健身,体育场馆,新疆维吾尔自治区,乌鲁木齐市,新市区,新疆维吾尔自治区乌鲁木齐市新市区河南西路181号,8c07e6026f2715d62cb17e2f,1,2,87.564611,43.876648,(0991)7686162,life,http://api.map.baidu.com/place/detail?uid=8c07e6026f2715d62cb17e2f&output=html&source=placeapi_v2,,"09:00-13:00,15:30-21:30",0,,,,,,,6,1,,,,,,,87.564494634632,43.876082337733,2
fd6b84340878120c94031987,铁路游泳训练中心,运动健身,体育场馆,新疆维吾尔自治区,乌鲁木齐市,新市区,新疆维吾尔自治区乌鲁木齐市新市区北一路29号,,1,0,87.56056,43.875447,(0991)7686208,life,http://api.map.baidu.com/place/detail?uid=fd6b84340878120c94031987&output=html&source=placeapi_v2,,12:00-21:30,3.7,,,,,,,3,46,,,,,,,87.560861504291,43.875450352754,0
7758af9366803c0f6318091f,华圣体育俱乐部,运动健身,体育场馆,新疆维吾尔自治区,乌鲁木齐市,头屯河区,新疆维吾尔自治区乌鲁木齐市头屯河区青岛路108号,,1,0,87.543922,43.885252,,life,http://api.map.baidu.com/place/detail?uid=7758af9366803c0f6318091f&output=html&source=placeapi_v2,,,,,,,,,,,,,,,,,,,,0
099fb298f460437d9de32174,星耀武术馆,运动健身,体育场馆,新疆维吾尔自治区,乌鲁木齐市,新市区,新疆维吾尔自治区乌鲁木齐市新市区太原南路610号和兴润园二期1号楼2楼,,1,0,87.553203,43.880664,17799321069,life,http://api.map.baidu.com/place/detail?uid=099fb298f460437d9de32174&output=html&source=placeapi_v2,,00:00-24:00,,,,,,,,,,,,,,,,,,0
21a81c87293a9ccf71210beb,射箭馆(友好时尚购物城店),运动健身,体育场馆,新疆维吾尔自治区,乌鲁木齐市,新市区,新疆维吾尔自治区乌鲁木齐市新市区西环北路1277号友好时尚购物城B1,,1,0,87.542682,43.866118,,life,http://api.map.baidu.com/place/detail?uid=21a81c87293a9ccf71210beb&output=html&source=placeapi_v2,,,,,,,,,,2,,,,,,,,87.543263068201,43.866248352341,0
746c3ee1a69467a890114ce5,华圣体育俱乐部跆拳道,运动健身,体育场馆,新疆维吾尔自治区,乌鲁木齐市,头屯河区,乌鲁木齐市头屯河区青岛路青岛路十号小区东侧约40米,,1,0,87.544094,43.885021,18240992338,life,http://api.map.baidu.com/place/detail?uid=746c3ee1a69467a890114ce5&output=html&source=placeapi_v2,,10:00-22:00,,,,,,,,2,,,,,,,,,,0
50ac7b6d101548897ab55cd5,新疆财经大学-篮球馆,运动健身,体育场馆,新疆维吾尔自治区,乌鲁木齐市,新市区,新疆维吾尔自治区乌鲁木齐市新市区北京中路449号,50ac7b6d101548897ab55cd5,1,0,87.555811,43.887808,,life,http://api.map.baidu.com/place/detail?uid=50ac7b6d101548897ab55cd5&output=html&source=placeapi_v2,,,0,,,,,,,2,2,,,,,,,87.555688830121,43.887903618385,0
65d9bc7e71cee539210262b0,枫叶盛世台球厅(厦门路),运动健身,体育场馆,新疆维吾尔自治区,乌鲁木齐市,头屯河区,新疆维吾尔自治区乌鲁木齐市头屯河区厦门路17号,65d9bc7e71cee539210262b0,1,0,87.538658,43.883772,,life,http://api.map.baidu.com/place/detail?uid=65d9bc7e71cee539210262b0&output=html&source=placeapi_v2,,11:00-24:00,5.0,,,,,,,2,,,,,,,,87.538677867096,43.883727359615,0
4771397ecff9ddf90bccddd8,扑食者台球俱乐部,运动健身,体育场馆,新疆维吾尔自治区,乌鲁木齐市,头屯河区,新疆乌鲁木齐市头屯河区中亚南路308号阿亚斯大厦负1层,4771397ecff9ddf90bccddd8,1,0,87.538133,43.883992,"13699958883,13899845130",life,http://api.map.baidu.com/place/detail?uid=4771397ecff9ddf90bccddd8&output=html&source=placeapi_v2,,00:00-24:00,0,,,,,,,,0,,,,,,,,,0
669775d05754395afd0eb056,红楼大酒店-羽毛球网球馆,运动健身,体育场馆,新疆维吾尔自治区,乌鲁木齐市,新市区,乌鲁木齐市新市区北一路19号,669775d05754395afd0eb056,1,0,87.560602,43.874917,13579985330,life,http://api.map.baidu.com/place/detail?uid=669775d05754395afd0eb056&output=html&source=placeapi_v2,,10:00-21:00,2.5,,,,,,,2,2,,,,,,,87.561027022292,43.87517970922,0
f628ca1b16936d4f04026fa3,LP台球俱乐部(中亚南路店),运动健身,体育场馆,新疆维吾尔自治区,乌鲁木齐市,头屯河区,乌鲁木齐市头屯河区中亚南路阿亚斯大厦,f628ca1b16936d4f04026fa3,1,0,87.538181,43.88403,,life,http://api.map.baidu.com/place/detail?uid=f628ca1b16936d4f04026fa3&output=html&source=placeapi_v2,,,,,,,,,,,,,,,,,,,,0
0b298795a918bb880ab93a7b,思萍泳业,运动健身,体育场馆,新疆维吾尔自治区,乌鲁木齐市,新市区,乌鲁木齐市新市区北一路乌鲁木齐市第七十九小学西侧约30米,,1,0,87.560661,43.87526,,life,http://api.map.baidu.com/place/detail?uid=0b298795a918bb880ab93a7b&output=html&source=placeapi_v2,,10:00-21:00,,,,,,,,1,,,,,,,,87.560923563009,43.875332702172,0
4ac5b9dbed5069e5f942b281,小飞虎篮球馆,运动健身,体育场馆,新疆维吾尔自治区,乌鲁木齐市,新市区,北京路街道乌鲁木齐经济技术开发区街道石油新村中国石油天然气运输公司院内,4ac5b9dbed5069e5f942b281,1,0,87.525702,43.879058,,life,http://api.map.baidu.com/place/detail?uid=4ac5b9dbed5069e5f942b281&output=html&source=placeapi_v2,,10:30-23:00,0,,,,,,,,1,,,,,,,,,0
d8d7a1128e91ee7b9a005003,义龙武术馆,运动健身,体育场馆,新疆维吾尔自治区,乌鲁木齐市,头屯河区,新疆维吾尔自治区乌鲁木齐市头屯河区喀什西路口岸路5号兴成商城1栋3层,d8d7a1128e91ee7b9a005003,1,0,87.536363,43.88702,(0991)8788618,life,http://api.map.baidu.com/place/detail?uid=d8d7a1128e91ee7b9a005003&output=html&source=placeapi_v2,,10:00-22:00,,,,,,,,1,,,,,,,,87.536575706673,43.887148787598,0
8d44e5b64530f178f503b841,汇禾桌球(友好时尚购物城店),运动健身,体育场馆,新疆维吾尔自治区,乌鲁木齐市,新市区,新疆维吾尔自治区乌鲁木齐市新市区西环北路1277号友好时尚购物城F6,,1,0,87.54262,43.865993,18999388808,life,http://api.map.baidu.com/place/detail?uid=8d44e5b64530f178f503b841&output=html&source=placeapi_v2,,11:00-03:00,,,,,,,,2,,,,,,,,87.543294471525,43.866250263218,0
fd007c5e1e8b356da8f72960,天源台球俱乐部,运动健身,体育场馆,新疆维吾尔自治区,乌鲁木齐市,新市区,新疆维吾尔自治区乌鲁木齐市新市区天汇路349号负1楼,fd007c5e1e8b356da8f72960,1,0,87.561636,43.87368,(0991)3655990,life,http://api.map.baidu.com/place/detail?uid=fd007c5e1e8b356da8f72960&output=html&source=placeapi_v2,,00:00-24:00,0,,,,,,,29,2,,,,,,,87.561763388471,43.873739369262,0
4d727cf550e5a13fdf1e520c,IFCA击剑俱乐部(友好时尚购物城店),运动健身,体育场馆,新疆维吾尔自治区,乌鲁木齐市,新市区,新疆维吾尔自治区乌鲁木齐市新市区西环北路1277号友好时尚购物城F6,,1,0,87.542538,43.865951,18690969500,life,http://api.map.baidu.com/place/detail?uid=4d727cf550e5a13fdf1e520c&output=html&source=placeapi_v2,,,,,,,,,,3,,,,,,,,87.543263068201,43.866248352341,0
674a1b0f94b4f2ebf52310d4,美术教育跆拳道,运动健身,体育场馆,新疆维吾尔自治区,乌鲁木齐市,新市区,乌鲁木齐市新市区南二路十四街住宅小区东北侧约30米,674a1b0f94b4f2ebf52310d4,1,0,87.565925,43.872795,,life,http://api.map.baidu.com/place/detail?uid=674a1b0f94b4f2ebf52310d4&output=html&source=placeapi_v2,,,,,,,,,,2,,,,,,,,,,0
313a5910e3af22b76ca3cc27,亚新跆拳道俱乐部,运动健身,体育场馆,新疆维吾尔自治区,乌鲁木齐市,头屯河区,新疆维吾尔自治区乌鲁木齐市头屯河区中亚北路66号,313a5910e3af22b76ca3cc27,1,0,87.532328,43.889378,13070090678,life,http://api.map.baidu.com/place/detail?uid=313a5910e3af22b76ca3cc27&output=html&source=placeapi_v2,,10:00-22:00,,,,,,,,3,,,,,,,,87.53221349896,43.889287438803,0
d3fdff844d653981be48421c,经开区韩意堂咏春拳馆,运动健身,体育场馆,新疆维吾尔自治区,乌鲁木齐市,头屯河区,新疆维吾尔自治区乌鲁木齐市头屯河区喀什西路670号2楼,d3fdff844d653981be48421c,1,0,87.5361,43.886995,(0991)3715363,life,http://api.map.baidu.com/place/detail?uid=d3fdff844d653981be48421c&output=html&source=placeapi_v2,,11:00-19:30,,,,,,,,,,,,,,,,,,0
1f84a016eb62d544725e80bd,天祥台球厅,运动健身,体育场馆,新疆维吾尔自治区,乌鲁木齐市,新市区,新疆维吾尔自治区乌鲁木齐市新市区江苏东路北一巷5号2楼,1f84a016eb62d544725e80bd,1,0,87.570406,43.880182,"(0991)7853226,13899946915",life,http://api.map.baidu.com/place/detail?uid=1f84a016eb62d544725e80bd&output=html&source=placeapi_v2,,11:00-03:00,0,,,,,,,6,1,,,,,,,87.570620337377,43.88029824066,0
5ad2f2d9b9593b6e9f09f749,铭仕台球俱乐部,运动健身,体育场馆,新疆维吾尔自治区,乌鲁木齐市,头屯河区,新疆维吾尔自治区乌鲁木齐市头屯河区龙海商务楼b座4楼,,1,0,87.5419,43.891916,"17716910147,18146934382",life,http://api.map.baidu.com/place/detail?uid=5ad2f2d9b9593b6e9f09f749&output=html&source=placeapi_v2,,11:30-02:00,,,,,,,,1,,,,,,,,87.541937378574,43.891851711842,0
45cf0bb5ae0b82ba3fe231ae,圣丹亚冰世界真冰场(友好时尚购物城店),运动健身,体育场馆,新疆维吾尔自治区,乌鲁木齐市,新市区,新疆维吾尔自治区乌鲁木齐市新市区西环北路1277号友好时尚购物城B1,,1,0,87.542418,43.866183,(0991)3776087,life,http://api.map.baidu.com/place/detail?uid=45cf0bb5ae0b82ba3fe231ae&output=html&source=placeapi_v2,,12:00-21:30,,,,,,,,3,,,,,,,,87.543263068201,43.866248352341,0
2912d808c81d966efb2213b8,陈家沟太极拳馆(二宫店),运动健身,体育场馆,新疆维吾尔自治区,乌鲁木齐市,新市区,新疆维吾尔自治区乌鲁木齐市新市区北京中路460号,2912d808c81d966efb2213b8,1,0,87.564728,43.88651,(0991)6668939,life,http://api.map.baidu.com/place/detail?uid=2912d808c81d966efb2213b8&output=html&source=placeapi_v2,,10:00-22:00,0.0,,,,,,,10,2,,,,,,,87.564752637047,43.886419638256,0
75b223aea43f491090114ccf,华润万家斯塔豪斯击剑俱乐部,运动健身,体育场馆,新疆维吾尔自治区,乌鲁木齐市,头屯河区,新疆乌鲁木齐市头屯河区经济技术开发区喀什西路499号龙海商务楼3楼3-01室,75b223aea43f491090114ccf,1,0,87.542527,43.892631,,life,http://api.map.baidu.com/place/detail?uid=75b223aea43f491090114ccf&output=html&source=placeapi_v2,,,,,,,,,,,,,,,,,,87.540585745075,43.891409745189,0
e4bb362a3b3038708b2fb50f,零点桌球俱乐部,运动健身,体育场馆,新疆维吾尔自治区,乌鲁木齐市,头屯河区,新疆维吾尔自治区乌鲁木齐市头屯河区中亚北路66号,,1,0,87.532714,43.888854,13579228381,life,http://api.map.baidu.com/place/detail?uid=e4bb362a3b3038708b2fb50f&output=html&source=placeapi_v2,,00:00-24:00,,,,,,,,3,1,,,,,,,,,0
0a8dbce9cd1814b51fe99906,体育中心北,运动健身,体育场馆,新疆维吾尔自治区,乌鲁木齐市,新市区,乌鲁木齐市新市区河北东路天合大厦北侧约40米,,1,0,87.569405,43.889279,,life,http://api.map.baidu.com/place/detail?uid=0a8dbce9cd1814b51fe99906&output=html&source=placeapi_v2,,,,,,,,,,,,,,,,,,,,0
f867a2623f0975b62fb17e9d,晟哲跆拳道馆,运动健身,体育场馆,新疆维吾尔自治区,乌鲁木齐市,新市区,新疆维吾尔自治区乌鲁木齐市新市区鲤鱼山南路1140号蓝调一品c区6号楼9号商铺,,1,0,87.594626,43.877488,18690193560,life,http://api.map.baidu.com/place/detail?uid=f867a2623f0975b62fb17e9d&output=html&source=placeapi_v2,,10:00-22:00,5,,,,,,,3,2,,,,,,,87.594084737462,43.877555245836,0
bda0171b8d93564081288adc,九州台球俱乐部,运动健身,体育场馆,新疆维吾尔自治区,乌鲁木齐市,新市区,乌鲁木齐市新市区长春南路天盈美特花园西侧,bda0171b8d93564081288adc,1,0,87.589966,43.880979,18699022989,life,http://api.map.baidu.com/place/detail?uid=bda0171b8d93564081288adc&output=html&source=placeapi_v2,,,,,,,,,,3,,,,,,,,87.589785343807,43.880962540233,0
2d07f7741a3ba050f8f0cb5b,NA健身运动馆(御园世家店),运动健身,体育场馆,新疆维吾尔自治区,乌鲁木齐市,新市区,乌鲁木齐市新市区鲤鱼山南路3076号路御园世家A区2层,2d07f7741a3ba050f8f0cb5b,1,0,87.601055,43.874724,13009610850,life,http://api.map.baidu.com/place/detail?uid=2d07f7741a3ba050f8f0cb5b&output=html&source=placeapi_v2,,12:30-22:30,4.8,,,,,,,,5,,,,,,,,,0
a530e1b13d69ec901df74d52,新派桌球会所,运动健身,体育场馆,新疆维吾尔自治区,乌鲁木齐市,新市区,乌鲁木齐市新市区天津南路西四巷博雅居,,1,0,87.582242,43.873276,,life,http://api.map.baidu.com/place/detail?uid=a530e1b13d69ec901df74d52&output=html&source=placeapi_v2,,,,,,,,,,5,,,,,,,,87.58220180692,43.873361664189,0
008bed70b11dba53dbecedc9,龙龙儿童运动馆,运动健身,体育场馆,新疆维吾尔自治区,乌鲁木齐市,新市区,新疆维吾尔自治区乌鲁木齐市新市区美居物流园B座3楼,008bed70b11dba53dbecedc9,1,0,87.586095,43.868216,15309949171,life,http://api.map.baidu.com/place/detail?uid=008bed70b11dba53dbecedc9&output=html&source=placeapi_v2,,10:00-22:00,,,,,,,,7,1,,,,,,,87.585550762714,43.867998565042,0
2418684949a3340933169b94,台球俱乐部,运动健身,体育场馆,新疆维吾尔自治区,乌鲁木齐市,新市区,乌鲁木齐市新市区长春南路商流苑商住小区南侧约170米,2418684949a3340933169b94,1,0,87.588953,43.872378,(0991)6677801,life,http://api.map.baidu.com/place/detail?uid=2418684949a3340933169b94&output=html&source=placeapi_v2,,,,,,,,,,1,,,,,,,,87.589088836611,43.87238605291,0
d6af9d4696e5ee7fb35c6ab0,磐石桌球健身棋牌(天津北路),运动健身,体育场馆,新疆维吾尔自治区,乌鲁木齐市,新市区,新疆维吾尔自治区乌鲁木齐市新市区天津北路162号A栋2层3号商铺,37ec10e5751ae1a978f796ad,1,0,87.581263,43.883651,(0991)3300333,life,http://api.map.baidu.com/place/detail?uid=d6af9d4696e5ee7fb35c6ab0&output=html&source=placeapi_v2,,00:00-24:00,5,,,,,,,14,2,,,,,,,,,0
8c07e6026f2715d62cb17e2f,火车头体育中心,运动健身,体育场馆,新疆维吾尔自治区,乌鲁木齐市,新市区,新疆维吾尔自治区乌鲁木齐市新市区河南西路181号,8c07e6026f2715d62cb17e2f,1,2,87.564611,43.876648,(0991)7686162,life,http://api.map.baidu.com/place/detail?uid=8c07e6026f2715d62cb17e2f&output=html&source=placeapi_v2,,"09:00-13:00,15:30-21:30",0,,,,,,,6,1,,,,,,,87.564494634632,43.876082337733,2
154ee3ca4cefaa5b343a7129,Z点台球俱乐部(河南东路店),运动健身,体育场馆,新疆维吾尔自治区,乌鲁木齐市,新市区,新疆维吾尔自治区乌鲁木齐市新市区河南东路244号,,1,0,87.590023,43.882042,(0991)6677729,life,http://api.map.baidu.com/place/detail?uid=154ee3ca4cefaa5b343a7129&output=html&source=placeapi_v2,,00:00-24:00,,,,,,,,3,,,,,,,,87.590110136584,43.882156309631,0
f41e842ae8ca522300ff2d3c,NA健身・运动馆(丝路店),运动健身,体育场馆,新疆维吾尔自治区,乌鲁木齐市,新市区,新疆维吾尔自治区乌鲁木齐市新市区昆明路158号野马国际2层,f41e842ae8ca522300ff2d3c,1,0,87.581874,43.862171,18609915499,life,http://api.map.baidu.com/place/detail?uid=f41e842ae8ca522300ff2d3c&output=html&source=placeapi_v2,,12:00-22:00,0,,,,,,,,0,,,,,,,87.581426843698,43.862187366118,0
033e23c0e64e55e7d6851fb4,新疆维吾尔自治区体育局体训练一大队,运动健身,体育场馆,新疆维吾尔自治区,乌鲁木齐市,新市区,新疆维吾尔自治区乌鲁木齐市新市区北京中路372号,,1,0,87.569175,43.883914,,life,http://api.map.baidu.com/place/detail?uid=033e23c0e64e55e7d6851fb4&output=html&source=placeapi_v2,,,,,,,,,,,,,,,,,,,,0
5f55bc0035f7981db6f42f35,飞鹰战术,运动健身,体育场馆,新疆维吾尔自治区,乌鲁木齐市,新市区,新疆维吾尔自治区乌鲁木齐市新市区天津北路东一巷62号,,1,0,87.579415,43.885048,,life,http://api.map.baidu.com/place/detail?uid=5f55bc0035f7981db6f42f35&output=html&source=placeapi_v2,,,,,,,,,,3,,,,,,,,,,0
7caf3ead3c20d99c30169bfb,大明桌球,运动健身,体育场馆,新疆维吾尔自治区,乌鲁木齐市,新市区,乌鲁木齐市新市区鲤鱼山南路金色嘉园小区向南150米同鑫网吧地下室,7caf3ead3c20d99c30169bfb,1,0,87.598491,43.877412,(0991)6660215,life,http://api.map.baidu.com/place/detail?uid=7caf3ead3c20d99c30169bfb&output=html&source=placeapi_v2,17,00:00-24:00,0,,,,,,,2,0,,,,,,,87.598389812721,43.877435346473,0
850b4cf7e1fb7a2325e0a0b8,奥新乒乓球俱乐部,运动健身,体育场馆,新疆维吾尔自治区,乌鲁木齐市,新市区,新疆维吾尔自治区乌鲁木齐市新市区鲤鱼山南路1140号金色嘉园小区1号楼,850b4cf7e1fb7a2325e0a0b8,1,0,87.599082,43.878402,,life,http://api.map.baidu.com/place/detail?uid=850b4cf7e1fb7a2325e0a0b8&output=html&source=placeapi_v2,,12:00-22:00,0.0,,,,,,,2,2,,,,,,,,,0
f6e8b91630155a57715e8034,世界人跆拳道馆,运动健身,体育场馆,新疆维吾尔自治区,乌鲁木齐市,水磨沟区,新疆维吾尔自治区乌鲁木齐市水磨沟区南湖北路1302号,9dea728dab0e261d94ec84a7,1,0,87.61084,43.876156,15739556504,life,http://api.map.baidu.com/place/detail?uid=f6e8b91630155a57715e8034&output=html&source=placeapi_v2,,,,,,,,,,2,,,,,,,,87.610617556934,43.876179164489,0
ae68c73a93676a0559bbbc3e,新疆工程学院-乒乓球馆,运动健身,体育场馆,新疆维吾尔自治区,乌鲁木齐市,新市区,新疆维吾尔自治区乌鲁木齐市新市区天津北路176号,,1,0,87.579396,43.885759,,life,http://api.map.baidu.com/place/detail?uid=ae68c73a93676a0559bbbc3e&output=html&source=placeapi_v2,,,,,,,,,,,,,,,,,,,,0
0c6a89ed21726556aeb22a46,华博跆拳道俱乐部,运动健身,体育场馆,新疆维吾尔自治区,乌鲁木齐市,新市区,新疆维吾尔自治区乌鲁木齐市新市区银鑫路466号御园世家商铺二楼,,1,0,87.601714,43.874928,18999209289,life,http://api.map.baidu.com/place/detail?uid=0c6a89ed21726556aeb22a46&output=html&source=placeapi_v2,,10:00-22:00,,,,,,,,11,2,,,,,,,,,0
105fe14a08c66469eb12e4f9,闪电街舞俱乐部(美居店),运动健身,体育场馆,新疆维吾尔自治区,乌鲁木齐市,新市区,新疆维吾尔自治区乌鲁木齐市新市区苏州东街辅路美居物流园b座4层,105fe14a08c66469eb12e4f9,1,0,87.58551,43.867982,18599007611,life,http://api.map.baidu.com/place/detail?uid=105fe14a08c66469eb12e4f9&output=html&source=placeapi_v2,,12:00-01:00,,,,,,,,,,,,,,,,87.585550762714,43.867998565042,0
1f84a016eb62d544725e80bd,天祥台球厅,运动健身,体育场馆,新疆维吾尔自治区,乌鲁木齐市,新市区,新疆维吾尔自治区乌鲁木齐市新市区江苏东路北一巷5号2楼,1f84a016eb62d544725e80bd,1,0,87.570406,43.880182,"(0991)7853226,13899946915",life,http://api.map.baidu.com/place/detail?uid=1f84a016eb62d544725e80bd&output=html&source=placeapi_v2,,11:00-03:00,0,,,,,,,6,1,,,,,,,87.570620337377,43.88029824066,0
674a1b0f94b4f2ebf52310d4,美术教育跆拳道,运动健身,体育场馆,新疆维吾尔自治区,乌鲁木齐市,新市区,乌鲁木齐市新市区南二路十四街住宅小区东北侧约30米,674a1b0f94b4f2ebf52310d4,1,0,87.565925,43.872795,,life,http://api.map.baidu.com/place/detail?uid=674a1b0f94b4f2ebf52310d4&output=html&source=placeapi_v2,,,,,,,,,,2,,,,,,,,,,0
85a9277ab0cfabbffe0eb04b,中国微时代俱乐部,运动健身,体育场馆,新疆维吾尔自治区,乌鲁木齐市,新市区,新疆乌鲁木齐市新市区北京南路556号京华杰座4楼417室,85a9277ab0cfabbffe0eb04b,1,0,87.574214,43.864941,13227785656,life,http://api.map.baidu.com/place/detail?uid=85a9277ab0cfabbffe0eb04b&output=html&source=placeapi_v2,,,0.0,,,,,,,1,,,,,,,,87.574141269988,43.864705364596,0
154fc0d5dfa2ae2e9d95de47,斯锐凯博健身游泳(绿城百合店),运动健身,体育场馆,新疆维吾尔自治区,乌鲁木齐市,水磨沟区,红光山路888号,,1,0,87.617636,43.879099,(0991)4615069,life,http://api.map.baidu.com/place/detail?uid=154fc0d5dfa2ae2e9d95de47&output=html&source=placeapi_v2,,10:00-22:00,4.5,,,,,,,1,10,,,,,,,,,0
b59bf4f44d9617f2aecb66d2,乌鲁木齐希尔顿酒店-游泳馆,运动健身,体育场馆,新疆维吾尔自治区,乌鲁木齐市,米东区,乌鲁木齐市米东区希尔顿酒店3楼,b59bf4f44d9617f2aecb66d2,1,0,87.621351,43.88238,(0991)7838888,life,http://api.map.baidu.com/place/detail?uid=b59bf4f44d9617f2aecb66d2&output=html&source=placeapi_v2,,08:00-23:00,,,,,,,,1,,,,,,,,,,0
f6e8b91630155a57715e8034,世界人跆拳道馆,运动健身,体育场馆,新疆维吾尔自治区,乌鲁木齐市,水磨沟区,新疆维吾尔自治区乌鲁木齐市水磨沟区南湖北路1302号,9dea728dab0e261d94ec84a7,1,0,87.61084,43.876156,15739556504,life,http://api.map.baidu.com/place/detail?uid=f6e8b91630155a57715e8034&output=html&source=placeapi_v2,,,,,,,,,,2,,,,,,,,87.610617556934,43.876179164489,0
d0dacdf5cf9d4673eedfca57,圣丹亚・凯越羽毛球俱乐部,运动健身,体育场馆,新疆维吾尔自治区,乌鲁木齐市,水磨沟区,新疆维吾尔自治区乌鲁木齐市水磨沟区红光山路3号,,1,0,87.630268,43.886468,(0991)4629880,life,http://api.map.baidu.com/place/detail?uid=d0dacdf5cf9d4673eedfca57&output=html&source=placeapi_v2,,12:00-23:00,0,,,,,,,1,1,,,,,,,87.630932910583,43.886464646036,0
28786352ba3b95b8e31103e8,虬龙玩家俱乐部,运动健身,体育场馆,新疆维吾尔自治区,乌鲁木齐市,水磨沟区,乌鲁木齐市水磨沟区东一环路亚欧国际风情街,,1,0,87.633655,43.861103,13779000777,life,http://api.map.baidu.com/place/detail?uid=28786352ba3b95b8e31103e8&output=html&source=placeapi_v2,,11:00-20:30,,,,,,,,23,2,,,,,,,,,0
54c3a4b8bfecf80c6240a949,南湖创造121羽毛球馆,运动健身,体育场馆,新疆维吾尔自治区,乌鲁木齐市,水磨沟区,新疆维吾尔自治区乌鲁木齐市水磨沟区七道湾南路1247号,,1,0,87.651982,43.870714,(0991)5163888,life,http://api.map.baidu.com/place/detail?uid=54c3a4b8bfecf80c6240a949&output=html&source=placeapi_v2,,10:00-22:00,0,,,,,,,1,1,,,,,,,87.651443647208,43.870449722807,0
4406365891f4b26d81288a7c,浩宇桌球俱乐部,运动健身,体育场馆,新疆维吾尔自治区,乌鲁木齐市,水磨沟区,新疆维吾尔自治区乌鲁木齐市水磨沟区创业路南六巷山水雅苑b区9号负1楼,,1,0,87.664969,43.892739,17799655000,life,http://api.map.baidu.com/place/detail?uid=4406365891f4b26d81288a7c&output=html&source=placeapi_v2,,10:00-22:00,,,,,,,,,,,,,,,,87.665157356538,43.892698388802,0
5d23f3b03873f99933169b67,5445运动工场,运动健身,体育场馆,新疆维吾尔自治区,乌鲁木齐市,新市区,新疆维吾尔自治区乌鲁木齐市新市区友谊路230号,5d23f3b03873f99933169b67,1,0,87.524479,43.905546,(0991)3795445,life,http://api.map.baidu.com/place/detail?uid=5d23f3b03873f99933169b67&output=html&source=placeapi_v2,,09:30-23:00,0,,,,,,,7,0,,,,,,,87.524905527574,43.905335785965,0
ce77faedeb30e7fc2fb17e59,西域武道蓝精灵跆拳道馆,运动健身,体育场馆,新疆维吾尔自治区,乌鲁木齐市,新市区,新疆维吾尔自治区乌鲁木齐市新市区迎宾路航空嘉园3-8蓝精灵艺术培训中心内,,1,0,87.495447,43.910024,15739570102,life,http://api.map.baidu.com/place/detail?uid=ce77faedeb30e7fc2fb17e59&output=html&source=placeapi_v2,,,,,,,,,,,,,,,,,,,,0
4c6a24709f83117d8605bfbc,地窝堡铁路文体馆,运动健身,体育场馆,新疆维吾尔自治区,乌鲁木齐市,新市区,新疆维吾尔自治区乌鲁木齐市新市区轻铁路149号a1小区33栋3单元,,1,0,87.509486,43.900273,,life,http://api.map.baidu.com/place/detail?uid=4c6a24709f83117d8605bfbc&output=html&source=placeapi_v2,,,0.0,,,,,,,1,0,,,,,,,87.509942633703,43.900123934737,0
0e7c90cc301424b076e5b6de,球动力台球厅,运动健身,体育场馆,新疆维吾尔自治区,乌鲁木齐市,新市区,友谊路闽龙建材城230号1001室,,1,0,87.525338,43.907402,15099181815,life,http://api.map.baidu.com/place/detail?uid=0e7c90cc301424b076e5b6de&output=html&source=placeapi_v2,,08:00-03:00,,,,,,,,1,,,,,,,,87.525207989016,43.907371668406,0
a1d777fcfd51c2bef219373d,新星台球厅,运动健身,体育场馆,新疆维吾尔自治区,乌鲁木齐市,新市区,新疆维吾尔自治区乌鲁木齐市新市区迎宾路1341号民航综合服务楼南区负1层,,1,0,87.491414,43.903515,,life,http://api.map.baidu.com/place/detail?uid=a1d777fcfd51c2bef219373d&output=html&source=placeapi_v2,,10:00-22:00,,,,,,,,1,,,,,,,,87.491495264321,43.903565289909,0
e281b2c327acf89c43afe604,星星台球会所,运动健身,体育场馆,新疆维吾尔自治区,乌鲁木齐市,新市区,新疆维吾尔自治区乌鲁木齐市新市区迎宾路1341号民航综合服务楼负1楼,e281b2c327acf89c43afe604,1,0,87.490996,43.90345,,life,http://api.map.baidu.com/place/detail?uid=e281b2c327acf89c43afe604&output=html&source=placeapi_v2,,10:00-22:00,0,,,,,,,2,1,,,,,,,,,0
8a3cbe94f3969d4ccac3dbbc,旭峰传承跆拳道馆,运动健身,体育场馆,新疆维吾尔自治区,乌鲁木齐市,头屯河区,新疆维吾尔自治区乌鲁木齐市头屯河区迎宾路608号莱茵庄园d29栋,,1,0,87.502429,43.89469,15299175167,life,http://api.map.baidu.com/place/detail?uid=8a3cbe94f3969d4ccac3dbbc&output=html&source=placeapi_v2,,11:00-20:30,,,,,,,,10,1,,,,,,,87.50250546501,43.894597970707,0
677856b47698a0fa45e27414,恋尚台球厅,运动健身,体育场馆,新疆维吾尔自治区,乌鲁木齐市,新市区,乌鲁木齐市新市区北京北路格林豪泰北侧,677856b47698a0fa45e27414,1,0,87.544359,43.912043,18016863631,life,http://api.map.baidu.com/place/detail?uid=677856b47698a0fa45e27414&output=html&source=placeapi_v2,,,,,,,,,,1,,,,,,,,87.544257061035,43.911955732247,0
5d23f3b03873f99933169b67,5445运动工场,运动健身,体育场馆,新疆维吾尔自治区,乌鲁木齐市,新市区,新疆维吾尔自治区乌鲁木齐市新市区友谊路230号,5d23f3b03873f99933169b67,1,0,87.524479,43.905546,(0991)3795445,life,http://api.map.baidu.com/place/detail?uid=5d23f3b03873f99933169b67&output=html&source=placeapi_v2,,09:30-23:00,0,,,,,,,7,0,,,,,,,87.524905527574,43.905335785965,0
970a0aa2daf9128ff13cbaec,悠扬台球俱乐部,运动健身,体育场馆,新疆维吾尔自治区,乌鲁木齐市,新市区,乌鲁木齐市新市区北京北路宜尚酒店(乌鲁木齐国际机场新天润店)东侧约80米,,1,0,87.539985,43.920847,13325627111,life,http://api.map.baidu.com/place/detail?uid=970a0aa2daf9128ff13cbaec&output=html&source=placeapi_v2,,10:00-04:00,,,,,,,,2,,,,,,,,,,0
d7ffaf7eb86ddaa8f8dc85a1,第五个季节台球厅,运动健身,体育场馆,新疆维吾尔自治区,乌鲁木齐市,新市区,新疆维吾尔自治区乌鲁木齐市新市区百园路88号,d7ffaf7eb86ddaa8f8dc85a1,1,0,87.551184,43.917306,(0991)3720121,life,http://api.map.baidu.com/place/detail?uid=d7ffaf7eb86ddaa8f8dc85a1&output=html&source=placeapi_v2,-1,10:00-22:00,5,,,,,,,9,2,,,,,,,87.551220424685,43.917426836484,0
47e0324f754c5050b2077d37,威霸桌球,运动健身,体育场馆,新疆维吾尔自治区,乌鲁木齐市,新市区,新疆维吾尔自治区乌鲁木齐市新市区百园路88号,,1,0,87.551143,43.916786,15292588988,life,http://api.map.baidu.com/place/detail?uid=47e0324f754c5050b2077d37&output=html&source=placeapi_v2,,,,,,,,,,4,,,,,,,,87.55124676444,43.916735100111,0
0e7c90cc301424b076e5b6de,球动力台球厅,运动健身,体育场馆,新疆维吾尔自治区,乌鲁木齐市,新市区,友谊路闽龙建材城230号1001室,,1,0,87.525338,43.907402,15099181815,life,http://api.map.baidu.com/place/detail?uid=0e7c90cc301424b076e5b6de&output=html&source=placeapi_v2,,08:00-03:00,,,,,,,,1,,,,,,,,87.525207989016,43.907371668406,0
4ee5d3f5f01ef5f33f9a5e7f,黑豹竞速(植物园店),运动健身,体育场馆,新疆维吾尔自治区,乌鲁木齐市,新市区,新疆维吾尔自治区乌鲁木齐市新市区喀什东路1399号居然之家7楼,,1,0,87.556406,43.897277,(0991)6632199,life,http://api.map.baidu.com/place/detail?uid=4ee5d3f5f01ef5f33f9a5e7f&output=html&source=placeapi_v2,,10:00-23:30,,,,,,,,,1,,,,,,,,,0
8102bb00c3db2e56c27da239,乌鲁木齐西域武道益宝贝跆拳道馆,运动健身,体育场馆,新疆维吾尔自治区,乌鲁木齐市,新市区,乌鲁木齐新市区迎宾路与安宁渠路交叉口公交小区内,,1,0,87.532018,43.90468,15739570102,life,http://api.map.baidu.com/place/detail?uid=8102bb00c3db2e56c27da239&output=html&source=placeapi_v2,,,,,,,,,,,,,,,,,,,,0
ac8a8af81a0c1ee325e0a008,云尚台球俱乐部,运动健身,体育场馆,新疆维吾尔自治区,乌鲁木齐市,新市区,新疆维吾尔自治区乌鲁木齐市新市区北京北路83号,ac8a8af81a0c1ee325e0a008,1,0,87.553028,43.897795,13899878663,life,http://api.map.baidu.com/place/detail?uid=ac8a8af81a0c1ee325e0a008&output=html&source=placeapi_v2,,10:00-22:00,,,,,,,,5,,,,,,,,87.553427773952,43.897964439038,0
bd551e6e85b7550b83a00c4a,双鱼乒乓球,运动健身,体育场馆,新疆维吾尔自治区,乌鲁木齐市,新市区,新疆维吾尔自治区乌鲁木齐市新市区喀什东路1399号,,1,0,87.556414,43.897132,18399691577,life,http://api.map.baidu.com/place/detail?uid=bd551e6e85b7550b83a00c4a&output=html&source=placeapi_v2,,12:00-23:00,,,,,,,,4,,,,,,,,87.556485342255,43.896933749742,0
75b223aea43f491090114ccf,华润万家斯塔豪斯击剑俱乐部,运动健身,体育场馆,新疆维吾尔自治区,乌鲁木齐市,头屯河区,新疆乌鲁木齐市头屯河区经济技术开发区喀什西路499号龙海商务楼3楼3-01室,75b223aea43f491090114ccf,1,0,87.542527,43.892631,,life,http://api.map.baidu.com/place/detail?uid=75b223aea43f491090114ccf&output=html&source=placeapi_v2,,,,,,,,,,,,,,,,,,87.540585745075,43.891409745189,0
e0b3d79e3a066b4cc6effb87,奔跑者乒乓球馆,运动健身,体育场馆,新疆维吾尔自治区,乌鲁木齐市,新市区,新疆维吾尔自治区乌鲁木齐市新市区喀什东路257号联汇市场2楼,,1,0,87.591749,43.910551,13109968089,life,http://api.map.baidu.com/place/detail?uid=e0b3d79e3a066b4cc6effb87&output=html&source=placeapi_v2,,11:00-21:00,,,,,,,,1,,,,,,,,,,0
eb14d649d8c0982f841541ff,旭峰跆拳道馆,运动健身,体育场馆,新疆维吾尔自治区,乌鲁木齐市,新市区,新疆维吾尔自治区乌鲁木齐市新市区喀什东路257号金鑫花园一期13号商铺,,1,0,87.599977,43.914643,"(0991)6668369,13579265775",life,http://api.map.baidu.com/place/detail?uid=eb14d649d8c0982f841541ff&output=html&source=placeapi_v2,,,,,,,,,,2,,,,,,,,,,0
16ac67c16995aa0c4afd3fcf,大亨铭仕桌球俱乐部,运动健身,体育场馆,新疆维吾尔自治区,乌鲁木齐市,新市区,新疆维吾尔自治区乌鲁木齐市新市区唐山路20号,,1,0,87.576637,43.906533,13999122840,life,http://api.map.baidu.com/place/detail?uid=16ac67c16995aa0c4afd3fcf&output=html&source=placeapi_v2,,10:00-22:00,,,,,,,,5,,,,,,,,,,0
4b3885166c0c3fab48cc4a04,射手座台球俱乐部,运动健身,体育场馆,新疆维吾尔自治区,乌鲁木齐市,新市区,新疆维吾尔自治区乌鲁木齐市新市区唐山路粮校市场3楼,,1,0,87.576515,43.906035,15199102022,life,http://api.map.baidu.com/place/detail?uid=4b3885166c0c3fab48cc4a04&output=html&source=placeapi_v2,,10:00-22:00,,,,,,,,7,,,,,,,,,,0
91d8cc0b4ec9d87b2bd7ab56,铭仕台球(宁波街北十巷店),运动健身,体育场馆,新疆维吾尔自治区,乌鲁木齐市,新市区,乌鲁木齐市新市区宁波街北十巷乌鲁木齐丽嘉印象快捷宾馆西侧约140米,91d8cc0b4ec9d87b2bd7ab56,1,0,87.579807,43.925651,,life,http://api.map.baidu.com/place/detail?uid=91d8cc0b4ec9d87b2bd7ab56&output=html&source=placeapi_v2,,,,,,,,,,1,,,,,,,,,,0
28d1bb7d7cee22892202203c,非池中台球,运动健身,体育场馆,新疆维吾尔自治区,乌鲁木齐市,新市区,新疆维吾尔自治区乌鲁木齐市新市区河北东路246号国秀家园负1层3-001室,28d1bb7d7cee22892202203c,1,0,87.596987,43.893897,18140951958,life,http://api.map.baidu.com/place/detail?uid=28d1bb7d7cee22892202203c&output=html&source=placeapi_v2,,10:00-22:00,,,,,,,,2,,,,,,,,87.596958753384,43.893995192352,0
15dc7ee6da54860e0f0e6ba0,乌鲁木齐奥林匹克体育中心,运动健身,体育场馆,新疆维吾尔自治区,乌鲁木齐市,米东区,新疆维吾尔自治区乌鲁木齐市米东区会展大道4000号,15dc7ee6da54860e0f0e6ba0,1,2,87.638406,43.903832,"(0991)6881777,17726794335",life,http://api.map.baidu.com/place/detail?uid=15dc7ee6da54860e0f0e6ba0&output=html&source=placeapi_v2,,00:00-24:00,5,,,,,,,4,5,,,,,,,87.635228112655,43.903395226139,2
e1f9eb6e28b747302cb96d3a,乌鲁木齐奥林匹克体育中心体育场,运动健身,体育场馆,新疆维吾尔自治区,乌鲁木齐市,水磨沟区,乌鲁木齐市水磨沟区卡子湾西街(乌鲁木齐奥林匹克体育中心),,1,0,87.643816,43.903772,,life,http://api.map.baidu.com/place/detail?uid=e1f9eb6e28b747302cb96d3a&output=html&source=placeapi_v2,,,,,,,,,,,,,,,,,,,,0
d0637336ea4592c5c51b759a,新疆轻工职业技术学院-体育馆,运动健身,体育场馆,新疆维吾尔自治区,乌鲁木齐市,米东区,乌鲁木齐市米东区米东南路3906号,d0637336ea4592c5c51b759a,1,0,87.63475,43.92442,(0991)6866783,life,http://api.map.baidu.com/place/detail?uid=d0637336ea4592c5c51b759a&output=html&source=placeapi_v2,,09:00-18:00,0,,,,,,,1,3,,,,,,,87.63597313275,43.924652687977,0
79a5b74e3f4fb743213bf2aa,畅羽羽毛球馆,运动健身,体育场馆,新疆维吾尔自治区,乌鲁木齐市,米东区,新疆维吾尔自治区乌鲁木齐市米东区米东南路892号,79a5b74e3f4fb743213bf2aa,1,0,87.628011,43.913765,(0991)6850112,life,http://api.map.baidu.com/place/detail?uid=79a5b74e3f4fb743213bf2aa&output=html&source=placeapi_v2,,11:00-23:00,,,,,,,,4,,,,,,,,,,0
4def7dddecb4ee0307fef5c5,乌鲁木齐奥林匹克体育中心-综合体育馆,运动健身,体育场馆,新疆维吾尔自治区,乌鲁木齐市,米东区,新疆维吾尔自治区乌鲁木齐市米东区会展大道4000号,,1,0,87.638103,43.904174,,life,http://api.map.baidu.com/place/detail?uid=4def7dddecb4ee0307fef5c5&output=html&source=placeapi_v2,,,,,,,,,,,,,,,,,,,,0
dc2edea7a9af6af7da2f28fb,乌鲁木齐奥林匹克体育中心游泳馆,运动健身,体育场馆,新疆维吾尔自治区,乌鲁木齐市,米东区,新疆维吾尔自治区乌鲁木齐市米东区会展大道4000号,,1,0,87.63966,43.902207,(0991)6886100,life,http://api.map.baidu.com/place/detail?uid=dc2edea7a9af6af7da2f28fb&output=html&source=placeapi_v2,,11:00-23:00,,,,,,,,1,,,,,,,,,,0
542d1d2c00d114e09a0050ca,穹顶运动体验馆(乌市红光山街红光山景区),运动健身,体育场馆,新疆维吾尔自治区,乌鲁木齐市,米东区,乌鲁木齐市米东区红光山路1号(红光山景区内蓝光湖北侧),,1,0,87.62363,43.904522,"(0991)6635586,13319882356",life,http://api.map.baidu.com/place/detail?uid=542d1d2c00d114e09a0050ca&output=html&source=placeapi_v2,,10:30-22:00,5,,,,,,,3,3,,,,,,,87.62431264547,43.905058205738,0
a8e84f8a9858ec5fa8059d6b,乌鲁木齐奥林匹克体育中心田径馆,运动健身,体育场馆,新疆维吾尔自治区,乌鲁木齐市,米东区,新疆维吾尔自治区乌鲁木齐市米东区会展大道乌鲁木齐奥林匹克体育中心内,,1,0,87.641463,43.902336,13619918716,life,http://api.map.baidu.com/place/detail?uid=a8e84f8a9858ec5fa8059d6b&output=html&source=placeapi_v2,,10:00-22:00,,,,,,,,,,,,,,,,,,0
261d8a5a89ea70938f1a89b2,乌鲁木齐奥林匹克体育中心-训练馆,运动健身,体育场馆,新疆维吾尔自治区,乌鲁木齐市,米东区,新疆维吾尔自治区乌鲁木齐市米东区会展大道4000号乌鲁木齐奥林匹克体育中心1楼,,1,0,87.636688,43.903115,13619918716,life,http://api.map.baidu.com/place/detail?uid=261d8a5a89ea70938f1a89b2&output=html&source=placeapi_v2,,10:00-22:00,,,,,,,,,,,,,,,,,,0
2e4e9283f162aee41b94c677,乌鲁木齐奥林匹克体育中心-篮球公园,运动健身,体育场馆,新疆维吾尔自治区,乌鲁木齐市,米东区,乌鲁木齐市米东区会展大道4000号乌鲁木齐奥林匹克体育中心,,1,0,87.63814,43.903789,(0991)6881777,life,http://api.map.baidu.com/place/detail?uid=2e4e9283f162aee41b94c677&output=html&source=placeapi_v2,,,,,,,,,,,,,,,,,,,,0
359ad2582cedbcbf40afe6f6,圣丹亚健身俱乐部(卡子湾店),运动健身,体育场馆,新疆维吾尔自治区,乌鲁木齐市,米东区,新疆维吾尔自治区乌鲁木齐市米东区米东南路3906号,359ad2582cedbcbf40afe6f6,1,0,87.634787,43.924533,(0991)8897632,life,http://api.map.baidu.com/place/detail?uid=359ad2582cedbcbf40afe6f6&output=html&source=placeapi_v2,,12:00-21:30,4.5,,,,,,,58,4,,,,,,,87.635660854716,43.924207513166,0
e83da39b66b7e56d167643cb,乌鲁木齐奥林匹克体育中心-极潮商业街,运动健身,体育场馆,新疆维吾尔自治区,乌鲁木齐市,米东区,乌鲁木齐市米东区会展大道4000号乌鲁木齐奥林匹克体育中心,,1,0,87.637888,43.902841,,life,http://api.map.baidu.com/place/detail?uid=e83da39b66b7e56d167643cb&output=html&source=placeapi_v2,,,,,,,,,,,,,,,,,,,,0
4406365891f4b26d81288a7c,浩宇桌球俱乐部,运动健身,体育场馆,新疆维吾尔自治区,乌鲁木齐市,水磨沟区,新疆维吾尔自治区乌鲁木齐市水磨沟区创业路南六巷山水雅苑b区9号负1楼,,1,0,87.664969,43.892739,17799655000,life,http://api.map.baidu.com/place/detail?uid=4406365891f4b26d81288a7c&output=html&source=placeapi_v2,,10:00-22:00,,,,,,,,,,,,,,,,87.665157356538,43.892698388802,0
557e6db25857500714948e46,天山丽都滑雪场,运动健身,体育场馆,新疆维吾尔自治区,乌鲁木齐市,米东区,新疆维吾尔自治区乌鲁木齐市米东区铁厂沟镇峡门子旅游风景区,,1,0,87.85853,43.914745,18690982589,life,http://api.map.baidu.com/place/detail?uid=557e6db25857500714948e46&output=html&source=placeapi_v2,,11:00-18:00,3.9,,,,,,,8,51,,,,,,,87.862268321181,43.916538148591,0
3faea70ef756447e1e580066,兄弟桌球,运动健身,体育场馆,新疆维吾尔自治区,乌鲁木齐市,头屯河区,新疆维吾尔自治区乌鲁木齐市头屯河区兵团十二师三坪农场2楼,3faea70ef756447e1e580066,1,0,87.343392,43.953104,,life,http://api.map.baidu.com/place/detail?uid=3faea70ef756447e1e580066&output=html&source=placeapi_v2,,,,,,,,,,2,,,,,,,,87.343382850721,43.953009099443,0
a0a3076ea9b4e336f6c59ccf,大光华国际学校运动场,运动健身,体育场馆,新疆维吾尔自治区,乌鲁木齐市,新市区,乌鲁木齐市新市区新疆大光华国际学校,,1,0,87.451272,43.935266,,life,http://api.map.baidu.com/place/detail?uid=a0a3076ea9b4e336f6c59ccf&output=html&source=placeapi_v2,,,2.0,,,,,,,1,2,,,,,,,,,0
91d8cc0b4ec9d87b2bd7ab56,铭仕台球(宁波街北十巷店),运动健身,体育场馆,新疆维吾尔自治区,乌鲁木齐市,新市区,乌鲁木齐市新市区宁波街北十巷乌鲁木齐丽嘉印象快捷宾馆西侧约140米,91d8cc0b4ec9d87b2bd7ab56,1,0,87.579807,43.925651,,life,http://api.map.baidu.com/place/detail?uid=91d8cc0b4ec9d87b2bd7ab56&output=html&source=placeapi_v2,,,,,,,,,,1,,,,,,,,,,0
693c30183cb1b0b8ea12e465,上方俱乐部,运动健身,体育场馆,新疆维吾尔自治区,乌鲁木齐市,米东区,新疆维吾尔自治区乌鲁木齐市米东区米东南路29号,693c30183cb1b0b8ea12e465,1,0,87.634546,43.932739,13999918461,life,http://api.map.baidu.com/place/detail?uid=693c30183cb1b0b8ea12e465&output=html&source=placeapi_v2,,,,,,,,,,8,,,,,,,,,,0
f275ff6288e3eec94afc8dfc,乌鲁木齐市枭雄赛鸽俱乐部,运动健身,体育场馆,新疆维吾尔自治区,乌鲁木齐市,米东区,新疆维吾尔自治区乌鲁木齐市米东区东祥路西六巷11号,f275ff6288e3eec94afc8dfc,1,0,87.68582,43.956004,13579990909,life,http://api.map.baidu.com/place/detail?uid=f275ff6288e3eec94afc8dfc&output=html&source=placeapi_v2,,,,,,,,,,,,,,,,,,87.685870378987,43.955973405465,0
4ec077efe702515d42afe678,BF球场,运动健身,体育场馆,新疆维吾尔自治区,乌鲁木齐市,米东区,新疆维吾尔自治区乌鲁木齐市米东区米东中路东四巷,4ec077efe702515d42afe678,1,0,87.665473,43.957398,(0991)6657687,life,http://api.map.baidu.com/place/detail?uid=4ec077efe702515d42afe678&output=html&source=placeapi_v2,,10:00-00:00,1,,,,,,,,1,,,,,,,87.665559438713,43.957556516471,0
b2fa8194a5b360be25d2bb0f,乌鲁木齐箭洪台球桌,运动健身,体育场馆,新疆维吾尔自治区,乌鲁木齐市,米东区,新疆维吾尔自治区乌鲁木齐市米东区米东中路益民西街,,1,0,87.695391,43.943254,13579849296,life,http://api.map.baidu.com/place/detail?uid=b2fa8194a5b360be25d2bb0f&output=html&source=placeapi_v2,,00:00-24:00,,,,,,,,,,,,,,,,,,0
68639c7b92c7fb7043e192aa,黑色撞击台球厅,运动健身,体育场馆,新疆维吾尔自治区,乌鲁木齐市,新市区,乌鲁木齐市新市区S102安宁渠村,68639c7b92c7fb7043e192aa,1,0,87.501298,43.986363,18290805646,life,http://api.map.baidu.com/place/detail?uid=68639c7b92c7fb7043e192aa&output=html&source=placeapi_v2,,,,,,,,,,4,,,,,,,,87.501300279204,43.986297147336,0
f5ff314bf579fb401b11d512,鑫旺台球厅,运动健身,体育场馆,新疆维吾尔自治区,乌鲁木齐市,新市区,乌鲁木齐市新市区安北一街安宁渠村,,1,0,87.504397,43.988664,18999861206,life,http://api.map.baidu.com/place/detail?uid=f5ff314bf579fb401b11d512&output=html&source=placeapi_v2,,11:00-02:00,,,,,,,,1,,,,,,,,87.50447231247,43.988586058665,0
630158612f288960b020a83a,奥威莱克体育运动中心,运动健身,体育场馆,新疆维吾尔自治区,乌鲁木齐市,米东区,乌鲁木齐市米东区府前西路与振兴北路交叉口向西100米,,1,0,87.626955,43.981593,(0991)3378333,life,http://api.map.baidu.com/place/detail?uid=630158612f288960b020a83a&output=html&source=placeapi_v2,,,5.0,,,,,,,,1,,,,,,,,,0
97ec472ead1585424afd3f30,篮球场,运动健身,体育场馆,新疆维吾尔自治区,乌鲁木齐市,米东区,新疆维吾尔自治区乌鲁木齐市米东区古牧地中路78号第3栋楼2单元202室,,1,0,87.628745,43.981773,,life,http://api.map.baidu.com/place/detail?uid=97ec472ead1585424afd3f30&output=html&source=placeapi_v2,,,,,,,,,,,1,,,,,,,,,0
42224af0fa54ab579d82eade,新动杆地带台球厅,运动健身,体育场馆,新疆维吾尔自治区,乌鲁木齐市,米东区,新疆维吾尔自治区乌鲁木齐市米东区上沙河北12巷,,1,0,87.629607,43.971132,15699116135,life,http://api.map.baidu.com/place/detail?uid=42224af0fa54ab579d82eade&output=html&source=placeapi_v2,,,,,,,,,,1,,,,,,,,87.629632106354,43.970675058719,0
0e10cd3f06ba18d651e5c517,凯捌桌球,运动健身,体育场馆,新疆维吾尔自治区,乌鲁木齐市,米东区,新疆维吾尔自治区乌鲁木齐市米东区上沙河北十巷3号4楼,,1,0,87.630223,43.970934,15292899798,life,http://api.map.baidu.com/place/detail?uid=0e10cd3f06ba18d651e5c517&output=html&source=placeapi_v2,,,,,,,,,,2,,,,,,,,,,0
0c52bc2da9092fab16764337,尊爵桌球(米东区店),运动健身,体育场馆,新疆维吾尔自治区,乌鲁木齐市,米东区,新疆维吾尔自治区乌鲁木齐市米东区振兴北路新疆银行旁,0c52bc2da9092fab16764337,1,0,87.635649,43.976052,(0991)3307466,life,http://api.map.baidu.com/place/detail?uid=0c52bc2da9092fab16764337&output=html&source=placeapi_v2,,00:00-24:00,0,,,,,,,3,1,,,,,,,,,0
2e83ff5fb5c914c49fec2b3e,新运动武术俱乐部,运动健身,体育场馆,新疆维吾尔自治区,乌鲁木齐市,米东区,乌鲁木齐市米东区碱沟西路2238号荷兰小镇二期S10幢2层3号铺,,1,0,87.624166,43.961817,"(0991)3354559,18082871222",life,http://api.map.baidu.com/place/detail?uid=2e83ff5fb5c914c49fec2b3e&output=html&source=placeapi_v2,,10:00-22:00,,,,,,,,3,,,,,,,,,,0
6d09adbdab701480c51b75e8,熊猫台球俱乐部,运动健身,体育场馆,新疆维吾尔自治区,乌鲁木齐市,米东区,新疆维吾尔自治区乌鲁木齐市米东区碱沟西路1489号名门华府商业楼10-202,,1,0,87.635686,43.964576,13609988055,life,http://api.map.baidu.com/place/detail?uid=6d09adbdab701480c51b75e8&output=html&source=placeapi_v2,,00:00-24:00,,,,,,,,17,21,,,,,,,,,0
ee6b1ca1cc4fa55c0289725d,尚武搏击,运动健身,体育场馆,新疆维吾尔自治区,乌鲁木齐市,米东区,新疆维吾尔自治区乌鲁木齐市米东区古牧地西路353号,,1,0,87.649546,43.970474,15352563456,life,http://api.map.baidu.com/place/detail?uid=ee6b1ca1cc4fa55c0289725d&output=html&source=placeapi_v2,,10:00-22:00,,,,,,,,1,,,,,,,,,,0
91e69e1db22d274ff7eafca7,米东区聚乐台球俱乐部,运动健身,体育场馆,新疆维吾尔自治区,乌鲁木齐市,米东区,新疆乌鲁木齐市米东区振兴中路上沙河八巷6号,91e69e1db22d274ff7eafca7,1,0,87.634634,43.96161,18699026379,life,http://api.map.baidu.com/place/detail?uid=91e69e1db22d274ff7eafca7&output=html&source=placeapi_v2,,,,,,,,,,,,,,,,,,,,0
5e91a97860f369464d55472c,伯爵桌球,运动健身,体育场馆,新疆维吾尔自治区,乌鲁木齐市,米东区,乌鲁木齐市米东区民康中路怡馨园住宅小区西北侧约40米,,1,0,87.667449,43.970939,,life,http://api.map.baidu.com/place/detail?uid=5e91a97860f369464d55472c&output=html&source=placeapi_v2,,,,,,,,,,4,,,,,,,,87.667204179958,43.970913823406,0
36fc2195a93daec700ec0197,旺角铭仕桌球,运动健身,体育场馆,新疆维吾尔自治区,乌鲁木齐市,米东区,新疆维吾尔自治区乌鲁木齐市米东区米泉北路菜园子安置小区5号楼1层03室,,1,0,87.662602,43.973883,13999983107,life,http://api.map.baidu.com/place/detail?uid=36fc2195a93daec700ec0197&output=html&source=placeapi_v2,,10:00-22:00,,,,,,,,4,,,,,,,,87.662584080276,43.9738348458,0
ee6b1ca1cc4fa55c0289725d,尚武搏击,运动健身,体育场馆,新疆维吾尔自治区,乌鲁木齐市,米东区,新疆维吾尔自治区乌鲁木齐市米东区古牧地西路353号,,1,0,87.649546,43.970474,15352563456,life,http://api.map.baidu.com/place/detail?uid=ee6b1ca1cc4fa55c0289725d&output=html&source=placeapi_v2,,10:00-22:00,,,,,,,,1,,,,,,,,,,0
47debac3cbd72f1cc72ba12e,米东区星耀桌球,运动健身,体育场馆,新疆维吾尔自治区,乌鲁木齐市,米东区,新疆维吾尔自治区乌鲁木齐市米东区碱沟中路145号,,1,0,87.656636,43.963757,17716926557,life,http://api.map.baidu.com/place/detail?uid=47debac3cbd72f1cc72ba12e&output=html&source=placeapi_v2,,10:00-22:00,0,,,,,,,12,1,,,,,,,87.656683406654,43.963663271531,0
3a9d05a559f84fe717c8f60c,巴洛克桌球会所,运动健身,体育场馆,新疆维吾尔自治区,乌鲁木齐市,米东区,新疆维吾尔自治区乌鲁木齐市米东区稻香南路620号天奕宾馆负1楼,,1,0,87.655349,43.964009,13565821318,life,http://api.map.baidu.com/place/detail?uid=3a9d05a559f84fe717c8f60c&output=html&source=placeapi_v2,,00:00-24:00,,,,,,,,2,,,,,,,,,,0
4ec077efe702515d42afe678,BF球场,运动健身,体育场馆,新疆维吾尔自治区,乌鲁木齐市,米东区,新疆维吾尔自治区乌鲁木齐市米东区米东中路东四巷,4ec077efe702515d42afe678,1,0,87.665473,43.957398,(0991)6657687,life,http://api.map.baidu.com/place/detail?uid=4ec077efe702515d42afe678&output=html&source=placeapi_v2,,10:00-00:00,1,,,,,,,,1,,,,,,,87.665559438713,43.957556516471,0
ee4b88b9b2246538581093e1,乌石化体育馆,运动健身,体育场馆,新疆维吾尔自治区,乌鲁木齐市,米东区,乌鲁木齐市米东区大庆路与中鼎街交叉路口往西南约200米,ee4b88b9b2246538581093e1,1,0,87.705456,43.964219,(0991)6901588,life,http://api.map.baidu.com/place/detail?uid=ee4b88b9b2246538581093e1&output=html&source=placeapi_v2,,,5,,,,,,,1,3,,,,,,,87.705618277178,43.964127546121,0
dbc2377367a594239a0050ce,鲨鱼游泳馆,运动健身,体育场馆,新疆维吾尔自治区,乌鲁木齐市,米东区,乌鲁木齐市米东区学苑路石化六区东侧约40米,dbc2377367a594239a0050ce,1,1,87.700915,43.965776,,life,http://api.map.baidu.com/place/detail?uid=dbc2377367a594239a0050ce&output=html&source=placeapi_v2,,,3,,,,,,,1,2,,,,,,,87.700719904278,43.965823471784,1
8f90e3546dee50bbc8213d62,大亨台球厅,运动健身,体育场馆,新疆维吾尔自治区,乌鲁木齐市,米东区,乌鲁木齐市米东区金山路铁厂沟农贸市场东侧,,1,0,87.767974,43.963816,,life,http://api.map.baidu.com/place/detail?uid=8f90e3546dee50bbc8213d62&output=html&source=placeapi_v2,,,,,,,,,,,,,,,,,,87.768136563747,43.963889598975,0
ef9ce83139cdead1bca822b1,闲来聚桌球俱乐部,运动健身,体育场馆,新疆维吾尔自治区,乌鲁木齐市,米东区,乌鲁木齐市米东区太平路蓝天东工双语幼儿园东南侧约140米,,1,0,87.709455,43.997488,15276638137,life,http://api.map.baidu.com/place/detail?uid=ef9ce83139cdead1bca822b1&output=html&source=placeapi_v2,,,,,,,,,,,,,,,,,,,,0
