uid,name,cat_L1,cat_L2,province,city,area,address,street_id,detail,child_num,loc_lng,loc_lat,telephone,type,detail_url,price,shop_hours,overall_rating,taste_rating,service_rating,environment_rating,facility_rating,hygiene_rating,technology_rating,image_num,comment_num,groupon_num,discount_num,favorite_num,checkin_num,brand,content_tag,naviloc_lng,naviloc_lat,child_num
4ffa897daf036ea1c72ba151,海南省忠孝殡葬服务有限公司,生活服务,殡葬服务,海南省,海口市,龙华区,海南省海口市龙华区遵谭镇市场路44号,,1,0,110.313451,19.817708,,life,http://api.map.baidu.com/place/detail?uid=4ffa897daf036ea1c72ba151&output=html&source=placeapi_v2,,,,,,,,,,0,0,,,,,,,110.31350878726,19.8177375309,0
9c511319b86b286032870acd,鑫祥合寿衣骨灰盒花圈店,生活服务,殡葬服务,海南省,海口市,秀英区,海南省海口市秀英区海榆中线世英仓储中心3~6号铺面,9c511319b86b286032870acd,1,0,110.276765,19.96729,,life,http://api.map.baidu.com/place/detail?uid=9c511319b86b286032870acd&output=html&source=placeapi_v2,,00:00-23:00,1,,,,,,,3,1,,,,,,,110.27672970013,19.96728602165,0
daaa471c959dc1ba5fd4fe00,吉荫贤陵园,生活服务,殡葬服务,海南省,海口市,秀英区,海南省海口市秀英区海榆中线241号,,1,0,110.275615,19.956546,,life,http://api.map.baidu.com/place/detail?uid=daaa471c959dc1ba5fd4fe00&output=html&source=placeapi_v2,,,,,,,,,,,,,,,,,,110.27550941408,19.956581365015,0
eb367503a4e7901800ec01cf,解放海南岛战役烈士陵园,生活服务,殡葬服务,海南省,海口市,龙华区,海口市龙华区金宇东路金牛岭公园,eb367503a4e7901800ec01cf,1,0,110.324294,20.018055,,scope,http://api.map.baidu.com/place/detail?uid=eb367503a4e7901800ec01cf&output=html&source=placeapi_v2,,08:15-00:35,0.0,,,,,,,,1,,,,,,,,,0
51580e68de378c35081cc743,殡葬服务接待处,生活服务,殡葬服务,海南省,海口市,美兰区,海口市美兰区和平南路亚希商务大厦南侧,51580e68de378c35081cc743,1,0,110.357069,20.037242,,life,http://api.map.baidu.com/place/detail?uid=51580e68de378c35081cc743&output=html&source=placeapi_v2,,,,,,,,,,6,,,,,,,,110.35719937679,20.037192384955,0
0be52d2df66047b783a00c2d,烈士陵园,生活服务,殡葬服务,海南省,海口市,琼山区,海口市琼山区勋亭路,0be52d2df66047b783a00c2d,1,0,110.360549,20.018993,,scope,http://api.map.baidu.com/place/detail?uid=0be52d2df66047b783a00c2d&output=html&source=placeapi_v2,,,0.0,,,,,,,,,,,,,,,110.36080635458,20.019054156184,0
be60440020990498c5effb12,颜春岭公墓办事处,生活服务,殡葬服务,海南省,海口市,美兰区,海府路16号,,1,0,110.357074,20.037258,,life,http://api.map.baidu.com/place/detail?uid=be60440020990498c5effb12&output=html&source=placeapi_v2,,,,,,,,,,0,,,,,,,,110.35720603772,20.037208050246,0
