uid,name,cat_L1,cat_L2,province,city,area,address,street_id,detail,child_num,loc_lng,loc_lat,telephone,type,detail_url,price,shop_hours,overall_rating,taste_rating,service_rating,environment_rating,facility_rating,hygiene_rating,technology_rating,image_num,comment_num,groupon_num,discount_num,favorite_num,checkin_num,brand,content_tag,naviloc_lng,naviloc_lat,child_num
c944561ecda2c998a8f0cd80,原西部草原烧烤,购物,便利店,浙江省,杭州市,建德市,杭州市建德市荷映路洋安家园,,1,0,119.31503,29.503602,18867149765,shopping,http://api.map.baidu.com/place/detail?uid=c944561ecda2c998a8f0cd80&output=html&source=placeapi_v2,,,,,,,,,,,,,,,,,,119.31498000131,29.503668087768,0
801ae42be62e58c39c09f7dd,郎郎超市,购物,便利店,浙江省,杭州市,建德市,浙江省杭州市建德市白章线洋安家园27栋,801ae42be62e58c39c09f7dd,1,0,119.318406,29.502734,15858203708,shopping,http://api.map.baidu.com/place/detail?uid=801ae42be62e58c39c09f7dd&output=html&source=placeapi_v2,,08:00-20:00,0,,,,,,,,1,,,,,,,119.31828092911,29.502772687513,0
ba20b0320c7b779d82288a4e,惠捷便利超市,购物,便利店,浙江省,杭州市,建德市,杭州市建德市明珠路华庭嘉园东南侧约30米,ba20b0320c7b779d82288a4e,1,0,119.303681,29.496866,18757575533,shopping,http://api.map.baidu.com/place/detail?uid=ba20b0320c7b779d82288a4e&output=html&source=placeapi_v2,,06:30-23:30,,,,,,,,,,,,,,,,,,0
7011b63b89994d76b5f42f32,南屏便利店,购物,便利店,浙江省,杭州市,建德市,杭州市建德市西三南路江城嘉苑东侧约200米,,1,0,119.319618,29.500728,15988168817,shopping,http://api.map.baidu.com/place/detail?uid=7011b63b89994d76b5f42f32&output=html&source=placeapi_v2,,,0.0,,,,,,,,2,,,,,,,,,0
44f5476299dfe94b3310af11,便民商店,购物,便利店,浙江省,杭州市,建德市,杭州市建德市明珠路红枫花园,44f5476299dfe94b3310af11,1,0,119.303999,29.497175,13372556502,shopping,http://api.map.baidu.com/place/detail?uid=44f5476299dfe94b3310af11&output=html&source=placeapi_v2,,,,,,,,,,,,,,,,,,,,0
6f8e4bfa47ce5af8c056ac12,力哥便利店,购物,便利店,浙江省,杭州市,建德市,浙江省杭州市建德市江景路东都江景苑6号,,1,0,119.323042,29.515541,13506810527,shopping,http://api.map.baidu.com/place/detail?uid=6f8e4bfa47ce5af8c056ac12&output=html&source=placeapi_v2,,07:30-01:00,,,,,,,,,,,,,,,,119.32309943896,29.515669945085,0
62d7c30c0f36ab9608f5eb26,老马饭店早餐便利店,购物,便利店,浙江省,杭州市,建德市,杭州市建德市洋安路江和城东侧约170米,,1,0,119.323199,29.504661,,shopping,http://api.map.baidu.com/place/detail?uid=62d7c30c0f36ab9608f5eb26&output=html&source=placeapi_v2,,,,,,,,,,,,,,,,,,,,0
4801c50ab5c8c42ac92915c8,好邻家便利店(荷映路店),购物,便利店,浙江省,杭州市,建德市,杭州市建德市洋溪街道和颂苑一栋,,1,0,119.322031,29.506818,15080844555,shopping,http://api.map.baidu.com/place/detail?uid=4801c50ab5c8c42ac92915c8&output=html&source=placeapi_v2,,06:00-23:00,,,,,,,,,,,,,,,,,,0
2de9369d01a88b61f33cba04,便民小店,购物,便利店,浙江省,杭州市,建德市,杭州市建德市玉女山路江和城东侧约160米,,1,0,119.323987,29.505607,,shopping,http://api.map.baidu.com/place/detail?uid=2de9369d01a88b61f33cba04&output=html&source=placeapi_v2,,,,,,,,,,,,,,,,,,119.32389826881,29.505673550303,0
07cafb25c899abf52cfaa76d,佳佳副食品商店,购物,便利店,浙江省,杭州市,建德市,杭州市建德市明珠路红枫花园,07cafb25c899abf52cfaa76d,1,0,119.304346,29.497136,15868161428,shopping,http://api.map.baidu.com/place/detail?uid=07cafb25c899abf52cfaa76d&output=html&source=placeapi_v2,,,,,,,,,,,,,,,,,,119.3043322819,29.497013501722,0
3b46970edbe61d1c63180931,南珍综合经营部,购物,便利店,浙江省,杭州市,建德市,杭州市建德市朝阳路东都江景苑北侧约260米,,1,0,119.322214,29.518544,13735426525,shopping,http://api.map.baidu.com/place/detail?uid=3b46970edbe61d1c63180931&output=html&source=placeapi_v2,,07:00-17:00,,,,,,,,,,,,,,,,,,0
a15dec249b9fa183f942b2ac,飞牛便利(昌鑫合作店),购物,便利店,浙江省,杭州市,建德市,浙江省杭州市建德市明珠路135号,a15dec249b9fa183f942b2ac,1,0,119.300947,29.496369,,shopping,http://api.map.baidu.com/place/detail?uid=a15dec249b9fa183f942b2ac&output=html&source=placeapi_v2,,,,,,,,,,,,,,,,,,,,0
39adcffea0fd506eb75f1edd,秋瑾商行,购物,便利店,浙江省,杭州市,建德市,浙江省杭州市建德市朝阳路86号,39adcffea0fd506eb75f1edd,1,0,119.323661,29.51946,(0571)64724158,shopping,http://api.map.baidu.com/place/detail?uid=39adcffea0fd506eb75f1edd&output=html&source=placeapi_v2,,,,,,,,,,,,,,,,,,119.32356931023,29.519549953942,0
3b34c5325d186e65b6265519,香溢便利店(朝阳路店),购物,便利店,浙江省,杭州市,建德市,杭州市建德市朝阳路东都城市家园南侧约70米,3b34c5325d186e65b6265519,1,0,119.323983,29.519736,,shopping,http://api.map.baidu.com/place/detail?uid=3b34c5325d186e65b6265519&output=html&source=placeapi_v2,,,,,,,,,,,,,,,,,,119.32391042289,29.519825443603,0
eac4aae2545f98e98e7727a3,欣宜便利店,购物,便利店,浙江省,杭州市,建德市,江河线与610县道交叉口旁,eac4aae2545f98e98e7727a3,1,0,119.312709,29.494002,,shopping,http://api.map.baidu.com/place/detail?uid=eac4aae2545f98e98e7727a3&output=html&source=placeapi_v2,,,,,,,,,,,,,,,,,,119.31260237796,29.493881226211,0
9d5b6ce5514e468b38e4a6e3,涵宝便利店,购物,便利店,浙江省,杭州市,建德市,浙江省杭州市建德市雅鼎路29号,9d5b6ce5514e468b38e4a6e3,1,0,119.356883,29.524553,13758215161,shopping,http://api.map.baidu.com/place/detail?uid=9d5b6ce5514e468b38e4a6e3&output=html&source=placeapi_v2,,,,,,,,,,,,,,,,,,119.35708979502,29.524643948298,0
89446062dbb298bbf50e779d,新逸商行,购物,便利店,浙江省,杭州市,建德市,浙江省杭州市建德市朱家新村64栋12号,,1,0,119.346261,29.52468,13868032007,shopping,http://api.map.baidu.com/place/detail?uid=89446062dbb298bbf50e779d&output=html&source=placeapi_v2,,,,,,,,,,,,,,,,,,,,0
aa4cfc37f64e380331f71d82,蓝氏便利店,购物,便利店,浙江省,杭州市,建德市,杭州市建德市白章线马目客运站西南侧约90米,,1,0,119.40001,29.501864,15306780817,shopping,http://api.map.baidu.com/place/detail?uid=aa4cfc37f64e380331f71d82&output=html&source=placeapi_v2,,,,,,,,,,,,,,,,,,,,0
b4df8836a43c1af5a8f729f8,田香食品店,购物,便利店,浙江省,杭州市,建德市,浙江省杭州市建德市马目村新街12号,,1,0,119.399759,29.505077,18005712376,shopping,http://api.map.baidu.com/place/detail?uid=b4df8836a43c1af5a8f729f8&output=html&source=placeapi_v2,,07:00-22:00,,,,,,,,,,,,,,,,,,0
27ec5b967b80d27cacee7a30,红英小店,购物,便利店,浙江省,杭州市,建德市,洋溪街道友谊村桑园158号,27ec5b967b80d27cacee7a30,1,0,119.308546,29.555197,15336501027,shopping,http://api.map.baidu.com/place/detail?uid=27ec5b967b80d27cacee7a30&output=html&source=placeapi_v2,,06:00-22:00,,,,,,,,,,,,,,,,119.30867080286,29.555105929985,0
0b2d0cf339101d50018972c5,友谊小店,购物,便利店,浙江省,杭州市,建德市,杭州市建德市S303,,1,0,119.318876,29.53726,,shopping,http://api.map.baidu.com/place/detail?uid=0b2d0cf339101d50018972c5&output=html&source=placeapi_v2,,,,,,,,,,,,,,,,,,,,0
c42eb7012f6ef16e4151c076,宏都便利超市,购物,便利店,浙江省,杭州市,建德市,杭州市建德市杭长高速与雅鼎路交叉路口往南约240米,c42eb7012f6ef16e4151c076,1,0,119.354697,29.531437,13857867243,shopping,http://api.map.baidu.com/place/detail?uid=c42eb7012f6ef16e4151c076&output=html&source=placeapi_v2,,,,,,,,,,,,,,,,,,119.35491974493,29.531494180674,0
ba08c7e33b03875580a00ca0,供销便利店(新唐店),购物,便利店,浙江省,杭州市,建德市,浙江省杭州市建德市新塘路42号,ba08c7e33b03875580a00ca0,1,0,119.384658,29.541299,18105718376,shopping,http://api.map.baidu.com/place/detail?uid=ba08c7e33b03875580a00ca0&output=html&source=placeapi_v2,,,,,,,,,,,,,,,,,,119.38458225998,29.541297263839,0
08207c495792971dd8131884,红都百货经营部,购物,便利店,浙江省,杭州市,建德市,浙江省杭州市建德市之江路245号,08207c495792971dd8131884,1,0,119.383707,29.539599,13034211598,shopping,http://api.map.baidu.com/place/detail?uid=08207c495792971dd8131884&output=html&source=placeapi_v2,,06:00-18:00,,,,,,,,,,,,,,,,,,0
60ec3da53a4a18355e17c34b,阿奇商行,购物,便利店,浙江省,杭州市,建德市,浙江省杭州市建德市之江路251号,,1,0,119.383533,29.539493,18858114268,shopping,http://api.map.baidu.com/place/detail?uid=60ec3da53a4a18355e17c34b&output=html&source=placeapi_v2,,06:30-21:00,,,,,,,,,,,,,,,,,,0
51e3e8f310fa8264afcb66eb,秀平百货,购物,便利店,浙江省,杭州市,建德市,杭州市建德市之江路新都景溪花园南侧约90米,,1,0,119.382336,29.539232,13454168339,shopping,http://api.map.baidu.com/place/detail?uid=51e3e8f310fa8264afcb66eb&output=html&source=placeapi_v2,,,,,,,,,,,,,,,,,,,,0
65b50040d2e08e7357bfff7d,惠清副食品商店,购物,便利店,浙江省,杭州市,建德市,杭州市建德市城顾线建德农商银行(开发区分理处)东北侧约90米,,1,0,119.483813,29.551117,,shopping,http://api.map.baidu.com/place/detail?uid=65b50040d2e08e7357bfff7d&output=html&source=placeapi_v2,,,,,,,,,,,,,,,,,,119.48364771408,29.551103028515,0
afa69a3b1e01d8a0581093cc,好家利生活超市,购物,便利店,浙江省,杭州市,建德市,浙江省杭州市建德市顾家路43号,,1,0,119.483848,29.553639,"(0571)64145198,18058152016",shopping,http://api.map.baidu.com/place/detail?uid=afa69a3b1e01d8a0581093cc&output=html&source=placeapi_v2,,06:00-23:00,0,,,,,,,,1,,,,,,,,,0
b5c37d363b8380d329fc4860,季余良副食品商店,购物,便利店,浙江省,杭州市,建德市,浙江省杭州市建德市顾家路98号,,1,0,119.484188,29.555696,,shopping,http://api.map.baidu.com/place/detail?uid=b5c37d363b8380d329fc4860&output=html&source=placeapi_v2,,,,,,,,,,,,,,,,,,119.48410260072,29.55568998727,0
3388beecd282b2999ff77963,红红杂货店,购物,便利店,浙江省,杭州市,建德市,浙江省杭州市建德市梅城镇车站路67号,,1,0,119.503649,29.548258,13868118791,shopping,http://api.map.baidu.com/place/detail?uid=3388beecd282b2999ff77963&output=html&source=placeapi_v2,,,,,,,,,,,,,,,,,,,,0
528b82dad70e635d36b06cd2,祥和超市(南峰店),购物,便利店,浙江省,杭州市,建德市,杭州市建德市梅城镇南峰葛家村严陵路194号,528b82dad70e635d36b06cd2,1,0,119.496785,29.531485,,shopping,http://api.map.baidu.com/place/detail?uid=528b82dad70e635d36b06cd2&output=html&source=placeapi_v2,,,,,,,,,,,,,,,,,,119.49691789718,29.531501938971,0
549b7610fda3c5a03617dc55,东门街小店,购物,便利店,浙江省,杭州市,建德市,杭州市建德市东门街东湖花苑北侧约30米,,1,0,119.513609,29.544243,(0571)64142914,shopping,http://api.map.baidu.com/place/detail?uid=549b7610fda3c5a03617dc55&output=html&source=placeapi_v2,,,,,,,,,,,,,,,,,,,,0
c40ba7cf15104e86ede4a5f4,昌耀商行,购物,便利店,浙江省,杭州市,建德市,杭州市建德市城南东路东湖花苑,,1,0,119.513319,29.542957,,shopping,http://api.map.baidu.com/place/detail?uid=c40ba7cf15104e86ede4a5f4&output=html&source=placeapi_v2,,,,,,,,,,,,,,,,,,,,0
03defd9fd891776c7ec87637,聚能商行,购物,便利店,浙江省,杭州市,建德市,浙江省杭州市建德市府西路44号,,1,0,119.509063,29.550279,15869013514,shopping,http://api.map.baidu.com/place/detail?uid=03defd9fd891776c7ec87637&output=html&source=placeapi_v2,,,,,,,,,,,,,,,,,,,,0
71503d1896ff929515764324,美良杂货店,购物,便利店,浙江省,杭州市,建德市,浙江省杭州市建德市翁村新街39号,,1,0,119.577758,29.540549,13967166289,shopping,http://api.map.baidu.com/place/detail?uid=71503d1896ff929515764324&output=html&source=placeapi_v2,,07:30-19:30,,,,,,,,,,,,,,,,,,0
d8f92b5e4d088c67240bd058,冰冰食品店,购物,便利店,浙江省,杭州市,建德市,杭州市建德市振兴路尚都・桔香嘉园东侧约90米,,1,0,119.579006,29.539567,,shopping,http://api.map.baidu.com/place/detail?uid=d8f92b5e4d088c67240bd058&output=html&source=placeapi_v2,,,,,,,,,,,,,,,,,,,,0
b53fb647fe799723bca24078,新和村便民商店,购物,便利店,浙江省,杭州市,建德市,梅梓线南50米,,1,0,119.615897,29.540273,13857155148,shopping,http://api.map.baidu.com/place/detail?uid=b53fb647fe799723bca24078&output=html&source=placeapi_v2,,,,,,,,,,,,,,,,,,,,0
da2805956dce3d98b05c6a46,和村根更副食品商店,购物,便利店,浙江省,杭州市,建德市,梅梓线北50米,,1,0,119.614554,29.540603,15267189330,shopping,http://api.map.baidu.com/place/detail?uid=da2805956dce3d98b05c6a46&output=html&source=placeapi_v2,,07:00-20:00,,,,,,,,,,,,,,,,,,0
c04c4812971c8307ed74f88b,正和综合商店,购物,便利店,浙江省,杭州市,建德市,杭州市建德市梅梓线,,1,0,119.611442,29.540663,,shopping,http://api.map.baidu.com/place/detail?uid=c04c4812971c8307ed74f88b&output=html&source=placeapi_v2,,,,,,,,,,,,,,,,,,,,0
7d8fd5585de2ea179df779bb,供销便利(洋溪岭村店),购物,便利店,浙江省,杭州市,建德市,杭州市建德市S303,,1,0,119.270807,29.58113,(0571)64746071,shopping,http://api.map.baidu.com/place/detail?uid=7d8fd5585de2ea179df779bb&output=html&source=placeapi_v2,,,,,,,,,,,,,,,,,,,,0
2ca540628d8d74a18bfc0629,香溢便利店(晓应百货商店),购物,便利店,浙江省,杭州市,建德市,杭州市建德市莲花路莲花客运站北侧约120米,,1,0,119.317097,29.577245,13868128610,shopping,http://api.map.baidu.com/place/detail?uid=2ca540628d8d74a18bfc0629&output=html&source=placeapi_v2,,,,,,,,,,,,,,,,,,,,0
946d82a78039d787f03cba82,莲花商铺,购物,便利店,浙江省,杭州市,建德市,浙江省杭州市建德市莲花路108号,946d82a78039d787f03cba82,1,0,119.317378,29.57779,,shopping,http://api.map.baidu.com/place/detail?uid=946d82a78039d787f03cba82&output=html&source=placeapi_v2,,,,,,,,,,,,,,,,,,,,0
7ae1b6587e54296c8415414a,选商店,购物,便利店,浙江省,杭州市,建德市,杭州市建德市广元路建德市莲花中心小学东侧约80米,,1,0,119.317549,29.574755,,shopping,http://api.map.baidu.com/place/detail?uid=7ae1b6587e54296c8415414a&output=html&source=placeapi_v2,,,,,,,,,,,,,,,,,,,,0
6f409503e5f5b82301294fc3,后坞小店,购物,便利店,浙江省,杭州市,建德市,杭州市建德市沪瑞线与杨梅线交叉路口往东约210米,6f409503e5f5b82301294fc3,1,0,119.449966,29.569963,13757122576,shopping,http://api.map.baidu.com/place/detail?uid=6f409503e5f5b82301294fc3&output=html&source=placeapi_v2,,,,,,,,,,,,,,,,,,,,0
0e966d1a74edd45f58f6beba,供销便利店(路边村店),购物,便利店,浙江省,杭州市,建德市,路边村28号,0e966d1a74edd45f58f6beba,1,0,119.490866,29.59407,13750892127,shopping,http://api.map.baidu.com/place/detail?uid=0e966d1a74edd45f58f6beba&output=html&source=placeapi_v2,,,,,,,,,,,,,,,,,,,,0
59dd4f2344c512eccac3db3c,占家小店,购物,便利店,浙江省,杭州市,建德市,杨村桥镇上山村,,1,0,119.478064,29.588475,,shopping,http://api.map.baidu.com/place/detail?uid=59dd4f2344c512eccac3db3c&output=html&source=placeapi_v2,,,,,,,,,,,,,,,,,,,,0
38ce3e6e5de75bbf96f08c79,胥江村龙里小店,购物,便利店,浙江省,杭州市,建德市,胥江村龙里23号,,1,0,119.528032,29.627305,15157159740,shopping,http://api.map.baidu.com/place/detail?uid=38ce3e6e5de75bbf96f08c79&output=html&source=placeapi_v2,,,,,,,,,,,,,,,,,,,,0
aaf0a87ee9473b843a13fde2,鸿运小店,购物,便利店,浙江省,杭州市,建德市,乾潭镇白佛寺村,aaf0a87ee9473b843a13fde2,1,0,119.519848,29.625334,,shopping,http://api.map.baidu.com/place/detail?uid=aaf0a87ee9473b843a13fde2&output=html&source=placeapi_v2,,,,,,,,,,,,,,,,,,,,0
37c6f452d6a20a471df74d77,子胥公园商店,购物,便利店,浙江省,杭州市,建德市,浙江省杭州市建德市乾潭镇子胥路276号,37c6f452d6a20a471df74d77,1,0,119.558634,29.621005,,shopping,http://api.map.baidu.com/place/detail?uid=37c6f452d6a20a471df74d77&output=html&source=placeapi_v2,,,,,,,,,,,,,,,,,,,,0
bac030d20272559b2806ceb6,平安小小店,购物,便利店,浙江省,杭州市,建德市,杭州市建德市附小南路求是花园西侧,bac030d20272559b2806ceb6,1,0,119.555455,29.62316,,shopping,http://api.map.baidu.com/place/detail?uid=bac030d20272559b2806ceb6&output=html&source=placeapi_v2,,,,,,,,,,,,,,,,,,,,0
6ee5b93b5291ac2943afe670,建萍商店,购物,便利店,浙江省,杭州市,建德市,浙江省杭州市建德市体育路1号,6ee5b93b5291ac2943afe670,1,0,119.553274,29.621465,15824402377,shopping,http://api.map.baidu.com/place/detail?uid=6ee5b93b5291ac2943afe670&output=html&source=placeapi_v2,,,,,,,,,,,,,,,,,,119.55325396033,29.621381787656,0
c8247f190afde69f6849f337,云萍贸易商行,购物,便利店,浙江省,杭州市,建德市,浙江省杭州市建德市育才东路252号,c8247f190afde69f6849f337,1,0,119.554615,29.622776,18268090266,shopping,http://api.map.baidu.com/place/detail?uid=c8247f190afde69f6849f337&output=html&source=placeapi_v2,,08:00-23:00,,,,,,,,,,,,,,,,,,0
567e7cf7e06499fe29fc48b8,阿山便利店,购物,便利店,浙江省,杭州市,建德市,杭州市建德市沪瑞线与幸福线交叉路口往东北约110米,,1,0,119.569938,29.641307,13396568371,shopping,http://api.map.baidu.com/place/detail?uid=567e7cf7e06499fe29fc48b8&output=html&source=placeapi_v2,,,,,,,,,,,,,,,,,,,,0
556ab76f483c3b31c51b756e,西桥放心店,购物,便利店,浙江省,杭州市,建德市,浙江省杭州市建德市建北北路101号,556ab76f483c3b31c51b756e,1,0,119.555773,29.636959,,shopping,http://api.map.baidu.com/place/detail?uid=556ab76f483c3b31c51b756e&output=html&source=placeapi_v2,,,,,,,,,,,,,,,,,,,,0
dc771f65f00dfa182bd7abb3,林文副食品店,购物,便利店,浙江省,杭州市,建德市,浙江省杭州市建德市乾潭镇320国道陵上村综合楼林文副食品店,dc771f65f00dfa182bd7abb3,1,0,119.569947,29.641044,(0571)64160188,shopping,http://api.map.baidu.com/place/detail?uid=dc771f65f00dfa182bd7abb3&output=html&source=placeapi_v2,,06:00-22:30,5,,,,,,,,1,,,,,,,,,0
70767b8ac8db30c880a00c33,建德市乾潭镇方勇副食品商店,购物,便利店,浙江省,杭州市,建德市,杭州市建德市乾潭镇下包钱家村136号,,1,0,119.499848,29.688992,13868110798,shopping,http://api.map.baidu.com/place/detail?uid=70767b8ac8db30c880a00c33&output=html&source=placeapi_v2,,06:00-22:00,,,,,,,,,,,,,,,,119.50052084967,29.689027484178,0
b6df9d0948ccf8b3da2f2869,香溢便利店(安仁祖星超市),购物,便利店,浙江省,杭州市,建德市,浙江省杭州市建德市X626(后坞线),b6df9d0948ccf8b3da2f2869,1,0,119.610295,29.688066,13388615673,shopping,http://api.map.baidu.com/place/detail?uid=b6df9d0948ccf8b3da2f2869&output=html&source=placeapi_v2,,08:00-20:00,5.0,,,,,,,,2,,,,,,,,,0
e920fe6a7766b192882fb5a7,卫良杂货店,购物,便利店,浙江省,杭州市,建德市,乾潭镇安钦线中国邮政西150米,e920fe6a7766b192882fb5a7,1,0,119.610415,29.688381,(0571)64179583,shopping,http://api.map.baidu.com/place/detail?uid=e920fe6a7766b192882fb5a7&output=html&source=placeapi_v2,,,,,,,,,,,,,,,,,,,,0
a2c738930ddd6d2aa4c756e7,银霞商店,购物,便利店,浙江省,杭州市,桐庐县,浙江省杭州市桐庐县S210,,1,0,119.691619,29.67951,13906817855,shopping,http://api.map.baidu.com/place/detail?uid=a2c738930ddd6d2aa4c756e7&output=html&source=placeapi_v2,,08:00-20:00,0.0,,,,,,,,,,,,,,,,,0
c2f58c9f7d550b0f21f01750,永义五金综合商店,购物,便利店,浙江省,杭州市,建德市,杭州市建德市钦堂路建德市钦堂乡人民政府东南侧约230米,,1,0,119.575344,29.716449,15868898805,shopping,http://api.map.baidu.com/place/detail?uid=c2f58c9f7d550b0f21f01750&output=html&source=placeapi_v2,,,,,,,,,,,,,,,,,,,,0
528d9b4baea97e3833169b13,玲珠副食品商店,购物,便利店,浙江省,杭州市,建德市,杭州市建德市钦堂东路中国石化钦堂加油站(钦堂站)西侧约30米,,1,0,119.586934,29.710712,18758887759,shopping,http://api.map.baidu.com/place/detail?uid=528d9b4baea97e3833169b13&output=html&source=placeapi_v2,,06:00-23:30,,,,,,,,,,,,,,,,,,0
3107edec544c2504a5da39b4,品商店,购物,便利店,浙江省,杭州市,桐庐县,全国同市北青路17号,,1,0,119.619089,29.703062,,shopping,http://api.map.baidu.com/place/detail?uid=3107edec544c2504a5da39b4&output=html&source=placeapi_v2,,,,,,,,,,,,,,,,,,119.61913167996,29.703143421118,0
bea9155904d506c5704b8720,鸿亮百货(云源路店),购物,便利店,浙江省,杭州市,桐庐县,浙江省杭州市桐庐县云源路39号,bea9155904d506c5704b8720,1,0,119.656659,29.716786,15988165161,shopping,http://api.map.baidu.com/place/detail?uid=bea9155904d506c5704b8720&output=html&source=placeapi_v2,,07:00-20:30,,,,,,,,,,,,,,,,,,0
66c9bffa34027d81b65f1e5f,巧香副食品商店,购物,便利店,浙江省,杭州市,桐庐县,浙江省杭州市桐庐县利华大酒店(严子陵钓台风景区北),66c9bffa34027d81b65f1e5f,1,0,119.655226,29.71755,"15267063207,18058758150",shopping,http://api.map.baidu.com/place/detail?uid=66c9bffa34027d81b65f1e5f&output=html&source=placeapi_v2,,,,,,,,,,,,,,,,,,,,0
d5274502db6b380f40afe6f6,盛家副食品商店,购物,便利店,浙江省,杭州市,桐庐县,浙江省杭州市桐庐县横山路58号,d5274502db6b380f40afe6f6,1,0,119.654998,29.720096,13675895263,shopping,http://api.map.baidu.com/place/detail?uid=d5274502db6b380f40afe6f6&output=html&source=placeapi_v2,,07:00-22:00,,,,,,,,,,,,,,,,119.65510747805,29.719981808321,0
ef18a3d9c1c915d388db7395,阿桂商店,购物,便利店,浙江省,杭州市,桐庐县,杭州市桐庐县富春江镇七里泷大街368号,ef18a3d9c1c915d388db7395,1,0,119.65136,29.722555,15990006938,shopping,http://api.map.baidu.com/place/detail?uid=ef18a3d9c1c915d388db7395&output=html&source=placeapi_v2,,,,,,,,,,,,,,,,,,,,0
b5ba686da6886af52a06ce35,惠购便利店,购物,便利店,浙江省,杭州市,桐庐县,浙江省杭州市桐庐县七里泷大街368号,b5ba686da6886af52a06ce35,1,0,119.651288,29.722755,15105814351,shopping,http://api.map.baidu.com/place/detail?uid=b5ba686da6886af52a06ce35&output=html&source=placeapi_v2,,,,,,,,,,,,,,,,,,119.65117797534,29.722681109777,0
ab1acaee8b6564c8c929154a,富磊商店,购物,便利店,浙江省,杭州市,桐庐县,浙江省杭州市桐庐县子陵路48号,,1,0,119.654067,29.710812,,shopping,http://api.map.baidu.com/place/detail?uid=ab1acaee8b6564c8c929154a&output=html&source=placeapi_v2,,,,,,,,,,,,,,,,,,,,0
ae7b5d00eb7652108ab98898,孝杨商店,购物,便利店,浙江省,杭州市,桐庐县,杭州市桐庐县S210,,1,0,119.665082,29.732588,,shopping,http://api.map.baidu.com/place/detail?uid=ae7b5d00eb7652108ab98898&output=html&source=placeapi_v2,,,,,,,,,,,,,,,,,,,,0
726e40d1dfb29d5772210be8,俞赵食品店,购物,便利店,浙江省,杭州市,桐庐县,桐庐县农村商业银行,726e40d1dfb29d5772210be8,1,0,119.642784,29.756155,(0571)64667148,shopping,http://api.map.baidu.com/place/detail?uid=726e40d1dfb29d5772210be8&output=html&source=placeapi_v2,,06:00-22:00,,,,,,,,,,,,,,,,,,0
1bc2938c0d6d6500c5effbe7,俞家商店,购物,便利店,浙江省,杭州市,桐庐县,杭州市桐庐县俞家村,,1,0,119.641616,29.756178,(0571)64667323,shopping,http://api.map.baidu.com/place/detail?uid=1bc2938c0d6d6500c5effbe7&output=html&source=placeapi_v2,,,,,,,,,,,,,,,,,,,,0
0f699993535a2dbfc5effb55,荷娟副食品商店,购物,便利店,浙江省,杭州市,桐庐县,富春江镇渡济村,,1,0,119.652962,29.770116,,shopping,http://api.map.baidu.com/place/detail?uid=0f699993535a2dbfc5effb55&output=html&source=placeapi_v2,,05:00-23:30,,,,,,,,,,,,,,,,,,0
6c00e99b2dba60de6e20b996,大元小店,购物,便利店,浙江省,杭州市,桐庐县,杭州市桐庐县大童线,6c00e99b2dba60de6e20b996,1,1,119.710187,29.768276,,shopping,http://api.map.baidu.com/place/detail?uid=6c00e99b2dba60de6e20b996&output=html&source=placeapi_v2,,,,,,,,,,,,,,,,,,119.71028057961,29.768161456097,1
6f2c30c6412277b53b221c8b,汇美商行(下城路店),购物,便利店,浙江省,杭州市,桐庐县,杭州市桐庐县下城路桐庐碧桂园小区南侧约210米,,1,0,119.701303,29.766955,13429003469,shopping,http://api.map.baidu.com/place/detail?uid=6f2c30c6412277b53b221c8b&output=html&source=placeapi_v2,,,,,,,,,,,,,,,,,,,,0
4ed0bd0c1d88740d0aa8d465,金溪副食品商店,购物,便利店,浙江省,杭州市,桐庐县,杭州市桐庐县峙山路177号金溪村委(恒达箱包厂对面),4ed0bd0c1d88740d0aa8d465,1,0,119.694564,29.767043,"(0571)64245493,15314626669",shopping,http://api.map.baidu.com/place/detail?uid=4ed0bd0c1d88740d0aa8d465&output=html&source=placeapi_v2,,06:30-00:30,,,,,,,,,,,,,,,,119.69466099971,29.767037986769,0
28f53ea9fb071eaa07026f41,钟山大市军良便利店,购物,便利店,浙江省,杭州市,桐庐县,杭州市桐庐县城马线与康乐桥交叉路口往北约90米,28f53ea9fb071eaa07026f41,1,0,119.509399,29.781787,(0571)64697687,shopping,http://api.map.baidu.com/place/detail?uid=28f53ea9fb071eaa07026f41&output=html&source=placeapi_v2,,,0.0,,,,,,,,0,,,,,,,119.5094850655,29.781783456545,0
6b5dd7019aa5c326fa0cada4,陇西商店,购物,便利店,浙江省,杭州市,桐庐县,杭州市桐庐县申通大道与钟洛线交叉路口往西约210米,,1,0,119.531392,29.772764,13148307241,shopping,http://api.map.baidu.com/place/detail?uid=6b5dd7019aa5c326fa0cada4&output=html&source=placeapi_v2,,,,,,,,,,,,,,,,,,,,0
e5c9de0621731fe48c55ec5d,食品安全示范商店,购物,便利店,浙江省,杭州市,桐庐县,浙江省杭州市桐庐县双华路128号,e5c9de0621731fe48c55ec5d,1,0,119.564225,29.79373,13967185810,shopping,http://api.map.baidu.com/place/detail?uid=e5c9de0621731fe48c55ec5d&output=html&source=placeapi_v2,,,,,,,,,,,,,,,,,,,,0
36fe6afbbb6a963a9e82eaa4,鸿儒小店,购物,便利店,浙江省,杭州市,桐庐县,杭州市桐庐县旧钟线,,1,0,119.610545,29.785675,,shopping,http://api.map.baidu.com/place/detail?uid=36fe6afbbb6a963a9e82eaa4&output=html&source=placeapi_v2,,,,,,,,,,,,,,,,,,,,0
5c8c8a9c6e8a57cf79b55cd5,旺丰平价超市,购物,便利店,浙江省,杭州市,桐庐县,浙江省杭州市桐庐县春江西路367~369号,5c8c8a9c6e8a57cf79b55cd5,1,0,119.676231,29.782244,18358120325,shopping,http://api.map.baidu.com/place/detail?uid=5c8c8a9c6e8a57cf79b55cd5&output=html&source=placeapi_v2,,06:00-23:30,,,,,,,,,,,,,,,,,,0
74965f7c760c3f50dbecedc9,隆兴超市(春江店),购物,便利店,浙江省,杭州市,桐庐县,浙江省杭州市桐庐县春江西路330号,74965f7c760c3f50dbecedc9,1,0,119.671775,29.774406,15280752212,shopping,http://api.map.baidu.com/place/detail?uid=74965f7c760c3f50dbecedc9&output=html&source=placeapi_v2,,06:00-23:30,,,,,,,,,,,,,,,,119.67186187921,29.774514276838,0
74ae45497b79f57f210220b4,蒋平副食品商店,购物,便利店,浙江省,杭州市,桐庐县,浙江省杭州市桐庐县西武山82号正东方向10米,74ae45497b79f57f210220b4,1,0,119.653482,29.803824,13372576915,shopping,http://api.map.baidu.com/place/detail?uid=74ae45497b79f57f210220b4&output=html&source=placeapi_v2,,,,,,,,,,,,,,,,,,,,0
2bc10368ad4981dd3a04b103,云蚂蚁便利店(大奇山路店),购物,便利店,浙江省,杭州市,桐庐县,浙江省杭州市桐庐县大奇山路792号,2bc10368ad4981dd3a04b103,1,0,119.700948,29.788384,15068853539,shopping,http://api.map.baidu.com/place/detail?uid=2bc10368ad4981dd3a04b103&output=html&source=placeapi_v2,,08:00-22:00,,,,,,,,,,,,,,,,,,0
774b194827260fdb213bf22b,玉娟超市(迎春3弄),购物,便利店,浙江省,杭州市,桐庐县,浙江省杭州市桐庐县迎春三弄42号,774b194827260fdb213bf22b,1,0,119.700056,29.798251,"(0571)64222230,15868882600",shopping,http://api.map.baidu.com/place/detail?uid=774b194827260fdb213bf22b&output=html&source=placeapi_v2,,06:00-24:00,0,,,,,,,,1,,,,,,,119.69988585685,29.798318041758,0
fc2790c8d645aa64b6147f1d,美滋滋超市(广典大厦北),购物,便利店,浙江省,杭州市,桐庐县,浙江省杭州市桐庐县学圣路888号1幢,fc2790c8d645aa64b6147f1d,1,0,119.710341,29.796381,15905812052,shopping,http://api.map.baidu.com/place/detail?uid=fc2790c8d645aa64b6147f1d&output=html&source=placeapi_v2,,09:00-18:30,,,,,,,,,,,,,,,,119.71045830396,29.796303904325,0
6c6ce75c4874f4c1e115f92a,美宜佳超市,购物,便利店,浙江省,杭州市,桐庐县,浙江省杭州市桐庐县城南街道迎春南路275号立山国际中心,,1,0,119.698781,29.797019,,shopping,http://api.map.baidu.com/place/detail?uid=6c6ce75c4874f4c1e115f92a&output=html&source=placeapi_v2,,,,,,,,,,,,,,,,,,,,0
9822ac543b04e66bd3ff23f4,宝万惠,购物,便利店,浙江省,杭州市,桐庐县,浙江省杭州市桐庐县大奇山路181-185号,9822ac543b04e66bd3ff23f4,1,0,119.689594,29.797743,,shopping,http://api.map.baidu.com/place/detail?uid=9822ac543b04e66bd3ff23f4&output=html&source=placeapi_v2,,09:00-21:30,4.0,,,,,,,,2,,,,,,,,,0
1a94e114c346fa9ddbeced41,露露便利店,购物,便利店,浙江省,杭州市,桐庐县,浙江杭州市桐庐县白云源路1485号,,1,0,119.693894,29.792388,15981533200,shopping,http://api.map.baidu.com/place/detail?uid=1a94e114c346fa9ddbeced41&output=html&source=placeapi_v2,,,,,,,,,,,,,,,,,,,,0
89279fdff4607dcca1d2307a,云之都超市,购物,便利店,浙江省,杭州市,桐庐县,浙江省杭州市桐庐县学圣路890号,89279fdff4607dcca1d2307a,1,0,119.711014,29.797739,15058116906,shopping,http://api.map.baidu.com/place/detail?uid=89279fdff4607dcca1d2307a&output=html&source=placeapi_v2,,,,,,,,,,,,,,,,,,119.71112417472,29.797776670163,0
689b79ddddb1f7e0aecb66fb,伊甸园便利店,购物,便利店,浙江省,杭州市,桐庐县,浙江省杭州市桐庐县大联路456号,689b79ddddb1f7e0aecb66fb,1,0,119.701319,29.79921,15058122857,shopping,http://api.map.baidu.com/place/detail?uid=689b79ddddb1f7e0aecb66fb&output=html&source=placeapi_v2,,07:30-01:00,,,,,,,,,,,,,,,,119.70137527824,29.799271643005,0
3621ad88833af187a11de964,大奇山商店(大奇山路店),购物,便利店,浙江省,杭州市,桐庐县,杭州市桐庐县大奇山路与童巴线交叉路口东侧,,1,0,119.717722,29.779162,15869177259,shopping,http://api.map.baidu.com/place/detail?uid=3621ad88833af187a11de964&output=html&source=placeapi_v2,,,,,,,,,,,,,,,,,,,,0
64854ee91b60e05029fc48a6,胖子水果(白云源店),购物,便利店,浙江省,杭州市,桐庐县,浙江省杭州市桐庐县白云源路881号,64854ee91b60e05029fc48a6,1,0,119.701491,29.797292,13645714851,shopping,http://api.map.baidu.com/place/detail?uid=64854ee91b60e05029fc48a6&output=html&source=placeapi_v2,,,,,,,,,,,,,,,,,,119.70158753256,29.797346841275,0
ffea7e086ec498d804026fb4,香溢便利店(大奇山路店),购物,便利店,浙江省,杭州市,桐庐县,浙江省杭州市桐庐县大奇山路347号,ffea7e086ec498d804026fb4,1,0,119.691533,29.796184,13396560330,shopping,http://api.map.baidu.com/place/detail?uid=ffea7e086ec498d804026fb4&output=html&source=placeapi_v2,,08:00-23:00,,,,,,,,,,,,,,,,119.69143627337,29.796082687101,0
d909d712c9dd6eb50b69d95a,有家便利店(城南路店),购物,便利店,浙江省,杭州市,桐庐县,浙江省杭州市桐庐县城南路825号,d909d712c9dd6eb50b69d95a,1,0,119.699341,29.771807,15899879205,shopping,http://api.map.baidu.com/place/detail?uid=d909d712c9dd6eb50b69d95a&output=html&source=placeapi_v2,,00:00-24:00,,,,,,,,,,,,,,,,119.69926280324,29.771859254313,0
6d2b92b46a9e745115c9052a,乐捷便利店,购物,便利店,浙江省,杭州市,桐庐县,杭州市桐庐县乔林路上林春天东北侧约30米,,1,0,119.687597,29.792034,15557108822,shopping,http://api.map.baidu.com/place/detail?uid=6d2b92b46a9e745115c9052a&output=html&source=placeapi_v2,,,,,,,,,,,,,,,,,,,,0
cb2609f491080c07d42ce23e,云蚂蚁便利店(瑶琳西路店),购物,便利店,浙江省,杭州市,桐庐县,浙江省杭州市桐庐县瑶琳西路194~196号,cb2609f491080c07d42ce23e,1,0,119.684846,29.789756,,shopping,http://api.map.baidu.com/place/detail?uid=cb2609f491080c07d42ce23e&output=html&source=placeapi_v2,,,,,,,,,,,,,,,,,,119.68500320938,29.789678087372,0
d0a79f75834b8ee8dbeced55,小店家便利店,购物,便利店,浙江省,杭州市,桐庐县,浙江省杭州市桐庐县城中路46号,d0a79f75834b8ee8dbeced55,1,0,119.6923,29.80118,13721160606,shopping,http://api.map.baidu.com/place/detail?uid=d0a79f75834b8ee8dbeced55&output=html&source=placeapi_v2,,07:00-02:30,,,,,,,,,,,,,,,,,,0
7fd723117928b7e25dbe86a1,佳惠超市(瑶琳路店),购物,便利店,浙江省,杭州市,桐庐县,浙江省杭州市桐庐县瑶琳路516号,7fd723117928b7e25dbe86a1,1,0,119.696869,29.802934,"(0571)64303535,15355488570",shopping,http://api.map.baidu.com/place/detail?uid=7fd723117928b7e25dbe86a1&output=html&source=placeapi_v2,,07:00-24:00,0,,,,,,,,1,,,,,,,119.69699801156,29.80302612387,0
215ca4a52f2f6e5f36b06c82,姚富珍副食品商店,购物,便利店,浙江省,杭州市,桐庐县,浙江省杭州市桐庐县迎春三弄26号云蚂蚁,215ca4a52f2f6e5f36b06c82,1,0,119.699835,29.79804,(0571)64221057,shopping,http://api.map.baidu.com/place/detail?uid=215ca4a52f2f6e5f36b06c82&output=html&source=placeapi_v2,,,,,,,,,,,,,,,,,,119.69965866672,29.798021977758,0
cd8949538b049359ed74f8f9,城中副食品商店,购物,便利店,浙江省,杭州市,桐庐县,浙江省杭州市桐庐县中杭路151号,cd8949538b049359ed74f8f9,1,0,119.691522,29.800785,"(0571)64221538,15958151595",shopping,http://api.map.baidu.com/place/detail?uid=cd8949538b049359ed74f8f9&output=html&source=placeapi_v2,,07:00-23:00,0.0,,,,,,,,,,,,,,,119.69146604771,29.800737350313,0
201b96368c1936643f9a5e44,友良商店,购物,便利店,浙江省,杭州市,桐庐县,浙江省杭州市桐庐县云栖中路410号,,1,0,119.710927,29.799938,15267014028,shopping,http://api.map.baidu.com/place/detail?uid=201b96368c1936643f9a5e44&output=html&source=placeapi_v2,,,,,,,,,,,,,,,,,,119.71098853867,29.799841460244,0
511594bdae2ec6433b221c15,景文百货(迎春南路店),购物,便利店,浙江省,杭州市,桐庐县,浙江杭州市桐庐县迎春南路555号,511594bdae2ec6433b221c15,1,0,119.693794,29.802053,(0571)64239603,shopping,http://api.map.baidu.com/place/detail?uid=511594bdae2ec6433b221c15&output=html&source=placeapi_v2,,,,,,,,,,,,,,,,,,119.69364713438,29.802016343536,0
cef6f1fca089c8eec8213dbe,伟东商店(瑶琳西路店),购物,便利店,浙江省,杭州市,桐庐县,浙江省杭州市桐庐县瑶琳西路268号,cef6f1fca089c8eec8213dbe,1,0,119.683689,29.787977,"(0571)64211315,15968135188",shopping,http://api.map.baidu.com/place/detail?uid=cef6f1fca089c8eec8213dbe&output=html&source=placeapi_v2,,07:30-19:30,,,,,,,,,,,,,,,,119.68387426483,29.787892880704,0
619df92947946afb4bcc4ae9,大麦便利店,购物,便利店,浙江省,杭州市,桐庐县,浙江省杭州市桐庐县大奇山路279-13号,619df92947946afb4bcc4ae9,1,0,119.690481,29.797607,15384043550,shopping,http://api.map.baidu.com/place/detail?uid=619df92947946afb4bcc4ae9&output=html&source=placeapi_v2,,10:00-22:00,,,,,,,,,,,,,,,,119.69036136998,29.797667150767,0
4b6318396a32b7e89fec2b6c,金祥便利店(国贸路店),购物,便利店,浙江省,杭州市,桐庐县,浙江省杭州市桐庐县国贸路72号,4b6318396a32b7e89fec2b6c,1,0,119.691608,29.799365,"(0571)64220757,13588424584",shopping,http://api.map.baidu.com/place/detail?uid=4b6318396a32b7e89fec2b6c&output=html&source=placeapi_v2,,05:00-17:30,,,,,,,,,,,,,,,,,,0
07bf2ddd396c7c779cf779cf,新颖食品(春江路店),购物,便利店,浙江省,杭州市,桐庐县,浙江省杭州市桐庐县春江路980号,07bf2ddd396c7c779cf779cf,1,0,119.687007,29.79691,(0571)64211694,shopping,http://api.map.baidu.com/place/detail?uid=07bf2ddd396c7c779cf779cf&output=html&source=placeapi_v2,,,0.0,,,,,,,,,,,,,,,119.68713592944,29.796924607165,0
b6e332ad9970e49a38221ccf,中新百货,购物,便利店,浙江省,杭州市,桐庐县,浙江省杭州市桐庐县瑶琳西路226号,b6e332ad9970e49a38221ccf,1,0,119.684616,29.789382,13868062355,shopping,http://api.map.baidu.com/place/detail?uid=b6e332ad9970e49a38221ccf&output=html&source=placeapi_v2,,,,,,,,,,,,,,,,,,119.68469746032,29.789187855665,0
df0bed6ef66085fc28b97c93,明宇副食品商店,购物,便利店,浙江省,杭州市,桐庐县,浙江省杭州市桐庐县迎春二弄193号,df0bed6ef66085fc28b97c93,1,0,119.692319,29.801617,"(0571)64224866,18968179310",shopping,http://api.map.baidu.com/place/detail?uid=df0bed6ef66085fc28b97c93&output=html&source=placeapi_v2,,08:00-22:00,0,,,,,,,,1,,,,,,,119.69227377078,29.801665293093,0
a3161ad48b607f84d12dd603,优尚便利店,购物,便利店,浙江省,杭州市,桐庐县,浙江省杭州市桐庐县瑶琳西路290号,a3161ad48b607f84d12dd603,1,0,119.683112,29.787006,,shopping,http://api.map.baidu.com/place/detail?uid=a3161ad48b607f84d12dd603&output=html&source=placeapi_v2,,,,,,,,,,,,,,,,,,119.68330664264,29.786939262115,0
803e065bf590cf5743ab9a4b,龙伏小店,购物,便利店,浙江省,杭州市,桐庐县,杭州市桐庐县徐七线,803e065bf590cf5743ab9a4b,1,0,119.607073,29.827414,,shopping,http://api.map.baidu.com/place/detail?uid=803e065bf590cf5743ab9a4b&output=html&source=placeapi_v2,,,,,,,,,,,,,,,,,,,,0
8625ab97ed5cb09beaf853dd,柳岩村建民小店,购物,便利店,浙江省,杭州市,桐庐县,浙江省杭州市桐庐县X506(徐七线),,1,0,119.596783,29.827211,15356675576,shopping,http://api.map.baidu.com/place/detail?uid=8625ab97ed5cb09beaf853dd&output=html&source=placeapi_v2,,07:00-21:00,,,,,,,,,,,,,,,,,,0
84e15fa278b0a2463b221c55,黄坞佬食品店,购物,便利店,浙江省,杭州市,桐庐县,杭州市桐庐县锦华路中大公寓-南区东北侧约60米,,1,0,119.61752,29.835149,,shopping,http://api.map.baidu.com/place/detail?uid=84e15fa278b0a2463b221c55&output=html&source=placeapi_v2,,,,,,,,,,,,,,,,,,,,0
39c435db43e3d5028836ee94,柳明小店,购物,便利店,浙江省,杭州市,桐庐县,浙江省杭州市桐庐县横村镇柳岩村,,1,0,119.597777,29.827849,,shopping,http://api.map.baidu.com/place/detail?uid=39c435db43e3d5028836ee94&output=html&source=placeapi_v2,,07:00-01:00,5.0,,,,,,,,2,,,,,,,119.59761179772,29.827681906705,0
13968013bb8c292ad4851f2e,横村姐妹百货商店,购物,便利店,浙江省,杭州市,桐庐县,浙江省杭州市桐庐县锦华路390号,13968013bb8c292ad4851f2e,1,0,119.619067,29.836566,"(0571)64673187,13732271629",shopping,http://api.map.baidu.com/place/detail?uid=13968013bb8c292ad4851f2e&output=html&source=placeapi_v2,,07:30-21:00,,,,,,,,,,,,,,,,,,0
3499f12635dbd36fd3ff23b1,畈油车副食品商店,购物,便利店,浙江省,杭州市,桐庐县,杭州市桐庐县横富路中大公寓西侧约50米,3499f12635dbd36fd3ff23b1,1,0,119.617657,29.837175,,shopping,http://api.map.baidu.com/place/detail?uid=3499f12635dbd36fd3ff23b1&output=html&source=placeapi_v2,,,,,,,,,,,,,,,,,,,,0
cf8581a70fab3a1a7c29bd5c,横村百事兴综合商店,购物,便利店,浙江省,杭州市,桐庐县,浙江省杭州市桐庐县锦华路232号,cf8581a70fab3a1a7c29bd5c,1,0,119.622073,29.83849,(0571)64672023,shopping,http://api.map.baidu.com/place/detail?uid=cf8581a70fab3a1a7c29bd5c&output=html&source=placeapi_v2,,06:00-23:00,,,,,,,,,,,,,,,,119.62210237449,29.838385726196,0
44207646b2e77a68dfee8b9c,徐德森商店,购物,便利店,浙江省,杭州市,桐庐县,浙江省杭州市桐庐县桥北路187号,44207646b2e77a68dfee8b9c,1,0,119.663621,29.815911,15988819886,shopping,http://api.map.baidu.com/place/detail?uid=44207646b2e77a68dfee8b9c&output=html&source=placeapi_v2,,07:00-21:00,0.0,,,,,,,,,,,,,,,119.66365108119,29.816001702684,0
9c724c793c6eb701f219376e,懒猫便利店(桥北路店),购物,便利店,浙江省,杭州市,桐庐县,杭州市桐庐县桥北路与浮里线交叉路口往西约200米,9c724c793c6eb701f219376e,1,0,119.670158,29.817525,,shopping,http://api.map.baidu.com/place/detail?uid=9c724c793c6eb701f219376e&output=html&source=placeapi_v2,,,,,,,,,,,,,,,,,,119.67016446987,29.817453647833,0
4ed386afb2083b15c42ba1c9,秀花商店,购物,便利店,浙江省,杭州市,桐庐县,杭州市桐庐县浮里线,4ed386afb2083b15c42ba1c9,1,0,119.670648,29.820906,,shopping,http://api.map.baidu.com/place/detail?uid=4ed386afb2083b15c42ba1c9&output=html&source=placeapi_v2,,,,,,,,,,,,,,,,,,,,0
0712757249b7826078f7968a,水明商店,购物,便利店,浙江省,杭州市,桐庐县,浙江省杭州市桐庐县兴洋路80号,0712757249b7826078f7968a,1,0,119.6747,29.815077,13968009390,shopping,http://api.map.baidu.com/place/detail?uid=0712757249b7826078f7968a&output=html&source=placeapi_v2,,06:00-20:00,,,,,,,,,,,,,,,,119.67477481539,29.81497289351,0
78291cbe0a38814021022034,青云商店(洋塘路店),购物,便利店,浙江省,杭州市,桐庐县,浙江省杭州市桐庐县洋塘路268号,78291cbe0a38814021022034,1,0,119.663337,29.809001,"13968053273,15968139741",shopping,http://api.map.baidu.com/place/detail?uid=78291cbe0a38814021022034&output=html&source=placeapi_v2,,06:00-22:30,0.0,,,,,,,,,,,,,,,119.6634507024,29.80882178395,0
e4ce7563a66d6be7ede4a53b,雅萍商店,购物,便利店,浙江省,杭州市,桐庐县,浙江省杭州市桐庐县洋塘路283号,e4ce7563a66d6be7ede4a53b,1,0,119.662458,29.808361,,shopping,http://api.map.baidu.com/place/detail?uid=e4ce7563a66d6be7ede4a53b&output=html&source=placeapi_v2,,,,,,,,,,,,,,,,,,,,0
5297fb7464c60fe44f6d4651,辉辉副食品商店,购物,便利店,浙江省,杭州市,桐庐县,浙江省杭州市桐庐县洋塘路279号,5297fb7464c60fe44f6d4651,1,0,119.662405,29.808307,(0571)64613186,shopping,http://api.map.baidu.com/place/detail?uid=5297fb7464c60fe44f6d4651&output=html&source=placeapi_v2,,,,,,,,,,,,,,,,,,119.66234083883,29.808496200507,0
b5a815a53b888bbd4afd3fbe,桐庐水卫商店直营中心,购物,便利店,浙江省,杭州市,桐庐县,杭州市桐庐县洋塘路惠民小区(印渚弄)南侧约30米,b5a815a53b888bbd4afd3fbe,1,0,119.67089,29.810613,"(0571)64623285,(0571)64633495,13805762969",shopping,http://api.map.baidu.com/place/detail?uid=b5a815a53b888bbd4afd3fbe&output=html&source=placeapi_v2,,,,,,,,,,,,,,,,,,119.67085673463,29.810710513844,0
730f30ff3d451fca82288a2b,佳宜水卫商店,购物,便利店,浙江省,杭州市,桐庐县,浙江省杭州市桐庐县洋塘路50号,730f30ff3d451fca82288a2b,1,0,119.677512,29.816427,"15906625871,15906625872",shopping,http://api.map.baidu.com/place/detail?uid=730f30ff3d451fca82288a2b&output=html&source=placeapi_v2,,,,,,,,,,,,,,,,,,119.67755548626,29.816341795332,0
16cb313619fabd12028972f6,美宜佳(梅林路店),购物,便利店,浙江省,杭州市,桐庐县,浙江省杭州市桐庐县梅林路9号,16cb313619fabd12028972f6,1,0,119.708493,29.815203,17720920891,shopping,http://api.map.baidu.com/place/detail?uid=16cb313619fabd12028972f6&output=html&source=placeapi_v2,,00:00-24:00,,,,,,,,,,,,,,,,,,0
00b0a1c9cb13c0f3077ce885,久友超市(桑园店),购物,便利店,浙江省,杭州市,桐庐县,桑园路胖子鱼味馆斜对面,00b0a1c9cb13c0f3077ce885,1,0,119.716087,29.808078,(0571)84217503,shopping,http://api.map.baidu.com/place/detail?uid=00b0a1c9cb13c0f3077ce885&output=html&source=placeapi_v2,,06:00-01:30,5,,,,,,,,1,,,,,,,119.71599268246,29.808036156806,0
3a477ba212451fb53ce2314d,云蚂蚁便利店(御溪店),购物,便利店,浙江省,杭州市,桐庐县,瑶琳路60-1号,3a477ba212451fb53ce2314d,1,0,119.707894,29.810393,15397110571,shopping,http://api.map.baidu.com/place/detail?uid=3a477ba212451fb53ce2314d&output=html&source=placeapi_v2,,06:00-18:00,,,,,,,,,,,,,,,,119.7079537761,29.810318186733,0
96b6db881fc1415fc8213ded,老李便利店(上洋洲社区卫生服务站西),购物,便利店,浙江省,杭州市,桐庐县,杭州市桐庐县春江东路健身公园东南侧约40米,96b6db881fc1415fc8213ded,1,0,119.714548,29.817478,13093792128,shopping,http://api.map.baidu.com/place/detail?uid=96b6db881fc1415fc8213ded&output=html&source=placeapi_v2,,07:00-23:00,,,,,,,,,,,,,,,,,,0
72e57fd79d136cacf9dc859c,中佳超市(康乐路店),购物,便利店,浙江省,杭州市,桐庐县,浙江省杭州市桐庐县康乐路康乐小区17幢705室,72e57fd79d136cacf9dc859c,1,0,119.685433,29.81583,13858109658,shopping,http://api.map.baidu.com/place/detail?uid=72e57fd79d136cacf9dc859c&output=html&source=placeapi_v2,,07:30-23:00,5,,,,,,,,2,,,,,,,119.68537961196,29.815860303603,0
03f3cfa4dc995e1872210b98,志源商店,购物,便利店,浙江省,杭州市,桐庐县,杭州市桐庐县春江东路上洋洲综合市场北侧约90米,,1,0,119.716016,29.817516,(0571)56985288,shopping,http://api.map.baidu.com/place/detail?uid=03f3cfa4dc995e1872210b98&output=html&source=placeapi_v2,,,,,,,,,,,2,,,,,,,,,0
03f2ddd41b0ed98b3517dc23,云蚂蚁便利店(瑶琳路店),购物,便利店,浙江省,杭州市,桐庐县,瑶琳路330号,03f2ddd41b0ed98b3517dc23,1,0,119.700473,29.805431,13362197677,shopping,http://api.map.baidu.com/place/detail?uid=03f2ddd41b0ed98b3517dc23&output=html&source=placeapi_v2,,07:00-23:00,0,,,,,,,,0,,,,,,,119.70056310765,29.805335553692,0
d24d1790ca15884803294fba,麦丰便利,购物,便利店,浙江省,杭州市,桐庐县,浙江省杭州市桐庐县瑶琳路346号,d24d1790ca15884803294fba,1,0,119.700063,29.805183,13588025940,shopping,http://api.map.baidu.com/place/detail?uid=d24d1790ca15884803294fba&output=html&source=placeapi_v2,,07:00-23:00,0,,,,,,,,0,,,,,,,119.70017169887,29.805062799686,0
083a55faff09d37a256e989c,万圣超市,购物,便利店,浙江省,杭州市,桐庐县,浙江省杭州市桐庐县学圣路212号,083a55faff09d37a256e989c,1,0,119.700072,29.807753,(0571)64240691,shopping,http://api.map.baidu.com/place/detail?uid=083a55faff09d37a256e989c&output=html&source=placeapi_v2,,06:00-22:30,0.0,,,,,,,,,,,,,,,119.70001802395,29.807812952541,0
41a73045a07fe2dba8175a54,新铁便利店,购物,便利店,浙江省,杭州市,桐庐县,浙江省杭州市桐庐县春江路301号,41a73045a07fe2dba8175a54,1,0,119.697171,29.80625,"(0571)69963077,13588080170",shopping,http://api.map.baidu.com/place/detail?uid=41a73045a07fe2dba8175a54&output=html&source=placeapi_v2,,,,,,,,,,,,,,,,,,119.69704927247,29.806382154372,0
8197efefb948f0db4251c048,利客便利店(春江东路1167店),购物,便利店,浙江省,杭州市,桐庐县,浙江省杭州市桐庐县春江东路1167号,8197efefb948f0db4251c048,1,0,119.722715,29.819244,15382306600,shopping,http://api.map.baidu.com/place/detail?uid=8197efefb948f0db4251c048&output=html&source=placeapi_v2,,07:00-23:00,,,,,,,,,,,,,,,,119.72278702517,29.819138358618,0
e8aa928b46558f89631c6790,忠莲小店,购物,便利店,浙江省,杭州市,桐庐县,杭州市桐庐县红旗路与解放路交叉路口往西约250米,e8aa928b46558f89631c6790,1,0,119.715196,29.8339,,shopping,http://api.map.baidu.com/place/detail?uid=e8aa928b46558f89631c6790&output=html&source=placeapi_v2,,,,,,,,,,,,,,,,,,,,0
8662cdee4b523e2fbd484254,冬姣商店,购物,便利店,浙江省,杭州市,桐庐县,杭州市桐庐县桐君街道康乐区13幢对面,8662cdee4b523e2fbd484254,1,0,119.685587,29.816761,,shopping,http://api.map.baidu.com/place/detail?uid=8662cdee4b523e2fbd484254&output=html&source=placeapi_v2,,,,,,,,,,,,,,,,,,,,0
9f061f63bb0664df0189728c,顺利食品商行,购物,便利店,浙江省,杭州市,桐庐县,浙江省杭州市桐庐县桐君路29号,9f061f63bb0664df0189728c,1,0,119.686944,29.813513,(0571)64620931,shopping,http://api.map.baidu.com/place/detail?uid=9f061f63bb0664df0189728c&output=html&source=placeapi_v2,,08:00-20:00,,,,,,,,,,,,,,,,119.68686562577,29.81356849466,0
91ccc4096a68cb3481a12e3b,阿强便利店,购物,便利店,浙江省,杭州市,桐庐县,浙江杭州市桐庐县广场路31号,91ccc4096a68cb3481a12e3b,1,0,119.687034,29.814263,,shopping,http://api.map.baidu.com/place/detail?uid=91ccc4096a68cb3481a12e3b&output=html&source=placeapi_v2,,,,,,,,,,,,,,,,,,,,0
220f0542fc8573cefbdc85ac,云蚂蚁便利店(桐城墅店),购物,便利店,浙江省,杭州市,桐庐县,浙江省杭州市桐庐县梅林路395-1号,220f0542fc8573cefbdc85ac,1,0,119.712722,29.808227,15103369335,shopping,http://api.map.baidu.com/place/detail?uid=220f0542fc8573cefbdc85ac&output=html&source=placeapi_v2,,,,,,,,,,,,,,,,,,,,0
75017ed9567ab2b4d72ce22e,丰有食品商店,购物,便利店,浙江省,杭州市,桐庐县,杭州市桐庐县康乐路桐庐县迎春小学东侧约50米,75017ed9567ab2b4d72ce22e,1,0,119.685623,29.815494,"13867925819,15700164883",shopping,http://api.map.baidu.com/place/detail?uid=75017ed9567ab2b4d72ce22e&output=html&source=placeapi_v2,,,,,,,,,,,,,,,,,,119.68565849091,29.815543002136,0
cd1c2641baf72e51a0acc4ed,民燕商店(广场路店),购物,便利店,浙江省,杭州市,桐庐县,浙江省杭州市桐庐县广场路36号,cd1c2641baf72e51a0acc4ed,1,0,119.686301,29.814174,"(0571)64638097,13588217355",shopping,http://api.map.baidu.com/place/detail?uid=cd1c2641baf72e51a0acc4ed&output=html&source=placeapi_v2,,06:00-21:00,0.0,,,,,,,,,,,,,,,119.68640039411,29.81415837767,0
1078b98283018270bb17e78f,满顺商店(桐君路店),购物,便利店,浙江省,杭州市,桐庐县,浙江省杭州市桐庐县桐君路65号,,1,0,119.686292,29.812844,13588349129,shopping,http://api.map.baidu.com/place/detail?uid=1078b98283018270bb17e78f&output=html&source=placeapi_v2,,,,,,,,,,,,,,,,,,,,0
0d05d65754625660e856fae4,鑫源百货,购物,便利店,浙江省,杭州市,桐庐县,杭州市桐庐县桐君路桐君苑,0d05d65754625660e856fae4,1,0,119.687004,29.813936,(0571)64620301,shopping,http://api.map.baidu.com/place/detail?uid=0d05d65754625660e856fae4&output=html&source=placeapi_v2,,,,,,,,,,,,,,,,,,119.68712875203,29.813838287055,0
2fc0d46928ca6decca291520,恒茂商店,购物,便利店,浙江省,杭州市,桐庐县,浙江省杭州市桐庐县康乐路140号,2fc0d46928ca6decca291520,1,0,119.685232,29.815925,18368812288,shopping,http://api.map.baidu.com/place/detail?uid=2fc0d46928ca6decca291520&output=html&source=placeapi_v2,,,,,,,,,,,,,,,,,,119.68515914803,29.81582649219,0
9f0273a7b7acf38a04fef5fb,半分地副食品商店,购物,便利店,浙江省,杭州市,桐庐县,杭州市桐庐县康乐路桐庐县迎春小学西北侧约40米,9f0273a7b7acf38a04fef5fb,1,0,119.683842,29.816687,,shopping,http://api.map.baidu.com/place/detail?uid=9f0273a7b7acf38a04fef5fb&output=html&source=placeapi_v2,,,,,,,,,,,,,,,,,,119.68378404172,29.816613464201,0
3e239fa94ef6db67a4c756be,美珠百货,购物,便利店,浙江省,杭州市,桐庐县,浙江省杭州市桐庐县桐君路69号3楼,3e239fa94ef6db67a4c756be,1,0,119.686353,29.812875,(0571)69988716,shopping,http://api.map.baidu.com/place/detail?uid=3e239fa94ef6db67a4c756be&output=html&source=placeapi_v2,,07:30-17:00,,,,,,,,,,,,,,,,,,0
dcae648f9806177c0869d9bb,安安便利店,购物,便利店,浙江省,杭州市,桐庐县,浙江杭州市桐庐县白云源东路4号,dcae648f9806177c0869d9bb,1,0,119.714487,29.807342,,shopping,http://api.map.baidu.com/place/detail?uid=dcae648f9806177c0869d9bb&output=html&source=placeapi_v2,,,,,,,,,,,,,,,,,,119.71444506107,29.807389092917,0
77d539a6008725cd49fc8d88,陈君批发部,购物,便利店,浙江省,杭州市,桐庐县,浙江省杭州市桐庐县桐君路96号,77d539a6008725cd49fc8d88,1,0,119.685682,29.812454,"13185002898,13750877215",shopping,http://api.map.baidu.com/place/detail?uid=77d539a6008725cd49fc8d88&output=html&source=placeapi_v2,,,,,,,,,,,,,,,,,,119.68574324873,29.812404522748,0
1a695b9e6e667eec5b109321,地和商店,购物,便利店,浙江省,杭州市,桐庐县,杭州市桐庐县城南街道下洋洲路1号,1a695b9e6e667eec5b109321,1,0,119.723901,29.818917,13251009575,shopping,http://api.map.baidu.com/place/detail?uid=1a695b9e6e667eec5b109321&output=html&source=placeapi_v2,,,,,,,,,,,,,,,,,,119.72375092674,29.818809522357,0
994158a875bc1c18bea2409d,阿肆便利店,购物,便利店,浙江省,杭州市,桐庐县,杭州市桐庐县岩桥路,994158a875bc1c18bea2409d,1,0,119.745674,29.815702,17746825350,shopping,http://api.map.baidu.com/place/detail?uid=994158a875bc1c18bea2409d&output=html&source=placeapi_v2,,07:00-23:00,,,,,,,,,,,,,,,,119.74567703891,29.815707724421,0
9a1cdab54f8664232102205d,世纪华联超市(董家路店),购物,便利店,浙江省,杭州市,桐庐县,浙江省杭州市桐庐县董家路30号,9a1cdab54f8664232102205d,1,0,119.739404,29.828968,"13857043002,18368867759",shopping,http://api.map.baidu.com/place/detail?uid=9a1cdab54f8664232102205d&output=html&source=placeapi_v2,,07:00-23:15,5,,,,,,,,3,,,,,,,119.73930984047,29.829013579293,0
2e4274064dcdf8c10b69d972,夏和超市,购物,便利店,浙江省,杭州市,桐庐县,浙江省杭州市桐庐县城南街道发展路20-1号,2e4274064dcdf8c10b69d972,1,0,119.748056,29.812813,15869101547,shopping,http://api.map.baidu.com/place/detail?uid=2e4274064dcdf8c10b69d972&output=html&source=placeapi_v2,,06:30-23:00,,,,,,,,,,,,,,,,,,0
3d99f6627f0bd23e4c3a590b,马家超市(饲马线),购物,便利店,浙江省,杭州市,桐庐县,浙江省杭州市桐庐县马家路323~327号,3d99f6627f0bd23e4c3a590b,1,0,119.740756,29.830426,13819932601,shopping,http://api.map.baidu.com/place/detail?uid=3d99f6627f0bd23e4c3a590b&output=html&source=placeapi_v2,,10:00-22:00,,,,,,,,,,,,,,,,,,0
894814e2d88e860e8f1a8991,海霞副食品商店,购物,便利店,浙江省,杭州市,桐庐县,浙江省杭州市桐庐县春江东路1577-6号,894814e2d88e860e8f1a8991,1,0,119.731774,29.824642,13968060795,shopping,http://api.map.baidu.com/place/detail?uid=894814e2d88e860e8f1a8991&output=html&source=placeapi_v2,,06:00-21:00,,,,,,,,,,,,,,,,,,0
d593a62fae337efe5d0d0270,岩桥依佳副食品商店,购物,便利店,浙江省,杭州市,桐庐县,杭州市桐庐县桐常线桐庐县农村商业银行(洋洲支行岩桥分理处)东南侧约120米,d593a62fae337efe5d0d0270,1,0,119.748832,29.812903,"13588282124,15306566282",shopping,http://api.map.baidu.com/place/detail?uid=d593a62fae337efe5d0d0270&output=html&source=placeapi_v2,,05:30-23:30,,,,,,,,,,,,,,,,,,0
f9544fc90112c13b88f15d20,云蚂蚁便利店(岩桥店),购物,便利店,浙江省,杭州市,桐庐县,浙江省杭州市桐庐县求是路299号,,1,0,119.741178,29.814877,13937625495,shopping,http://api.map.baidu.com/place/detail?uid=f9544fc90112c13b88f15d20&output=html&source=placeapi_v2,,,,,,,,,,,,,,,,,,,,0
ed40fffca4b575048c55ec7a,马家食品便利店,购物,便利店,浙江省,杭州市,桐庐县,杭州市桐庐县春江东路与饲马线交叉路口往东南约290米,ed40fffca4b575048c55ec7a,1,0,119.741379,29.831404,13857180408,shopping,http://api.map.baidu.com/place/detail?uid=ed40fffca4b575048c55ec7a&output=html&source=placeapi_v2,,,,,,,,,,,,,,,,,,,,0
48af6446187ba18033621261,添阳副食品便利店,购物,便利店,浙江省,杭州市,桐庐县,杭州市桐庐县春江东路与港边路交叉路口往东南约80米,48af6446187ba18033621261,1,0,119.742885,29.835181,15041440923,shopping,http://api.map.baidu.com/place/detail?uid=48af6446187ba18033621261&output=html&source=placeapi_v2,,05:00-22:00,1,,,,,,,,1,,,,,,,119.74279798861,29.83517576121,0
21e2cba587fe38c64bcc4acd,云蚂蚁便利店(石珠路店),购物,便利店,浙江省,杭州市,桐庐县,杭州市桐庐县石珠路下洋洲南堡新村北侧,21e2cba587fe38c64bcc4acd,1,0,119.736721,29.810895,,shopping,http://api.map.baidu.com/place/detail?uid=21e2cba587fe38c64bcc4acd&output=html&source=placeapi_v2,,,,,,,,,,,,,,,,,,119.73662346773,29.811001762667,0
2618ffd908f09ea1a8059dbb,海华商店,购物,便利店,浙江省,杭州市,桐庐县,桐常线与上西线交叉路口往西约50米,2618ffd908f09ea1a8059dbb,1,0,119.763828,29.817608,"(0571)64268436,17706506119",shopping,http://api.map.baidu.com/place/detail?uid=2618ffd908f09ea1a8059dbb&output=html&source=placeapi_v2,,06:30-22:00,,,,,,,,,,,,,,,,,,0
b7be83a73f63b89621022001,好益购,购物,便利店,浙江省,杭州市,桐庐县,浙江省杭州市桐庐县春江东路1541-2号,b7be83a73f63b89621022001,1,0,119.730141,29.822677,17305783099,shopping,http://api.map.baidu.com/place/detail?uid=b7be83a73f63b89621022001&output=html&source=placeapi_v2,,07:00-24:00,,,,,,,,,,,,,,,,119.73025993438,29.822497124529,0
727c632b59eb93d8a1d2302d,小明商店,购物,便利店,浙江省,杭州市,桐庐县,杭州市桐庐县桐常线凤川初级中学东侧约190米,727c632b59eb93d8a1d2302d,1,0,119.787344,29.818376,,shopping,http://api.map.baidu.com/place/detail?uid=727c632b59eb93d8a1d2302d&output=html&source=placeapi_v2,,,,,,,,,,,,,,,,,,119.78741880584,29.818373311215,0
3640586a16d33a823ce2315b,云祥小店,购物,便利店,浙江省,杭州市,桐庐县,桐庐县凤川街道风川镇中学旁,,1,0,119.786551,29.818904,13616501048,shopping,http://api.map.baidu.com/place/detail?uid=3640586a16d33a823ce2315b&output=html&source=placeapi_v2,,06:00-24:00,,,,,,,,,,,,,,,,,,0
973e9170ec4384de471a32f5,明云商店,购物,便利店,浙江省,杭州市,桐庐县,杭州市桐庐县桐常线江南名都西侧约230米,973e9170ec4384de471a32f5,1,0,119.787307,29.816687,,shopping,http://api.map.baidu.com/place/detail?uid=973e9170ec4384de471a32f5&output=html&source=placeapi_v2,,,,,,,,,,,,,,,,,,119.78714873658,29.816709220554,0
10949cbadd80f7ce3417dcaf,久友超市(杭云店),购物,便利店,浙江省,杭州市,桐庐县,凤川英子贸易(岗街西),10949cbadd80f7ce3417dcaf,1,0,119.787581,29.814225,(0571)64261292,shopping,http://api.map.baidu.com/place/detail?uid=10949cbadd80f7ce3417dcaf&output=html&source=placeapi_v2,0.0,06:00-22:00,,,,,,,,,,,,,,,,,,0
90bdefb714066d1f00ff2d8f,文明副食品商店,购物,便利店,浙江省,杭州市,桐庐县,杭州市桐庐县岗街凤川街道中心幼儿园(邮政路)西侧约60米,90bdefb714066d1f00ff2d8f,1,0,119.787283,29.814213,"(0571)64261171,18868841123",shopping,http://api.map.baidu.com/place/detail?uid=90bdefb714066d1f00ff2d8f&output=html&source=placeapi_v2,,07:00-23:00,,,,,,,,,,,,,,,,,,0
87ebd16f12d28414deee8bad,李瑞副食品商店,购物,便利店,浙江省,杭州市,桐庐县,杭州市桐庐县桐常线桐庐县凤川小学东侧,87ebd16f12d28414deee8bad,1,0,119.784277,29.815359,13754310460,shopping,http://api.map.baidu.com/place/detail?uid=87ebd16f12d28414deee8bad&output=html&source=placeapi_v2,,,,,,,,,,,,,,,,,,119.78432047827,29.815455858647,0
e13297d4a2f75ab6616858c4,便民商店,购物,便利店,浙江省,杭州市,桐庐县,杭州市桐庐县紫燕路百江镇中心幼儿园北侧约140米,e13297d4a2f75ab6616858c4,1,0,119.364025,29.854296,,shopping,http://api.map.baidu.com/place/detail?uid=e13297d4a2f75ab6616858c4&output=html&source=placeapi_v2,,,,,,,,,,,,,,,,,,,,0
76cc3ed8d7048e12aecb66c0,桐庐供销农资连锁店,购物,便利店,浙江省,杭州市,桐庐县,杭州市桐庐县百后线百江镇中心幼儿园南侧约60米,76cc3ed8d7048e12aecb66c0,1,0,119.364014,29.852002,13567169456,shopping,http://api.map.baidu.com/place/detail?uid=76cc3ed8d7048e12aecb66c0&output=html&source=placeapi_v2,,,,,,,,,,,,,,,,,,,,0
809e1c4455e702b4c17da242,素贤副食品商店,购物,便利店,浙江省,杭州市,桐庐县,浙江省杭州市桐庐县紫燕路17号,809e1c4455e702b4c17da242,1,0,119.365893,29.855863,15268547124,shopping,http://api.map.baidu.com/place/detail?uid=809e1c4455e702b4c17da242&output=html&source=placeapi_v2,,05:30-22:30,,,,,,,,,,,,,,,,119.36619307574,29.855782011278,0
49eabe2dd6bbb5304054d7d5,江春小店,购物,便利店,浙江省,杭州市,桐庐县,杭州市桐庐县桐千路方埠中心学校南侧约180米,49eabe2dd6bbb5304054d7d5,1,0,119.622464,29.856051,15990110907,shopping,http://api.map.baidu.com/place/detail?uid=49eabe2dd6bbb5304054d7d5&output=html&source=placeapi_v2,,,,,,,,,,,,,,,,,,,,0
7765cae3048ae8decb213d3c,雨馨便利店,购物,便利店,浙江省,杭州市,桐庐县,浙江省杭州市桐庐县商茂街89号,7765cae3048ae8decb213d3c,1,0,119.621944,29.848827,15068886755,shopping,http://api.map.baidu.com/place/detail?uid=7765cae3048ae8decb213d3c&output=html&source=placeapi_v2,,,,,,,,,,,,,,,,,,,,0
673c4fb5d0fcebd46fc02c62,梓涵便利店(市心路店),购物,便利店,浙江省,杭州市,桐庐县,浙江省杭州市桐庐县横村镇市心路82号,673c4fb5d0fcebd46fc02c62,1,0,119.626929,29.849216,13858023702,shopping,http://api.map.baidu.com/place/detail?uid=673c4fb5d0fcebd46fc02c62&output=html&source=placeapi_v2,,09:00-22:30,,,,,,,,,,,,,,,,,,0
0959bfb71d554329cae33c6c,云蚂蚁便利店(横村镇精诚路店),购物,便利店,浙江省,杭州市,桐庐县,杭州市桐庐县精诚路富润家园,0959bfb71d554329cae33c6c,1,0,119.629762,29.8501,15058141315,shopping,http://api.map.baidu.com/place/detail?uid=0959bfb71d554329cae33c6c&output=html&source=placeapi_v2,,,,,,,,,,,,,,,,,,,,0
30da9c34f1c6be7f16c9050b,怡卿便利店(市场路店),购物,便利店,浙江省,杭州市,桐庐县,浙江省杭州市桐庐县市场路326号328号,,1,0,119.626576,29.848224,13819475587,shopping,http://api.map.baidu.com/place/detail?uid=30da9c34f1c6be7f16c9050b&output=html&source=placeapi_v2,,,,,,,,,,,,,,,,,,,,0
49835560c0f686af72210bde,汐汐便当(商院店),购物,便利店,浙江省,杭州市,桐庐县,杭州市桐庐县凤川街道滨江路1394号,49835560c0f686af72210bde,1,0,119.744891,29.840681,15257104224,shopping,http://api.map.baidu.com/place/detail?uid=49835560c0f686af72210bde&output=html&source=placeapi_v2,,,,,,,,,,,,,,,,,,119.74473159572,29.840868754616,0
4d1a22d5c8709c7bc51e519c,丰收联华小店,购物,便利店,浙江省,杭州市,桐庐县,杭州市桐庐县江南路汇金江南府,4d1a22d5c8709c7bc51e519c,1,0,119.782626,29.861392,,shopping,http://api.map.baidu.com/place/detail?uid=4d1a22d5c8709c7bc51e519c&output=html&source=placeapi_v2,,,,,,,,,,,,,,,,,,,,0
2d1aa1f78a73fd44734b8718,布丁便利店,购物,便利店,浙江省,杭州市,桐庐县,浙江省杭州市桐庐县江南路834号,2d1aa1f78a73fd44734b8718,1,0,119.782367,29.862611,18268207323,shopping,http://api.map.baidu.com/place/detail?uid=2d1aa1f78a73fd44734b8718&output=html&source=placeapi_v2,,06:00-23:30,,,,,,,,,,,,,,,,119.78261703681,29.862713147973,0
f0eaaf48adf0083c4054d75f,云蚂蚁便利店(高山头江南府店),购物,便利店,浙江省,杭州市,桐庐县,浙江省杭州市桐庐县江南镇江南路912号,f0eaaf48adf0083c4054d75f,1,0,119.782418,29.862176,18058138139,shopping,http://api.map.baidu.com/place/detail?uid=f0eaaf48adf0083c4054d75f&output=html&source=placeapi_v2,,,,,,,,,,,,,,,,,,119.78260472373,29.862122370226,0
e717e3c77ade59d4ebe5823d,云蚂蚁便利店(陈绍桐副食店),购物,便利店,浙江省,杭州市,桐庐县,杭州市桐庐县514县道靠近江南镇石阜村科普活动站,,1,0,119.796772,29.846382,15372580126,shopping,http://api.map.baidu.com/place/detail?uid=e717e3c77ade59d4ebe5823d&output=html&source=placeapi_v2,,,,,,,,,,,,,,,,,,,,0
a649397410e4c415e6e965cd,桐庐服务区迈力士便利超市,购物,便利店,浙江省,杭州市,桐庐县,杭州市桐庐县小潘村G25长深高速桐庐服务区,,1,0,119.807358,29.848237,,shopping,http://api.map.baidu.com/place/detail?uid=a649397410e4c415e6e965cd&output=html&source=placeapi_v2,,00:00-24:00,,,,,,,,,,,,,,,,,,0
7f48b1b472feb99efda778df,明宏棋牌便利店,购物,便利店,浙江省,杭州市,桐庐县,杭州市桐庐县陈庄支路陈庄新苑,,1,0,119.777847,29.866161,15381191466,shopping,http://api.map.baidu.com/place/detail?uid=7f48b1b472feb99efda778df&output=html&source=placeapi_v2,,,,,,,,,,,,,,,,,,,,0
a128f13ba21795b410293520,杭铭便利店,购物,便利店,浙江省,杭州市,桐庐县,浙江省杭州市桐庐县市场路43~44号,a128f13ba21795b410293520,1,0,119.777257,29.866865,,shopping,http://api.map.baidu.com/place/detail?uid=a128f13ba21795b410293520&output=html&source=placeapi_v2,,,,,,,,,,,,,,,,,,119.77734091036,29.866942217437,0
e7f01f6b392a1822e81e97e3,好邻居(横严线店),购物,便利店,浙江省,杭州市,桐庐县,杭州市桐庐县横严线与桐常线交叉路口西北侧,e7f01f6b392a1822e81e97e3,1,0,119.827678,29.850613,,shopping,http://api.map.baidu.com/place/detail?uid=e7f01f6b392a1822e81e97e3&output=html&source=placeapi_v2,,06:00-24:00,,,,,,,,,,,,,,,,,,0
0f012c7bde2a5e57a8175a6e,梧村李升强副食品商店,购物,便利店,浙江省,杭州市,桐庐县,杭州市桐庐县桐常线常乐小学西南侧约250米,,1,0,119.816289,29.849178,,shopping,http://api.map.baidu.com/place/detail?uid=0f012c7bde2a5e57a8175a6e&output=html&source=placeapi_v2,,09:00-20:30,,,,,,,,,,,,,,,,,,0
32e0f38646cad05d8b2fb56a,何永兰副食品商店,购物,便利店,浙江省,杭州市,富阳区,浙江省杭州市富阳区横前线,,1,0,119.925648,29.847867,13777384578,shopping,http://api.map.baidu.com/place/detail?uid=32e0f38646cad05d8b2fb56a&output=html&source=placeapi_v2,,05:30-21:00,,,,,,,,,,,,,,,,119.92558515779,29.847866559326,0
1d7c8452189b1d89f7e73bea,黄弹小店,购物,便利店,浙江省,杭州市,富阳区,杭州市富阳区,,1,0,120.06587,29.854618,,shopping,http://api.map.baidu.com/place/detail?uid=1d7c8452189b1d89f7e73bea&output=html&source=placeapi_v2,,,,,,,,,,,,,,,,,,,,0
c2c145e138180441dbd89175,桂富商店,购物,便利店,浙江省,杭州市,富阳区,杭州市富阳区徐西线杭州富阳区常绿镇中心幼儿园西侧约90米,,1,0,120.090427,29.866734,,shopping,http://api.map.baidu.com/place/detail?uid=c2c145e138180441dbd89175&output=html&source=placeapi_v2,,,,,,,,,,,,,,,,,,,,0
8400aa7e19ec5b2408ccddfb,老粮站幼法商店,购物,便利店,浙江省,杭州市,富阳区,杭州市富阳区徐西线杭州富阳区常绿镇中心幼儿园西南侧约120米,,1,0,120.090363,29.866017,,shopping,http://api.map.baidu.com/place/detail?uid=8400aa7e19ec5b2408ccddfb&output=html&source=placeapi_v2,,,,,,,,,,,,,,,,,,,,0
e60a427e895ce47e734b871a,儒桥副食品商店,购物,便利店,浙江省,杭州市,桐庐县,杭州市桐庐县S302,,1,0,119.408485,29.901532,,shopping,http://api.map.baidu.com/place/detail?uid=e60a427e895ce47e734b871a&output=html&source=placeapi_v2,,,,,,,,,,,,,,,,,,119.4085797838,29.901625838937,0
b6c486a98f2891ba2fe67bb3,瑶琳仙境-小卖部,购物,便利店,浙江省,杭州市,桐庐县,浙江省杭州市桐庐县瑶琳南路110号,,1,0,119.542858,29.892003,,shopping,http://api.map.baidu.com/place/detail?uid=b6c486a98f2891ba2fe67bb3&output=html&source=placeapi_v2,,,,,,,,,,,,,,,,,,,,0
d12d3e8c758f939e3b221c8a,瑶琳仙境-小卖部,购物,便利店,浙江省,杭州市,桐庐县,杭州市桐庐县瑶琳镇桃源村瑶琳仙境内,,1,0,119.547872,29.893679,,shopping,http://api.map.baidu.com/place/detail?uid=d12d3e8c758f939e3b221c8a&output=html&source=placeapi_v2,,08:30-16:00,,,,,,,,,,,,,,,,,,0
53639def2528ac0358109302,易捷便利店(中国石化店),购物,便利店,浙江省,杭州市,桐庐县,浙江省杭州市桐庐县瑶琳镇元高线中国石化杭州焦山加油站,,1,0,119.590578,29.896622,,shopping,http://api.map.baidu.com/place/detail?uid=53639def2528ac0358109302&output=html&source=placeapi_v2,,,,,,,,,,,,,,,,,,,,0
4252d46865a77605a3acc4ef,家福便利店,购物,便利店,浙江省,杭州市,富阳区,杭州市富阳区蒋大线桐洲岛户马庄园,,1,0,119.806849,29.888622,,shopping,http://api.map.baidu.com/place/detail?uid=4252d46865a77605a3acc4ef&output=html&source=placeapi_v2,,,,,,,,,,,,,,,,,,,,0
451378f16fe644ddca2915c9,川连便利店,购物,便利店,浙江省,杭州市,富阳区,场口镇乌畴溪新村乌畴2号,,1,0,119.85539,29.887874,13968142645,shopping,http://api.map.baidu.com/place/detail?uid=451378f16fe644ddca2915c9&output=html&source=placeapi_v2,,06:30-22:30,,,,,,,,,,,,,,,,119.8553146272,29.887778445787,0
b02ef1e59463569ac4f50d95,华辰便利(幸福店),购物,便利店,浙江省,杭州市,富阳区,杭州市富阳区东仓线,,1,0,119.895044,29.893988,,shopping,http://api.map.baidu.com/place/detail?uid=b02ef1e59463569ac4f50d95&output=html&source=placeapi_v2,,,,,,,,,,,,,,,,,,,,0
61aff455766f3126250bd0a3,洪余副食品商店,购物,便利店,浙江省,杭州市,富阳区,杭州市富阳区常安镇安禾村七一352号,,1,0,119.914279,29.877178,13093753113,shopping,http://api.map.baidu.com/place/detail?uid=61aff455766f3126250bd0a3&output=html&source=placeapi_v2,,,,,,,,,,,,,,,,,,,,0
ca2f17f33e2af0ae49fc8d00,下沙地小店,购物,便利店,浙江省,杭州市,富阳区,杭州市富阳区环金线常安镇中心小学北侧约100米,,1,0,119.910626,29.88496,,shopping,http://api.map.baidu.com/place/detail?uid=ca2f17f33e2af0ae49fc8d00&output=html&source=placeapi_v2,,,,,,,,,,,,,,,,,,,,0
c91fd2bf6ea3a8f1f7b916cb,明玉小店,购物,便利店,浙江省,杭州市,富阳区,杭州市富阳区环金线常安汽车站东侧,c91fd2bf6ea3a8f1f7b916cb,1,0,119.907392,29.887801,,shopping,http://api.map.baidu.com/place/detail?uid=c91fd2bf6ea3a8f1f7b916cb&output=html&source=placeapi_v2,,,,,,,,,,,,,,,,,,,,0
539d151b9dbc78cf29b97cee,光文食品,购物,便利店,浙江省,杭州市,富阳区,杭州市富阳区环金线常安汽车站北侧约90米,,1,0,119.907012,29.888682,(0571)63566062,shopping,http://api.map.baidu.com/place/detail?uid=539d151b9dbc78cf29b97cee&output=html&source=placeapi_v2,,05:30-21:30,,,,,,,,,,,,,,,,,,0
2d00e9c51db1dec5e315f946,增富食品店,购物,便利店,浙江省,杭州市,富阳区,杭州市富阳区桐常线常安汽车站南侧约50米,2d00e9c51db1dec5e315f946,1,0,119.90707,29.887136,18758128291,shopping,http://api.map.baidu.com/place/detail?uid=2d00e9c51db1dec5e315f946&output=html&source=placeapi_v2,,06:00-21:00,,,,,,,,,,,,,,,,,,0
a1c22c4542c4053632f71dfc,何国珍副食品店,购物,便利店,浙江省,杭州市,富阳区,杭州市富阳区桐常线常安汽车站西南侧约40米,,1,0,119.906598,29.887172,,shopping,http://api.map.baidu.com/place/detail?uid=a1c22c4542c4053632f71dfc&output=html&source=placeapi_v2,,,,,,,,,,,,,,,,,,,,0
57fed2326df39de9a2046489,日用杂货店,购物,便利店,浙江省,杭州市,富阳区,大田村综合大楼(富阳区常安镇政府南)常安汽车站附近,57fed2326df39de9a2046489,1,0,119.907104,29.887325,,shopping,http://api.map.baidu.com/place/detail?uid=57fed2326df39de9a2046489&output=html&source=placeapi_v2,,,,,,,,,,,,,,,,,,,,0
eb8906dcb018209fdbd891a0,张山祥杂货店,购物,便利店,浙江省,杭州市,富阳区,杭州市富阳区桐常线常安汽车站西南侧约70米,eb8906dcb018209fdbd891a0,1,0,119.906143,29.886934,,shopping,http://api.map.baidu.com/place/detail?uid=eb8906dcb018209fdbd891a0&output=html&source=placeapi_v2,,,,,,,,,,,,,,,,,,,,0
c0e56f6e76d53bbdb64f543e,董家商店,购物,便利店,浙江省,杭州市,富阳区,浙江杭州市富阳区怀金线160号,,1,0,119.906118,29.890663,,shopping,http://api.map.baidu.com/place/detail?uid=c0e56f6e76d53bbdb64f543e&output=html&source=placeapi_v2,,,,,,,,,,,,,,,,,,,,0
0f029d8fce12ff79a8175a69,志贤商店,购物,便利店,浙江省,杭州市,富阳区,杭州市富阳区桐常线常安汽车站西南侧约80米,,1,0,119.905971,29.886895,,shopping,http://api.map.baidu.com/place/detail?uid=0f029d8fce12ff79a8175a69&output=html&source=placeapi_v2,,,,,,,,,,,,,,,,,,,,0
b6c260781e8522892d473322,建成副食品商店,购物,便利店,浙江省,杭州市,萧山区,杭州市萧山区毋萧线,,1,0,120.10834,29.877747,,shopping,http://api.map.baidu.com/place/detail?uid=b6c260781e8522892d473322&output=html&source=placeapi_v2,,,,,,,,,,,,,,,,,,,,0
ff2c7b745228828a6f4760e2,云蚂蚁便利店(院士路店),购物,便利店,浙江省,杭州市,桐庐县,浙江省杭州市桐庐县院士路744号,ff2c7b745228828a6f4760e2,1,0,119.441131,29.928458,,shopping,http://api.map.baidu.com/place/detail?uid=ff2c7b745228828a6f4760e2&output=html&source=placeapi_v2,,,,,,,,,,,,,,,,,,119.44118522496,29.928244390724,0
4be8dda8556694e9ad080fb3,多金副食品商店,购物,便利店,浙江省,杭州市,桐庐县,杭州市桐庐县院士路桐庐县分水实验小学西侧,,1,0,119.441039,29.928953,,shopping,http://api.map.baidu.com/place/detail?uid=4be8dda8556694e9ad080fb3&output=html&source=placeapi_v2,,,,,,,,,,,,,,,,,,119.44114203353,29.928973009396,0
461b46e28cf1488c1d1d119d,菜菜家的便利店,购物,便利店,浙江省,杭州市,桐庐县,分水镇冠华食品厂对面,461b46e28cf1488c1d1d119d,1,0,119.434653,29.928561,15168346864,shopping,http://api.map.baidu.com/place/detail?uid=461b46e28cf1488c1d1d119d&output=html&source=placeapi_v2,,06:00-23:00,,,,,,,,,,,,,,,,119.43446540478,29.928571107273,0
6506ad0970321be252e5c5a3,桐庐余氏综合门,购物,便利店,浙江省,杭州市,桐庐县,杭州市桐庐县新淳路桐庐农村合作银行(城西营业厅)西南侧约170米,6506ad0970321be252e5c5a3,1,0,119.433966,29.927786,(0571)64312418,shopping,http://api.map.baidu.com/place/detail?uid=6506ad0970321be252e5c5a3&output=html&source=placeapi_v2,,,,,,,,,,,,,,,,,,,,0
edb24b6a1f353339ede4a5de,徐记百货,购物,便利店,浙江省,杭州市,桐庐县,杭州市桐庐县武盛路桐庐县分水实验小学北侧约250米,edb24b6a1f353339ede4a5de,1,0,119.44163,29.931794,,shopping,http://api.map.baidu.com/place/detail?uid=edb24b6a1f353339ede4a5de&output=html&source=placeapi_v2,,,,,,,,,,,,,,,,,,119.44159289127,29.93215033442,0
8867cd8d61ef8d4217c8f61b,斌斌副食品商店(院士路分店),购物,便利店,浙江省,杭州市,桐庐县,浙江省杭州市桐庐县院士路532号,8867cd8d61ef8d4217c8f61b,1,0,119.445228,29.928851,15168207260,shopping,http://api.map.baidu.com/place/detail?uid=8867cd8d61ef8d4217c8f61b&output=html&source=placeapi_v2,,,,,,,,,,,,,,,,,,119.44522939906,29.928794770579,0
8b400114a2fd5834efe4a5d5,王轩副食品商店,购物,便利店,浙江省,杭州市,桐庐县,杭州市桐庐县武盛路与县前路交叉路口往西约150米,8b400114a2fd5834efe4a5d5,1,0,119.439996,29.932111,,shopping,http://api.map.baidu.com/place/detail?uid=8b400114a2fd5834efe4a5d5&output=html&source=placeapi_v2,,,,,,,,,,,,,,,,,,119.44007851706,29.932004997428,0
9e6cc65bf4a2222c62685831,盛富商店,购物,便利店,浙江省,杭州市,桐庐县,县前路与文化路交叉口西50米,,1,0,119.441524,29.932048,18906515026,shopping,http://api.map.baidu.com/place/detail?uid=9e6cc65bf4a2222c62685831&output=html&source=placeapi_v2,,00:00-24:00,,,,,,,,,,,,,,,,119.44158626267,29.932149521432,0
b3ce018ab4d7b909704b87e8,石小林商店,购物,便利店,浙江省,杭州市,桐庐县,浙江省杭州市桐庐县文化路70号,,1,0,119.439843,29.93313,(0571)64311425,shopping,http://api.map.baidu.com/place/detail?uid=b3ce018ab4d7b909704b87e8&output=html&source=placeapi_v2,,06:30-21:00,,,,,,,,,,,,,,,,,,0
d7fc20957cd087a2616858f2,琦园副食品商店,购物,便利店,浙江省,杭州市,桐庐县,杭州市桐庐县新淳路卫国陶瓷南侧约160米,,1,0,119.431827,29.926512,17767130223,shopping,http://api.map.baidu.com/place/detail?uid=d7fc20957cd087a2616858f2&output=html&source=placeapi_v2,,05:00-22:30,,,,,,,,,,,,,,,,,,0
34ab3161c6473de238e4a606,众新百货三部,购物,便利店,浙江省,杭州市,桐庐县,杭州市桐庐县武盛路与玉泉路交叉路口东北侧,,1,0,119.442622,29.932355,13876813587,shopping,http://api.map.baidu.com/place/detail?uid=34ab3161c6473de238e4a606&output=html&source=placeapi_v2,,,,,,,,,,,,,,,,,,119.44289687424,29.932248777841,0
96eb571b1229b9492cb17e6d,淘园商店,购物,便利店,浙江省,杭州市,桐庐县,浙江省杭州市桐庐县九龙路355号,,1,0,119.450207,29.930897,13806512810,shopping,http://api.map.baidu.com/place/detail?uid=96eb571b1229b9492cb17e6d&output=html&source=placeapi_v2,,,0,,,,,,,,1,,,,,,,119.45028049907,29.930907176022,0
7cf8b816a75e664b715e8062,李彩英商店,购物,便利店,浙江省,杭州市,桐庐县,杭州市桐庐县玉泉路桐庐分水高级中学西侧约200米,,1,0,119.443283,29.932176,,shopping,http://api.map.baidu.com/place/detail?uid=7cf8b816a75e664b715e8062&output=html&source=placeapi_v2,,,,,,,,,,,,,,,,,,119.44322175272,29.932235450023,0
ffa06bb77acdd87ab1077d05,桐益副食品商店,购物,便利店,浙江省,杭州市,桐庐县,杭州市桐庐县武盛路与县前路交叉路口往北约80米,ffa06bb77acdd87ab1077d05,1,0,119.441259,29.932852,,shopping,http://api.map.baidu.com/place/detail?uid=ffa06bb77acdd87ab1077d05&output=html&source=placeapi_v2,,,,,,,,,,,,,,,,,,,,0
f0f4afec47df1c12b1077dd6,两元起百货,购物,便利店,浙江省,杭州市,桐庐县,杭州市桐庐县玉泉路香榭公寓小区南侧约250米,,1,0,119.442373,29.93311,,shopping,http://api.map.baidu.com/place/detail?uid=f0f4afec47df1c12b1077dd6&output=html&source=placeapi_v2,,,,,,,,,,,,,,,,,,,,0
42ac59673c89b1d325d2bb05,缝补杂货店,购物,便利店,浙江省,杭州市,桐庐县,杭州市桐庐县玉泉路桐庐分水高级中学西侧约250米,42ac59673c89b1d325d2bb05,1,0,119.442656,29.932647,13958056197,shopping,http://api.map.baidu.com/place/detail?uid=42ac59673c89b1d325d2bb05&output=html&source=placeapi_v2,,,,,,,,,,,,,,,,,,119.44252576447,29.932636228363,0
921aafdf030c880d4e5547a5,卫军军民商店,购物,便利店,浙江省,杭州市,桐庐县,浙江省杭州市桐庐县玉华路366号,921aafdf030c880d4e5547a5,1,0,119.439644,29.934348,,shopping,http://api.map.baidu.com/place/detail?uid=921aafdf030c880d4e5547a5&output=html&source=placeapi_v2,,08:00-18:00,,,,,,,,,,,,,,,,119.43962354598,29.934233968812,0
a0f67ee6ab9efc44705e8027,家欢便利店,购物,便利店,浙江省,杭州市,桐庐县,浙江省杭州市桐庐县新淳路477号,a0f67ee6ab9efc44705e8027,1,0,119.438247,29.934347,13777391164,shopping,http://api.map.baidu.com/place/detail?uid=a0f67ee6ab9efc44705e8027&output=html&source=placeapi_v2,,07:00-22:30,,,,,,,,,,,,,,,,119.4382805999,29.934397633362,0
5be98c1c1ec6cc2c631c67b4,美张副食品店,购物,便利店,浙江省,杭州市,桐庐县,浙江省杭州市桐庐县玉泉路103号,,1,0,119.442273,29.934365,,shopping,http://api.map.baidu.com/place/detail?uid=5be98c1c1ec6cc2c631c67b4&output=html&source=placeapi_v2,,,,,,,,,,,,,,,,,,119.44237561181,29.934364016583,0
ba98ebd296b2f7ba9b68b427,那家商店,购物,便利店,浙江省,杭州市,桐庐县,浙江省杭州市桐庐县九龙路471号2楼204室,ba98ebd296b2f7ba9b68b427,1,0,119.449588,29.931902,18268887456,shopping,http://api.map.baidu.com/place/detail?uid=ba98ebd296b2f7ba9b68b427&output=html&source=placeapi_v2,,00:00-24:00,5,,,,,,,,1,,,,,,,119.44962160456,29.931851309665,0
04560ac37af762339c95def8,奕楷副食品商店,购物,便利店,浙江省,杭州市,桐庐县,杭州市桐庐县五云北路金水湾西侧约120米,,1,0,119.444067,29.934236,,shopping,http://api.map.baidu.com/place/detail?uid=04560ac37af762339c95def8&output=html&source=placeapi_v2,,,,,,,,,,,,,,,,,,,,0
50f86d43267c45c53be4a684,洁贝副食品商店,购物,便利店,浙江省,杭州市,桐庐县,浙江省杭州市桐庐县玉华路151-7号,50f86d43267c45c53be4a684,1,0,119.444342,29.934219,13735402655,shopping,http://api.map.baidu.com/place/detail?uid=50f86d43267c45c53be4a684&output=html&source=placeapi_v2,,,,,,,,,,,,,,,,,,119.44426178838,29.93417672982,0
48601f298051698d373a71e1,叶宗钦副食品商店,购物,便利店,浙江省,杭州市,桐庐县,杭州市桐庐县S302与三园路交叉路口往东约140米,,1,0,119.429272,29.924641,(0571)64332145,shopping,http://api.map.baidu.com/place/detail?uid=48601f298051698d373a71e1&output=html&source=placeapi_v2,,05:30-21:00,,,,,,,,,,,,,,,,,,0
cafb88bb8a56bbfcf32d83b8,荣福杂货店,购物,便利店,浙江省,杭州市,桐庐县,杭州市桐庐县东门路桐庐县第二人民医院东南侧约40米,,1,0,119.445885,29.939213,,shopping,http://api.map.baidu.com/place/detail?uid=cafb88bb8a56bbfcf32d83b8&output=html&source=placeapi_v2,,,,,,,,,,,,,,,,,,119.44597156649,29.939273198217,0
551706d78518ef93c51b7528,德伟副食品商店,购物,便利店,浙江省,杭州市,桐庐县,浙江省杭州市桐庐县九龙路613号,,1,0,119.451731,29.929636,13819476295,shopping,http://api.map.baidu.com/place/detail?uid=551706d78518ef93c51b7528&output=html&source=placeapi_v2,,10:00-04:00,,,,,,,,,,,,,,,,,,0
e7a64be1167df5458f1a89cd,百诚杂货,购物,便利店,浙江省,杭州市,桐庐县,杭州市桐庐县院士路南门苑,e7a64be1167df5458f1a89cd,1,0,119.450695,29.930739,(0571)64316958,shopping,http://api.map.baidu.com/place/detail?uid=e7a64be1167df5458f1a89cd&output=html&source=placeapi_v2,,07:30-22:00,,,,,,,,,,,,,,,,,,0
b002bd9134bb794cb6147f57,素香副食品商店,购物,便利店,浙江省,杭州市,桐庐县,杭州市桐庐县S302与三园路交叉路口往西约70米,b002bd9134bb794cb6147f57,1,0,119.427096,29.924263,,shopping,http://api.map.baidu.com/place/detail?uid=b002bd9134bb794cb6147f57&output=html&source=placeapi_v2,,,,,,,,,,,,,,,,,,,,0
3cebda2b305b000d09b93aea,罗山关友平价百货,购物,便利店,浙江省,杭州市,桐庐县,浙江省杭州市桐庐县九龙路601~603号,,1,0,119.451558,29.92977,13588219106,shopping,http://api.map.baidu.com/place/detail?uid=3cebda2b305b000d09b93aea&output=html&source=placeapi_v2,,,,,,,,,,,,,,,,,,,,0
0ab793dc2d17798b95ca0779,天天特价,购物,便利店,浙江省,杭州市,桐庐县,浙江省杭州市桐庐县广电路139号,0ab793dc2d17798b95ca0779,1,0,119.443735,29.936732,,shopping,http://api.map.baidu.com/place/detail?uid=0ab793dc2d17798b95ca0779&output=html&source=placeapi_v2,,09:00-21:30,,,,,,,,,,,,,,,,119.44334630278,29.936689202543,0
569fa2bbb107dda695f08c9d,家贤食品经销部,购物,便利店,浙江省,杭州市,桐庐县,浙江省杭州市桐庐县市达路238号,569fa2bbb107dda695f08c9d,1,0,119.451465,29.93061,18257233495,shopping,http://api.map.baidu.com/place/detail?uid=569fa2bbb107dda695f08c9d&output=html&source=placeapi_v2,,,,,,,,,,,,,,,,,,,,0
0551b72477d24e1e7f29bd58,金花副食品商店,购物,便利店,浙江省,杭州市,桐庐县,杭州市桐庐县S302与天英路交叉路口往东北约130米,,1,0,119.426091,29.923832,13456874829,shopping,http://api.map.baidu.com/place/detail?uid=0551b72477d24e1e7f29bd58&output=html&source=placeapi_v2,,,,,,,,,,,,,,,,,,119.42612374341,29.923762144832,0
5908335482e140151d1d11f5,新民水卫商店,购物,便利店,浙江省,杭州市,桐庐县,浙江省杭州市桐庐县新淳路46号,5908335482e140151d1d11f5,1,0,119.445936,29.939727,(0571)64314068,shopping,http://api.map.baidu.com/place/detail?uid=5908335482e140151d1d11f5&output=html&source=placeapi_v2,,,,,,,,,,,,,,,,,,119.44600431422,29.939658597165,0
baec233876cfec3329fc48fd,云凌百货,购物,便利店,浙江省,杭州市,桐庐县,浙江省杭州市桐庐县东门路14号,,1,0,119.445951,29.939116,,shopping,http://api.map.baidu.com/place/detail?uid=baec233876cfec3329fc48fd&output=html&source=placeapi_v2,,,,,,,,,,,,,,,,,,119.44607655056,29.939210186679,0
016cedee7fd6398f11882487,忠良副食品商店,购物,便利店,浙江省,杭州市,桐庐县,杭州市桐庐县302省道附近,,1,0,119.424737,29.923332,(0571)64318146,shopping,http://api.map.baidu.com/place/detail?uid=016cedee7fd6398f11882487&output=html&source=placeapi_v2,,,,,,,,,,,,,,,,,,119.4249056061,29.923122777051,0
db2ffb0f29eb5aa81d5800ff,苗永百货,购物,便利店,浙江省,杭州市,桐庐县,浙江省杭州市桐庐县广电路294号,,1,0,119.445976,29.937879,"(0571)64311973,13989455679",shopping,http://api.map.baidu.com/place/detail?uid=db2ffb0f29eb5aa81d5800ff&output=html&source=placeapi_v2,,,,,,,,,,,,,,,,,,,,0
1b1f67913c862329a1d2309a,小李商店,购物,便利店,浙江省,杭州市,桐庐县,浙江省杭州市桐庐县院士路117号,1b1f67913c862329a1d2309a,1,0,119.453298,29.93262,,shopping,http://api.map.baidu.com/place/detail?uid=1b1f67913c862329a1d2309a&output=html&source=placeapi_v2,,,,,,,,,,,,,,,,,,119.45315845613,29.932730093244,0
f1ef91a30d33aeff7ec8765e,海强批发部,购物,便利店,浙江省,杭州市,桐庐县,杭州市桐庐县东门路美景花苑小区西侧约30米,f1ef91a30d33aeff7ec8765e,1,0,119.446149,29.938983,13968018096,shopping,http://api.map.baidu.com/place/detail?uid=f1ef91a30d33aeff7ec8765e&output=html&source=placeapi_v2,,,,,,,,,,,,,,,,,,119.44620632067,29.93902144257,0
bf7dc12eeacddce69868b411,家福,购物,便利店,浙江省,杭州市,桐庐县,浙江杭州市桐庐县中心路52号,,1,0,119.447352,29.938686,,shopping,http://api.map.baidu.com/place/detail?uid=bf7dc12eeacddce69868b411&output=html&source=placeapi_v2,,,,,,,,,,,,,,,,,,,,0
826a1bdc06c188aec61b75e1,日杂百货,购物,便利店,浙江省,杭州市,桐庐县,浙江省杭州市桐庐县新淳路桐庐县第二人民医院东侧约60米,826a1bdc06c188aec61b75e1,1,0,119.44618,29.939895,15345816010,shopping,http://api.map.baidu.com/place/detail?uid=826a1bdc06c188aec61b75e1&output=html&source=placeapi_v2,,,,,,,,,,,,,,,,,,119.44623255029,29.939827450643,0
dfd19414f3e23d462cb908e3,白沙云美小店,购物,便利店,浙江省,杭州市,桐庐县,浙江省杭州市桐庐县朱龙线,,1,0,119.466045,29.928671,13575713391,shopping,http://api.map.baidu.com/place/detail?uid=dfd19414f3e23d462cb908e3&output=html&source=placeapi_v2,,,,,,,,,,,,,,,,,,,,0
dc9fb8899b0e8fec3f9a5e08,周强小店,购物,便利店,浙江省,杭州市,桐庐县,杭州市桐庐县S302与元高线交叉路口往北约210米,,1,0,119.601212,29.929257,,shopping,http://api.map.baidu.com/place/detail?uid=dc9fb8899b0e8fec3f9a5e08&output=html&source=placeapi_v2,,,,,,,,,,,,,,,,,,,,0
f63ce6567ad7277251e5c510,富阳供销e家综合服务站龙海百货商店,购物,便利店,浙江省,杭州市,富阳区,浙江省杭州市富阳区新莲线,,1,0,119.716372,29.931187,,shopping,http://api.map.baidu.com/place/detail?uid=f63ce6567ad7277251e5c510&output=html&source=placeapi_v2,,,,,,,,,,,,,,,,,,,,0
c7b6280427194e35abf72955,徐姗食品店,购物,便利店,浙江省,杭州市,富阳区,杭州市富阳区S305渌渚镇中心小学东南侧约130米,c7b6280427194e35abf72955,1,0,119.733916,29.921194,,shopping,http://api.map.baidu.com/place/detail?uid=c7b6280427194e35abf72955&output=html&source=placeapi_v2,,,,,,,,,,,,,,,,,,,,0
c640e3301e1d98a732870a3c,玉兰食品店,购物,便利店,浙江省,杭州市,富阳区,浙江省杭州市富阳区蒋大线,c640e3301e1d98a732870a3c,1,0,119.848669,29.932685,(0571)63487765,shopping,http://api.map.baidu.com/place/detail?uid=c640e3301e1d98a732870a3c&output=html&source=placeapi_v2,,06:00-20:00,,,,,,,,,,,,,,,,,,0
8e743346753036d3f503b87e,何英副食品商店(何英场口分店),购物,便利店,浙江省,杭州市,富阳区,红星村,,1,0,119.875619,29.926718,13968096065,shopping,http://api.map.baidu.com/place/detail?uid=8e743346753036d3f503b87e&output=html&source=placeapi_v2,,,,,,,,,,,,,,,,,,,,0
e8ca20588f25dece9e82ea24,华辰便利(周家村店),购物,便利店,浙江省,杭州市,富阳区,富阳区场口镇马山村周家70号,e8ca20588f25dece9e82ea24,1,0,119.887147,29.929809,15858157378,shopping,http://api.map.baidu.com/place/detail?uid=e8ca20588f25dece9e82ea24&output=html&source=placeapi_v2,,,,,,,,,,,,,,,,,,,,0
9c70686cd3ffbbbcf7e73b86,喜成商行,购物,便利店,浙江省,杭州市,富阳区,杭州市富阳区东上线场口镇中心幼儿园西北侧,9c70686cd3ffbbbcf7e73b86,1,0,119.885082,29.917988,,shopping,http://api.map.baidu.com/place/detail?uid=9c70686cd3ffbbbcf7e73b86&output=html&source=placeapi_v2,,,,,,,,,,,,,,,,,,,,0
a3d8c3806cad3f84932ca3a6,喜玉食品店,购物,便利店,浙江省,杭州市,富阳区,杭州市富阳区东西街场口镇中心幼儿园西侧约50米,a3d8c3806cad3f84932ca3a6,1,0,119.884679,29.917732,(0571)63572488,shopping,http://api.map.baidu.com/place/detail?uid=a3d8c3806cad3f84932ca3a6&output=html&source=placeapi_v2,,,0,,,,,,,,0,,,,,,,,,0
c341af65d177d58bc5effbed,金泰百货,购物,便利店,浙江省,杭州市,富阳区,浙江省杭州市富阳区哆哆商业广场1楼,c341af65d177d58bc5effbed,1,0,119.883122,29.913833,,shopping,http://api.map.baidu.com/place/detail?uid=c341af65d177d58bc5effbed&output=html&source=placeapi_v2,,08:00-21:00,,,,,,,,,,,,,,,,119.88359486925,29.913995851442,0
3a9d61608db2d551601c674f,优品百货(哆哆商业广场店),购物,便利店,浙江省,杭州市,富阳区,浙江省杭州市富阳区洋涨路61号,3a9d61608db2d551601c674f,1,0,119.883594,29.913631,18268165428,shopping,http://api.map.baidu.com/place/detail?uid=3a9d61608db2d551601c674f&output=html&source=placeapi_v2,,,,,,,,,,,,,,,,,,,,0
8ca02b00988a4b32ca09f001,微微百货,购物,便利店,浙江省,杭州市,富阳区,杭州市富阳区创业路场口农贸市场西侧,8ca02b00988a4b32ca09f001,1,0,119.883981,29.913047,,shopping,http://api.map.baidu.com/place/detail?uid=8ca02b00988a4b32ca09f001&output=html&source=placeapi_v2,,07:30-21:30,,,,,,,,,,,,,,,,,,0
103b1664a2fb9e813be4a6ee,华辰便利(汤金段店),购物,便利店,浙江省,杭州市,富阳区,杭州市富阳区环金线富阳富居宾馆东北侧,103b1664a2fb9e813be4a6ee,1,0,119.908353,29.926195,15990095525,shopping,http://api.map.baidu.com/place/detail?uid=103b1664a2fb9e813be4a6ee&output=html&source=placeapi_v2,,,,,,,,,,,,,,,,,,,,0
7a6bdff97bc562a7f60e7754,逸敏商店(环山分店),购物,便利店,浙江省,杭州市,富阳区,杭州市富阳区S307富阳市环山乡人民政府北侧约140米,7a6bdff97bc562a7f60e7754,1,0,119.934011,29.933865,(0571)63561074,shopping,http://api.map.baidu.com/place/detail?uid=7a6bdff97bc562a7f60e7754&output=html&source=placeapi_v2,,06:00-21:00,0.0,,,,,,,,,,,,,,,119.93395207592,29.933884019466,0
5067b42d3f8fdb8c3ce231d4,汤青山超市,购物,便利店,浙江省,杭州市,富阳区,杭州市富阳区环金线驿家宾馆西侧约80米,5067b42d3f8fdb8c3ce231d4,1,0,119.905902,29.924561,13567127833,shopping,http://api.map.baidu.com/place/detail?uid=5067b42d3f8fdb8c3ce231d4&output=html&source=placeapi_v2,,06:00-23:00,0.0,,,,,,,,0,,,,,,,119.90578214937,29.924617412817,0
cb5132b6dbe3f7e9a0acc4c8,树根百货商店,购物,便利店,浙江省,杭州市,富阳区,杭州市富阳区S307富阳市环山乡人民政府北侧约200米,cb5132b6dbe3f7e9a0acc4c8,1,0,119.934299,29.93441,,shopping,http://api.map.baidu.com/place/detail?uid=cb5132b6dbe3f7e9a0acc4c8&output=html&source=placeapi_v2,,,,,,,,,,,,,,,,,,,,0
8fe256c8c6e2568b4d776ea6,杭州华联(环山店),购物,便利店,浙江省,杭州市,富阳区,杭州市富阳区S307环山中心幼儿园西侧约190米,8fe256c8c6e2568b4d776ea6,1,0,119.935352,29.936324,18767862039,shopping,http://api.map.baidu.com/place/detail?uid=8fe256c8c6e2568b4d776ea6&output=html&source=placeapi_v2,,06:20-22:00,,,,,,,,,,,,,,,,119.93533924917,29.936154981369,0
eee07a4a9deaa0c852e5c5b1,水果便利店,购物,便利店,浙江省,杭州市,富阳区,杭州市富阳区汤场线万悦宾馆东北侧约90米,eee07a4a9deaa0c852e5c5b1,1,0,119.907166,29.925594,,shopping,http://api.map.baidu.com/place/detail?uid=eee07a4a9deaa0c852e5c5b1&output=html&source=placeapi_v2,,,,,,,,,,,,,,,,,,119.90711978557,29.925571199142,0
e7b1b2f36f63990b31870a7e,洋涨佬副食品商店(彤彤分店),购物,便利店,浙江省,杭州市,富阳区,杭州市富阳区环一村152号,e7b1b2f36f63990b31870a7e,1,0,119.935057,29.93642,"(0571)63562187,15988126761",shopping,http://api.map.baidu.com/place/detail?uid=e7b1b2f36f63990b31870a7e&output=html&source=placeapi_v2,,,0.0,,,,,,,,1,,,,,,,119.93520411438,29.936569194619,0
e3473d20ac9763a7f5c59c88,友娟商店,购物,便利店,浙江省,杭州市,富阳区,杭州市富阳区徐樟线浙江富阳农村合作银行南侧约130米,,1,0,120.073703,29.920078,18968017002,shopping,http://api.map.baidu.com/place/detail?uid=e3473d20ac9763a7f5c59c88&output=html&source=placeapi_v2,,,,,,,,,,,,,,,,,,,,0
f4fe3222eb0bf399b5f42f6b,湘运龙山超市,购物,便利店,浙江省,杭州市,萧山区,杭州市萧山区楼塔开发区23号,f4fe3222eb0bf399b5f42f6b,1,0,120.160755,29.923699,13251000602,shopping,http://api.map.baidu.com/place/detail?uid=f4fe3222eb0bf399b5f42f6b&output=html&source=placeapi_v2,,,0.0,,,,,,,,1,,,,,,,120.16051967955,29.923775477083,0
4194d7ac78289d5d43e19286,祥之瑞便利店,购物,便利店,浙江省,杭州市,萧山区,杭州市萧山区后溪弄与溪口路交叉路口往北约120米,4194d7ac78289d5d43e19286,1,0,120.135561,29.915616,,shopping,http://api.map.baidu.com/place/detail?uid=4194d7ac78289d5d43e19286&output=html&source=placeapi_v2,,,,,,,,,,,,,,,,,,,,0
5e11a9ba8716fd73ab059d50,香溢便利店(钱H路店),购物,便利店,浙江省,杭州市,萧山区,杭州市萧山区钱H路战友宾馆西北侧约70米,5e11a9ba8716fd73ab059d50,1,0,120.158613,29.922967,,shopping,http://api.map.baidu.com/place/detail?uid=5e11a9ba8716fd73ab059d50&output=html&source=placeapi_v2,,,,,,,,,,,,,,,,,,,,0
c15507ebbccb2ab71811d598,领健365网红便利店(杭州萧山楼塔店),购物,便利店,浙江省,杭州市,萧山区,杭州市萧山区洲口路欢乐幼儿园西北侧约260米,c15507ebbccb2ab71811d598,1,0,120.139677,29.911705,4008705995,shopping,http://api.map.baidu.com/place/detail?uid=c15507ebbccb2ab71811d598&output=html&source=placeapi_v2,,,,,,,,,,,,,,,,,,120.13978112817,29.911740766823,0
92f6f46ce291c493455726e3,章吾中食品店,购物,便利店,浙江省,杭州市,萧山区,浙江省杭州市萧山区联发村(魏家塔)201正南方向190米,92f6f46ce291c493455726e3,1,0,120.161705,29.927436,15867165058,shopping,http://api.map.baidu.com/place/detail?uid=92f6f46ce291c493455726e3&output=html&source=placeapi_v2,,,,,,,,,,,,,,,,,,,,0
317f9b8cc95e064a1df74d57,香溢零售便利店,购物,便利店,浙江省,杭州市,萧山区,杭州市萧山区G235中国石化加油站(浙江石油萧山银鹰加油站)东侧约30米,317f9b8cc95e064a1df74d57,1,0,120.16242,29.92914,,shopping,http://api.map.baidu.com/place/detail?uid=317f9b8cc95e064a1df74d57&output=html&source=placeapi_v2,,,,,,,,,,,,,,,,,,,,0
3f52dafdbc6a8da6b7f42f4d,黄氏商店,购物,便利店,浙江省,杭州市,桐庐县,杭州市桐庐县分老线桐庐县农村信用合作社(怡合分理处)东侧约210米,,1,0,119.367991,29.961908,,shopping,http://api.map.baidu.com/place/detail?uid=3f52dafdbc6a8da6b7f42f4d&output=html&source=placeapi_v2,,,,,,,,,,,,,,,,,,,,0
21937b02944e3d423362124b,桥东副食品商店,购物,便利店,浙江省,杭州市,桐庐县,分水镇桥东村259号,,1,0,119.44681,29.948365,13777397089,shopping,http://api.map.baidu.com/place/detail?uid=21937b02944e3d423362124b&output=html&source=placeapi_v2,,,,,,,,,,,,,,,,,,,,0
2707b38b6851064a08ccddd5,小伟商店,购物,便利店,浙江省,杭州市,桐庐县,杭州市桐庐县S208,2707b38b6851064a08ccddd5,1,0,119.448197,29.946531,,shopping,http://api.map.baidu.com/place/detail?uid=2707b38b6851064a08ccddd5&output=html&source=placeapi_v2,,,,,,,,,,,,,,,,,,,,0
462088455705394a213bf2e4,磨湾口便民店,购物,便利店,浙江省,杭州市,桐庐县,桐庐县柏山村一组22号,,1,0,119.477093,29.951537,15888853210,shopping,http://api.map.baidu.com/place/detail?uid=462088455705394a213bf2e4&output=html&source=placeapi_v2,,,,,,,,,,,,,,,,,,,,0
ee375bee36ff50fe2b11d129,柏山路口商店,购物,便利店,浙江省,杭州市,桐庐县,杭州市桐庐县S302与新淳东路交叉路口往东北约60米,ee375bee36ff50fe2b11d129,1,0,119.474696,29.951297,,shopping,http://api.map.baidu.com/place/detail?uid=ee375bee36ff50fe2b11d129&output=html&source=placeapi_v2,,,,,,,,,,,,,,,,,,,,0
875bb6d59962cf31c17da22e,洪娟小店,购物,便利店,浙江省,杭州市,富阳区,浙江省杭州市富阳区S302,,1,0,119.665311,29.974664,,shopping,http://api.map.baidu.com/place/detail?uid=875bb6d59962cf31c17da22e&output=html&source=placeapi_v2,,,,,,,,,,,,,,,,,,,,0
1fd99be639968c68400245e3,快乐小店,购物,便利店,浙江省,杭州市,富阳区,白家村老年活动室附近,,1,0,119.719421,29.960057,,shopping,http://api.map.baidu.com/place/detail?uid=1fd99be639968c68400245e3&output=html&source=placeapi_v2,,,,,,,,,,,,,,,,,,,,0
bf754ccca103738e10293592,君儿副食品商店,购物,便利店,浙江省,杭州市,富阳区,新登镇双塔村76号天翔纸业对面,bf754ccca103738e10293592,1,0,119.750335,29.961198,18868890078,shopping,http://api.map.baidu.com/place/detail?uid=bf754ccca103738e10293592&output=html&source=placeapi_v2,,,,,,,,,,,,,,,,,,,,0
f604d35aec4a8acd48cc4afc,根玉副食品商店,购物,便利店,浙江省,杭州市,富阳区,双塔村加油站旁,f604d35aec4a8acd48cc4afc,1,0,119.75013,29.962722,,shopping,http://api.map.baidu.com/place/detail?uid=f604d35aec4a8acd48cc4afc&output=html&source=placeapi_v2,,06:30-21:30,,,,,,,,,,,,,,,,,,0
e2a38e88eba5874a455726ff,永润发副食品商店,购物,便利店,浙江省,杭州市,富阳区,杭州市富阳区S305中国石化加油站(海光站)东南侧约230米,e2a38e88eba5874a455726ff,1,0,119.751192,29.961581,(0571)63216270,shopping,http://api.map.baidu.com/place/detail?uid=e2a38e88eba5874a455726ff&output=html&source=placeapi_v2,,,,,,,,,,,,,,,,,,,,0
12cf9a9fa132d2922cb96db5,易捷便利店(登城南路店),购物,便利店,浙江省,杭州市,富阳区,杭州市富阳区S305中国石化加油站(海光站)北侧,12cf9a9fa132d2922cb96db5,1,0,119.749761,29.963552,,shopping,http://api.map.baidu.com/place/detail?uid=12cf9a9fa132d2922cb96db5&output=html&source=placeapi_v2,,,0.0,,,,,,,,,,,,,,,119.74988624341,29.963317085989,0
8a1350acfff1899bbb17e738,群军商店,购物,便利店,浙江省,杭州市,富阳区,杭州市富阳区S305,,1,0,119.749822,29.957449,,shopping,http://api.map.baidu.com/place/detail?uid=8a1350acfff1899bbb17e738&output=html&source=placeapi_v2,,,,,,,,,,,,,,,,,,,,0
b5c5386f422ce6ab6ea3cca4,利平制,购物,便利店,浙江省,杭州市,富阳区,杭州市富阳区东安路双溪天城-南区西北侧约70米,b5c5386f422ce6ab6ea3cca4,1,0,119.746077,29.968598,,shopping,http://api.map.baidu.com/place/detail?uid=b5c5386f422ce6ab6ea3cca4&output=html&source=placeapi_v2,,,,,,,,,,,,,,,,,,,,0
68c32ca1e3fd5b9ebabd6393,茂盛副食品商店,购物,便利店,浙江省,杭州市,富阳区,浙江省杭州市富阳区东安路41-5号,68c32ca1e3fd5b9ebabd6393,1,0,119.744201,29.968376,(0571)63253327,shopping,http://api.map.baidu.com/place/detail?uid=68c32ca1e3fd5b9ebabd6393&output=html&source=placeapi_v2,,07:00-22:00,,,,,,,,,,,,,,,,,,0
53715a94c8eaaad0b42655bf,金花副食品店,购物,便利店,浙江省,杭州市,富阳区,浙江省杭州市富阳区登城南路3号,53715a94c8eaaad0b42655bf,1,0,119.745201,29.967745,13819130943,shopping,http://api.map.baidu.com/place/detail?uid=53715a94c8eaaad0b42655bf&output=html&source=placeapi_v2,,05:30-22:00,,,,,,,,,,,,,,,,119.74530826743,29.967835793138,0
033ce0909c5c3730df1e52b8,连高副食品商店,购物,便利店,浙江省,杭州市,富阳区,浙江省杭州市富阳区秉贤街96号,033ce0909c5c3730df1e52b8,1,0,119.737534,29.972337,(0571)63255637,shopping,http://api.map.baidu.com/place/detail?uid=033ce0909c5c3730df1e52b8&output=html&source=placeapi_v2,,05:30-23:00,5,,,,,,,,1,,,,,,,119.7377022482,29.972405251052,0
5f69166f4ca4ea5ac51e5151,新兴小百货,购物,便利店,浙江省,杭州市,富阳区,杭州市富阳区新莲线大华新兴花园小区东南侧约190米,5f69166f4ca4ea5ac51e5151,1,0,119.736857,29.972607,13819132053,shopping,http://api.map.baidu.com/place/detail?uid=5f69166f4ca4ea5ac51e5151&output=html&source=placeapi_v2,,,,,,,,,,,,,,,,,,,,0
1f50375359df621b0289724e,杰杰商店(葛溪西路店),购物,便利店,浙江省,杭州市,富阳区,浙江省杭州市富阳区葛溪西路34~35号,1f50375359df621b0289724e,1,0,119.73834,29.971227,13738190027,shopping,http://api.map.baidu.com/place/detail?uid=1f50375359df621b0289724e&output=html&source=placeapi_v2,,07:00-20:00,,,,,,,,,,,,,,,,,,0
eab72df4b61b41cd9868b46d,萍萍小百货,购物,便利店,浙江省,杭州市,富阳区,杭州市富阳区新城街新登镇好宝宝幼儿园西南侧约100米,,1,0,119.740561,29.974693,,shopping,http://api.map.baidu.com/place/detail?uid=eab72df4b61b41cd9868b46d&output=html&source=placeapi_v2,,,,,,,,,,,,,,,,,,,,0
3d3bb0450fad50f142d63e89,亦家小店,购物,便利店,浙江省,杭州市,富阳区,浙江省杭州市富阳区东门路2-8号,3d3bb0450fad50f142d63e89,1,0,119.742238,29.97338,18858115561,shopping,http://api.map.baidu.com/place/detail?uid=3d3bb0450fad50f142d63e89&output=html&source=placeapi_v2,,,0,,,,,,,,0,,,,,,,,,0
af4c54d37e807ce8f1193764,优品微店,购物,便利店,浙江省,杭州市,富阳区,杭州市富阳区东门东路新登站西北侧,af4c54d37e807ce8f1193764,1,0,119.746117,29.973472,13750844148,shopping,http://api.map.baidu.com/place/detail?uid=af4c54d37e807ce8f1193764&output=html&source=placeapi_v2,,,,,,,,,,,,,,,,,,,,0
13eeff798ee34717a1a9347a,峰子杂货,购物,便利店,浙江省,杭州市,富阳区,杭州市富阳区新莲线大华新兴花园小区东南侧约160米,13eeff798ee34717a1a9347a,1,0,119.736688,29.972756,18806507871,shopping,http://api.map.baidu.com/place/detail?uid=13eeff798ee34717a1a9347a&output=html&source=placeapi_v2,,,,,,,,,,,,,,,,,,,,0
083d61736df47b811329354c,杂货批发,购物,便利店,浙江省,杭州市,富阳区,杭州市富阳区新莲线大华新兴花园小区东南侧约180米,,1,0,119.737033,29.972795,,shopping,http://api.map.baidu.com/place/detail?uid=083d61736df47b811329354c&output=html&source=placeapi_v2,,,,,,,,,,,,,,,,,,119.73697868917,29.972852309874,0
db5a1e6ee963aa72213bf200,生良食品店,购物,便利店,浙江省,杭州市,富阳区,杭州市富阳区南新线,,1,0,119.832924,29.976255,,shopping,http://api.map.baidu.com/place/detail?uid=db5a1e6ee963aa72213bf200&output=html&source=placeapi_v2,,,,,,,,,,,,,,,,,,,,0
109fa0252e4836ed8e772736,元发副食品店,购物,便利店,浙江省,杭州市,富阳区,杭州市富阳区环山乡中埠新农村8号,,1,0,119.925175,29.967745,15888899788,shopping,http://api.map.baidu.com/place/detail?uid=109fa0252e4836ed8e772736&output=html&source=placeapi_v2,,,,,,,,,,,,,,,,,,119.92541193305,29.967784419207,0
157baf0c1776903db72655a3,大坞朱小店,购物,便利店,浙江省,杭州市,萧山区,杭州市萧山区三联村大坞朱,157baf0c1776903db72655a3,1,0,120.144668,29.948088,15988109037,shopping,http://api.map.baidu.com/place/detail?uid=157baf0c1776903db72655a3&output=html&source=placeapi_v2,,06:00-22:30,,,,,,,,,,,,,,,,,,0
5d036e22782fc86e28201a0c,周丽便利店,购物,便利店,浙江省,杭州市,萧山区,杭州市萧山区G235中国石化碧辟(之江加油站)西北侧约70米,,1,0,120.184152,29.954114,,shopping,http://api.map.baidu.com/place/detail?uid=5d036e22782fc86e28201a0c&output=html&source=placeapi_v2,,07:00-21:30,,,,,,,,,,,,,,,,,,0
036bed6f848ebb187bf79656,经游综合商店,购物,便利店,浙江省,杭州市,萧山区,浙江省杭州市萧山区浦阳镇径游八径路经游菜场公交站,,1,0,120.275924,29.960684,"(0571)82321785,18967148282",shopping,http://api.map.baidu.com/place/detail?uid=036bed6f848ebb187bf79656&output=html&source=placeapi_v2,,05:30-21:00,0,,,,,,,,0,,,,,,,120.27609977168,29.96071985433,0
a3872286cd39fdfb07026f3d,杭州华联(浦阳径游店),购物,便利店,浙江省,杭州市,萧山区,浙江省杭州市萧山区八径路102号2组,,1,0,120.275985,29.959976,(0571)82238865,shopping,http://api.map.baidu.com/place/detail?uid=a3872286cd39fdfb07026f3d&output=html&source=placeapi_v2,,06:30-23:00,5.0,,,,,,,,2,,,,,,,120.27619079698,29.959927009,0
319d4b443abc2ee831f71ddb,径游上益副食品综合商店,购物,便利店,浙江省,杭州市,萧山区,杭州市萧山区八径路浦阳镇径游中心小学东侧约200米,,1,0,120.275241,29.964176,,shopping,http://api.map.baidu.com/place/detail?uid=319d4b443abc2ee831f71ddb&output=html&source=placeapi_v2,,,,,,,,,,,,,,,,,,,,0
9d354b3ece971709a1046414,福万家超市(汪家塘店),购物,便利店,浙江省,杭州市,萧山区,八径线与桥东路交叉口南100米,,1,0,120.27324,29.969933,13735473525,shopping,http://api.map.baidu.com/place/detail?uid=9d354b3ece971709a1046414&output=html&source=placeapi_v2,,06:00-23:00,0,,,,,,,,0,,,,,,,120.27331150954,29.969957218207,0
ca010a1c38763835ed74f885,沈家小店,购物,便利店,浙江省,杭州市,萧山区,杭州市萧山区浦阳镇桃湖沈家村,,1,0,120.254711,29.963685,,shopping,http://api.map.baidu.com/place/detail?uid=ca010a1c38763835ed74f885&output=html&source=placeapi_v2,,,,,,,,,,,,,,,,,,,,0
6dcb6e43c0cc5499581093e6,新益佳超市(廖瑞强加盟店),购物,便利店,浙江省,杭州市,萧山区,杭州市萧山区谢家村987号,,1,0,120.268773,29.971437,18069779169,shopping,http://api.map.baidu.com/place/detail?uid=6dcb6e43c0cc5499581093e6&output=html&source=placeapi_v2,,,,,,,,,,,,,,,,,,120.26873535981,29.971277246854,0
79caf71bcc5cddd408f5eb6c,中国石油-便利店,购物,便利店,浙江省,杭州市,萧山区,浙江省杭州市萧山区浦阳镇谢家大泥线中国石油浦阳加油站,,1,0,120.268726,29.970837,,shopping,http://api.map.baidu.com/place/detail?uid=79caf71bcc5cddd408f5eb6c&output=html&source=placeapi_v2,,,0.0,,,,,,,,,,,,,,,120.26879602957,29.971030468224,0
aaf12980689ae5448605bf8b,陈云美食品店,购物,便利店,浙江省,杭州市,萧山区,浙江省杭州市萧山区木杓山53号,,1,0,120.262046,29.973141,18793161542,shopping,http://api.map.baidu.com/place/detail?uid=aaf12980689ae5448605bf8b&output=html&source=placeapi_v2,,09:00-22:00,,,,,,,,,,,,,,,,120.26222810836,29.973261417107,0
650fa3fe16a9ed51246e982d,朱庆华小卖部,购物,便利店,浙江省,杭州市,桐庐县,杭州市桐庐县乐老线,,1,0,119.403474,29.986473,,shopping,http://api.map.baidu.com/place/detail?uid=650fa3fe16a9ed51246e982d&output=html&source=placeapi_v2,,,,,,,,,,,,,,,,,,119.4034687713,29.98637370477,0
ea343a817dd7756c09b93a44,刘金荣百杂货店,购物,便利店,浙江省,杭州市,桐庐县,杭州市桐庐县法横线桐庐农村商业银行分水支行(保安分理处)东侧约50米,,1,0,119.449684,30.010444,15869197638,shopping,http://api.map.baidu.com/place/detail?uid=ea343a817dd7756c09b93a44&output=html&source=placeapi_v2,,,,,,,,,,,,,,,,,,,,0
1e8e1fd171cf1fbe2b201a62,便民放心示范店,购物,便利店,浙江省,杭州市,富阳区,杭州市富阳区太查线与俞毕线交叉路口往西南约210米,,1,0,119.560965,29.997729,,shopping,http://api.map.baidu.com/place/detail?uid=1e8e1fd171cf1fbe2b201a62&output=html&source=placeapi_v2,,,,,,,,,,,,,,,,,,,,0
27726248d78651f8a11de986,瑞香副食品商店,购物,便利店,浙江省,杭州市,富阳区,杭州市富阳区,,1,0,119.627712,29.986981,,shopping,http://api.map.baidu.com/place/detail?uid=27726248d78651f8a11de986&output=html&source=placeapi_v2,,,,,,,,,,,,,,,,,,,,0
04ccfb9e755d665f81a12e4f,华辰超市(葛溪加盟店),购物,便利店,浙江省,杭州市,富阳区,胥口镇闻家桥红羽宾馆,04ccfb9e755d665f81a12e4f,1,0,119.659399,30.001181,(0571)63280518,shopping,http://api.map.baidu.com/place/detail?uid=04ccfb9e755d665f81a12e4f&output=html&source=placeapi_v2,,06:00-20:30,3.0,,,,,,,,2,,,,,,,119.65947219136,30.001316890189,0
420398f59f1682217069d3fa,百乐食品,购物,便利店,浙江省,杭州市,富阳区,新板村闻家桥百乐食品商店,420398f59f1682217069d3fa,1,0,119.660244,30.000767,13588738672,shopping,http://api.map.baidu.com/place/detail?uid=420398f59f1682217069d3fa&output=html&source=placeapi_v2,,,,,,,,,,,,,,,,,,119.66033035429,30.000875761439,0
5cb96849c802716dfd0eb034,国森副食品商店,购物,便利店,浙江省,杭州市,富阳区,杭州市富阳区胥口村综合大楼,5cb96849c802716dfd0eb034,1,0,119.676337,29.988582,(0571)63283079,shopping,http://api.map.baidu.com/place/detail?uid=5cb96849c802716dfd0eb034&output=html&source=placeapi_v2,,06:30-20:30,,,,,,,,,,,,,,,,,,0
77bd4943a16e126e6f3e1be6,易捷便利店(城北路店),购物,便利店,浙江省,杭州市,富阳区,浙江省杭州市富阳区登城北路81号,,1,0,119.745212,29.983576,(0571)63251733,shopping,http://api.map.baidu.com/place/detail?uid=77bd4943a16e126e6f3e1be6&output=html&source=placeapi_v2,,,0,,,,,,,,1,,,,,,,119.74534898133,29.983513870328,0
978d73282b7978312b201abf,便利店,购物,便利店,浙江省,杭州市,富阳区,杭州市富阳区金城路富春・港东南侧约210米,,1,0,119.746144,29.977555,,shopping,http://api.map.baidu.com/place/detail?uid=978d73282b7978312b201abf&output=html&source=placeapi_v2,,,,,,,,,,,,,,,,,,,,0
a8fe4826cb7bd73179dbd275,阿郎便利店,购物,便利店,浙江省,杭州市,富阳区,杭州市富阳区上徐线新展酒店西侧,a8fe4826cb7bd73179dbd275,1,0,119.747182,29.988161,,shopping,http://api.map.baidu.com/place/detail?uid=a8fe4826cb7bd73179dbd275&output=html&source=placeapi_v2,,,,,,,,,,,,,,,,,,,,0
5101707f3d06db06a21de917,惠丰商行,购物,便利店,浙江省,杭州市,富阳区,浙江省杭州市富阳区金城路138号,5101707f3d06db06a21de917,1,0,119.746828,29.987077,15057118725,shopping,http://api.map.baidu.com/place/detail?uid=5101707f3d06db06a21de917&output=html&source=placeapi_v2,,05:00-23:00,,,,,,,,,,,,,,,,,,0
33becf05d10ea0ddd92f28f3,久栖便利店,购物,便利店,浙江省,杭州市,富阳区,杭州市富阳区乘七线富阳区新登中学北侧,33becf05d10ea0ddd92f28f3,1,0,119.74185,29.981304,,shopping,http://api.map.baidu.com/place/detail?uid=33becf05d10ea0ddd92f28f3&output=html&source=placeapi_v2,,,,,,,,,,,,,,,,,,,,0
6e336289a5a00a6e1b94c65f,北门小店,购物,便利店,浙江省,杭州市,富阳区,浙江省杭州市富阳区共和北路253号,,1,0,119.741024,29.978733,13868168464,shopping,http://api.map.baidu.com/place/detail?uid=6e336289a5a00a6e1b94c65f&output=html&source=placeapi_v2,,06:30-22:00,,,,,,,,,,,,,,,,119.740962092,29.978726607097,0
db4ef2eb11c43ba6fe0eb069,单萍日用杂货店,购物,便利店,浙江省,杭州市,富阳区,杭州市富阳区S206松溪家园北侧约210米,db4ef2eb11c43ba6fe0eb069,1,0,119.758181,30.006977,13645813450,shopping,http://api.map.baidu.com/place/detail?uid=db4ef2eb11c43ba6fe0eb069&output=html&source=placeapi_v2,,06:30-21:00,,,,,,,,,,,,,,,,,,0
56767fa9e98e195230169bd7,兴兴小店,购物,便利店,浙江省,杭州市,富阳区,杭州市富阳区S206松溪家园北侧约60米,56767fa9e98e195230169bd7,1,0,119.759047,30.00584,,shopping,http://api.map.baidu.com/place/detail?uid=56767fa9e98e195230169bd7&output=html&source=placeapi_v2,,,,,,,,,,,,,,,,,,,,0
d575cb3c6de5bf0a79dbd268,连桃批发部,购物,便利店,浙江省,杭州市,富阳区,杭州市富阳区S206松溪家园北侧约130米,d575cb3c6de5bf0a79dbd268,1,0,119.759102,30.00641,(0571)63207722,shopping,http://api.map.baidu.com/place/detail?uid=d575cb3c6de5bf0a79dbd268&output=html&source=placeapi_v2,,07:00-21:30,,,,,,,,,,,,,,,,119.75900045159,30.006354216827,0
b3812aaf1e255a52902ca3ab,和乐便利店,购物,便利店,浙江省,杭州市,富阳区,杭州市富阳区南新线,,1,0,119.876674,29.993532,,shopping,http://api.map.baidu.com/place/detail?uid=b3812aaf1e255a52902ca3ab&output=html&source=placeapi_v2,,,,,,,,,,,,,,,,,,,,0
3f212c289d377adeab0dd80f,赵家小店,购物,便利店,浙江省,杭州市,富阳区,浙江省杭州市富阳区,,1,0,119.887126,29.987716,,shopping,http://api.map.baidu.com/place/detail?uid=3f212c289d377adeab0dd80f&output=html&source=placeapi_v2,,,,,,,,,,,,,,,,,,119.88715727672,29.987759235327,0
177821710abf786c9e95de49,华辰便利,购物,便利店,浙江省,杭州市,富阳区,杭州市富阳区,,1,0,119.891838,29.989701,,shopping,http://api.map.baidu.com/place/detail?uid=177821710abf786c9e95de49&output=html&source=placeapi_v2,,,,,,,,,,,,,,,,,,,,0
b6fa590bdc3086f21f389455,华辰便利(晖山村店),购物,便利店,浙江省,杭州市,富阳区,杭州市富阳区蒋晖线附近,,1,0,119.895288,29.999494,18868114067,shopping,http://api.map.baidu.com/place/detail?uid=b6fa590bdc3086f21f389455&output=html&source=placeapi_v2,,07:00-24:00,,,,,,,,,,,,,,,,,,0
3619ac4de1b47a55f119376e,建明食品店,购物,便利店,浙江省,杭州市,富阳区,杭州市富阳区,,1,0,119.887093,29.987713,,shopping,http://api.map.baidu.com/place/detail?uid=3619ac4de1b47a55f119376e&output=html&source=placeapi_v2,,,,,,,,,,,,,,,,,,119.88713563115,29.987771339571,0
4931c4e8bc0474b080a00ca3,长乐超市,购物,便利店,浙江省,杭州市,富阳区,浙江省杭州市富阳区蒋家村金家路22号,,1,0,119.916894,30.008391,(0571)63160314,shopping,http://api.map.baidu.com/place/detail?uid=4931c4e8bc0474b080a00ca3&output=html&source=placeapi_v2,,04:30-23:30,,,,,,,,,,,,,,,,119.917025374,30.008477961247,0
3f221d75738006f6a30464a9,梅荣商店,购物,便利店,浙江省,杭州市,富阳区,杭州市富阳区汤程线鹿山中心小学(春安校区)南侧约210米,,1,0,119.917445,29.983655,"(0571)63489510,18968139665",shopping,http://api.map.baidu.com/place/detail?uid=3f221d75738006f6a30464a9&output=html&source=placeapi_v2,,,5.0,,,,,,,,1,,,,,,,,,0
3c0ea7c5eeec159ffaf0cb96,世纪华联超市(鹿山街道汤家埠社区卫生服务站北),购物,便利店,浙江省,杭州市,富阳区,浙江省杭州市富阳区汤程线鹿山街道汤家埠社区卫生服务站北,3c0ea7c5eeec159ffaf0cb96,1,0,119.916726,29.982567,,shopping,http://api.map.baidu.com/place/detail?uid=3c0ea7c5eeec159ffaf0cb96&output=html&source=placeapi_v2,,,2.0,,,,,,,,1,,,,,,,119.91695015925,29.982486121529,0
6098b1db6d96a0169c09f7be,添添综合商店,购物,便利店,浙江省,杭州市,富阳区,杭州市富阳区鹿山街道汤家埠春安村春安大房41号,,1,0,119.91711,29.982976,13738123079,shopping,http://api.map.baidu.com/place/detail?uid=6098b1db6d96a0169c09f7be&output=html&source=placeapi_v2,,07:00-21:00,,,,,,,,,,,,,,,,119.91712171853,29.98305592012,0
02359112500a1abf2fb96d29,庆辉小店,购物,便利店,浙江省,杭州市,富阳区,杭州市富阳区汤程线汤家埠农贸市场西南侧,,1,0,119.916958,29.982178,,shopping,http://api.map.baidu.com/place/detail?uid=02359112500a1abf2fb96d29&output=html&source=placeapi_v2,,,,,,,,,,,,,,,,,,119.91682966235,29.982293952038,0
736e77176cdbdd557369d30d,志玉小店,购物,便利店,浙江省,杭州市,富阳区,杭州市富阳区汤家埠村春安新区,,1,0,119.912108,29.987357,,shopping,http://api.map.baidu.com/place/detail?uid=736e77176cdbdd557369d30d&output=html&source=placeapi_v2,,,,,,,,,,,,,,,,,,,,0
f9afd58edb0cb05c940319a0,喜购便利超市,购物,便利店,浙江省,杭州市,富阳区,杭州市富阳区鹿山大道,,1,0,119.914107,30.006802,15868150539,shopping,http://api.map.baidu.com/place/detail?uid=f9afd58edb0cb05c940319a0&output=html&source=placeapi_v2,,05:30-23:30,,,,,,,,,,,,,,,,119.91405367427,30.006896049639,0
68708f3e44a4c0d597ca0756,坤富商行,购物,便利店,浙江省,杭州市,富阳区,杭州市富阳区汤程线汤家埠农贸市场西北侧约50米,,1,0,119.916929,29.982746,,shopping,http://api.map.baidu.com/place/detail?uid=68708f3e44a4c0d597ca0756&output=html&source=placeapi_v2,,,,,,,,,,,,,,,,,,119.91657472145,29.9823453973,0
52a411341dea7e95eee4a54c,莲云商店,购物,便利店,浙江省,杭州市,富阳区,杭州市富阳区汤程线汤家埠农贸市场北侧,,1,0,119.917326,29.982718,,shopping,http://api.map.baidu.com/place/detail?uid=52a411341dea7e95eee4a54c&output=html&source=placeapi_v2,,,,,,,,,,,,,,,,,,119.91739305441,29.982610820553,0
5d5c29b481dad69c7ec87666,荣芬商店,购物,便利店,浙江省,杭州市,富阳区,杭州市富阳区汤程线汤家埠农贸市场西北侧,,1,0,119.916884,29.982571,13567130863,shopping,http://api.map.baidu.com/place/detail?uid=5d5c29b481dad69c7ec87666&output=html&source=placeapi_v2,,05:00-21:30,,,,,,,,,,,,,,,,119.9169751564,29.982538800954,0
861cfc3467511bd3deee8b3a,宏东杂货店,购物,便利店,浙江省,杭州市,富阳区,杭州市富阳区汤程线汤家埠农贸市场南侧,,1,0,119.917175,29.982158,,shopping,http://api.map.baidu.com/place/detail?uid=861cfc3467511bd3deee8b3a&output=html&source=placeapi_v2,,,,,,,,,,,,,,,,,,,,0
a0ee24b0713d09c49fec2b59,阿云永新杂货铺,购物,便利店,浙江省,杭州市,富阳区,杭州市富阳区蒋长线与裕阳路交叉路口往南约50米,,1,0,119.906827,30.000567,,shopping,http://api.map.baidu.com/place/detail?uid=a0ee24b0713d09c49fec2b59&output=html&source=placeapi_v2,,05:00-22:00,,,,,,,,,,,,,,,,,,0
11cd9e98ab6139fbd8d89182,爱民商店,购物,便利店,浙江省,杭州市,富阳区,杭州市富阳区花果山路富春水岸东侧约140米,11cd9e98ab6139fbd8d89182,1,0,120.0174,30.00714,,shopping,http://api.map.baidu.com/place/detail?uid=11cd9e98ab6139fbd8d89182&output=html&source=placeapi_v2,,,,,,,,,,,,,,,,,,,,0
9c756c6f22dd7853bfa82269,淑娟食品商行,购物,便利店,浙江省,杭州市,富阳区,大源镇永庆路1-28、1-29号,9c756c6f22dd7853bfa82269,1,0,120.015563,30.007672,15088716352,shopping,http://api.map.baidu.com/place/detail?uid=9c756c6f22dd7853bfa82269&output=html&source=placeapi_v2,,05:30-22:00,,,,,,,,,,,,,,,,120.0156425647,30.007703332475,0
80854216590da1c32fe67bc8,太华日用品商店,购物,便利店,浙江省,杭州市,富阳区,杭州市富阳区亭山西路富春水岸北侧,80854216590da1c32fe67bc8,1,0,120.014882,30.008686,(0571)63592094,shopping,http://api.map.baidu.com/place/detail?uid=80854216590da1c32fe67bc8&output=html&source=placeapi_v2,,,,,,,,,,,,,,,,,,,,0
fbe7d46c69f3213d1894c6ae,大源利娟商店,购物,便利店,浙江省,杭州市,富阳区,杭州市富阳区亭山东路幸福佳苑西侧约80米,fbe7d46c69f3213d1894c6ae,1,0,120.019659,30.010671,(0571)63591864,shopping,http://api.map.baidu.com/place/detail?uid=fbe7d46c69f3213d1894c6ae&output=html&source=placeapi_v2,,09:00-20:00,,,,,,,,,,,,,,,,120.01955391266,30.010783620484,0
7c043091a21beb4cfda778f4,乃法商店,购物,便利店,浙江省,杭州市,富阳区,浙江省杭州市富阳区新建路1号,7c043091a21beb4cfda778f4,1,0,120.017281,30.010729,(0571)63591834,shopping,http://api.map.baidu.com/place/detail?uid=7c043091a21beb4cfda778f4&output=html&source=placeapi_v2,,,,,,,,,,,,,,,,,,,,0
f1a9075e9804e45d601809cb,金建便利店,购物,便利店,浙江省,杭州市,富阳区,杭州市富阳区潘塘路富阳农商银行(朝阳路分理处)东南侧约210米,f1a9075e9804e45d601809cb,1,0,120.017271,30.011074,(0571)63592327,shopping,http://api.map.baidu.com/place/detail?uid=f1a9075e9804e45d601809cb&output=html&source=placeapi_v2,,06:30-23:00,,,,,,,,,,,,,,,,120.0171803245,30.010969809102,0
c349f2d91c551a45581093a0,大源实惠商店,购物,便利店,浙江省,杭州市,富阳区,杭州市富阳区新建路富阳农商银行(朝阳路分理处)东南侧约210米,c349f2d91c551a45581093a0,1,0,120.017123,30.010816,(0571)63590507,shopping,http://api.map.baidu.com/place/detail?uid=c349f2d91c551a45581093a0&output=html&source=placeapi_v2,,06:00-23:30,,,,,,,,,,,,,,,,,,0
2b2973af58d9036621022002,群众小店,购物,便利店,浙江省,杭州市,富阳区,杭州市富阳区五新路富阳区大源镇中心小学西北侧约130米,2b2973af58d9036621022002,1,0,120.010303,30.012014,"(0571)63593666,15397049805,18067950871",shopping,http://api.map.baidu.com/place/detail?uid=2b2973af58d9036621022002&output=html&source=placeapi_v2,,,,,,,,,,,,,,,,,,120.01058196151,30.012250168734,0
3c23a34e0a268770d813188b,科科便利店,购物,便利店,浙江省,杭州市,富阳区,浙江省杭州市富阳区浦东路45号,3c23a34e0a268770d813188b,1,0,120.016557,30.01237,13270832282,shopping,http://api.map.baidu.com/place/detail?uid=3c23a34e0a268770d813188b&output=html&source=placeapi_v2,,08:00-22:00,,,,,,,,,,,,,,,,,,0
84e8a0c20b79e7945fbe8668,晓华小店(灵桥光明店),购物,便利店,浙江省,杭州市,富阳区,光明村光明171号,,1,0,120.04854,30.006182,,shopping,http://api.map.baidu.com/place/detail?uid=84e8a0c20b79e7945fbe8668&output=html&source=placeapi_v2,,,,,,,,,,,,,,,,,,,,0
7f1fa20b6117e0f02d47331d,礼源车站综合商店,购物,便利店,浙江省,杭州市,富阳区,浙江省杭州市富阳区灵桥镇万菖线利民村方家1号,,1,0,120.054459,29.979809,13868146830,shopping,http://api.map.baidu.com/place/detail?uid=7f1fa20b6117e0f02d47331d&output=html&source=placeapi_v2,,06:30-20:00,,,,,,,,,,,,,,,,120.05441732499,29.979741999966,0
a02ba070ae2a4beaa21de970,小苏商店(灵桥光明店),购物,便利店,浙江省,杭州市,富阳区,杭州市富阳区灵桥镇光明村267号,,1,0,120.049469,30.005501,13175090585,shopping,http://api.map.baidu.com/place/detail?uid=a02ba070ae2a4beaa21de970&output=html&source=placeapi_v2,,05:00-21:30,,,,,,,,,,,,,,,,120.049251953,30.005506506435,0
93b5783458b41449a1a934ff,俞杰百货,购物,便利店,浙江省,杭州市,萧山区,杭州市萧山区河上镇祥和桥村板桥自然村华联超市旁,,1,0,120.2147,29.98773,,shopping,http://api.map.baidu.com/place/detail?uid=93b5783458b41449a1a934ff&output=html&source=placeapi_v2,,,,,,,,,,,,,,,,,,120.21476575677,29.987719714389,0
517dd62660c015e8ca2915aa,方灿小店,购物,便利店,浙江省,杭州市,萧山区,杭州市萧山区临浦镇横一村205号右侧,,1,0,120.238139,30.008821,,shopping,http://api.map.baidu.com/place/detail?uid=517dd62660c015e8ca2915aa&output=html&source=placeapi_v2,,,,,,,,,,,,,,,,,,120.23800894895,30.008986638679,0
ad7a76ac6d8b1e028d772729,华珍杂货店,购物,便利店,浙江省,杭州市,萧山区,杭州市萧山区八径线浦阳・高运商贸市场,,1,0,120.257442,29.985556,,shopping,http://api.map.baidu.com/place/detail?uid=ad7a76ac6d8b1e028d772729&output=html&source=placeapi_v2,,,,,,,,,,,,,,,,,,120.25727621631,29.985550420176,0
06a1129b98c5d7a0f32d834c,葛美珍小店,购物,便利店,浙江省,杭州市,萧山区,杭州市萧山区大湄线,,1,0,120.294273,29.991995,,shopping,http://api.map.baidu.com/place/detail?uid=06a1129b98c5d7a0f32d834c&output=html&source=placeapi_v2,,,,,,,,,,,,,,,,,,,,0
7c6f5a8903b66494a0acc418,陈家小店,购物,便利店,浙江省,杭州市,桐庐县,杭州市桐庐县分水镇保安小源村,,1,0,119.483111,30.02358,15088714631,shopping,http://api.map.baidu.com/place/detail?uid=7c6f5a8903b66494a0acc418&output=html&source=placeapi_v2,,08:00-22:00,,,,,,,,,,,,,,,,,,0
7d402912a470c3cab020a8e9,富阳湘主惠民商店,购物,便利店,浙江省,杭州市,富阳区,杭州市富阳区潭三线农村商业银行(城阳支行湘主分理处)东侧约70米,7d402912a470c3cab020a8e9,1,0,119.707814,30.021175,(0571)63245094,shopping,http://api.map.baidu.com/place/detail?uid=7d402912a470c3cab020a8e9&output=html&source=placeapi_v2,,06:40-21:00,,,,,,,,,,,,,,,,119.70763426815,30.02116440006,0
0b96774450e9d0c28605bf76,华辰永桥便利店,购物,便利店,浙江省,杭州市,富阳区,浙江省杭州市富阳区永桥38号,,1,0,119.741392,30.033454,"13735857470,13738091752",shopping,http://api.map.baidu.com/place/detail?uid=0b96774450e9d0c28605bf76&output=html&source=placeapi_v2,,,,,,,,,,,,,,,,,,,,0
ed7d3fb80b70dd104f3a5913,易捷便利店(中国石化加油站永昌站店),购物,便利店,浙江省,杭州市,富阳区,杭州市富阳区206省道(永桥社区卫生服务站南),,1,0,119.741105,30.032466,,shopping,http://api.map.baidu.com/place/detail?uid=ed7d3fb80b70dd104f3a5913&output=html&source=placeapi_v2,,,0.0,,,,,,,,,,,,,,,,,0
eb086c3a1015a933343a71f8,兰兰小百货,购物,便利店,浙江省,杭州市,富阳区,杭州市富阳区S206永昌镇中心幼儿园西南侧约140米,eb086c3a1015a933343a71f8,1,0,119.740646,30.039095,,shopping,http://api.map.baidu.com/place/detail?uid=eb086c3a1015a933343a71f8&output=html&source=placeapi_v2,,,,,,,,,,,,,,,,,,119.74073106087,30.03910099292,0
78d8d52621f2a2132fe67bf2,宵井便利店,购物,便利店,浙江省,杭州市,富阳区,杭州市富阳区方贝线,,1,0,119.835339,30.031261,,shopping,http://api.map.baidu.com/place/detail?uid=78d8d52621f2a2132fe67bf2&output=html&source=placeapi_v2,,,,,,,,,,,,,,,,,,,,0
61d089ffca303b481fe999b0,惠源便利店(方贝线店),购物,便利店,浙江省,杭州市,富阳区,富春街道方家井村109号,,1,0,119.845026,30.026782,,shopping,http://api.map.baidu.com/place/detail?uid=61d089ffca303b481fe999b0&output=html&source=placeapi_v2,,,,,,,,,,,,,,,,,,,,0
05877c93e2f48a4328b97c08,小春小店,购物,便利店,浙江省,杭州市,富阳区,浙江省杭州市富阳区横山下150号,,1,0,119.881781,30.045383,,shopping,http://api.map.baidu.com/place/detail?uid=05877c93e2f48a4328b97c08&output=html&source=placeapi_v2,,,,,,,,,,,,,,,,,,119.88175118664,30.045450013881,0
3a6f62f41c895472e9f853c6,罗森便利店(新山水御园店),购物,便利店,浙江省,杭州市,富阳区,浙江省杭州市富阳区依江路380号,,1,0,119.936366,30.019316,15325886791,shopping,http://api.map.baidu.com/place/detail?uid=3a6f62f41c895472e9f853c6&output=html&source=placeapi_v2,,00:00-24:00,3.8,,,,,,,,5,,,,,,,119.93641643479,30.019414649409,0
ebaac1092c896db680a00cbf,富阳供销e家综合服务社,购物,便利店,浙江省,杭州市,富阳区,杭州市富阳区鹿山大道阳光城山水悦江府西北侧约140米,,1,0,119.931391,30.023447,,shopping,http://api.map.baidu.com/place/detail?uid=ebaac1092c896db680a00cbf&output=html&source=placeapi_v2,,,,,,,,,,,,,,,,,,,,0
e765d0411330b8861188244f,海燕小店,购物,便利店,浙江省,杭州市,富阳区,鹿山街道陆家村秦坞路18号,,1,0,119.93142,30.023441,13588391018,shopping,http://api.map.baidu.com/place/detail?uid=e765d0411330b8861188244f&output=html&source=placeapi_v2,,,,,,,,,,,,,,,,,,119.93147985256,30.023323358889,0
d6ac12389d5f0b5e8a36ee64,球山商店,购物,便利店,浙江省,杭州市,富阳区,西山路大盘山社区191-3(1单元),d6ac12389d5f0b5e8a36ee64,1,0,119.939307,30.034594,18758160972,shopping,http://api.map.baidu.com/place/detail?uid=d6ac12389d5f0b5e8a36ee64&output=html&source=placeapi_v2,,08:00-24:00,,,,,,,,,,,,,,,,,,0
b8157707608fa24af5c59cd9,谢家溪放心示范店,购物,便利店,浙江省,杭州市,富阳区,杭州市富阳区鹿山大道谢家溪小学东南侧约240米,,1,0,119.924554,30.01732,,shopping,http://api.map.baidu.com/place/detail?uid=b8157707608fa24af5c59cd9&output=html&source=placeapi_v2,,,,,,,,,,,,,,,,,,,,0
7432affc791e6f03e70738d7,天天商店(谢家溪放心店),购物,便利店,浙江省,杭州市,富阳区,谢家溪村中心路63号,,1,0,119.924578,30.017294,,shopping,http://api.map.baidu.com/place/detail?uid=7432affc791e6f03e70738d7&output=html&source=placeapi_v2,,,,,,,,,,,,,,,,,,,,0
b29bb63c7f14fd3bf50e77fd,春江商行,购物,便利店,浙江省,杭州市,富阳区,浙江省杭州市富阳区江波街502号,b29bb63c7f14fd3bf50e77fd,1,0,119.930258,30.016707,13336138535,shopping,http://api.map.baidu.com/place/detail?uid=b29bb63c7f14fd3bf50e77fd&output=html&source=placeapi_v2,,08:00-22:30,,,,,,,,,,,,,,,,119.93010362606,30.016488709693,0
9cc396c518921bcaa11de9cd,乐淘杂货铺,购物,便利店,浙江省,杭州市,富阳区,杭州市富阳区江波街光明・逸品春江,,1,0,119.931226,30.016159,,shopping,http://api.map.baidu.com/place/detail?uid=9cc396c518921bcaa11de9cd&output=html&source=placeapi_v2,,,,,,,,,,,,,,,,,,119.93110513879,30.015986494583,0
0c0c3e9a6f1d0b83471a3265,百姓超市(俞俞线店),购物,便利店,浙江省,杭州市,富阳区,杭州市富阳区笑笑幼儿园附近,,1,0,119.970878,30.032451,15268812438,shopping,http://api.map.baidu.com/place/detail?uid=0c0c3e9a6f1d0b83471a3265&output=html&source=placeapi_v2,,06:00-23:30,0,,,,,,,,0,,,,,,,119.97073605307,30.032367244964,0
4bd9a306a52ec6885fd4fe6a,秋仙小店,购物,便利店,浙江省,杭州市,富阳区,杭州市富阳区春临线富阳区江南中学东南侧约180米,4bd9a306a52ec6885fd4fe6a,1,0,119.97015,30.033741,13968166152,shopping,http://api.map.baidu.com/place/detail?uid=4bd9a306a52ec6885fd4fe6a&output=html&source=placeapi_v2,,08:00-22:00,,,,,,,,,,,,,,,,119.96997111179,30.033778751205,0
