uid,name,cat_L1,cat_L2,province,city,area,address,street_id,detail,child_num,loc_lng,loc_lat,telephone,type,detail_url,price,shop_hours,overall_rating,taste_rating,service_rating,environment_rating,facility_rating,hygiene_rating,technology_rating,image_num,comment_num,groupon_num,discount_num,favorite_num,checkin_num,brand,content_tag,naviloc_lng,naviloc_lat,child_num
c2fd65cb7c1ea5be9de3216d,浔茶花漾茶屋,美食,茶座,广西壮族自治区,南宁市,良庆区,南宁市良庆区金沙大道339号阳光新城二组团丽水苑32号楼13号商铺,c2fd65cb7c1ea5be9de3216d,1,0,108.343298,22.763145,4001288858,cater,http://api.map.baidu.com/place/detail?uid=c2fd65cb7c1ea5be9de3216d&output=html&source=placeapi_v2,9.0,09:00-23:00,0,,,,,,,1,0,,,,,,,108.34342147182,22.763083666444,0
f1313e7fb9d48956c336445f,臻元茶室,美食,茶座,广西壮族自治区,南宁市,良庆区,广西壮族自治区南宁市良庆区兴象路西二里110号,,1,0,108.348688,22.764282,15307874420,cater,http://api.map.baidu.com/place/detail?uid=f1313e7fb9d48956c336445f&output=html&source=placeapi_v2,,11:00-22:30,,,,,,,,,,,,,,,,108.34868567119,22.764424004717,0
77513d4d207e0270eee4a5d3,德聚轩,美食,茶座,广西壮族自治区,南宁市,良庆区,广西壮族自治区南宁市良庆区五象大道269号阳光新城蓝波湾外围40号商铺1号门2楼,,1,0,108.343133,22.76642,,cater,http://api.map.baidu.com/place/detail?uid=77513d4d207e0270eee4a5d3&output=html&source=placeapi_v2,,,5,,,,,,,,1,,,,,,,,,0
cf793a82aaddb287f11937f5,金广缘茶馆,美食,茶座,广西壮族自治区,南宁市,良庆区,广西壮族自治区南宁市良庆区德政路阳光新城春江苑8栋12号,,1,0,108.341782,22.764006,15077169081,cater,http://api.map.baidu.com/place/detail?uid=cf793a82aaddb287f11937f5&output=html&source=placeapi_v2,,,,,,,,,,,,,,,,,,,,0
6eadd891525f88c8e9f853f0,迪星桌球奶茶休闲吧,美食,茶座,广西壮族自治区,南宁市,良庆区,南宁市良庆区景华一街良庆区金象绿城-1区东南侧约30米,6eadd891525f88c8e9f853f0,1,0,108.333582,22.740529,13557573026,cater,http://api.map.baidu.com/place/detail?uid=6eadd891525f88c8e9f853f0&output=html&source=placeapi_v2,,,,,,,,,,,,,,,,,,108.33354518996,22.740504471989,0
950c1f1f0ac984ad2a02e1f9,泰祥和古茶坊,美食,茶座,广西壮族自治区,南宁市,良庆区,广西壮族自治区南宁市良庆区凤凰路11号龙光玖珑湖一期8栋,,1,0,108.373573,22.737425,17377003537,cater,http://api.map.baidu.com/place/detail?uid=950c1f1f0ac984ad2a02e1f9&output=html&source=placeapi_v2,,12:00-02:00,5,,,,,,,,3,,,,,,,,,0
742de1d5561246e1725e8083,澜沧古茶(五象湖店),美食,茶座,广西壮族自治区,南宁市,良庆区,广西壮族自治区南宁市良庆区凤凰路11号龙光玖珑湖一期s2栋115室,,1,0,108.375185,22.738509,19114802255,cater,http://api.map.baidu.com/place/detail?uid=742de1d5561246e1725e8083&output=html&source=placeapi_v2,,09:30-23:00,,,,,,,,,,,,,,,,,,0
ea5ad13b3f4c5d8aeb12e439,九日茶社,美食,茶座,广西壮族自治区,南宁市,良庆区,广西壮族自治区南宁市良庆区庆林路万科公园里2号楼一层111号,,1,0,108.41645,22.748125,19994782002,cater,http://api.map.baidu.com/place/detail?uid=ea5ad13b3f4c5d8aeb12e439&output=html&source=placeapi_v2,,,,,,,,,,,,,,,,,,,,0
def97f72a531fa87f603b84a,初语茶坊,美食,茶座,广西壮族自治区,南宁市,江南区,广西壮族自治区南宁市江南区白沙大道65号尚雅名都G1栋一层1f商铺,,1,0,108.30682,22.782067,17687684683,cater,http://api.map.baidu.com/place/detail?uid=def97f72a531fa87f603b84a&output=html&source=placeapi_v2,,10:00-22:30,3.4,,,,,,,,,,,,,,,108.30682027945,22.782226189422,0
5dafcad22e2e3ffd4107c1cd,大益茶体验馆(领航店),美食,茶座,广西壮族自治区,南宁市,江南区,广西壮族自治区南宁市江南区金凯路30号天健领航大厦116号,,1,0,108.295008,22.774559,(0771)3937542,shopping,http://api.map.baidu.com/place/detail?uid=5dafcad22e2e3ffd4107c1cd&output=html&source=placeapi_v2,,09:30-24:00,,,,,,,,,,,,,,,,108.29500186193,22.77431696684,0
0477727d7c88e9035f0d02a1,郑玉茶事生活馆,美食,茶座,广西壮族自治区,南宁市,江南区,广西壮族自治区南宁市江南区南建路5号金砖茶城c2栋101室,0477727d7c88e9035f0d02a1,1,0,108.302486,22.798227,18977236821,cater,http://api.map.baidu.com/place/detail?uid=0477727d7c88e9035f0d02a1&output=html&source=placeapi_v2,,10:00-23:00,4.5,,,,,,,2,6,,,,,,,108.30241734639,22.798245164261,0
ef3598ebab1ceef979dbd27a,述修茶社,美食,茶座,广西壮族自治区,南宁市,江南区,广西壮族自治区南宁市江南区亭洪路66-8号2楼,ef3598ebab1ceef979dbd27a,1,0,108.31315,22.794516,15878779988,cater,http://api.map.baidu.com/place/detail?uid=ef3598ebab1ceef979dbd27a&output=html&source=placeapi_v2,,,5,,,,,,,,1,,,,,,,108.31310252963,22.794498897573,0
6f765f291e67d2e51811d584,茶人居(亭洪路店),美食,茶座,广西壮族自治区,南宁市,江南区,南宁市江南区亭洪路10+1商业大道23栋11号,6f765f291e67d2e51811d584,1,0,108.306973,22.79398,"13873656603,13878656608",cater,http://api.map.baidu.com/place/detail?uid=6f765f291e67d2e51811d584&output=html&source=placeapi_v2,,,0,,,,,,,,1,,,,,,,108.30696850345,22.794069790347,0
f231d43b221ef6db5fbe864a,聚福临休闲餐吧,美食,茶座,广西壮族自治区,南宁市,江南区,广西壮族自治区南宁市江南区白沙大道87号,f231d43b221ef6db5fbe864a,1,0,108.297481,22.782064,15994440088,cater,http://api.map.baidu.com/place/detail?uid=f231d43b221ef6db5fbe864a&output=html&source=placeapi_v2,,10:00-22:00,3.4,,,,,,,,,,,,,,,108.29737665593,22.782126270322,0
f0ac0800f3eabc776240a99e,茶氏家族(石柱岭二路店),美食,茶座,广西壮族自治区,南宁市,江南区,南宁市江南区石柱岭二路澳海蓝湾,,1,0,108.311473,22.790295,,cater,http://api.map.baidu.com/place/detail?uid=f0ac0800f3eabc776240a99e&output=html&source=placeapi_v2,,,,,,,,,,1,,,,,,,,,,0
bfd84f457b7782ef33169b53,康之宝油茶馆,美食,茶座,广西壮族自治区,南宁市,江南区,广西壮族自治区南宁市江南区星光大道223号荣宝华商城b6栋116号,bfd84f457b7782ef33169b53,1,0,108.319488,22.775121,(0771)4894796,cater,http://api.map.baidu.com/place/detail?uid=bfd84f457b7782ef33169b53&output=html&source=placeapi_v2,,11:00-21:00,3.5,,,,,,,,0,,,,,,,108.31950359418,22.775023046988,0
743b1e7b81796cae5b109352,鼐茗源茶馆,美食,茶座,广西壮族自治区,南宁市,江南区,广西壮族自治区南宁市江南区星光大道68-1号,,1,0,108.315736,22.788956,,cater,http://api.map.baidu.com/place/detail?uid=743b1e7b81796cae5b109352&output=html&source=placeapi_v2,,,4.0,,,,,,,,1,,,,,,,,,0
1b1e4659a4a6e8bec9fa5fa9,心语茶(江南友谊路店),美食,茶座,广西壮族自治区,南宁市,江南区,南宁市江南区友谊立交桥南宁经济技术开发区新蕾幼儿园东侧约70米,1b1e4659a4a6e8bec9fa5fa9,1,0,108.299299,22.779869,,cater,http://api.map.baidu.com/place/detail?uid=1b1e4659a4a6e8bec9fa5fa9&output=html&source=placeapi_v2,,10:00-23:30,,,,,,,,,,,,,,,,108.29951550518,22.77989694644,0
dc55de44c0965f3ad8d89187,八号茶室,美食,茶座,广西壮族自治区,南宁市,江南区,广西壮族自治区南宁市江南区圭贝路213号,,1,0,108.320868,22.778927,,cater,http://api.map.baidu.com/place/detail?uid=dc55de44c0965f3ad8d89187&output=html&source=placeapi_v2,,,,,,,,,,,,,,,,,,,,0
ac80b9d72da0314e0bf5eb18,良艺茶桌,美食,茶座,广西壮族自治区,南宁市,江南区,广西壮族自治区南宁市江南区亭洪路27栋2楼,,1,0,108.305542,22.793865,13506029363,cater,http://api.map.baidu.com/place/detail?uid=ac80b9d72da0314e0bf5eb18&output=html&source=placeapi_v2,,09:30-22:00,,,,,,,,,2,,,,,,,,,0
5b332741c381c71e4afd3f8d,茶贤阁,美食,茶座,广西壮族自治区,南宁市,江南区,南宁市江南区亭洪路南铝社区西南侧约80米,5b332741c381c71e4afd3f8d,1,0,108.309161,22.793945,18677085337,cater,http://api.map.baidu.com/place/detail?uid=5b332741c381c71e4afd3f8d&output=html&source=placeapi_v2,,09:00-24:00,,,,,,,,4,,,,,,,,,,0
75d7642f0cad82bff02d835b,茶里阅,美食,茶座,广西壮族自治区,南宁市,江南区,广西壮族自治区南宁市江南区星光大道223号荣宝华商城b2栋101室,,1,0,108.31977,22.775963,13627882212,cater,http://api.map.baidu.com/place/detail?uid=75d7642f0cad82bff02d835b&output=html&source=placeapi_v2,,10:30-23:30,,,,,,,,,,,,,,,,108.31981651262,22.776014597313,0
00773d312ebe1745bda240fa,悠然居六堡茶(亭洪路店),美食,茶座,广西壮族自治区,南宁市,江南区,广西壮族自治区南宁市江南区亭洪路19栋22号,00773d312ebe1745bda240fa,1,0,108.309584,22.793999,18587716276,cater,http://api.map.baidu.com/place/detail?uid=00773d312ebe1745bda240fa&output=html&source=placeapi_v2,,10:00-22:00,,,,,,,,15,,,,,,,,108.30952247675,22.794122947704,0
074de866c554ea569cec2b28,六和茶居,美食,茶座,广西壮族自治区,南宁市,江南区,广西壮族自治区南宁市江南区江南路213号,,1,0,108.321093,22.777022,,cater,http://api.map.baidu.com/place/detail?uid=074de866c554ea569cec2b28&output=html&source=placeapi_v2,,,,,,,,,,5,,,,,,,,108.32114282746,22.777021223187,0
eda932b3eea07ff5b1077da3,品韵茶舍,美食,茶座,广西壮族自治区,南宁市,江南区,广西壮族自治区南宁市江南区星光大道223号荣宝华商城a16栋116号,,1,0,108.320791,22.776936,(0771)4714752,cater,http://api.map.baidu.com/place/detail?uid=eda932b3eea07ff5b1077da3&output=html&source=placeapi_v2,,,,,,,,,,,,,,,,,,,,0
84908d5a8c92f8c4f02d8312,茶一品,美食,茶座,广西壮族自治区,南宁市,江南区,广西壮族自治区南宁市江南区亭洪路3816号,,1,0,108.303283,22.793753,18677161787,cater,http://api.map.baidu.com/place/detail?uid=84908d5a8c92f8c4f02d8312&output=html&source=placeapi_v2,,,,,,,,,,,,,,,,,,,,0
0f96a86efdc7ae38ad045776,塔珍阁茶艺,美食,茶座,广西壮族自治区,南宁市,江南区,广西壮族自治区南宁市江南区燕敦路荣宝华商城c3栋103号,,1,0,108.321676,22.777061,13647881901,cater,http://api.map.baidu.com/place/detail?uid=0f96a86efdc7ae38ad045776&output=html&source=placeapi_v2,,,,,,,,,,,,,,,,,,,,0
5f2033c9e1c5bebbc91b9521,宏源茶苑,美食,茶座,广西壮族自治区,南宁市,江南区,南宁市江南区五一路南三里金砖茶城,,1,0,108.305076,22.79834,,cater,http://api.map.baidu.com/place/detail?uid=5f2033c9e1c5bebbc91b9521&output=html&source=placeapi_v2,,,,,,,,,,5,,,,,,,,108.30510708778,22.798421338299,0
3f8bdec6d0af7a4007026fb7,聚友茶P,美食,茶座,广西壮族自治区,南宁市,江南区,广西壮族自治区南宁市江南区南建路金砖茶城c3栋106室,,1,0,108.30351,22.798248,,cater,http://api.map.baidu.com/place/detail?uid=3f8bdec6d0af7a4007026fb7&output=html&source=placeapi_v2,,,,,,,,,,1,,,,,,,,108.30358291036,22.798311276977,0
2a3e0e3f3b8dd386a80dd87c,雨华台茶事体验馆,美食,茶座,广西壮族自治区,南宁市,江南区,广西壮族自治区南宁市江南区白沙大道南国花园f2栋F2-1号,,1,0,108.324023,22.783602,13978692577,cater,http://api.map.baidu.com/place/detail?uid=2a3e0e3f3b8dd386a80dd87c&output=html&source=placeapi_v2,,10:00-22:00,,,,,,,,,,,,,,,,108.324048779,22.783559389059,0
b0c6d17d73ba53c8f5c59c8b,三三朴物茗馥阁,美食,茶座,广西壮族自治区,南宁市,江南区,广西壮族自治区南宁市江南区南建路5号金砖茶城c9118号,b0c6d17d73ba53c8f5c59c8b,1,0,108.30566,22.798017,13207719772,cater,http://api.map.baidu.com/place/detail?uid=b0c6d17d73ba53c8f5c59c8b&output=html&source=placeapi_v2,,,,,,,,,,9,,,,,,,,108.30559769374,22.798030241426,0
b0c4c78d4d8a22f29fec2b32,七道轩,美食,茶座,广西壮族自治区,南宁市,江南区,广西南宁市江南区亭洪路27-17号,,1,0,108.304818,22.793859,,cater,http://api.map.baidu.com/place/detail?uid=b0c4c78d4d8a22f29fec2b32&output=html&source=placeapi_v2,,,,,,,,,,,,,,,,,,,,0
9081b6a2d9281a9e2bb97c7f,红茶馆(亭洪路店),美食,茶座,广西壮族自治区,南宁市,江南区,南宁市江南区亭洪路南铝社区西南侧约30米,9081b6a2d9281a9e2bb97c7f,1,0,108.308421,22.794336,13481149834,cater,http://api.map.baidu.com/place/detail?uid=9081b6a2d9281a9e2bb97c7f&output=html&source=placeapi_v2,,10:00-22:00,,,,,,,,,,,,,,,,108.30842384731,22.79420427163,0
bb5a5091ed9b339dc61e51ad,蓝韵老壶老茶馆,美食,茶座,广西壮族自治区,南宁市,江南区,广西南宁市江南区南建路5号金砖茶城C9栋102号,,1,0,108.305709,22.798567,,cater,http://api.map.baidu.com/place/detail?uid=bb5a5091ed9b339dc61e51ad&output=html&source=placeapi_v2,,,,,,,,,,,,,,,,,,108.30565780475,22.798576361617,0
18a81b6bd414ce5346e274fe,中茶六堡茶(亭洪路),美食,茶座,广西壮族自治区,南宁市,江南区,南宁市江南区南建路金砖茶城西南侧约90米,,1,0,108.302142,22.796898,,cater,http://api.map.baidu.com/place/detail?uid=18a81b6bd414ce5346e274fe&output=html&source=placeapi_v2,,,,,,,,,,,,,,,,,,108.30215108235,22.797123944568,0
257452e2b4ea5e6e1fe999fb,公盛黑茶坊,美食,茶座,广西壮族自治区,南宁市,江南区,广西壮族自治区南宁市江南区南建路5号金砖茶城c3101号,,1,0,108.303076,22.79841,"(0771)4847526,18677088501",cater,http://api.map.baidu.com/place/detail?uid=257452e2b4ea5e6e1fe999fb&output=html&source=placeapi_v2,,10:00-22:00,,,,,,,,,,,,,,,,108.30307186705,22.798343267559,0
6bb155a0f029510021022022,泰乐茶铺,美食,茶座,广西壮族自治区,南宁市,江南区,南宁市江南区南建路金砖茶城西南侧约110米,,1,0,108.301704,22.796977,18154542118,cater,http://api.map.baidu.com/place/detail?uid=6bb155a0f029510021022022&output=html&source=placeapi_v2,,11:00-21:00,,,,,,,,6,,,,,,,,,,0
00b35a5ad14cbc5a2806ce97,青钱柳降糖神茶养生馆,美食,茶座,广西壮族自治区,南宁市,江南区,广西壮族自治区南宁市江南区白沙大道109号,,1,0,108.285457,22.782298,"18076157778,18078197778",cater,http://api.map.baidu.com/place/detail?uid=00b35a5ad14cbc5a2806ce97&output=html&source=placeapi_v2,,09:00-21:00,,,,,,,,,,,,,,,,108.2854456617,22.78239865131,0
e36bff605be44b5fbda240f0,缘茶源,美食,茶座,广西壮族自治区,南宁市,江南区,广西壮族自治区南宁市江南区五一路南三里金砖茶城119号,e36bff605be44b5fbda240f0,1,0,108.303864,22.797916,15878197055,cater,http://api.map.baidu.com/place/detail?uid=e36bff605be44b5fbda240f0&output=html&source=placeapi_v2,,,,,,,,,,2,,,,,,,,108.30386973751,22.798045193557,0
fe37415af8cf722471455b8a,娜家茶舍,美食,茶座,广西壮族自治区,南宁市,江南区,广西壮族自治区南宁市江南区南建路5号金砖茶城c区11栋11-9号,,1,0,108.305163,22.797594,15977751589,cater,http://api.map.baidu.com/place/detail?uid=fe37415af8cf722471455b8a&output=html&source=placeapi_v2,,10:00-23:27,5,,,,,,,,2,,,,,,,,,0
95527d8c7f2c8fd82902e11e,安化黑茶金砖茶馆,美食,茶座,广西壮族自治区,南宁市,江南区,广西壮族自治区南宁市江南区南建路5号金砖茶城b区c3栋,,1,0,108.303584,22.798219,,cater,http://api.map.baidu.com/place/detail?uid=95527d8c7f2c8fd82902e11e&output=html&source=placeapi_v2,,,,,,,,,,,,,,,,,,108.30360161398,22.79830807756,0
4fd35b327a1c3673b8df8fef,茶语素材坊,美食,茶座,广西壮族自治区,南宁市,江南区,广西壮族自治区南宁市江南区南建路5号金砖茶城c7栋103室,4fd35b327a1c3673b8df8fef,1,0,108.305088,22.798534,(0771)4875546,cater,http://api.map.baidu.com/place/detail?uid=4fd35b327a1c3673b8df8fef&output=html&source=placeapi_v2,,10:00-22:00,,,,,,,,1,,,,,,,,108.30505678536,22.79843799854,0
c30dd5170de7fdf4f40e77b8,蓓蓓桂林油茶,美食,茶座,广西壮族自治区,南宁市,江南区,广西壮族自治区南宁市江南区五一东路19号江南水街17栋10号,,1,0,108.310546,22.798103,15296547856,cater,http://api.map.baidu.com/place/detail?uid=c30dd5170de7fdf4f40e77b8&output=html&source=placeapi_v2,,17:00-03:00,3.6,,,,,,,,,,,,,,,,,0
be7a9c4b2fd4c25bf90cadbf,心仪茶馆,美食,茶座,广西壮族自治区,南宁市,青秀区,广西壮族自治区南宁市青秀区英华路66号半岛融园2楼,be7a9c4b2fd4c25bf90cadbf,1,0,108.346815,22.781489,(0771)2360999,cater,http://api.map.baidu.com/place/detail?uid=be7a9c4b2fd4c25bf90cadbf&output=html&source=placeapi_v2,,10:00-22:00,,,,,,,,,,,,,,,,,,0
05b0f4ef533d4bda07026f5e,逸合昌茶馆,美食,茶座,广西壮族自治区,南宁市,青秀区,广西壮族自治区南宁市青秀区英华路66-1号,05b0f4ef533d4bda07026f5e,1,0,108.348416,22.781466,13877166838,cater,http://api.map.baidu.com/place/detail?uid=05b0f4ef533d4bda07026f5e&output=html&source=placeapi_v2,,10:00-22:00,5,,,,,,,,5,,,,,,,108.34843481219,22.781221730608,0
cba10ae028bcf3cbb5147f9d,一百三十六将茶艺棋牌,美食,茶座,广西壮族自治区,南宁市,青秀区,英华路51号半岛・康城商铺,cba10ae028bcf3cbb5147f9d,1,0,108.356454,22.785209,,cater,http://api.map.baidu.com/place/detail?uid=cba10ae028bcf3cbb5147f9d&output=html&source=placeapi_v2,,,0,,,,,,,,1,,,,,,,108.35633455755,22.785316082829,0
78e21745d618a1620d3ddaa1,凝容茶室,美食,茶座,广西壮族自治区,南宁市,江南区,广西南宁市江南区亭江路大花盘一巷52-2号,78e21745d618a1620d3ddaa1,1,0,108.331714,22.793941,,cater,http://api.map.baidu.com/place/detail?uid=78e21745d618a1620d3ddaa1&output=html&source=placeapi_v2,,,5,,,,,,,,2,,,,,,,,,0
3c67bf3bb09cb78b5a3ac806,三昧茶舍,美食,茶座,广西壮族自治区,南宁市,青秀区,广西壮族自治区南宁市青秀区英华路7号盛天香墅b1042号,,1,0,108.362659,22.788676,,cater,http://api.map.baidu.com/place/detail?uid=3c67bf3bb09cb78b5a3ac806&output=html&source=placeapi_v2,,09:00-22:30,,,,,,,,,1,,,,,,,,,0
77513d4d207e0270eee4a5d3,德聚轩,美食,茶座,广西壮族自治区,南宁市,良庆区,广西壮族自治区南宁市良庆区五象大道269号阳光新城蓝波湾外围40号商铺1号门2楼,,1,0,108.343133,22.76642,,cater,http://api.map.baidu.com/place/detail?uid=77513d4d207e0270eee4a5d3&output=html&source=placeapi_v2,,,5,,,,,,,,1,,,,,,,,,0
7e1dfca5e1d83efd9a00504c,文茗轩,美食,茶座,广西壮族自治区,南宁市,青秀区,广西壮族自治区南宁市青秀区英华路9号书香门第幼儿园东盟世纪村1楼3号铺,,1,0,108.357581,22.784965,,cater,http://api.map.baidu.com/place/detail?uid=7e1dfca5e1d83efd9a00504c&output=html&source=placeapi_v2,,,,,,,,,,,,,,,,,,108.35742955454,22.785185997212,0
ae479a77b64a01c32202208b,黄府茶苑,美食,茶座,广西壮族自治区,南宁市,江南区,广西壮族自治区南宁市江南区亭江路28号2楼202室,,1,0,108.329437,22.793382,(0771)4307252,cater,http://api.map.baidu.com/place/detail?uid=ae479a77b64a01c32202208b&output=html&source=placeapi_v2,,,,,,,,,,,,,,,,,,108.32935835506,22.793621839009,0
c6fa4636b77f2cc91b94c649,大益茶(云星・钱隆首府店),美食,茶座,广西壮族自治区,南宁市,良庆区,南宁市良庆区金龙路8号云星钱隆首府B区12号楼商业裙房一层111~113号商铺,,1,0,108.386,22.774713,18076582513,shopping,http://api.map.baidu.com/place/detail?uid=c6fa4636b77f2cc91b94c649&output=html&source=placeapi_v2,,10:00-22:30,,,,,,,,,2,,,,,,,108.38600153754,22.774747090695,0
619a1e7afee01698f942b2ce,七碗茶舍,美食,茶座,广西壮族自治区,南宁市,良庆区,广西壮族自治区南宁市良庆区龙堤路51号江山御景a6栋112号,619a1e7afee01698f942b2ce,1,0,108.373508,22.78053,(0771)4300651,cater,http://api.map.baidu.com/place/detail?uid=619a1e7afee01698f942b2ce&output=html&source=placeapi_v2,,09:30-22:30,0,,,,,,,,1,,,,,,,108.37378392918,22.780681334253,0
5f7659d669e1af00b21e36d1,MBA共享茶室,美食,茶座,广西壮族自治区,南宁市,良庆区,广西壮族自治区南宁市良庆区总部基地万科大厦B座1343室,,1,0,108.384627,22.771255,,cater,http://api.map.baidu.com/place/detail?uid=5f7659d669e1af00b21e36d1&output=html&source=placeapi_v2,,,,,,,,,,,,,,,,,,,,0
0bd657ec6838741f37b06c8a,聚盛茶府,美食,茶座,广西壮族自治区,南宁市,青秀区,广西壮族自治区南宁市青秀区凤岭南路16号保利领秀府2栋105室,,1,0,108.429153,22.795565,17396707588,cater,http://api.map.baidu.com/place/detail?uid=0bd657ec6838741f37b06c8a&output=html&source=placeapi_v2,,11:00-02:00,4.7,,,,,,,,3,,,,,,,108.4290995496,22.795737172226,0
def50ab90b793db2cac3db8c,茗慧轩,美食,茶座,广西壮族自治区,南宁市,青秀区,广西壮族自治区南宁市青秀区凤岭南路16号保利领秀前城115号,,1,0,108.42872,22.795334,18775393530,cater,http://api.map.baidu.com/place/detail?uid=def50ab90b793db2cac3db8c&output=html&source=placeapi_v2,,08:30-23:00,,,,,,,,5,,,,,,,,,,0
93ccdd6070fce6a9eddfca7a,天山茶舍,美食,茶座,广西壮族自治区,南宁市,邕宁区,南宁市邕宁区良堤路南宁万达茂,93ccdd6070fce6a9eddfca7a,1,0,108.438207,22.777054,,cater,http://api.map.baidu.com/place/detail?uid=93ccdd6070fce6a9eddfca7a&output=html&source=placeapi_v2,,,,,,,,,,,,,,,,,,,,0
c99679468fc4760d430245b3,茶居,美食,茶座,广西壮族自治区,南宁市,邕宁区,广西壮族自治区南宁市邕宁区西宁路龙光玖龙著7栋,,1,0,108.462313,22.789884,,cater,http://api.map.baidu.com/place/detail?uid=c99679468fc4760d430245b3&output=html&source=placeapi_v2,,,,,,,,,,9,,,,,,,,108.46224027214,22.789994219257,0
9e9a8207c1a8be04a2d23097,芸溪上茶社,美食,茶座,广西壮族自治区,南宁市,青秀区,南宁市青秀区仙葫大道枫丹丽舍西2门北侧约60米,,1,0,108.502819,22.784854,13489422333,cater,http://api.map.baidu.com/place/detail?uid=9e9a8207c1a8be04a2d23097&output=html&source=placeapi_v2,,,,,,,,,,,,,,,,,,108.50254728168,22.784849386881,0
449f2a853e6506f53a04b129,花草茶事,美食,茶座,广西壮族自治区,南宁市,西乡塘区,南宁市西乡塘区邕隆路昌泰清华园,,1,0,108.213896,22.831679,,cater,http://api.map.baidu.com/place/detail?uid=449f2a853e6506f53a04b129&output=html&source=placeapi_v2,,,,,,,,,,,,,,,,,,108.21394666108,22.831528713542,0
f45a81f915150f3aa2d23051,叶茶阁,美食,茶座,广西壮族自治区,南宁市,江南区,广西壮族自治区南宁市江南区五一西路6号翠湖新城c7栋1层,,1,0,108.268484,22.812055,,cater,http://api.map.baidu.com/place/detail?uid=f45a81f915150f3aa2d23051&output=html&source=placeapi_v2,,,,,,,,,,3,,,,,,,,108.26848254064,22.811972191263,0
b40fc0401d62c2822fb96d49,雅迈茶馆(南宁江南店),美食,茶座,广西壮族自治区,南宁市,江南区,南宁市江南区江南大道红日江景,b40fc0401d62c2822fb96d49,1,0,108.281561,22.816283,,cater,http://api.map.baidu.com/place/detail?uid=b40fc0401d62c2822fb96d49&output=html&source=placeapi_v2,,,,,,,,,,,,,,,,,,108.28190380436,22.816532435842,0
a942c37c3b48c07cf02d8398,头头是道茶艺馆,美食,茶座,广西壮族自治区,南宁市,西乡塘区,南宁市西乡塘区中尧南路台湾街・桃园居,,1,0,108.299797,22.82011,15978155366,cater,http://api.map.baidu.com/place/detail?uid=a942c37c3b48c07cf02d8398&output=html&source=placeapi_v2,,10:00-22:00,,,,,,,,,,,,,,,,108.29960691151,22.820051294601,0
9d2df0503a0a386130169ba6,茶曲园,美食,茶座,广西壮族自治区,南宁市,西乡塘区,广西壮族自治区南宁市西乡塘区北大北路11号北洋商业街a1号,9d2df0503a0a386130169ba6,1,0,108.307418,22.82838,18878710101,cater,http://api.map.baidu.com/place/detail?uid=9d2df0503a0a386130169ba6&output=html&source=placeapi_v2,,09:00-23:30,,,,,,,,9,,,,,,,,108.30737829875,22.828340033898,0
6154287f89b753715810938a,茶缘观舍,美食,茶座,广西壮族自治区,南宁市,西乡塘区,广西壮族自治区南宁市西乡塘区新阳路北一里19号1楼,,1,0,108.313111,22.821824,,cater,http://api.map.baidu.com/place/detail?uid=6154287f89b753715810938a&output=html&source=placeapi_v2,,,,,,,,,,,,,,,,,,108.31306535146,22.82177762716,0
d14966cbd65c2c9302294ffe,缘莱茶福,美食,茶座,广西壮族自治区,南宁市,西乡塘区,南宁市西乡塘区龙腾路台湾街・桃园居,d14966cbd65c2c9302294ffe,1,0,108.300763,22.819874,,cater,http://api.map.baidu.com/place/detail?uid=d14966cbd65c2c9302294ffe&output=html&source=placeapi_v2,,,,,,,,,,,,,,,,,,,,0
15705d7b5b90a762a7c7566b,雀舍茶馆,美食,茶座,广西壮族自治区,南宁市,西乡塘区,广西壮族自治区南宁市西乡塘区北大北路29号龙腾里美食城1号楼118铺面,,1,0,108.304692,22.83006,,cater,http://api.map.baidu.com/place/detail?uid=15705d7b5b90a762a7c7566b&output=html&source=placeapi_v2,,10:00-22:00,,,,,,,,,,,,,,,,108.30478619508,22.830153399179,0
176fbdabb02346e82d473301,茶缘地带,美食,茶座,广西壮族自治区,南宁市,江南区,南宁市江南区五一路北二里129号,,1,0,108.308129,22.804114,13878108178,cater,http://api.map.baidu.com/place/detail?uid=176fbdabb02346e82d473301&output=html&source=placeapi_v2,,,,,,,,,,,,,,,,,,,,0
5dda728e60dbb161bea240c1,品清茶,美食,茶座,广西壮族自治区,南宁市,江南区,广西壮族自治区南宁市江南区五一路7号淡村商贸城16号,,1,0,108.311597,22.799838,18376791453,cater,http://api.map.baidu.com/place/detail?uid=5dda728e60dbb161bea240c1&output=html&source=placeapi_v2,,,,,,,,,,4,,,,,,,,,,0
5f2033c9e1c5bebbc91b9521,宏源茶苑,美食,茶座,广西壮族自治区,南宁市,江南区,南宁市江南区五一路南三里金砖茶城,,1,0,108.305076,22.79834,,cater,http://api.map.baidu.com/place/detail?uid=5f2033c9e1c5bebbc91b9521&output=html&source=placeapi_v2,,,,,,,,,,5,,,,,,,,108.30510708778,22.798421338299,0
bb5a5091ed9b339dc61e51ad,蓝韵老壶老茶馆,美食,茶座,广西壮族自治区,南宁市,江南区,广西南宁市江南区南建路5号金砖茶城C9栋102号,,1,0,108.305709,22.798567,,cater,http://api.map.baidu.com/place/detail?uid=bb5a5091ed9b339dc61e51ad&output=html&source=placeapi_v2,,,,,,,,,,,,,,,,,,108.30565780475,22.798576361617,0
257452e2b4ea5e6e1fe999fb,公盛黑茶坊,美食,茶座,广西壮族自治区,南宁市,江南区,广西壮族自治区南宁市江南区南建路5号金砖茶城c3101号,,1,0,108.303076,22.79841,"(0771)4847526,18677088501",cater,http://api.map.baidu.com/place/detail?uid=257452e2b4ea5e6e1fe999fb&output=html&source=placeapi_v2,,10:00-22:00,,,,,,,,,,,,,,,,108.30307186705,22.798343267559,0
c31668282b85e2d3d618b745,茶滋缘,美食,茶座,广西壮族自治区,南宁市,江南区,淡村一里南宁市五一路学校(小学部)北侧,c31668282b85e2d3d618b745,1,0,108.307274,22.802333,19968046370,cater,http://api.map.baidu.com/place/detail?uid=c31668282b85e2d3d618b745&output=html&source=placeapi_v2,,,,,,,,,,,,,,,,,,,,0
4fd35b327a1c3673b8df8fef,茶语素材坊,美食,茶座,广西壮族自治区,南宁市,江南区,广西壮族自治区南宁市江南区南建路5号金砖茶城c7栋103室,4fd35b327a1c3673b8df8fef,1,0,108.305088,22.798534,(0771)4875546,cater,http://api.map.baidu.com/place/detail?uid=4fd35b327a1c3673b8df8fef&output=html&source=placeapi_v2,,10:00-22:00,,,,,,,,1,,,,,,,,108.30505678536,22.79843799854,0
6073b344d4bd32781df74dd4,茗鼎醉云南,美食,茶座,广西壮族自治区,南宁市,西乡塘区,广西壮族自治区南宁市西乡塘区明秀西路水悦龙湾B20092商铺,,1,0,108.290783,22.819898,,cater,http://api.map.baidu.com/place/detail?uid=6073b344d4bd32781df74dd4&output=html&source=placeapi_v2,,11:00-24:00,,,,,,,,,,,,,,,,108.29076346821,22.819782404491,0
ed0f90359f58b61f27d2bb7f,察理王子茶饮专卖店(教育店),美食,茶座,广西壮族自治区,南宁市,青秀区,广西壮族自治区南宁市青秀区教育路9-2号,ed0f90359f58b61f27d2bb7f,1,0,108.344726,22.808271,(0771)5828007,cater,http://api.map.baidu.com/place/detail?uid=ed0f90359f58b61f27d2bb7f&output=html&source=placeapi_v2,13.0,09:30-24:00,3.7,,,,,,,,1,,,,,,,,,0
28b5f64018e64ad09de32163,顺德福茶楼,美食,茶座,广西壮族自治区,南宁市,青秀区,广西壮族自治区南宁市青秀区桃源路63号国宾美景酒店1楼(七天酒店桃源店对面),28b5f64018e64ad09de32163,1,0,108.342887,22.806124,(0771)3893366,cater,http://api.map.baidu.com/place/detail?uid=28b5f64018e64ad09de32163&output=html&source=placeapi_v2,100.0,"10:00-14:00,17:00-21:00",0,,,,,,,,1,,,,,,,108.34283351614,22.806253505165,0
496f1a2865fd4dcdff0eb05f,茶太宗油茶馆,美食,茶座,广西壮族自治区,南宁市,兴宁区,广西壮族自治区南宁市兴宁区北宁街42-1号,496f1a2865fd4dcdff0eb05f,1,0,108.329484,22.823961,19162281653,cater,http://api.map.baidu.com/place/detail?uid=496f1a2865fd4dcdff0eb05f&output=html&source=placeapi_v2,35.0,07:00-24:00,4,,,,,,,,2,,,,,,,,,0
5ea58b75279491f4a2d23043,五韵茶馆,美食,茶座,广西壮族自治区,南宁市,青秀区,广西壮族自治区南宁市青秀区葛村路3-3号,,1,0,108.358446,22.824297,18648806288,cater,http://api.map.baidu.com/place/detail?uid=5ea58b75279491f4a2d23043&output=html&source=placeapi_v2,,10:00-22:00,,,,,,,,,1,,,,,,,108.3585822976,22.824280835213,0
2c0bd6c5f34b4dd743ab9ac6,凝香源茶社,美食,茶座,广西壮族自治区,南宁市,兴宁区,广西壮族自治区南宁市兴宁区民主路8号聚宝苑2栋1楼2018A,2c0bd6c5f34b4dd743ab9ac6,1,0,108.340986,22.831881,(0771)5639788,cater,http://api.map.baidu.com/place/detail?uid=2c0bd6c5f34b4dd743ab9ac6&output=html&source=placeapi_v2,,12:00-24:00,4,,,,,,,,3,,,,,,,108.34113005499,22.83201538086,0
f4f21c615de7498eef74f84c,小勤油茶坊,美食,茶座,广西壮族自治区,南宁市,青秀区,广西壮族自治区南宁市青秀区新民路22-2号(广西科技馆培训中心左侧),,1,0,108.335912,22.817723,18076351920,cater,http://api.map.baidu.com/place/detail?uid=f4f21c615de7498eef74f84c&output=html&source=placeapi_v2,,08:30-16:30,,,,,,,,,,,,,,,,,,0
f2569a53eaa2258f40024529,江醇茶艺生活馆,美食,茶座,广西壮族自治区,南宁市,青秀区,广西壮族自治区南宁市青秀区双拥路30号南湖名都广场3楼,f2569a53eaa2258f40024529,1,0,108.362983,22.810528,18178137106,cater,http://api.map.baidu.com/place/detail?uid=f2569a53eaa2258f40024529&output=html&source=placeapi_v2,,10:00-22:00,,,,,,,,,2,,,,,,,,,0
339ead54856f71ceb8bd6306,优雅茶座,美食,茶座,广西壮族自治区,南宁市,青秀区,广西壮族自治区南宁市青秀区园湖南路11-22号,,1,0,108.353593,22.825328,13978173081,cater,http://api.map.baidu.com/place/detail?uid=339ead54856f71ceb8bd6306&output=html&source=placeapi_v2,,,,,,,,,,,,,,,,,,,,0
e56bf5e3ac99d1470682c2ab,鑫竹轩茶府,美食,茶座,广西壮族自治区,南宁市,青秀区,广西壮族自治区南宁市青秀区中山路66号电脑城3楼,e56bf5e3ac99d1470682c2ab,1,0,108.330428,22.814852,,cater,http://api.map.baidu.com/place/detail?uid=e56bf5e3ac99d1470682c2ab&output=html&source=placeapi_v2,,,0,,,,,,,,0,,,,,,,,,0
c80b6b694acf27209cec2bb3,心宁茶居,美食,茶座,广西壮族自治区,南宁市,青秀区,南宁市青秀区建政路北纬28大厦东北侧约100米,,1,0,108.342895,22.827542,,cater,http://api.map.baidu.com/place/detail?uid=c80b6b694acf27209cec2bb3&output=html&source=placeapi_v2,,,,,,,,,,7,,,,,,,,108.34303678209,22.827412510076,0
a7d0a4f78d757ea645572673,茶荟现煮健康茶工坊,美食,茶座,广西壮族自治区,南宁市,青秀区,青秀区新竹路37-1-33号,,1,0,108.359587,22.82226,13878885817,cater,http://api.map.baidu.com/place/detail?uid=a7d0a4f78d757ea645572673&output=html&source=placeapi_v2,,,3.2,,,,,,,,,,,,,,,,,0
b0eb71e181ed146102ec0102,品茶人,美食,茶座,广西壮族自治区,南宁市,青秀区,广西壮族自治区南宁市青秀区越秀路7号,b0eb71e181ed146102ec0102,1,0,108.392149,22.809003,13878799699,cater,http://api.map.baidu.com/place/detail?uid=b0eb71e181ed146102ec0102&output=html&source=placeapi_v2,,09:00-02:00,,,,,,,,,,,,,,,,108.39217644973,22.809131537837,0
4ff79b26195890791894c632,六堡源茶舍,美食,茶座,广西壮族自治区,南宁市,青秀区,广西壮族自治区南宁市青秀区青秀路18号,4ff79b26195890791894c632,1,0,108.391653,22.809022,(0771)5853977,cater,http://api.map.baidu.com/place/detail?uid=4ff79b26195890791894c632&output=html&source=placeapi_v2,,10:00-22:00,0.0,,,,,,,,,,,,,,,108.39163523593,22.809154425253,0
655e581c118d27bf6ca3cc2d,和之木茶道,美食,茶座,广西壮族自治区,南宁市,青秀区,广西壮族自治区南宁市青秀区越秀路大自然花园f9f-951号,655e581c118d27bf6ca3cc2d,1,0,108.391005,22.808958,18578985536,cater,http://api.map.baidu.com/place/detail?uid=655e581c118d27bf6ca3cc2d&output=html&source=placeapi_v2,,10:00-22:00,0,,,,,,,2,1,,,,,,,108.39099019598,22.809076681797,0
dc044938f51a40c23617dc37,偶家茶馆(民歌湖店),美食,茶座,广西壮族自治区,南宁市,青秀区,广西壮族自治区南宁市歌湖酒吧街E2栋,,1,0,108.383573,22.815785,18007713570,cater,http://api.map.baidu.com/place/detail?uid=dc044938f51a40c23617dc37&output=html&source=placeapi_v2,,,,,,,,,,,,,,,,,,108.3836420632,22.815751022699,0
3f9e70181562201ff8f0cb72,越秀茶馆,美食,茶座,广西壮族自治区,南宁市,青秀区,广西壮族自治区南宁市青秀区越秀路7号大自然花园f区1层f7-5-1号,,1,0,108.39192,22.80901,,cater,http://api.map.baidu.com/place/detail?uid=3f9e70181562201ff8f0cb72&output=html&source=placeapi_v2,,08:00-23:00,,,,,,,,,,,,,,,,,,0
7191f69d56826758cac3db3d,会展航洋城3楼L3-028弓正射箭・吃茶,美食,茶座,广西壮族自治区,南宁市,青秀区,广西壮族自治区南宁市青秀区航景巷航洋国际城3楼l3-028号,,1,0,108.392471,22.819857,,cater,http://api.map.baidu.com/place/detail?uid=7191f69d56826758cac3db3d&output=html&source=placeapi_v2,,,,,,,,,,,,,,,,,,108.39294434952,22.819962938491,0
94cfa341ed427b86a6da3965,桂广源六堡茶居(祥滨店),美食,茶座,广西壮族自治区,南宁市,青秀区,南宁市青秀区祥宾路岸村第十三小组,,1,0,108.381661,22.827297,19977425959,cater,http://api.map.baidu.com/place/detail?uid=94cfa341ed427b86a6da3965&output=html&source=placeapi_v2,,,,,,,,,,,,,,,,,,108.38166237662,22.827225200558,0
dc8a17f4fed3971beedfca22,无非茶文化空间,美食,茶座,广西壮族自治区,南宁市,青秀区,广西壮族自治区南宁市青秀区汇春路8号,dc8a17f4fed3971beedfca22,1,0,108.375403,22.813552,(0771)5385800,cater,http://api.map.baidu.com/place/detail?uid=dc8a17f4fed3971beedfca22&output=html&source=placeapi_v2,113.0,09:30-24:00,5,,,,,,,13,4,,,,,,,108.3755140081,22.813665319451,0
bc6e3bf67bf94b813586f4be,陈升号(东盟专营店),美食,茶座,广西壮族自治区,南宁市,青秀区,广西壮族自治区南宁市青秀区民族大道120号皇巢世家ab座楼1层110号,,1,0,108.395633,22.817241,19195713439,cater,http://api.map.baidu.com/place/detail?uid=bc6e3bf67bf94b813586f4be&output=html&source=placeapi_v2,,10:00-23:00,,,,,,,,,1,,,,,,,108.39563098507,22.816980440006,0
cd8fcd088e7de1f1e50738ef,凤景茶庄,美食,茶座,广西壮族自治区,南宁市,青秀区,广西壮族自治区南宁市青秀区长湖路62号a区42栋2楼,,1,0,108.38016,22.83039,(0771)5716089,cater,http://api.map.baidu.com/place/detail?uid=cd8fcd088e7de1f1e50738ef&output=html&source=placeapi_v2,,10:30-02:00,,,,,,,,,,,,,,,,108.3802352135,22.830370170523,0
4cd50037cf4f012c901fc989,如同白茶室(天健店),美食,茶座,广西壮族自治区,南宁市,青秀区,南宁市青秀区天健商务大厦一楼,,1,0,108.400705,22.814168,,cater,http://api.map.baidu.com/place/detail?uid=4cd50037cf4f012c901fc989&output=html&source=placeapi_v2,,,,,,,,,,,,,,,,,,,,0
68ee573e747e610c636858a7,匀心宜茶坊,美食,茶座,广西壮族自治区,南宁市,青秀区,南宁市青秀区越秀路龙曦山庄南1门南侧约60米,,1,0,108.39225,22.808901,13878875488,cater,http://api.map.baidu.com/place/detail?uid=68ee573e747e610c636858a7&output=html&source=placeapi_v2,,09:00-21:00,,,,,,,,,,,,,,,,108.39229157656,22.809112561668,0
874d9d5b3afb7f8240024539,了凡居茶空间,美食,茶座,广西壮族自治区,南宁市,青秀区,广西壮族自治区南宁市青秀区嘉宾路8号东方花园11栋102室,874d9d5b3afb7f8240024539,1,0,108.373255,22.821241,(0771)5520180,cater,http://api.map.baidu.com/place/detail?uid=874d9d5b3afb7f8240024539&output=html&source=placeapi_v2,,11:00-24:00,4.8,,,,,,,,8,,,,,,,108.37306636903,22.821233690398,0
4a269ac1cb640c43e6e965d1,安化黑茶会馆,美食,茶座,广西壮族自治区,南宁市,青秀区,南宁市青秀区桂春路世纪阳光沁景苑南侧约40米,,1,0,108.373913,22.811306,,cater,http://api.map.baidu.com/place/detail?uid=4a269ac1cb640c43e6e965d1&output=html&source=placeapi_v2,,,,,,,,,,2,,,,,,,,108.37377839472,22.811187746765,0
9b6e9157cfb15eae8b2fb547,古雨轩茶馆,美食,茶座,广西壮族自治区,南宁市,青秀区,广西壮族自治区南宁市青秀区汇春路6号壮圆大厦4楼,9b6e9157cfb15eae8b2fb547,1,0,108.373888,22.814172,(0771)5507679,cater,http://api.map.baidu.com/place/detail?uid=9b6e9157cfb15eae8b2fb547&output=html&source=placeapi_v2,,11:00-02:00,,,,,,,,,,,,,,,,108.37394053797,22.814089138965,0
1e71d9f5b73104669e95de55,紫苑(丹凤路店),美食,茶座,广西壮族自治区,南宁市,青秀区,南宁市青秀区丹凤路与盘林巷交叉路口往西南约300米,1e71d9f5b73104669e95de55,1,0,108.393336,22.828477,,house,http://api.map.baidu.com/place/detail?uid=1e71d9f5b73104669e95de55&output=html&source=placeapi_v2,,,5,,,,,,,,,,,,,,,108.3932735754,22.828634599495,0
ad3912fbf9b31bd8f4c59ccf,相合居茶舍,美食,茶座,广西壮族自治区,南宁市,青秀区,广西壮族自治区南宁市青秀区长湖路50号,ad3912fbf9b31bd8f4c59ccf,1,0,108.384474,22.827895,"(0771)5383673,17377109600",cater,http://api.map.baidu.com/place/detail?uid=ad3912fbf9b31bd8f4c59ccf&output=html&source=placeapi_v2,,09:30-23:45,5,,,,,,,,3,,,,,,,108.38435519471,22.827813872818,0
7913157d77ca4824a2a93451,乐和茶馆,美食,茶座,广西壮族自治区,南宁市,青秀区,广西壮族自治区南宁市青秀区云景路11号永凯春晖花园c区3栋,7913157d77ca4824a2a93451,1,0,108.396521,22.822574,,cater,http://api.map.baidu.com/place/detail?uid=7913157d77ca4824a2a93451&output=html&source=placeapi_v2,,10:00-22:00,0,,,,,,,,2,,,,,,,108.39651841839,22.822387619985,0
6364cf80402ddabe260bd0eb,真龙茶馆,美食,茶座,广西壮族自治区,南宁市,青秀区,广西南宁市青秀区酒吧街e2栋,6364cf80402ddabe260bd0eb,1,0,108.38046,22.816286,,cater,http://api.map.baidu.com/place/detail?uid=6364cf80402ddabe260bd0eb&output=html&source=placeapi_v2,,,,,,,,,,,,,,,,,,,,0
b698c73470a9dec0adcb6677,九间茶室,美食,茶座,广西壮族自治区,南宁市,青秀区,广西壮族自治区南宁市青秀区金湖北路67号梦之岛广场1楼,b698c73470a9dec0adcb6677,1,0,108.378267,22.828151,,cater,http://api.map.baidu.com/place/detail?uid=b698c73470a9dec0adcb6677&output=html&source=placeapi_v2,,,,,,,,,,,,,,,,,,108.37831431306,22.828357774285,0
c84189fbc72c578c6ea3ccb0,金占芭茶会馆,美食,茶座,广西壮族自治区,南宁市,青秀区,广西壮族自治区南宁市青秀区中马路1号绿海云天3-9号铺,,1,0,108.398528,22.805037,18677093834,cater,http://api.map.baidu.com/place/detail?uid=c84189fbc72c578c6ea3ccb0&output=html&source=placeapi_v2,,10:00-22:30,5,,,,,,,,1,,,,,,,108.39853146175,22.804958220666,0
86353cf98509564e3586f48d,瀛一堂,美食,茶座,广西壮族自治区,南宁市,青秀区,民族大道146号万象城负一层B417,86353cf98509564e3586f48d,1,0,108.399576,22.817476,,cater,http://api.map.baidu.com/place/detail?uid=86353cf98509564e3586f48d&output=html&source=placeapi_v2,20.0,,4.6,,,,,,,,15,,,,,,,,,0
06101f1cd71a85b95c17c310,壶兰茶馆(浩江大厦店),美食,茶座,广西壮族自治区,南宁市,青秀区,广西壮族自治区南宁市青秀区滨湖路82号浩江大厦2楼,06101f1cd71a85b95c17c310,1,0,108.377134,22.832086,(0771)3830999,cater,http://api.map.baidu.com/place/detail?uid=06101f1cd71a85b95c17c310&output=html&source=placeapi_v2,,10:00-22:00,3.5,,,,,,,,,,,,,,,108.37689115985,22.832171578933,0
5d0a1167317ba8022cb96dd3,陈升号(广西服务商),美食,茶座,广西壮族自治区,南宁市,青秀区,广西壮族自治区南宁市青秀区金湖南路49号圣展酒店一楼,2af70283751526fd4d2fdf00,1,0,108.376249,22.816376,"15677163659,18677067659",shopping,http://api.map.baidu.com/place/detail?uid=5d0a1167317ba8022cb96dd3&output=html&source=placeapi_v2,,10:00-23:30,3.5,,,,,,,,1,,,,,,,108.37630115818,22.816259263555,0
ea575812ed375f7395f08c59,广府手工茶点,美食,茶座,广西壮族自治区,南宁市,青秀区,南宁市青秀区竹溪大道广西壮族自治区国际博览事务局,,1,0,108.381923,22.812373,,cater,http://api.map.baidu.com/place/detail?uid=ea575812ed375f7395f08c59&output=html&source=placeapi_v2,,,,,,,,,,,,,,,,,,108.38187431911,22.812488774784,0
8e57f26cdbf141268605bf00,鸿禧茶馆,美食,茶座,广西壮族自治区,南宁市,青秀区,广西壮族自治区南宁市青秀区金浦路56-3号,,1,0,108.373112,22.810003,(0771)2026166,cater,http://api.map.baidu.com/place/detail?uid=8e57f26cdbf141268605bf00&output=html&source=placeapi_v2,,10:30-02:00,0.0,,,,,,,,,,,,,,,108.3732227748,22.809943540636,0
5177eb27b94666312cb96db8,和韵轩红木茶馆,美食,茶座,广西壮族自治区,南宁市,青秀区,广西壮族自治区南宁市青秀区中新路8号中新国际2楼,5177eb27b94666312cb96db8,1,0,108.403191,22.815899,(0771)5520322,cater,http://api.map.baidu.com/place/detail?uid=5177eb27b94666312cb96db8&output=html&source=placeapi_v2,,,0,,,,,,,,1,,,,,,,,,0
79cceb368a6429901e580050,长裕川茗茶烟酒(金湖店),美食,茶座,广西壮族自治区,南宁市,青秀区,广西壮族自治区南宁市青秀区金湖南路35号,79cceb368a6429901e580050,1,0,108.370959,22.811122,"(0771)5566711,(0771)5566712",shopping,http://api.map.baidu.com/place/detail?uid=79cceb368a6429901e580050&output=html&source=placeapi_v2,,10:00-22:30,0.0,,,,,,,,1,,,,,,,108.37103375339,22.811054951948,0
9520c3283ed04b01b020a8e4,股友茶庄,美食,茶座,广西壮族自治区,南宁市,青秀区,广西壮族自治区南宁市青秀区中泰路7号,,1,0,108.400699,22.81196,13978880714,cater,http://api.map.baidu.com/place/detail?uid=9520c3283ed04b01b020a8e4&output=html&source=placeapi_v2,,10:00-22:00,,,,,,,,10,,,,,,,,,,0
dd0129e9f68f51c9b320a87e,四季茶香,美食,茶座,广西壮族自治区,南宁市,青秀区,广西壮族自治区南宁市青秀区金浦路56-3号万町大厦1层,dd0129e9f68f51c9b320a87e,1,0,108.373077,22.810071,15277168910,cater,http://api.map.baidu.com/place/detail?uid=dd0129e9f68f51c9b320a87e&output=html&source=placeapi_v2,,10:00-21:00,,,,,,,,1,,,,,,,,108.37311300007,22.81001000507,0
9765f391251cfd688bb988e0,仙茗寿域茶楼,美食,茶座,广西壮族自治区,南宁市,青秀区,广西壮族自治区南宁市青秀区长湖路62号凤景湾6号楼2楼b-106号,9765f391251cfd688bb988e0,1,0,108.395156,22.827905,13878118855,cater,http://api.map.baidu.com/place/detail?uid=9765f391251cfd688bb988e0&output=html&source=placeapi_v2,,,0,,,,,,,,1,,,,,,,,,0
251919754b992c4dae080f2f,木论茶馆,美食,茶座,广西壮族自治区,南宁市,青秀区,广西壮族自治区南宁市青秀区桂春路12号金满地大酒店1楼,251919754b992c4dae080f2f,1,0,108.371428,22.812645,15040050035,cater,http://api.map.baidu.com/place/detail?uid=251919754b992c4dae080f2f&output=html&source=placeapi_v2,,10:00-24:00,,,,,,,,,,,,,,,,108.3714652239,22.812719949692,0
80f2ff126c6bd4b558f6be2e,爱茶吧(岸店),美食,茶座,广西壮族自治区,南宁市,青秀区,广西壮族自治区南宁市青秀区祥宾路岸七组3栋,,1,0,108.375957,22.829772,15177771880,cater,http://api.map.baidu.com/place/detail?uid=80f2ff126c6bd4b558f6be2e&output=html&source=placeapi_v2,,,0,,,,,,,1,0,,,,,,,,,0
7aeabe4f78393f7c0389727e,四荔茶SLEEPYA.C,美食,茶座,广西壮族自治区,南宁市,青秀区,青秀区联盟新城（桂雅路1号南宁・联盟新城5号楼24号）,,1,0,108.400909,22.807478,15678887700,cater,http://api.map.baidu.com/place/detail?uid=7aeabe4f78393f7c0389727e&output=html&source=placeapi_v2,15.0,11:30-21:30,3.7,,,,,,,,1,,,,,,,108.40110476658,22.807488089742,0
797f38a624e707e6eee4a559,一壶好茶,美食,茶座,广西壮族自治区,南宁市,青秀区,广西壮族自治区南宁市青秀区金湖南路35号,,1,0,108.370993,22.81121,15607720888,cater,http://api.map.baidu.com/place/detail?uid=797f38a624e707e6eee4a559&output=html&source=placeapi_v2,,10:00-22:00,,,,,,,,14,,,,,,,,108.37109855266,22.811116217651,0
dd235ea17a217b58b13c812c,树人茶馆,美食,茶座,广西壮族自治区,南宁市,青秀区,南宁市青秀区碧湖路岸九组,dd235ea17a217b58b13c812c,1,0,108.372572,22.828512,"(0771)5516626,(0771)5718565",cater,http://api.map.baidu.com/place/detail?uid=dd235ea17a217b58b13c812c&output=html&source=placeapi_v2,,10:00-22:00,,,,,,,,,0,,,,,,,108.37253816179,22.828539969946,0
d5e85dadd436643b97ec845f,秋缘轩老茶坊,美食,茶座,广西壮族自治区,南宁市,青秀区,广西壮族自治区南宁市青秀区金湖路51号金湖湾小区026号,,1,0,108.375971,22.817238,,cater,http://api.map.baidu.com/place/detail?uid=d5e85dadd436643b97ec845f&output=html&source=placeapi_v2,,,,,,,,,,,,,,,,,,108.37603109162,22.817351668054,0
e1add483d220f3d859bbbc1f,晴窗茶馆,美食,茶座,广西壮族自治区,南宁市,青秀区,广西壮族自治区南宁市青秀区汇春路壮圆大厦a座7楼,,1,0,108.373706,22.813978,(0771)5684817,cater,http://api.map.baidu.com/place/detail?uid=e1add483d220f3d859bbbc1f&output=html&source=placeapi_v2,,10:00-22:00,,,,,,,,,,,,,,,,108.37376286481,22.813927337567,0
8d2492dc12e2217c79dbd24a,茶禅一味,美食,茶座,广西壮族自治区,南宁市,青秀区,广西壮族自治区南宁市青秀区祥宾路居民一区12-5号,8d2492dc12e2217c79dbd24a,1,0,108.378023,22.829691,13737056560,cater,http://api.map.baidu.com/place/detail?uid=8d2492dc12e2217c79dbd24a&output=html&source=placeapi_v2,,,,,,,,,,21,,,,,,,,108.37803368319,22.829763409635,0
d8dad58af2826fba3a13fdf7,壮香茶社,美食,茶座,广西壮族自治区,南宁市,青秀区,广西壮族自治区南宁市青秀区竹溪大道86号广源国际社区1号楼一单元29层2905号房,d8dad58af2826fba3a13fdf7,1,0,108.37663,22.807654,"14797713153,18677170188",cater,http://api.map.baidu.com/place/detail?uid=d8dad58af2826fba3a13fdf7&output=html&source=placeapi_v2,,,,,,,,,,,,,,,,,,,,0
e61551b28ad1ee2d85420ef3,丁丁壮茶舍,美食,茶座,广西壮族自治区,南宁市,青秀区,南宁市青秀区汇春路汇春名庭-北区,,1,0,108.3735,22.815523,,cater,http://api.map.baidu.com/place/detail?uid=e61551b28ad1ee2d85420ef3&output=html&source=placeapi_v2,,,,,,,,,,,,,,,,,,108.37343867983,22.815442731429,0
c25ee1b32a07a34d03ec0168,茶语拾光,美食,茶座,广西壮族自治区,南宁市,青秀区,广西壮族自治区南宁市青秀区民族大道111号广西发展大厦1楼,,1,0,108.373794,22.819813,,cater,http://api.map.baidu.com/place/detail?uid=c25ee1b32a07a34d03ec0168&output=html&source=placeapi_v2,,10:30-20:30,,,,,,,,,,,,,,,,108.373649054,22.81981287713,0
00a575b10263aa512cb96dd3,中原府茶艺棋牌,美食,茶座,广西壮族自治区,南宁市,青秀区,广西壮族自治区南宁市青秀区长湖路50号,,1,0,108.384472,22.827691,(0771)6713166,cater,http://api.map.baidu.com/place/detail?uid=00a575b10263aa512cb96dd3&output=html&source=placeapi_v2,,10:00-22:00,,,,,,,,,,,,,,,,108.38434810977,22.827697754436,0
b36975d9e5e2e2ea246e98d2,花之林人文茶馆(南宁琅西店),美食,茶座,广西壮族自治区,南宁市,青秀区,广西壮族自治区南宁市青秀区金湖路37号马可波罗酒店2楼,,1,0,108.37128,22.811563,"13635002909,18774081118",cater,http://api.map.baidu.com/place/detail?uid=b36975d9e5e2e2ea246e98d2&output=html&source=placeapi_v2,,09:30-01:00,3.7,,,,,,,,,,,,,,,,,0
b704726080aab067eb12e413,双陈普洱茶馆,美食,茶座,广西壮族自治区,南宁市,青秀区,广西壮族自治区南宁市青秀区双拥路40号汇金苑1层,,1,0,108.369584,22.817141,18775335199,cater,http://api.map.baidu.com/place/detail?uid=b704726080aab067eb12e413&output=html&source=placeapi_v2,,10:00-22:00,,,,,,,,,,,,,,,,108.36947608175,22.817205182101,0
43aa11779cccd7b5a11de9b8,茶舍生活馆,美食,茶座,广西壮族自治区,南宁市,青秀区,广西壮族自治区南宁市青秀区金浦路56号3号楼1楼,43aa11779cccd7b5a11de9b8,1,0,108.37183,22.809475,,cater,http://api.map.baidu.com/place/detail?uid=43aa11779cccd7b5a11de9b8&output=html&source=placeapi_v2,,10:00-23:00,,,,,,,,4,,,,,,,,,,0
022c7eb1c9b82ac2dbd89125,Mua爱茶吧,美食,茶座,广西壮族自治区,南宁市,青秀区,南宁市青秀区祥宾路岸7组3栋7号一楼,,1,0,108.375981,22.829894,,cater,http://api.map.baidu.com/place/detail?uid=022c7eb1c9b82ac2dbd89125&output=html&source=placeapi_v2,,,,,,,,,,,,,,,,,,,,0
853577d87d0019d3b7147f4d,风沙渡茶庄,美食,茶座,广西壮族自治区,南宁市,青秀区,广西南宁市青秀区滨湖路55号7号楼3楼,853577d87d0019d3b7147f4d,1,0,108.375339,22.830958,(0771)5766409,cater,http://api.map.baidu.com/place/detail?uid=853577d87d0019d3b7147f4d&output=html&source=placeapi_v2,,,,,,,,,,11,,,,,,,,,,0
21dc3119cebc590deb12e479,半闲茶艺馆,美食,茶座,广西壮族自治区,南宁市,青秀区,广西壮族自治区南宁市青秀区民族大道170号莱茵湖畔小区c组团2022号,,1,0,108.424428,22.813795,15278013065,cater,http://api.map.baidu.com/place/detail?uid=21dc3119cebc590deb12e479&output=html&source=placeapi_v2,,,,,,,,,,,,,,,,,,,,0
57c9992d7034ca7d3c9a5eca,顿悟茶馆,美食,茶座,广西壮族自治区,南宁市,青秀区,广西壮族自治区南宁市青秀区仙葫大道16号鼎丰广场金中环酒店5楼,,1,0,108.43049,22.816107,13667718296,cater,http://api.map.baidu.com/place/detail?uid=57c9992d7034ca7d3c9a5eca&output=html&source=placeapi_v2,,10:00-00:00,,,,,,,,,,,,,,,,,,0
e0210147b6a54a01b020a866,命河古茶会馆,美食,茶座,广西壮族自治区,南宁市,青秀区,广西壮族自治区南宁市青秀区雷公岭北路翡翠园怡景阁二区1栋1单元-01房,,1,0,108.422759,22.810427,15777142789,cater,http://api.map.baidu.com/place/detail?uid=e0210147b6a54a01b020a866&output=html&source=placeapi_v2,,,,,,,,,,,,,,,,,,108.42280529806,22.810287132066,0
d7961a0b9260dc627f29bd15,清凉地茶馆,美食,茶座,广西壮族自治区,南宁市,青秀区,青秀区百花岭路山语城商铺F-102号,,1,0,108.424012,22.825481,15676171780,cater,http://api.map.baidu.com/place/detail?uid=d7961a0b9260dc627f29bd15&output=html&source=placeapi_v2,,10:00-22:00,,,,,,,,1,,,,,,,,108.42401846055,22.825392731339,0
541e34dcf28d90dd1088246f,茶至尊,美食,茶座,广西壮族自治区,南宁市,青秀区,广西壮族自治区南宁市青秀区民族大道风景5102号,,1,0,108.418197,22.817967,,cater,http://api.map.baidu.com/place/detail?uid=541e34dcf28d90dd1088246f&output=html&source=placeapi_v2,,,,,,,,,,,,,,,,,,108.41815984946,22.818162364012,0
85ec0f96d10754f22dfaa764,九古道茶馆,美食,茶座,广西壮族自治区,南宁市,青秀区,广西壮族自治区南宁市青秀区朱槿路10号星岛国际园区1楼,85ec0f96d10754f22dfaa764,1,0,108.412797,22.814734,18154566830,cater,http://api.map.baidu.com/place/detail?uid=85ec0f96d10754f22dfaa764&output=html&source=placeapi_v2,,11:00-24:00,,,,,,,,,,,,,,,,108.4127970563,22.814734270893,0
feaba76feb14d0d0455726fb,茶氏,美食,茶座,广西壮族自治区,南宁市,青秀区,广西壮族自治区南宁市青秀区东盟四街6号保利21世家休闲居123号,feaba76feb14d0d0455726fb,1,0,108.408181,22.813295,17736625862,cater,http://api.map.baidu.com/place/detail?uid=feaba76feb14d0d0455726fb&output=html&source=placeapi_v2,104.0,10:00-23:00,5,,,,,,,,21,,,,,,,108.40832966352,22.813487236603,0
082f915a134aac3e1d1d1163,云茂茶店,美食,茶座,广西壮族自治区,南宁市,青秀区,广西壮族自治区南宁市青秀区民族大道159号凤岭新新家园c区16栋,,1,0,108.413364,22.822051,13907862600,cater,http://api.map.baidu.com/place/detail?uid=082f915a134aac3e1d1d1163&output=html&source=placeapi_v2,,,,,,,,,,,,,,,,,,108.41328747631,22.822119544164,0
1379c20af343470da0acc450,一壶好茶(凤岭店),美食,茶座,广西壮族自治区,南宁市,青秀区,广西壮族自治区南宁市青秀区民族大道159号凤岭新新家园c区1楼,,1,0,108.413279,22.821914,18276814866,cater,http://api.map.baidu.com/place/detail?uid=1379c20af343470da0acc450&output=html&source=placeapi_v2,,10:00-22:00,,,,,,,,8,,,,,,,,,,0
0ead4f680bad33c80f0e6b4a,品品香(南宁体验店),美食,茶座,广西壮族自治区,南宁市,青秀区,广西壮族自治区南宁市青秀区云景路29号美泉1612号,0ead4f680bad33c80f0e6b4a,1,0,108.423945,22.83185,(0771)5346159,cater,http://api.map.baidu.com/place/detail?uid=0ead4f680bad33c80f0e6b4a&output=html&source=placeapi_v2,,10:00-23:00,,,,,,,,,,,,,,,,108.4239492509,22.83181354446,0
078bfba3edf53ef029fc48a8,纯好六堡茶(山语城品牌形象店),美食,茶座,广西壮族自治区,南宁市,青秀区,广西壮族自治区南宁市青秀区枫林路16号,,1,0,108.419883,22.827023,13377156088,cater,http://api.map.baidu.com/place/detail?uid=078bfba3edf53ef029fc48a8&output=html&source=placeapi_v2,,10:00-22:00,,,,,,,,,,,,,,,,,,0
6e6cf73963708147210262cc,小农茶馆,美食,茶座,广西壮族自治区,南宁市,青秀区,广西壮族自治区南宁市青秀区民族大道166号上东国际r1号,,1,0,108.414505,22.816896,13707711773,cater,http://api.map.baidu.com/place/detail?uid=6e6cf73963708147210262cc&output=html&source=placeapi_v2,,,,,,,,,,,,,,,,,,108.4147118933,22.81665932598,0
7923fb1eac0b77f148cc4a23,禅茶,美食,茶座,广西壮族自治区,南宁市,青秀区,广西壮族自治区南宁市青秀区合作路君耀香港园,,1,0,108.409188,22.809409,,cater,http://api.map.baidu.com/place/detail?uid=7923fb1eac0b77f148cc4a23&output=html&source=placeapi_v2,,,,,,,,,,,,,,,,,,108.40926442137,22.809485749453,0
93b0cecaf170fb0b2afc486a,茶斟四季,美食,茶座,广西壮族自治区,南宁市,青秀区,广西壮族自治区南宁市青秀区通泰路北三里10号,,1,0,108.444029,22.813446,,cater,http://api.map.baidu.com/place/detail?uid=93b0cecaf170fb0b2afc486a&output=html&source=placeapi_v2,,,,,,,,,,,,,,,,,,,,0
e964e7099f808f9c626858e8,国香茗茶苑,美食,茶座,广西壮族自治区,南宁市,青秀区,广西壮族自治区南宁市青秀区朱槿路8号11号,,1,0,108.412379,22.816125,13557573356,cater,http://api.map.baidu.com/place/detail?uid=e964e7099f808f9c626858e8&output=html&source=placeapi_v2,,,,,,,,,,1,,,,,,,,,,0
5fc18c630ab0543c0b1cc75c,钦陶居坭兴陶六堡茶馆(南宁市山语城店),美食,茶座,广西壮族自治区,南宁市,青秀区,广西壮族自治区南宁市青秀区枫林路16号a-21号,,1,0,108.419345,22.827611,(0771)3306190,cater,http://api.map.baidu.com/place/detail?uid=5fc18c630ab0543c0b1cc75c&output=html&source=placeapi_v2,,,,,,,,,,,,,,,,,,108.41919121917,22.827552563245,0
ac6a0696b2400660bfa82247,雅石茶艺,美食,茶座,广西壮族自治区,南宁市,青秀区,广西壮族自治区南宁市青秀区商业街荣和山水美地四组团1栋2号商铺,,1,0,108.411503,22.824293,,cater,http://api.map.baidu.com/place/detail?uid=ac6a0696b2400660bfa82247&output=html&source=placeapi_v2,,10:00-21:00,,,,,,,,,,,,,,,,108.41148102076,22.824362801144,0
927573e9b9f97a6400ff2d4f,好茶运茶楼,美食,茶座,广西壮族自治区,南宁市,青秀区,南宁市青秀区合作路和润园,927573e9b9f97a6400ff2d4f,1,0,108.409476,22.811322,,cater,http://api.map.baidu.com/place/detail?uid=927573e9b9f97a6400ff2d4f&output=html&source=placeapi_v2,,,,,,,,,,,,,,,,,,,,0
ca07280c5e73289660180949,掂柠・手打柠檬茶社,美食,茶座,广西壮族自治区,南宁市,青秀区,广西壮族自治区南宁市青秀区合作路3号印度尼西亚园区地下室东面02号铺,,1,0,108.408089,22.813287,13790626053,cater,http://api.map.baidu.com/place/detail?uid=ca07280c5e73289660180949&output=html&source=placeapi_v2,11.0,11:30-22:30,,,,,,,,,,,,,,,,108.40826701839,22.813529446367,0
f2e4f9f7c29f14c2d03ce3f7,仙葫半岛闲居,美食,茶座,广西壮族自治区,南宁市,青秀区,广西壮族自治区南宁市青秀区蓉茉大道5号b区28栋,f2e4f9f7c29f14c2d03ce3f7,1,1,108.46073,22.819737,,cater,http://api.map.baidu.com/place/detail?uid=f2e4f9f7c29f14c2d03ce3f7&output=html&source=placeapi_v2,,,,,,,,,,,1,,,,,,,108.45721215527,22.818241228582,1
db84eada6b09fc892902e157,源溪茶苑,美食,茶座,广西壮族自治区,南宁市,青秀区,广西壮族自治区南宁市青秀区蓉茉大道76号润和谷b142号,,1,0,108.458913,22.804686,15878109547,cater,http://api.map.baidu.com/place/detail?uid=db84eada6b09fc892902e157&output=html&source=placeapi_v2,,10:00-22:00,,,,,,,,7,,,,,,,,108.45865075921,22.804543995377,0
989edf2719e6dfb0c4f50d3c,泽茗府茶艺馆,美食,茶座,广西壮族自治区,南宁市,青秀区,广西壮族自治区南宁市青秀区通泰路怡景苑小区2号楼110号,989edf2719e6dfb0c4f50d3c,1,0,108.455576,22.812869,(0771)5718525,cater,http://api.map.baidu.com/place/detail?uid=989edf2719e6dfb0c4f50d3c&output=html&source=placeapi_v2,,06:00-23:00,0,,,,,,,,1,,,,,,,108.45552529113,22.813101135305,0
4b20e3338fa9bcc4d0ff239d,华莱健金德茶馆,美食,茶座,广西壮族自治区,南宁市,青秀区,南宁市青秀区同兴路西三里南宁市青秀区五彩幼儿园东侧约60米,4b20e3338fa9bcc4d0ff239d,1,0,108.44923,22.81619,13878143387,cater,http://api.map.baidu.com/place/detail?uid=4b20e3338fa9bcc4d0ff239d&output=html&source=placeapi_v2,,,,,,,,,,,,,,,,,,,,0
5d210a9aa332d264df1e5293,澄匀茶室,美食,茶座,广西壮族自治区,南宁市,西乡塘区,广西壮族自治区南宁市西乡塘区西宁路6号奥园上筑2号楼112室,,1,0,108.2344,22.838764,15994469300,cater,http://api.map.baidu.com/place/detail?uid=5d210a9aa332d264df1e5293&output=html&source=placeapi_v2,,10:00-22:00,,,,,,,,,2,,,,,,,,,0
73b137731da035b404fef5ee,橙月茶室,美食,茶座,广西壮族自治区,南宁市,西乡塘区,南宁市西乡塘区西宁路瀚林上筑,,1,0,108.234407,22.838804,,cater,http://api.map.baidu.com/place/detail?uid=73b137731da035b404fef5ee&output=html&source=placeapi_v2,,,,,,,,,,,,,,,,,,,,0
ad985db6e2a8ad682b11d127,Beauty Tea颐茶(星艺荟店),美食,茶座,广西壮族自治区,南宁市,西乡塘区,广西壮族自治区南宁市西乡塘区罗文大道15号星艺荟广场2号楼一楼美食荟内20米,ad985db6e2a8ad682b11d127,1,0,108.228566,22.859741,18697995770,cater,http://api.map.baidu.com/place/detail?uid=ad985db6e2a8ad682b11d127&output=html&source=placeapi_v2,11.0,09:00-23:00,0,,,,,,,,1,,,,,,,,,0
883d74d5de97bcf4f7eafc3b,清源阁茶庄,美食,茶座,广西壮族自治区,南宁市,西乡塘区,广西壮族自治区南宁市西乡塘区邕隆路瀚林上筑,,1,0,108.234506,22.838011,13977160979,cater,http://api.map.baidu.com/place/detail?uid=883d74d5de97bcf4f7eafc3b&output=html&source=placeapi_v2,,,,,,,,,,,,,,,,,,,,0
7d2fef2b4725e6ba5cd4fee8,茶小忆,美食,茶座,广西壮族自治区,南宁市,西乡塘区,"广西壮族自治区南宁市西乡塘区四联村林屋坡罗文大道进入林屋坡路两边铺面A25,A26号",,1,0,108.232398,22.860504,15077163283,cater,http://api.map.baidu.com/place/detail?uid=7d2fef2b4725e6ba5cd4fee8&output=html&source=placeapi_v2,,10:00-24:00,,,,,,,,,,,,,,,,,,0
164681bdb264d43f30169bd0,茶事季王者手游奶茶吧,美食,茶座,广西壮族自治区,南宁市,西乡塘区,南宁市西乡塘区陈东路南宁市清川小学东侧约40米,,1,0,108.26451,22.844611,,cater,http://api.map.baidu.com/place/detail?uid=164681bdb264d43f30169bd0&output=html&source=placeapi_v2,,10:00-22:00,,,,,,,,,,,,,,,,108.26442776025,22.844616119704,0
ca32d3b1baf8ced37c29bdba,梵茗居,美食,茶座,广西壮族自治区,南宁市,西乡塘区,广西壮族自治区南宁市西乡塘区中富花苑44正东方向40米,ca32d3b1baf8ced37c29bdba,1,0,108.273686,22.850924,(0771)3210774,cater,http://api.map.baidu.com/place/detail?uid=ca32d3b1baf8ced37c29bdba&output=html&source=placeapi_v2,,,,,,,,,,5,,,,,,,,108.27359030487,22.850981125483,0
0f9ccc0949eea47deee4a534,品斋堂,美食,茶座,广西壮族自治区,南宁市,西乡塘区,广西壮族自治区南宁市西乡塘区科园西七路2号,,1,0,108.274272,22.860265,18690558641,cater,http://api.map.baidu.com/place/detail?uid=0f9ccc0949eea47deee4a534&output=html&source=placeapi_v2,,,,,,,,,,,,,,,,,,108.27428787233,22.860366848189,0
af9113011ccfb9c62cb90823,伴壶椿茶山居,美食,茶座,广西壮族自治区,南宁市,西乡塘区,南宁市西乡塘区科园东四路广西农业科技市场东南侧约50米,,1,0,108.278661,22.855144,,cater,http://api.map.baidu.com/place/detail?uid=af9113011ccfb9c62cb90823&output=html&source=placeapi_v2,,,,,,,,,,4,,,,,,,,,,0
e6d4f6360566b295a7da39a1,白沙溪黑茶养生馆,美食,茶座,广西壮族自治区,南宁市,西乡塘区,广西壮族自治区南宁市西乡塘区相思湖东路2里二里北区,e6d4f6360566b295a7da39a1,1,0,108.254141,22.839238,"(0771)2850099,13517710096,18978921999",cater,http://api.map.baidu.com/place/detail?uid=e6d4f6360566b295a7da39a1&output=html&source=placeapi_v2,,10:30-22:00,,,,,,,,11,1,,,,,,,108.25414620454,22.839397153295,0
a331a075f93d298d83a00c28,蜀春轩茶室,美食,茶座,广西壮族自治区,南宁市,西乡塘区,广西壮族自治区南宁市西乡塘区相思湖东路1号二里,,1,0,108.253909,22.839234,15928805558,cater,http://api.map.baidu.com/place/detail?uid=a331a075f93d298d83a00c28&output=html&source=placeapi_v2,,,,,,,,,,4,,,,,,,,108.25389940049,22.839404382177,0
d7a7244db5237721a8175afe,聚友茶吧,美食,茶座,广西壮族自治区,南宁市,西乡塘区,广西壮族自治区南宁市西乡塘区位子渌路17号,,1,0,108.282709,22.845323,(0771)1180569,cater,http://api.map.baidu.com/place/detail?uid=d7a7244db5237721a8175afe&output=html&source=placeapi_v2,,,,,,,,,,,,,,,,,,,,0
22269ba74d18f49c95f08c2e,西塘印象茶馆,美食,茶座,广西壮族自治区,南宁市,西乡塘区,广西壮族自治区南宁市西乡塘区鲁班路50号,22269ba74d18f49c95f08c2e,1,0,108.289901,22.854903,(0771)3105368,cater,http://api.map.baidu.com/place/detail?uid=22269ba74d18f49c95f08c2e&output=html&source=placeapi_v2,,10:00-01:00,5,,,,,,,,1,,,,,,,108.29013544486,22.854730259196,0
1b6a52f10f00c970ca1b959e,南宁市八廓茶馆(衡阳路店),美食,茶座,广西壮族自治区,南宁市,西乡塘区,广西壮族自治区南宁市西乡塘区衡阳西路15-3号,1b6a52f10f00c970ca1b959e,1,0,108.318327,22.838665,13657886637,cater,http://api.map.baidu.com/place/detail?uid=1b6a52f10f00c970ca1b959e&output=html&source=placeapi_v2,95.0,17:00-23:00,4.1,,,,,,,,3,,,,,,,108.31821348464,22.838865609946,0
71d38df69f92ec12e607389e,早茶晚茶,美食,茶座,广西壮族自治区,南宁市,西乡塘区,南宁市西乡塘区秀灵路南安大厦,71d38df69f92ec12e607389e,1,0,108.306938,22.851755,(0771)5751777,cater,http://api.map.baidu.com/place/detail?uid=71d38df69f92ec12e607389e&output=html&source=placeapi_v2,,,,,,,,,,,,,,,,,,108.3068552954,22.851722207567,0
0428ec9c650403cb921fc9f8,御壶茶艺,美食,茶座,广西壮族自治区,南宁市,西乡塘区,广西壮族自治区南宁市西乡塘区鲁班路50号,0428ec9c650403cb921fc9f8,1,0,108.290676,22.855208,(0771)6761118,cater,http://api.map.baidu.com/place/detail?uid=0428ec9c650403cb921fc9f8&output=html&source=placeapi_v2,,10:30-01:00,0.0,,,,,,,,,,,,,,,108.29045001139,22.855053181295,0
944466933e2ca3b23b221c2b,发现茶典,美食,茶座,广西壮族自治区,南宁市,西乡塘区,友爱路东一巷174号C栋一楼5号铺,,1,0,108.319673,22.857881,13556691707,cater,http://api.map.baidu.com/place/detail?uid=944466933e2ca3b23b221c2b&output=html&source=placeapi_v2,,15:00-24:00,,,,,,,,,,,,,,,,,,0
750fed3a13fab26533169bce,辰鑫恒茶室,美食,茶座,广西壮族自治区,南宁市,西乡塘区,广西南宁市西乡塘区秀厢大道东段32号恒大新城步行街怡秋苑大门f34号辰鑫恒茶室,,1,0,108.319767,22.860565,,cater,http://api.map.baidu.com/place/detail?uid=750fed3a13fab26533169bce&output=html&source=placeapi_v2,,,,,,,,,,,,,,,,,,,,0
40f69832d845e04421f0172d,醇然茶室,美食,茶座,广西壮族自治区,南宁市,西乡塘区,广西壮族自治区南宁市西乡塘区鲁班路87号隆源国际花园69号,40f69832d845e04421f0172d,1,0,108.289569,22.846525,13877177859,cater,http://api.map.baidu.com/place/detail?uid=40f69832d845e04421f0172d&output=html&source=placeapi_v2,,00:00-24:00,5,,,,,,,,2,,,,,,,108.28956859972,22.846440289586,0
5814e8b0bd4a1f680a5cb3e6,心语茶,美食,茶座,广西壮族自治区,南宁市,西乡塘区,南宁市西乡塘区友爱北路友爱嘉园西侧约50米,,1,0,108.314351,22.853037,,cater,http://api.map.baidu.com/place/detail?uid=5814e8b0bd4a1f680a5cb3e6&output=html&source=placeapi_v2,,,,,,,,,,,,,,,,,,,,0
bca9fbf899dfcb6ac61e51b1,壹茗,美食,茶座,广西壮族自治区,南宁市,西乡塘区,南宁市西乡塘区友爱路东一巷邓屋小区西北侧约90米,,1,0,108.318264,22.851845,13307819957,cater,http://api.map.baidu.com/place/detail?uid=bca9fbf899dfcb6ac61e51b1&output=html&source=placeapi_v2,,,,,,,,,,5,,,,,,,,108.31823359321,22.85193334157,0
7cc2f917417dd56d30169b6f,不如吃茶去,美食,茶座,广西壮族自治区,南宁市,西乡塘区,广西壮族自治区南宁市西乡塘区万秀北路107号一号铺,,1,0,108.31692,22.855597,18378179791,cater,http://api.map.baidu.com/place/detail?uid=7cc2f917417dd56d30169b6f&output=html&source=placeapi_v2,,13:00-01:00,,,,,,,,,1,,,,,,,,,0
80547af0caeb82068936ee73,魏业茗茶,美食,茶座,广西壮族自治区,南宁市,西乡塘区,广西壮族自治区南宁市西乡塘区鲁班路89号同和慧源映月阁70-1号,80547af0caeb82068936ee73,1,0,108.289211,22.848409,(0771)3909303,cater,http://api.map.baidu.com/place/detail?uid=80547af0caeb82068936ee73&output=html&source=placeapi_v2,,10:00-23:30,,,,,,,,6,,,,,,,,108.28925982876,22.848279814227,0
4401f306cd814205fb2d6137,前进红木茶馆,美食,茶座,广西壮族自治区,南宁市,西乡塘区,广西壮族自治区南宁市西乡塘区秀安路1~3号,,1,0,108.316112,22.864084,,cater,http://api.map.baidu.com/place/detail?uid=4401f306cd814205fb2d6137&output=html&source=placeapi_v2,,,,,,,,,,,,,,,,,,108.31609723406,22.864120920592,0
1dd9ff37c7943aae7ab55cc0,正煦茗轩,美食,茶座,广西壮族自治区,南宁市,西乡塘区,广西壮族自治区南宁市西乡塘区心圩江东路10号6号楼53号,1dd9ff37c7943aae7ab55cc0,1,0,108.288467,22.846567,,cater,http://api.map.baidu.com/place/detail?uid=1dd9ff37c7943aae7ab55cc0&output=html&source=placeapi_v2,,,,,,,,,,6,,,,,,,,108.28845452482,22.846450118704,0
b9501c73aaf07cf222026203,竹良茶舍,美食,茶座,广西壮族自治区,南宁市,西乡塘区,明秀路北一里589号南宁市扶壮学校旁边,,1,0,108.320246,22.855903,14795543614,cater,http://api.map.baidu.com/place/detail?uid=b9501c73aaf07cf222026203&output=html&source=placeapi_v2,,,,,,,,,,,,,,,,,,,,0
9d3ead18c4e1f7ec40e192e7,聚茗缘,美食,茶座,广西壮族自治区,南宁市,西乡塘区,广西壮族自治区南宁市西乡塘区商业街瀚林华府1栋,,1,0,108.288078,22.851318,18697915288,cater,http://api.map.baidu.com/place/detail?uid=9d3ead18c4e1f7ec40e192e7&output=html&source=placeapi_v2,,10:00-23:00,,,,,,,,1,,,,,,,,108.2880276689,22.8513116569,0
1e00dcd9e2d550f4b6147f28,雕刻时光休闲餐吧,美食,茶座,广西壮族自治区,南宁市,西乡塘区,4队南宁市西乡塘区68栋,1e00dcd9e2d550f4b6147f28,1,0,108.32253,22.854645,18077133662,cater,http://api.map.baidu.com/place/detail?uid=1e00dcd9e2d550f4b6147f28&output=html&source=placeapi_v2,42.0,16:00-02:00,,,,,,,,,,,,,,,,,,0
037529cd295e16d7a5da3946,岳霖茶社,美食,茶座,广西壮族自治区,南宁市,西乡塘区,广西壮族自治区南宁市西乡塘区鲁班路85号康桥蓝湾1-0铺,037529cd295e16d7a5da3946,1,0,108.290614,22.840415,,cater,http://api.map.baidu.com/place/detail?uid=037529cd295e16d7a5da3946&output=html&source=placeapi_v2,,,,,,,,,,,,,,,,,,108.29040996578,22.840467313753,0
98ac7936e61d21f39d9d68a5,仔喜茶铺,美食,茶座,广西壮族自治区,南宁市,西乡塘区,南宁市西乡塘区明秀路北一里广西国际壮医医院(明秀分院)西南侧约70米,,1,0,108.322777,22.848519,,cater,http://api.map.baidu.com/place/detail?uid=98ac7936e61d21f39d9d68a5&output=html&source=placeapi_v2,,,,,,,,,,,,,,,,,,,,0
58fd481852a862a33517dcbc,静思茶苑,美食,茶座,广西壮族自治区,南宁市,兴宁区,广西壮族自治区南宁市兴宁区明秀东路88号荣和山水绿城四期5栋103号,58fd481852a862a33517dcbc,1,0,108.340476,22.85703,13977176764,cater,http://api.map.baidu.com/place/detail?uid=58fd481852a862a33517dcbc&output=html&source=placeapi_v2,,12:00-23:00,0,,,,,,,20,0,,,,,,,108.34063622411,22.856995336985,0
77f492aa29af4ff30682c2ab,立夏茶事,美食,茶座,广西壮族自治区,南宁市,兴宁区,广西壮族自治区南宁市兴宁区秀田路江宇世纪城二期6栋116室,,1,0,108.336944,22.857251,13877629955,cater,http://api.map.baidu.com/place/detail?uid=77f492aa29af4ff30682c2ab&output=html&source=placeapi_v2,,,,,,,,,,,,,,,,,,108.33679943102,22.857470617279,0
b3d1c3355ac6020996f08c3c,静品香茗,美食,茶座,广西壮族自治区,南宁市,兴宁区,南宁市兴宁区东州路阳光绿城,,1,0,108.353643,22.856195,,cater,http://api.map.baidu.com/place/detail?uid=b3d1c3355ac6020996f08c3c&output=html&source=placeapi_v2,,,,,,,,,,,,,,,,,,,,0
c52b95975740d16e9ee321e2,叶茗阁茶馆,美食,茶座,广西壮族自治区,南宁市,兴宁区,广西壮族自治区南宁市兴宁区明秀东路88号荣和山水绿城二期1栋2015号,,1,0,108.341387,22.861092,13507718838,cater,http://api.map.baidu.com/place/detail?uid=c52b95975740d16e9ee321e2&output=html&source=placeapi_v2,,10:00-22:00,,,,,,,,,,,,,,,,,,0
465cdb701987fbae3310af35,荣宝茶馆,美食,茶座,广西壮族自治区,南宁市,兴宁区,广西壮族自治区南宁市兴宁区明秀东路88号荣和山水绿城一期6号楼17号,,1,0,108.340561,22.86113,,cater,http://api.map.baidu.com/place/detail?uid=465cdb701987fbae3310af35&output=html&source=placeapi_v2,,,,,,,,,,,,,,,,,,108.34110442453,22.861116496975,0
3bd2e447391b6b8d95ca0709,瑶寨醉香小茶馆,美食,茶座,广西壮族自治区,南宁市,兴宁区,兴宁区秀东路望州路北一里166号,,1,0,108.338693,22.846314,13481163166,cater,http://api.map.baidu.com/place/detail?uid=3bd2e447391b6b8d95ca0709&output=html&source=placeapi_v2,,09:00-22:00,,,,,,,,,,,,,,,,108.33852389284,22.84629999672,0
70d5054b4ed23228a8f0cd39,茶语轩(明湖大厦店),美食,茶座,广西壮族自治区,南宁市,西乡塘区,南宁市西乡塘区明湖大厦1层,70d5054b4ed23228a8f0cd39,1,0,108.328361,22.849329,13627710170,cater,http://api.map.baidu.com/place/detail?uid=70d5054b4ed23228a8f0cd39&output=html&source=placeapi_v2,,,0.0,,,,,,,,2,,,,,,,,,0
b67b18d79db8c795bfa8225c,老茶居,美食,茶座,广西壮族自治区,南宁市,兴宁区,南宁市兴宁区秀东路江宇世纪城公馆南侧约60米,,1,0,108.338354,22.847286,,cater,http://api.map.baidu.com/place/detail?uid=b67b18d79db8c795bfa8225c&output=html&source=placeapi_v2,,,,,,,,,,10,,,,,,,,108.33842812195,22.847309045886,0
5940929d02dbb441f7b91686,古缘茶韵,美食,茶座,广西壮族自治区,南宁市,西乡塘区,南宁市西乡塘区秀东路望州路北二里42号小区东侧约90米,,1,0,108.336999,22.847073,,cater,http://api.map.baidu.com/place/detail?uid=5940929d02dbb441f7b91686&output=html&source=placeapi_v2,,,,,,,,,,,,,,,,,,,,0
9e978309428385c4f7eafced,绿母山茶馆,美食,茶座,广西壮族自治区,南宁市,西乡塘区,广西壮族自治区南宁市西乡塘区北湖东二里28-10号10号,9e978309428385c4f7eafced,1,0,108.33588,22.845027,13377180141,cater,http://api.map.baidu.com/place/detail?uid=9e978309428385c4f7eafced&output=html&source=placeapi_v2,,10:00-22:00,,,,,,,,,,,,,,,,108.33584025723,22.845102620353,0
0d64929f81114f79fb2213da,四木茶居,美食,茶座,广西壮族自治区,南宁市,西乡塘区,广西壮族自治区南宁市西乡塘区北湖路云星城市春天3栋38号,0d64929f81114f79fb2213da,1,0,108.330135,22.860661,,cater,http://api.map.baidu.com/place/detail?uid=0d64929f81114f79fb2213da&output=html&source=placeapi_v2,,,,,,,,,,2,,,,,,,,,,0
759ba029bf606d87b726556f,泉兴茶铺,美食,茶座,广西壮族自治区,南宁市,兴宁区,广西壮族自治区南宁市兴宁区民主路北四里12-18-2号,,1,0,108.342387,22.835765,,cater,http://api.map.baidu.com/place/detail?uid=759ba029bf606d87b726556f&output=html&source=placeapi_v2,,08:00-18:30,,,,,,,,5,,,,,,,,108.3425335774,22.835893515585,0
a99cbb570342557e8bb98832,今广隆茶府,美食,茶座,广西壮族自治区,南宁市,青秀区,广西壮族自治区南宁市青秀区东葛路111~112号万达公馆1栋,a99cbb570342557e8bb98832,1,0,108.379757,22.836622,"(0771)5783468,19968094276",cater,http://api.map.baidu.com/place/detail?uid=a99cbb570342557e8bb98832&output=html&source=placeapi_v2,16.0,10:00-22:00,,,,,,,,,,,,,,,,108.37981331354,22.836869783646,0
10261e6d02e80747715e807d,若有闲,美食,茶座,广西壮族自治区,南宁市,青秀区,广西壮族自治区南宁市青秀区贤宾路7-2-103号,10261e6d02e80747715e807d,1,0,108.381168,22.835651,18776958188,cater,http://api.map.baidu.com/place/detail?uid=10261e6d02e80747715e807d&output=html&source=placeapi_v2,,10:00-22:00,5,,,,,,,,2,,,,,,,108.38121640566,22.835631223391,0
d9202c45ed361ac78bf15df3,桂馨茗茶馆,美食,茶座,广西壮族自治区,南宁市,兴宁区,广西壮族自治区南宁市兴宁区长路179号盛天果岭16栋113号,d9202c45ed361ac78bf15df3,1,0,108.372111,22.846578,(0771)2866929,cater,http://api.map.baidu.com/place/detail?uid=d9202c45ed361ac78bf15df3&output=html&source=placeapi_v2,,10:00-22:00,,,,,,,,,,,,,,,,108.37213769181,22.84651466006,0
25b498aa216c67f1d13ce3d5,陈升号(绿地店),美食,茶座,广西壮族自治区,南宁市,青秀区,广西壮族自治区南宁市青秀区东葛路161号6号楼1层118号,,1,0,108.379568,22.838993,"18877163297,19136608636",cater,http://api.map.baidu.com/place/detail?uid=25b498aa216c67f1d13ce3d5&output=html&source=placeapi_v2,,10:00-22:00,,,,,,,,,,,,,,,,108.37920013918,22.839024244699,0
538f56f6a2d7adb6c5effbf7,幸福茶馆,美食,茶座,广西壮族自治区,南宁市,青秀区,广西壮族自治区南宁市青秀区东葛路万达公馆2栋103室,,1,0,108.380484,22.836384,,cater,http://api.map.baidu.com/place/detail?uid=538f56f6a2d7adb6c5effbf7&output=html&source=placeapi_v2,,10:00-22:00,,,,,,,,,,,,,,,,108.3803447484,22.836406679156,0
4d45e1818fae01aef50e7780,隆武茶庄,美食,茶座,广西壮族自治区,南宁市,青秀区,广西壮族自治区南宁市青秀区绿地中央广场海珀璞晖住宅A区底商9-107号,4d45e1818fae01aef50e7780,1,0,108.379676,22.83971,,cater,http://api.map.baidu.com/place/detail?uid=4d45e1818fae01aef50e7780&output=html&source=placeapi_v2,,,,,,,,,,,,,,,,,,108.37920762925,22.83971334056,0
faeb363ad6e77b75fb2213e5,斗记普洱茶(万达金座店),美食,茶座,广西壮族自治区,南宁市,青秀区,东葛路万达金座外围商铺140号,,1,0,108.381741,22.836441,,cater,http://api.map.baidu.com/place/detail?uid=faeb363ad6e77b75fb2213e5&output=html&source=placeapi_v2,,10:00-23:00,,,,,,,,,,,,,,,,,,0
cba7d69f5af05e402b11d1fa,林艺源根雕茶艺,美食,茶座,广西壮族自治区,南宁市,兴宁区,南梧路308-310号附近,,1,0,108.377639,22.86235,18276117897,cater,http://api.map.baidu.com/place/detail?uid=cba7d69f5af05e402b11d1fa&output=html&source=placeapi_v2,,,,,,,,,,,,,,,,,,108.37759355571,22.862424962556,0
702732bf4bae33ee1d1d11e3,豪园茶道,美食,茶座,广西壮族自治区,南宁市,青秀区,南宁市青秀区盘林巷盘龙居,,1,0,108.394005,22.835797,,cater,http://api.map.baidu.com/place/detail?uid=702732bf4bae33ee1d1d11e3&output=html&source=placeapi_v2,,,,,,,,,,13,,,,,,,,,,0
1e61573758da2c56f03cbab8,蕾蕾韵仙茶阁,美食,茶座,广西壮族自治区,南宁市,兴宁区,广西壮族自治区南宁市兴宁区昆仑大道2号,1e61573758da2c56f03cbab8,1,0,108.377785,22.865322,13707714206,cater,http://api.map.baidu.com/place/detail?uid=1e61573758da2c56f03cbab8&output=html&source=placeapi_v2,,,,,,,,,,6,,,,,,,,,,0
5ea2441bce8f54e4c909f09d,南宁市穆雅茶馆,美食,茶座,广西壮族自治区,南宁市,兴宁区,广西壮族自治区南宁市兴宁区昆仑大道广西卫生职业技术学院西南侧约50米,5ea2441bce8f54e4c909f09d,1,0,108.377407,22.865145,,cater,http://api.map.baidu.com/place/detail?uid=5ea2441bce8f54e4c909f09d&output=html&source=placeapi_v2,,,,,,,,,,,,,,,,,,108.3775422975,22.865217107408,0
4d81b5bb0efeb87620f0179f,茶印香,美食,茶座,广西壮族自治区,南宁市,青秀区,广西壮族自治区南宁市青秀区风凰岭路16号6号楼,,1,0,108.415002,22.835959,15307893312,cater,http://api.map.baidu.com/place/detail?uid=4d81b5bb0efeb87620f0179f&output=html&source=placeapi_v2,,10:00-24:00,,,,,,,,7,,,,,,,,108.41529390904,22.835953135499,0
1f0e14b396aaf75cd2f49e7e,翡倍庄园咖啡茶,美食,茶座,广西壮族自治区,南宁市,青秀区,广西壮族自治区南宁市青秀区凤凰岭路7号凤岭农贸市场3号楼M层,,1,0,108.411144,22.842873,13317716905,cater,http://api.map.baidu.com/place/detail?uid=1f0e14b396aaf75cd2f49e7e&output=html&source=placeapi_v2,,,,,,,,,,,,,,,,,,,,0
0382c06f3162f4addc1e5264,燕堂春茶堂,美食,茶座,广西壮族自治区,南宁市,青秀区,江川悦城5-113,,1,0,108.416928,22.83473,,cater,http://api.map.baidu.com/place/detail?uid=0382c06f3162f4addc1e5264&output=html&source=placeapi_v2,,10:00-23:30,,,,,,,,,,,,,,,,108.41707986228,22.834688023784,0
73be047740d0b4a4018972ca,开普勒台湾精致手作茶坊(童心缘店),美食,茶座,广西壮族自治区,南宁市,青秀区,广西壮族自治区南宁市青秀区枫林路19号保利童心缘b1649号,73be047740d0b4a4018972ca,1,0,108.417706,22.833836,18176893460,cater,http://api.map.baidu.com/place/detail?uid=73be047740d0b4a4018972ca&output=html&source=placeapi_v2,,10:30-24:00,3.6,,,,,,,,,,,,,,,108.41774284077,22.833824750101,0
a526ecf5ccd5e83ec8213d9b,千禧国际大酒店-茶楼,美食,茶座,广西壮族自治区,南宁市,西乡塘区,广西省南宁市西乡塘区高新大道7号12楼,a526ecf5ccd5e83ec8213d9b,1,0,108.276323,22.872571,(0771)2515888,cater,http://api.map.baidu.com/place/detail?uid=a526ecf5ccd5e83ec8213d9b&output=html&source=placeapi_v2,,,0.0,,,,,,,,,,,,,,,108.27630999936,22.872669659489,0
7c590b0aedb139605e0d027e,芯茗堂,美食,茶座,广西壮族自治区,南宁市,西乡塘区,南宁市西乡塘区心圩路多多乐幼儿园(心圩路)北侧约260米,,1,0,108.272844,22.878514,,cater,http://api.map.baidu.com/place/detail?uid=7c590b0aedb139605e0d027e&output=html&source=placeapi_v2,,,,,,,,,,,,,,,,,,,,0
d171732cf9dfe4afc72ba171,南宁茶理达人(振兴店),美食,茶座,广西壮族自治区,南宁市,西乡塘区,南宁市西乡塘区高新大道高新二路小学东北侧约30米,,1,0,108.275247,22.875418,18076562988,cater,http://api.map.baidu.com/place/detail?uid=d171732cf9dfe4afc72ba171&output=html&source=placeapi_v2,,,,,,,,,,,,,,,,,,108.27524342506,22.875298971248,0
c5d038ef13f0a4972fb17e17,心语茶(安吉店),美食,茶座,广西壮族自治区,南宁市,西乡塘区,广西壮族自治区南宁市西乡塘区安吉大道47-2号,,1,0,108.304296,22.878353,15077098360,cater,http://api.map.baidu.com/place/detail?uid=c5d038ef13f0a4972fb17e17&output=html&source=placeapi_v2,,,,,,,,,,,,,,,,,,108.30418047846,22.878375988596,0
967e65b5da5a44230c0a70a9,茶语书香休闲屋,美食,茶座,广西壮族自治区,南宁市,西乡塘区,广西壮族自治区南宁市西乡塘区安园东路9号桃花源祈福城4f1,967e65b5da5a44230c0a70a9,1,0,108.316347,22.882447,,cater,http://api.map.baidu.com/place/detail?uid=967e65b5da5a44230c0a70a9&output=html&source=placeapi_v2,,,,,,,,,,,,,,,,,,108.31632912265,22.882532890037,0
5ce9e2b9cbcb5e50ebe582ee,花茵美茶氏家族,美食,茶座,广西壮族自治区,南宁市,西乡塘区,广西壮族自治区南宁市西乡塘区创业路21正桂名庭2楼,,1,0,108.289983,22.885739,15507886839,cater,http://api.map.baidu.com/place/detail?uid=5ce9e2b9cbcb5e50ebe582ee&output=html&source=placeapi_v2,,,,,,,,,,3,,,,,,,,,,0
a9213a49da80e83251e5c541,QQ茶工坊,美食,茶座,广西壮族自治区,南宁市,西乡塘区,广西壮族自治区南宁市西乡塘区秀安路8号,,1,0,108.3184,22.872766,"13517888708,13878892800",cater,http://api.map.baidu.com/place/detail?uid=a9213a49da80e83251e5c541&output=html&source=placeapi_v2,,,,,,,,,,,,,,,,,,,,0
2e85b41937b8ed0fbda2405d,飞旭3毛休闲餐吧,美食,茶座,广西壮族自治区,南宁市,西乡塘区,S037(邕武路),,1,0,108.34134,22.878563,,cater,http://api.map.baidu.com/place/detail?uid=2e85b41937b8ed0fbda2405d&output=html&source=placeapi_v2,,,,,,,,,,,,,,,,,,,,0
9ada2f47c5c03e8504fef5b1,茗茶雅苑,美食,茶座,广西壮族自治区,南宁市,兴宁区,广西壮族自治区南宁市兴宁区秀厢大道103号26栋,,1,0,108.354414,22.87038,18107713108,cater,http://api.map.baidu.com/place/detail?uid=9ada2f47c5c03e8504fef5b1&output=html&source=placeapi_v2,,,,,,,,,,10,,,,,,,,108.35434277439,22.87030633195,0
629ecc78e1f8a2c21df74d1b,隆日茶坊,美食,茶座,广西壮族自治区,南宁市,兴宁区,广西壮族自治区南宁市兴宁区大乌路29号中海悦公馆218号,,1,0,108.380502,22.875,17776497238,cater,http://api.map.baidu.com/place/detail?uid=629ecc78e1f8a2c21df74d1b&output=html&source=placeapi_v2,,10:00-22:00,,,,,,,,,,,,,,,,,,0
c495d306f3ee6690f6e73b65,清茶居,美食,茶座,广西壮族自治区,南宁市,兴宁区,南宁市兴宁区降桥路金源悦o,,1,0,108.372327,22.871961,,cater,http://api.map.baidu.com/place/detail?uid=c495d306f3ee6690f6e73b65&output=html&source=placeapi_v2,,,,,,,,,,7,,,,,,,,,,0
da644b3baa44e08ff4b916ba,捷佳茶屋,美食,茶座,广西壮族自治区,南宁市,兴宁区,广西壮族自治区南宁市兴宁区昆仑大道58号1层,,1,0,108.389211,22.868059,,cater,http://api.map.baidu.com/place/detail?uid=da644b3baa44e08ff4b916ba&output=html&source=placeapi_v2,,11:00-22:00,,,,,,,,3,,,,,,,,,,0
807a8fafad01186f593ac87d,悦读茶香,美食,茶座,广西壮族自治区,南宁市,兴宁区,南宁市兴宁区温泉路南宁市兴宁区九曲湾小学北侧约250米,,1,0,108.427187,22.888094,,cater,http://api.map.baidu.com/place/detail?uid=807a8fafad01186f593ac87d&output=html&source=placeapi_v2,,,,,,,,,,11,,,,,,,,108.42707378444,22.88800605394,0
8ec2b49b9307a037c056acbf,心语茶,美食,茶座,广西壮族自治区,南宁市,西乡塘区,南宁市西乡塘区金陵路金陵欣欣幼儿园(金陵分园)东南侧约100米,,1,0,108.05642,22.923643,,cater,http://api.map.baidu.com/place/detail?uid=8ec2b49b9307a037c056acbf&output=html&source=placeapi_v2,,,,,,,,,,,,,,,,,,,,0
f3d8647245fac6795cbe86eb,茶亭小站,美食,茶座,广西壮族自治区,南宁市,西乡塘区,南宁市西乡塘区园艺路金童幼儿园东南侧约60米,,1,0,108.332037,22.907416,13627717530,cater,http://api.map.baidu.com/place/detail?uid=f3d8647245fac6795cbe86eb&output=html&source=placeapi_v2,,,,,,,,,,,,,,,,,,108.33194082081,22.907315897782,0
1ef00167f1394bd0b320a8e5,心语茶,美食,茶座,广西壮族自治区,南宁市,兴宁区,广西壮族自治区南宁市兴宁区白鹭前湖嘉和城b138,,1,0,108.44981,22.919814,18275776953,cater,http://api.map.baidu.com/place/detail?uid=1ef00167f1394bd0b320a8e5&output=html&source=placeapi_v2,,10:00-22:00,,,,,,,,,,,,,,,,,,0
c7495e1d0ca794704002458c,月夜茶町,美食,茶座,广西壮族自治区,南宁市,武鸣区,广西壮族自治区南宁市武鸣区甘圩镇甘圩街卫生院旁7号,,1,0,108.235143,22.980227,15978102527,cater,http://api.map.baidu.com/place/detail?uid=c7495e1d0ca794704002458c&output=html&source=placeapi_v2,,09:30-23:30,,,,,,,,,,,,,,,,,,0
e72c62e1458e25314afc8df6,忆杯茶,美食,茶座,广西壮族自治区,南宁市,武鸣区,南宁市武鸣区X042宁武镇珍美幼儿园西侧约170米,e72c62e1458e25314afc8df6,1,0,108.219436,23.115019,15878781698,cater,http://api.map.baidu.com/place/detail?uid=e72c62e1458e25314afc8df6&output=html&source=placeapi_v2,,,,,,,,,,,,,,,,,,,,0
67ecc8daee6a0e280bf5eb13,品味时光休闲吧,美食,茶座,广西壮族自治区,南宁市,武鸣区,南宁市武鸣区壮罗路富乐苑南侧约90米,,1,0,108.300629,23.133691,13707865014,cater,http://api.map.baidu.com/place/detail?uid=67ecc8daee6a0e280bf5eb13&output=html&source=placeapi_v2,,,,,,,,,,,,,,,,,,,,0
acf2e99bcbb5bb0cb426552a,南方夫人茶坊,美食,茶座,广西壮族自治区,南宁市,武鸣区,广西省南宁市武鸣区城厢镇五海一队三产安置房9号,,1,0,108.274385,23.163781,13377141609,cater,http://api.map.baidu.com/place/detail?uid=acf2e99bcbb5bb0cb426552a&output=html&source=placeapi_v2,,,,,,,,,,,1,,,,,,,,,0
49b70498fb704b95a104642e,德福缘茶馆,美食,茶座,广西壮族自治区,南宁市,武鸣区,广西壮族自治区南宁市武鸣区城厢镇标营新区起凤路12号麒麟尊府1组团3号楼一单元一层0302号商铺,,1,0,108.300265,23.148765,13737064852,cater,http://api.map.baidu.com/place/detail?uid=49b70498fb704b95a104642e&output=html&source=placeapi_v2,,,,,,,,,,,,,,,,,,,,0
f7e4d5bebb05891d15a190da,一座一茶(标营路店),美食,茶座,广西壮族自治区,南宁市,武鸣区,广西壮族自治区南宁市武鸣区城厢镇标营路1号康和城3幢96号商铺,,1,0,108.297886,23.154447,15296391119,cater,http://api.map.baidu.com/place/detail?uid=f7e4d5bebb05891d15a190da&output=html&source=placeapi_v2,,10:00-23:00,,,,,,,,,,,,,,,,,,0
67ecc8daee6a0e280bf5eb13,品味时光休闲吧,美食,茶座,广西壮族自治区,南宁市,武鸣区,南宁市武鸣区壮罗路富乐苑南侧约90米,,1,0,108.300629,23.133691,13707865014,cater,http://api.map.baidu.com/place/detail?uid=67ecc8daee6a0e280bf5eb13&output=html&source=placeapi_v2,,,,,,,,,,,,,,,,,,,,0
d218499e58544e4f43e1925f,袅袅茶香休闲吧,美食,茶座,广西壮族自治区,南宁市,武鸣区,广西壮族自治区南宁市武鸣区东盟经济技术开发区宁武农场上平屯一队53号,,1,0,108.207244,23.184446,19162093119,cater,http://api.map.baidu.com/place/detail?uid=d218499e58544e4f43e1925f&output=html&source=placeapi_v2,,09:00-23:00,0,,,,,,,,2,,,,,,,,,0
5bc350bf23b92ab58836ee97,烽伙台茶室名烟,美食,茶座,广西壮族自治区,南宁市,武鸣区,南宁市武鸣区大帽路宏湖壹号城,,1,0,108.185894,23.207331,,cater,http://api.map.baidu.com/place/detail?uid=5bc350bf23b92ab58836ee97&output=html&source=placeapi_v2,,,,,,,,,,,,,,,,,,,,0
d8b8854cb23350bea6da391e,茶海棠,美食,茶座,广西壮族自治区,南宁市,武鸣区,广西壮族自治区南宁市武鸣区大帽路华侨城14栋,,1,0,108.184914,23.203294,17677383503,cater,http://api.map.baidu.com/place/detail?uid=d8b8854cb23350bea6da391e&output=html&source=placeapi_v2,,09:00-24:00,,,,,,,,,,,,,,,,108.18491759514,23.20316886184,0
f3ede526ea6594ec8505bf03,友茶缘,美食,茶座,广西壮族自治区,南宁市,武鸣区,南宁市武鸣区侨兴路华侨城,,1,0,108.184814,23.20409,15278053513,cater,http://api.map.baidu.com/place/detail?uid=f3ede526ea6594ec8505bf03&output=html&source=placeapi_v2,,,,,,,,,,,,,,,,,,108.1848046449,23.20396628493,0
