uid,name,cat_L1,cat_L2,province,city,area,address,street_id,detail,child_num,loc_lng,loc_lat,telephone,type,detail_url,price,shop_hours,overall_rating,taste_rating,service_rating,environment_rating,facility_rating,hygiene_rating,technology_rating,image_num,comment_num,groupon_num,discount_num,favorite_num,checkin_num,brand,content_tag,naviloc_lng,naviloc_lat,child_num
5dac72576ae5dfa6b74f54a5,暖意甜品,美食,蛋糕甜品店,广西壮族自治区,南宁市,江南区,南宁市江南区苏圩镇团结路农贸市场A栋8号楼,,1,0,108.105869,22.551858,15296551704,cater,http://api.map.baidu.com/place/detail?uid=5dac72576ae5dfa6b74f54a5&output=html&source=placeapi_v2,,,0,,,,,,,,1,,,,,,,108.10595235654,22.551928443048,0
42dffb040ab7459800ec01ee,仙踪林(南宁吴圩国际机场店),美食,蛋糕甜品店,广西壮族自治区,南宁市,江南区,南宁市江南区吴圩镇机场路南宁吴圩国际机场F3,,1,0,108.194041,22.608793,,cater,http://api.map.baidu.com/place/detail?uid=42dffb040ab7459800ec01ee&output=html&source=placeapi_v2,54.0,,3.6,,,,,,,,0,,,,,,,,,0
144bea7de6ceecf2f503b8d7,范记饼屋(吴圩一店),美食,蛋糕甜品店,广西壮族自治区,南宁市,江南区,广西壮族自治区南宁市江南区博济街二里吴圩汽车站沿街2号铺面,144bea7de6ceecf2f503b8d7,1,0,108.224861,22.650145,(0771)4308679,cater,http://api.map.baidu.com/place/detail?uid=144bea7de6ceecf2f503b8d7&output=html&source=placeapi_v2,17.0,06:30-18:30,3.4,,,,,,,,22,,,,,,,,,0
5adc832e8a6a770e4f3a597a,柳香园饼业,美食,蛋糕甜品店,广西壮族自治区,南宁市,江南区,江南区汽车站综合楼2-3号正东方向60米,5adc832e8a6a770e4f3a597a,1,0,108.225296,22.650097,(0771)4208013,cater,http://api.map.baidu.com/place/detail?uid=5adc832e8a6a770e4f3a597a&output=html&source=placeapi_v2,,,3.5,,,,,,,,1,,,,,,,108.22533339397,22.650165965536,0
f2bc555808806c04276e9828,蜜荨蛋糕烘焙店,美食,蛋糕甜品店,广西壮族自治区,南宁市,江南区,南宁市江南区海康路60号1楼,,1,0,108.224241,22.652602,,cater,http://api.map.baidu.com/place/detail?uid=f2bc555808806c04276e9828&output=html&source=placeapi_v2,,,,,,,,,,,,,,,,,,,,0
592b652d3110937aa80dd85b,台湾大拇指珍珠奶茶烧仙草连锁专卖店(建业路店),美食,蛋糕甜品店,广西壮族自治区,南宁市,良庆区,广西壮族自治区南宁市良庆区建业路25号,592b652d3110937aa80dd85b,1,0,108.340396,22.730465,,cater,http://api.map.baidu.com/place/detail?uid=592b652d3110937aa80dd85b&output=html&source=placeapi_v2,,10:00-23:30,0,,,,,,,,0,,,,,,,108.34048542826,22.730308422433,0
480b24d0ecd7fc8c9cec2bfc,港客奶茶店,美食,蛋糕甜品店,广西壮族自治区,南宁市,良庆区,南宁市良庆区良庆镇玉洞商贸城益民路20号,480b24d0ecd7fc8c9cec2bfc,1,0,108.343054,22.730127,18775332412,cater,http://api.map.baidu.com/place/detail?uid=480b24d0ecd7fc8c9cec2bfc&output=html&source=placeapi_v2,,,3.0,,,,,,,,2,,,,,,,108.34297877581,22.730216323486,0
946e32ebda55dc4aeee4a546,昕凯休闲吧,美食,蛋糕甜品店,广西壮族自治区,南宁市,良庆区,南宁市良庆区龙云街幸福华府2加1南侧,946e32ebda55dc4aeee4a546,1,0,108.345111,22.73196,"(0771)4300144,13977104715",cater,http://api.map.baidu.com/place/detail?uid=946e32ebda55dc4aeee4a546&output=html&source=placeapi_v2,,,,,,,,,,,,,,,,,,108.34519968976,22.732072689951,0
554af72bd9f8e20357bfff4e,皇氏乳业新鲜屋(万科魅力城店),美食,蛋糕甜品店,广西壮族自治区,南宁市,良庆区,广西壮族自治区南宁市良庆区坛兴路27号万科魅力之城15栋,554af72bd9f8e20357bfff4e,1,0,108.39803,22.726806,18775316078,cater,http://api.map.baidu.com/place/detail?uid=554af72bd9f8e20357bfff4e&output=html&source=placeapi_v2,20.0,08:00-22:00,3.5,,,,,,,,0,,,,,,,,,0
8559ea3f583b475526e0a06b,皇氏新鲜屋(绿地国际花都店),美食,蛋糕甜品店,广西壮族自治区,南宁市,良庆区,广西壮族自治区南宁市良庆区平乐大道39号绿地国际花都15栋109铺,8559ea3f583b475526e0a06b,1,0,108.394426,22.726288,18697952810,cater,http://api.map.baidu.com/place/detail?uid=8559ea3f583b475526e0a06b&output=html&source=placeapi_v2,,07:00-22:00,,,,,,,,,,,,,,,,108.39453278233,22.726281129894,0
8453254b1ba664c9d8ecedbb,皇氏新鲜屋(奥园小区店),美食,蛋糕甜品店,广西壮族自治区,南宁市,江南区,广西壮族自治区南宁市江南区那洪大道39号奥园小区南区1~5栋10号,8453254b1ba664c9d8ecedbb,1,0,108.270165,22.763931,"(0771)4894109,13211333545",cater,http://api.map.baidu.com/place/detail?uid=8453254b1ba664c9d8ecedbb&output=html&source=placeapi_v2,10.0,07:00-22:30,3.5,,,,,,,,8,,,,,,,108.27005957345,22.763932177924,0
09d2d2143c5cb619081cc780,甜芯蛋糕店,美食,蛋糕甜品店,广西壮族自治区,南宁市,江南区,广西壮族自治区南宁市江南区友谊路48-12号黄毛坪罗坡九组D栋三单元一楼甜芯蛋糕店,,1,0,108.299162,22.760912,13481079358,cater,http://api.map.baidu.com/place/detail?uid=09d2d2143c5cb619081cc780&output=html&source=placeapi_v2,,10:00-19:30,,,,,,,,,,,,,,,,108.29916251693,22.760999187276,0
1173c0bf55e16addf503b8ed,皇氏新鲜屋(恒大城店),美食,蛋糕甜品店,广西壮族自治区,南宁市,江南区,广西壮族自治区南宁市江南区通源路8号2楼,1173c0bf55e16addf503b8ed,1,0,108.305996,22.762466,,cater,http://api.map.baidu.com/place/detail?uid=1173c0bf55e16addf503b8ed&output=html&source=placeapi_v2,19.0,07:00-22:30,,,,,,,,,,,,,,,,108.30607871658,22.762422376894,0
4ce10ce6425c92b8441a324b,范记饼屋(阳光新城店),美食,蛋糕甜品店,广西壮族自治区,南宁市,良庆区,广西壮族自治区南宁市良庆区金沙大道339号阳光新城风林苑17号楼3号铺,4ce10ce6425c92b8441a324b,1,0,108.340619,22.761822,(0771)4520021,cater,http://api.map.baidu.com/place/detail?uid=4ce10ce6425c92b8441a324b&output=html&source=placeapi_v2,11.0,06:30-22:00,3.5,,,,,,,,2,,,,,,,108.34046762564,22.761808335006,0
30c5812ae2722b4bb817e732,蓉轩奶茶,美食,蛋糕甜品店,广西壮族自治区,南宁市,良庆区,广西壮族自治区南宁市良庆区五象路331号,30c5812ae2722b4bb817e732,1,0,108.334387,22.740465,,cater,http://api.map.baidu.com/place/detail?uid=30c5812ae2722b4bb817e732&output=html&source=placeapi_v2,,,0,,,,,,,,1,,,,,,,,,0
c6c4e134aefae33eeddfcac8,左江水牛奶(玉洞店),美食,蛋糕甜品店,广西壮族自治区,南宁市,良庆区,广西壮族自治区南宁市良庆区南二街89号,c6c4e134aefae33eeddfcac8,1,0,108.330008,22.742034,"15977732544,18376790186",cater,http://api.map.baidu.com/place/detail?uid=c6c4e134aefae33eeddfcac8&output=html&source=placeapi_v2,,08:00-22:00,,,,,,,,,,,,,,,,108.32994795878,22.742113265433,0
cdfe238511b4569857bfff94,Sweet Corner甜蜜转身(平乐大道店),美食,蛋糕甜品店,广西壮族自治区,南宁市,良庆区,南宁市良庆区平乐大道21号大唐总部1号1号楼2号楼一层153号商铺,cdfe238511b4569857bfff94,1,0,108.390819,22.757652,,cater,http://api.map.baidu.com/place/detail?uid=cdfe238511b4569857bfff94&output=html&source=placeapi_v2,,10:00-20:00,0,,,,,,,,0,,,,,,,,,0
86f9c1cd766b01e30ab93aa4,方木甜品园,美食,蛋糕甜品店,广西壮族自治区,南宁市,良庆区,良庆镇临时农贸市场,86f9c1cd766b01e30ab93aa4,1,0,108.427641,22.752978,,cater,http://api.map.baidu.com/place/detail?uid=86f9c1cd766b01e30ab93aa4&output=html&source=placeapi_v2,,,,,,,,,,,,,,,,,,108.42753031498,22.752861945462,0
158f123281788c492a02e194,糖诗甜品,美食,蛋糕甜品店,广西壮族自治区,南宁市,邕宁区,南宁市邕宁区公曹路康岭花城,158f123281788c492a02e194,1,0,108.498915,22.749148,18928914652,cater,http://api.map.baidu.com/place/detail?uid=158f123281788c492a02e194&output=html&source=placeapi_v2,,,,,,,,,,,,,,,,,,108.4989289565,22.749239494346,0
ab2fa2ff66a806492b11d1ed,淘气堡甜品酸S屋,美食,蛋糕甜品店,广西壮族自治区,南宁市,邕宁区,南宁市邕宁区公曹路康岭花城,,1,0,108.499729,22.74901,,cater,http://api.map.baidu.com/place/detail?uid=ab2fa2ff66a806492b11d1ed&output=html&source=placeapi_v2,,,,,,,,,,1,,,,,,,,,,0
e44c77d9621b68962806cec4,范记饼屋(汉林店),美食,蛋糕甜品店,广西壮族自治区,南宁市,邕宁区,广西壮族自治区南宁市邕宁区汉林街126号,e44c77d9621b68962806cec4,1,0,108.501366,22.756318,(0771)4711226,cater,http://api.map.baidu.com/place/detail?uid=e44c77d9621b68962806cec4&output=html&source=placeapi_v2,11.0,06:30-22:00,3.5,,,,,,,,22,,,,,,,108.50128347273,22.756305975407,0
55fa2c0b5c7e94341ce9993d,意洋蛋糕园(奥园店),美食,蛋糕甜品店,广西壮族自治区,南宁市,江南区,广西壮族自治区南宁市江南区那洪大道38号东三里13号,55fa2c0b5c7e94341ce9993d,1,0,108.273465,22.769406,"(0771)6735738,18275882975",cater,http://api.map.baidu.com/place/detail?uid=55fa2c0b5c7e94341ce9993d&output=html&source=placeapi_v2,63.0,08:30-22:00,3.4,,,,,,,,5,,,,,,,108.27339999974,22.769508004216,0
f75e218618ffe32c32870a87,百香林西点(富源路店),美食,蛋糕甜品店,广西壮族自治区,南宁市,江南区,广西壮族自治区南宁市江南区那洪富源菜市场斜对面,f75e218618ffe32c32870a87,1,0,108.272348,22.76851,13788702993,cater,http://api.map.baidu.com/place/detail?uid=f75e218618ffe32c32870a87&output=html&source=placeapi_v2,9.0,,3.4,,,,,,,,,,,,,,,108.27255500687,22.768508523734,0
955454e5dae3020757bfffef,臻品贡茶(普罗旺斯店),美食,蛋糕甜品店,广西壮族自治区,南宁市,江南区,广西壮族自治区南宁市江南区壮锦大道23号绿城印象2栋s102号,955454e5dae3020757bfffef,1,0,108.27942,22.777517,18578923858,life,http://api.map.baidu.com/place/detail?uid=955454e5dae3020757bfffef&output=html&source=placeapi_v2,,09:00-23:00,,,,,,,,27,3,,,,,,,,,0
d639850e619bea09c909f0a6,茵伲蛋糕店,美食,蛋糕甜品店,广西壮族自治区,南宁市,江南区,广西壮族自治区南宁市江南区白沙大道65号尚雅名都G01一12号铺面,d639850e619bea09c909f0a6,1,0,108.304963,22.782037,18376649388,cater,http://api.map.baidu.com/place/detail?uid=d639850e619bea09c909f0a6&output=html&source=placeapi_v2,,09:00-21:00,3.4,,,,,,,,0,,,,,,,108.30496737971,22.782251807633,0
bff1109ee8dae227b320a8a1,皇氏新鲜屋(翠岭店),美食,蛋糕甜品店,广西壮族自治区,南宁市,江南区,广西壮族自治区南宁市江南区石柱岭路11号翠岭居5栋B06号,bff1109ee8dae227b320a8a1,1,0,108.30837,22.787743,(0771)4838990,cater,http://api.map.baidu.com/place/detail?uid=bff1109ee8dae227b320a8a1&output=html&source=placeapi_v2,10.0,07:00-22:30,3.5,,,,,,,,17,,,,,,,108.30832467888,22.78754421367,0
1e8c983b2782c7df1811d507,五谷香甜品(菠萝岭店),美食,蛋糕甜品店,广西壮族自治区,南宁市,江南区,广西壮族自治区南宁市江南区西正街51号,1e8c983b2782c7df1811d507,1,0,108.308263,22.785745,"13667719839,15994475709",cater,http://api.map.baidu.com/place/detail?uid=1e8c983b2782c7df1811d507&output=html&source=placeapi_v2,9.0,11:00-23:30,,,,,,,,,,,,,,,,108.30813931982,22.785741083828,0
53759452929fc1c42ce67b4b,百麦思奇主题烘焙(普罗旺斯店),美食,蛋糕甜品店,广西壮族自治区,南宁市,江南区,广西壮族自治区南宁市江南区白沙大道109号龙光普罗旺斯二期香槟庄园1号楼2号,53759452929fc1c42ce67b4b,1,0,108.287749,22.781045,"(0771)4301592,18358004179",cater,http://api.map.baidu.com/place/detail?uid=53759452929fc1c42ce67b4b&output=html&source=placeapi_v2,23.0,07:00-24:00,3.5,,,,,,,,0,,,,,,,108.28793163555,22.781053409037,0
1886888071a1bfc0077ce83e,都市甜心(江南华联店),美食,蛋糕甜品店,广西壮族自治区,南宁市,江南区,广西壮族自治区南宁市江南区亭洪路45号北京华联超市f1层,,1,0,108.313355,22.793574,(0771)5343299,cater,http://api.map.baidu.com/place/detail?uid=1886888071a1bfc0077ce83e&output=html&source=placeapi_v2,,07:00-23:30,3.8,,,,,,,,1,,,,,,,108.31332229199,22.793795226212,0
50fbd0a5968850b3085cb3af,艾利尚蛋糕店,美食,蛋糕甜品店,广西壮族自治区,南宁市,江南区,广西壮族自治区南宁市江南区星光大道213号金康天和人家7栋1层7-24号,,1,0,108.320377,22.779043,"17736642653,18677152423",cater,http://api.map.baidu.com/place/detail?uid=50fbd0a5968850b3085cb3af&output=html&source=placeapi_v2,17.0,09:00-22:00,3.5,,,,,,,,2,,,,,,,,,0
3eb9ffffd111bcdf8e772795,爱德华蛋糕,美食,蛋糕甜品店,广西壮族自治区,南宁市,江南区,白沙大道91号英伦第六区D号楼2单元2904号,,1,0,108.295214,22.781023,,cater,http://api.map.baidu.com/place/detail?uid=3eb9ffffd111bcdf8e772795&output=html&source=placeapi_v2,,,,,,,,,,,,,,,,,,,,0
7d1a6924dc64df5d774ff130,美点(星光大道店),美食,蛋糕甜品店,广西壮族自治区,南宁市,江南区,广西壮族自治区南宁市江南区长凯路22号四期7栋5楼,7d1a6924dc64df5d774ff130,1,0,108.31767,22.776082,(0771)4970655,cater,http://api.map.baidu.com/place/detail?uid=7d1a6924dc64df5d774ff130&output=html&source=placeapi_v2,23.0,07:00-22:00,0,,,,,,,3,0,,,,,,,108.31767097009,22.775996089826,0
a7def18f33acb59817948e03,KENGEE仟吉(万达广场江南店),美食,蛋糕甜品店,广西壮族自治区,南宁市,江南区,南宁市江南区亭洪路48-1号万达广场F1,a7def18f33acb59817948e03,1,0,108.318687,22.795358,(0771)4975177,cater,http://api.map.baidu.com/place/detail?uid=a7def18f33acb59817948e03&output=html&source=placeapi_v2,42.0,08:00-22:00,3.8,,,,,,,,0,,,,,,,108.31861167113,22.794842432602,0
bcd0b3ae5621a7482fb17e26,白面包烘焙坊(圭贝店),美食,蛋糕甜品店,广西壮族自治区,南宁市,江南区,广西壮族自治区南宁市江南区白沙大道39号锦绣江南北区c120号,bcd0b3ae5621a7482fb17e26,1,0,108.322386,22.780985,(0771)4796645,cater,http://api.map.baidu.com/place/detail?uid=bcd0b3ae5621a7482fb17e26&output=html&source=placeapi_v2,15.0,09:00-22:00,3.5,,,,,,,,0,,,,,,,108.32247500016,22.780954004463,0
f3bc796ad075cdb1eb56fa41,一品轩西饼(普罗旺斯店),美食,蛋糕甜品店,广西壮族自治区,南宁市,江南区,广西壮族自治区南宁市江南区白沙大道109号B1040号,f3bc796ad075cdb1eb56fa41,1,0,108.285573,22.782067,,cater,http://api.map.baidu.com/place/detail?uid=f3bc796ad075cdb1eb56fa41&output=html&source=placeapi_v2,58.0,07:00-23:00,3.4,,,,,,,,1,,,,,,,,,0
d0c45e10bdd922520482c299,南宁市美点饼业食品有限责任公司(总部),美食,蛋糕甜品店,广西壮族自治区,南宁市,江南区,广西壮族自治区南宁市江南区长凯路22号7栋5楼,d0c45e10bdd922520482c299,1,0,108.310967,22.77171,(0771)4979651,cater,http://api.map.baidu.com/place/detail?uid=d0c45e10bdd922520482c299&output=html&source=placeapi_v2,,,3.5,,,,,,,,7,,,,,,,,,0
c4adafc1a5df195102294f96,甜茉儿定制蛋糕,美食,蛋糕甜品店,广西壮族自治区,南宁市,江南区,广西壮族自治区南宁市江南区白沙大道35号南国花园商城a1栋P21号,,1,0,108.32339,22.78219,13878885776,cater,http://api.map.baidu.com/place/detail?uid=c4adafc1a5df195102294f96&output=html&source=placeapi_v2,,,,,,,,,,,,,,,,,,,,0
eb3675039bcbaf0200ec01f9,范记饼屋(星光店),美食,蛋糕甜品店,广西壮族自治区,南宁市,江南区,广西壮族自治区南宁市江南区星光大道石柱岭51-14号,eb3675039bcbaf0200ec01f9,1,0,108.318301,22.789922,(0771)4925351,cater,http://api.map.baidu.com/place/detail?uid=eb3675039bcbaf0200ec01f9&output=html&source=placeapi_v2,11.0,06:30-22:00,3.6,,,,,,,,4,,,,,,,108.31819397883,22.789920388215,0
b1fc970f9f19b6cb40afe6dc,皇氏新鲜屋(鑫金绿洲加盟店),美食,蛋糕甜品店,广西壮族自治区,南宁市,江南区,广西壮族自治区南宁市江南区金凯路36号昌泰鑫金绿洲8-104号,b1fc970f9f19b6cb40afe6dc,1,0,108.291916,22.776023,18587855512,cater,http://api.map.baidu.com/place/detail?uid=b1fc970f9f19b6cb40afe6dc&output=html&source=placeapi_v2,,07:00-22:30,,,,,,,,,,,,,,,,108.29185955993,22.776032246748,0
a7edc9c0e7aeaa1e28201a73,皇氏新鲜屋(普罗旺斯店),美食,蛋糕甜品店,广西壮族自治区,南宁市,江南区,南宁市白沙大道109号龙光普罗旺斯蓝钻卡地亚庄园高层区B1053号,a7edc9c0e7aeaa1e28201a73,1,0,108.285537,22.781022,(0771)4871605,cater,http://api.map.baidu.com/place/detail?uid=a7edc9c0e7aeaa1e28201a73&output=html&source=placeapi_v2,10.0,07:00-22:30,3.6,,,,,,,,2,,,,,,,108.28567656892,22.780993753573,0
e463ac0de44e9ac897ec84dc,察理王子茶饮专卖店(圭贝路店),美食,蛋糕甜品店,广西壮族自治区,南宁市,江南区,广西壮族自治区南宁市江南区圭贝路金康苑5号楼1层27号,e463ac0de44e9ac897ec84dc,1,0,108.322394,22.778681,(0771)3117899,cater,http://api.map.baidu.com/place/detail?uid=e463ac0de44e9ac897ec84dc&output=html&source=placeapi_v2,13.0,10:00-24:00,3.8,,,,,,,,0,,,,,,,,,0
9c215b7b3d014b923b221c71,清心堂凉茶(金康店),美食,蛋糕甜品店,广西壮族自治区,南宁市,江南区,广西壮族自治区南宁市江南区圭贝路213号金康天和人家小区1栋03号,9c215b7b3d014b923b221c71,1,0,108.320687,22.778456,18978831302,cater,http://api.map.baidu.com/place/detail?uid=9c215b7b3d014b923b221c71&output=html&source=placeapi_v2,9.0,,3.7,,,,,,,,10,,,,,,,108.32068761294,22.778316321565,0
0b8a708a7a8086f9ca1b957e,美点饼业(普罗旺斯店),美食,蛋糕甜品店,广西壮族自治区,南宁市,江南区,广西壮族自治区南宁市江南区那洪大道普罗旺斯波尔多庄园1-114号,,1,0,108.288283,22.777383,"(0771)4972815,4000350950",cater,http://api.map.baidu.com/place/detail?uid=0b8a708a7a8086f9ca1b957e&output=html&source=placeapi_v2,11.0,07:00-22:00,3.7,,,,,,,,5,,,,,,,108.28823187615,22.777441265429,0
262899b60fa7dfae132935e8,YG蛋糕,美食,蛋糕甜品店,广西壮族自治区,南宁市,江南区,广西壮族自治区南宁市江南区星光大道荣宝华商城b11栋a114号,,1,0,108.320701,22.775799,"18249942719,19117517157",cater,http://api.map.baidu.com/place/detail?uid=262899b60fa7dfae132935e8&output=html&source=placeapi_v2,,10:00-22:00,3.5,,,,,,,,,,,,,,,,,0
e607e6794647e963adb22a92,南宁君悦西点店,美食,蛋糕甜品店,广西壮族自治区,南宁市,江南区,广西壮族自治区南宁市江南区白沙大道109号龙光普罗旺斯波尔多庄园5号商业楼216号,e607e6794647e963adb22a92,1,0,108.291635,22.776069,13768274080,cater,http://api.map.baidu.com/place/detail?uid=e607e6794647e963adb22a92&output=html&source=placeapi_v2,20.0,09:00-21:00,0,,,,,,,,1,,,,,,,108.29174451215,22.776035009004,0
efc2e7b375eb6eb6f7b91635,惜缘靓饮(江南旗舰店),美食,蛋糕甜品店,广西壮族自治区,南宁市,江南区,广西壮族自治区南宁市江南区星光大道4号,efc2e7b375eb6eb6f7b91635,1,0,108.318617,22.791298,13557594430,cater,http://api.map.baidu.com/place/detail?uid=efc2e7b375eb6eb6f7b91635&output=html&source=placeapi_v2,9.0,11:00-21:30,3.6,,,,,,,,5,,,,,,,,,0
5508504d7262bfd2c7f0254b,范记饼屋(荣宝华店),美食,蛋糕甜品店,广西壮族自治区,南宁市,江南区,广西壮族自治区南宁市江南区星光大道223号荣宝华商城a-2号楼111号,5508504d7262bfd2c7f0254b,1,0,108.319923,22.778106,"(0771)2827736,(0771)4919655",cater,http://api.map.baidu.com/place/detail?uid=5508504d7262bfd2c7f0254b&output=html&source=placeapi_v2,26.0,06:20-23:00,3.6,,,,,,,,3,,,,,,,108.31992281809,22.778185016832,0
6e93a71e25fbfa1f4d554718,大维饮品(金康店),美食,蛋糕甜品店,广西壮族自治区,南宁市,江南区,广西壮族自治区南宁市江南区星光大道213号金康苑3号楼1层3-28号,6e93a71e25fbfa1f4d554718,1,0,108.322395,22.779045,(0771)4863380,cater,http://api.map.baidu.com/place/detail?uid=6e93a71e25fbfa1f4d554718&output=html&source=placeapi_v2,15.0,00:00-24:00,3.6,,,,,,,,24,,,,,,,108.32249160444,22.779015860523,0
d5bacba8642694f68bdb7350,吴记甜品凉茶,美食,蛋糕甜品店,广西壮族自治区,南宁市,江南区,南宁市江南区星光大道红星幼儿园(总园)东南侧约90米,d5bacba8642694f68bdb7350,1,0,108.319235,22.786303,,cater,http://api.map.baidu.com/place/detail?uid=d5bacba8642694f68bdb7350&output=html&source=placeapi_v2,,,,,,,,,,,,,,,,,,,,0
c91b6ee91845d3fd4354d79f,生日快乐蛋糕,美食,蛋糕甜品店,广西壮族自治区,南宁市,江南区,南宁市江南区星光大道盛邦领地南侧约30米,,1,0,108.318888,22.791228,"15677001373,18776004861",cater,http://api.map.baidu.com/place/detail?uid=c91b6ee91845d3fd4354d79f&output=html&source=placeapi_v2,,08:00-22:00,,,,,,,,,,,,,,,,,,0
e39ebbb5d887505c0aa8d468,清心堂凉茶(玫瑰园分店),美食,蛋糕甜品店,广西壮族自治区,南宁市,江南区,广西壮族自治区南宁市江南区迎凯路238号玫瑰园四期3-24号,e39ebbb5d887505c0aa8d468,1,0,108.31641,22.768757,15177920927,life,http://api.map.baidu.com/place/detail?uid=e39ebbb5d887505c0aa8d468&output=html&source=placeapi_v2,,07:00-23:00,,,,,,,,17,1,,,,,,,108.31640956231,22.76891046792,0
1919c3693cb21b9c841541e7,百年梧州(江南水街店),美食,蛋糕甜品店,广西壮族自治区,南宁市,江南区,广西壮族自治区南宁市江南区五一路8-1-25号江南水街8-25号,1919c3693cb21b9c841541e7,1,0,108.309953,22.799352,13517660155,cater,http://api.map.baidu.com/place/detail?uid=1919c3693cb21b9c841541e7&output=html&source=placeapi_v2,10.0,10:00-24:00,3.8,,,,,,,,5,,,,,,,108.30966718209,22.799438087307,0
a64264bd407a2abcbadf8fed,下火堂甜品(江南水街店),美食,蛋糕甜品店,广西壮族自治区,南宁市,江南区,南宁市江南区淡村支一路弘义楼西南侧约60米,,1,0,108.309971,22.798111,,cater,http://api.map.baidu.com/place/detail?uid=a64264bd407a2abcbadf8fed&output=html&source=placeapi_v2,,,,,,,,,,,,,,,,,,,,0
a9e7a88eb0b3bb02b45f1ee5,咪咪甜品(朋云路店),美食,蛋糕甜品店,广西壮族自治区,南宁市,江南区,广西壮族自治区南宁市江南区长凯路8号庭香园小区1层,a9e7a88eb0b3bb02b45f1ee5,1,0,108.315873,22.771957,13087978008,cater,http://api.map.baidu.com/place/detail?uid=a9e7a88eb0b3bb02b45f1ee5&output=html&source=placeapi_v2,,,,,,,,,,,,,,,,,,,,0
857acf905fb0be2df8221398,美点饼业(柳沙店),美食,蛋糕甜品店,广西壮族自治区,南宁市,青秀区,广西壮族自治区南宁市青秀区英华路56号,857acf905fb0be2df8221398,1,0,108.352734,22.78441,18977112656,cater,http://api.map.baidu.com/place/detail?uid=857acf905fb0be2df8221398&output=html&source=placeapi_v2,24.0,07:00-24:00,3.7,,,,,,,,28,,,,,,,108.35263506148,22.784383435442,0
f54152e4f32a9346fd0eb081,爱佳蛋糕(白沙分店),美食,蛋糕甜品店,广西壮族自治区,南宁市,江南区,江南区白沙农贸市场2号门新铺10-1号,,1,0,108.33964,22.790722,17777242206,cater,http://api.map.baidu.com/place/detail?uid=f54152e4f32a9346fd0eb081&output=html&source=placeapi_v2,,07:00-22:00,3.4,,,,,,,,,,,,,,,108.33920147031,22.790514186371,0
d654a350474cae2038e4a652,皇氏新鲜屋(荣和新城店),美食,蛋糕甜品店,广西壮族自治区,南宁市,江南区,广西壮族自治区南宁市江南区白沙大道1-1号荣和新城b区1栋9号,d654a350474cae2038e4a652,1,0,108.345463,22.791741,17776671857,cater,http://api.map.baidu.com/place/detail?uid=d654a350474cae2038e4a652&output=html&source=placeapi_v2,10.0,07:00-23:00,3.5,,,,,,,,0,,,,,,,,,0
3a98321bed3228add92f288b,蒂丽雪斯蛋糕(钱隆江南店),美食,蛋糕甜品店,广西壮族自治区,南宁市,良庆区,南宁市良庆区凤江路8号东盟和城一楼49944号铺面,3a98321bed3228add92f288b,1,0,108.327115,22.779069,18076635515,cater,http://api.map.baidu.com/place/detail?uid=3a98321bed3228add92f288b&output=html&source=placeapi_v2,13.0,10:00-21:30,3.5,,,,,,,,0,,,,,,,108.32716413067,22.778805106063,0
f60ee5b6c2163c6fb04c496f,皇氏新鲜屋(金湾花城店),美食,蛋糕甜品店,广西壮族自治区,南宁市,江南区,广西壮族自治区南宁市江南区杭屋里金湾花城14号楼07号,f60ee5b6c2163c6fb04c496f,1,0,108.334121,22.788794,(0771)4897625,cater,http://api.map.baidu.com/place/detail?uid=f60ee5b6c2163c6fb04c496f&output=html&source=placeapi_v2,10.0,07:00-22:30,3.6,,,,,,,,4,,,,,,,108.33417334163,22.788816362914,0
5892868f0ad3b3042afc482c,皇氏乳业新鲜屋(钱隆江南店),美食,蛋糕甜品店,广西壮族自治区,南宁市,良庆区,广西壮族自治区南宁市良庆区凤江路8号东盟和城2-1号商铺,5892868f0ad3b3042afc482c,1,0,108.327856,22.778803,18677950807,cater,http://api.map.baidu.com/place/detail?uid=5892868f0ad3b3042afc482c&output=html&source=placeapi_v2,10.0,07:00-23:00,3.6,,,,,,,,26,,,,,,,,,0
e494d4f3b1ba26a201294f13,一品轩饼家(荣和店),美食,蛋糕甜品店,广西壮族自治区,南宁市,江南区,广西壮族自治区南宁市江南区荣和新城B-14号商铺,e494d4f3b1ba26a201294f13,1,0,108.345674,22.791721,(0771)4920181,cater,http://api.map.baidu.com/place/detail?uid=e494d4f3b1ba26a201294f13&output=html&source=placeapi_v2,,,0,,,,,,,,1,,,,,,,108.3456279093,22.791840436197,0
b2f3a59b9b1d0bb701294f22,乌岚贡茶(白沙店),美食,蛋糕甜品店,广西壮族自治区,南宁市,江南区,广西壮族自治区南宁市江南区白沙路南三里2号,b2f3a59b9b1d0bb701294f22,1,0,108.341852,22.792998,"13707880420,18587712988",cater,http://api.map.baidu.com/place/detail?uid=b2f3a59b9b1d0bb701294f22&output=html&source=placeapi_v2,12.0,10:00-23:00,3.5,,,,,,,,2,,,,,,,,,0
0a562d6500b34c7017c8f6ed,佳香糕点工坊,美食,蛋糕甜品店,广西壮族自治区,南宁市,江南区,南宁市江南区白沙大道白沙农贸市场(白沙大道辅路),,1,0,108.34017,22.791498,13878846683,cater,http://api.map.baidu.com/place/detail?uid=0a562d6500b34c7017c8f6ed&output=html&source=placeapi_v2,,,,,,,,,,,,,,,,,,,,0
c5b962ff1d7785bd581093b0,榴芒椰沙拉面包健身厨房,美食,蛋糕甜品店,广西壮族自治区,南宁市,江南区,江南区亭江路28号一层D-13号,,1,0,108.330285,22.793293,15177297992,cater,http://api.map.baidu.com/place/detail?uid=c5b962ff1d7785bd581093b0&output=html&source=placeapi_v2,,10:00-22:00,,,,,,,,,,,,,,,,,,0
4218f9f2e1b3bf407069d326,白面包烘焙馆(茶道夫),美食,蛋糕甜品店,广西壮族自治区,南宁市,良庆区,广西壮族自治区南宁市良庆区荣光北路44号,4218f9f2e1b3bf407069d326,1,0,108.338424,22.767959,4000738088,cater,http://api.map.baidu.com/place/detail?uid=4218f9f2e1b3bf407069d326&output=html&source=placeapi_v2,,09:00-23:00,3.5,,,,,,,,0,,,,,,,108.33841824582,22.767883266642,0
b4dd4409721fc3c1c42ba18c,花花的甜品研发部,美食,蛋糕甜品店,广西壮族自治区,南宁市,江南区,广西壮族自治区南宁市江南区白沙大道金湾花城14栋,,1,0,108.333911,22.788982,15676767651,cater,http://api.map.baidu.com/place/detail?uid=b4dd4409721fc3c1c42ba18c&output=html&source=placeapi_v2,,,,,,,,,,,,,,,,,,,,0
a451723c436131c131f71d6a,南宁市鼎禾烘焙食品经营部,美食,蛋糕甜品店,广西壮族自治区,南宁市,江南区,广西壮族自治区南宁市江南区亭江路73号1号,a451723c436131c131f71d6a,1,0,108.329175,22.792044,,cater,http://api.map.baidu.com/place/detail?uid=a451723c436131c131f71d6a&output=html&source=placeapi_v2,,,,,,,,,,,,,,,,,,108.32909019021,22.792206167445,0
429bd972005c695009a8d405,金葫芦凉茶甜品,美食,蛋糕甜品店,广西壮族自治区,南宁市,良庆区,良庆区云星・钱隆首府,,1,0,108.38595,22.774898,18718392303,cater,http://api.map.baidu.com/place/detail?uid=429bd972005c695009a8d405&output=html&source=placeapi_v2,,11:00-23:00,3.5,,,,,,,,,,,,,,,108.38605008264,22.775196255555,0
3da39d6ebb53195a26e0a02a,ChICTEA冷饮店,美食,蛋糕甜品店,广西壮族自治区,南宁市,青秀区,南宁市青秀区青环路66号方特东盟神画内,,1,0,108.419644,22.770746,,cater,http://api.map.baidu.com/place/detail?uid=3da39d6ebb53195a26e0a02a&output=html&source=placeapi_v2,,,,,,,,,,,,,,,,,,,,0
1dbfe1a92badcfcdc5f02549,新早茶饮,美食,蛋糕甜品店,广西壮族自治区,南宁市,青秀区,南宁市青秀区青环路66号方特东盟神画内,,1,0,108.41933,22.770921,,cater,http://api.map.baidu.com/place/detail?uid=1dbfe1a92badcfcdc5f02549&output=html&source=placeapi_v2,,,3.5,,,,,,,,,,,,,,,,,0
ce652dc9db0d55c317c8f681,极速畅饮,美食,蛋糕甜品店,广西壮族自治区,南宁市,青秀区,南宁市青秀区青环路66号方特东盟神画内,ce652dc9db0d55c317c8f681,1,0,108.425528,22.769287,,cater,http://api.map.baidu.com/place/detail?uid=ce652dc9db0d55c317c8f681&output=html&source=placeapi_v2,,,,,,,,,,,,,,,,,,108.42420056145,22.770919134611,0
a6c69572f57ae223b13c8134,雨林小站,美食,蛋糕甜品店,广西壮族自治区,南宁市,青秀区,南宁市青秀区青环路66号方特东盟神画内,,1,0,108.42004,22.769846,,cater,http://api.map.baidu.com/place/detail?uid=a6c69572f57ae223b13c8134&output=html&source=placeapi_v2,,,,,,,,,,,,,,,,,,,,0
e54c48c9e0d4796ad518b769,欧蕾娜法式蛋糕店（江湾店）,美食,蛋糕甜品店,广西壮族自治区,南宁市,邕宁区,广西壮族自治区南宁市邕宁区江湾路7号中国铁建江湾山语城五号楼地下一层B102号商铺,,1,0,108.461212,22.789302,18321823498,cater,http://api.map.baidu.com/place/detail?uid=e54c48c9e0d4796ad518b769&output=html&source=placeapi_v2,,,3.8,,,,,,,,2,,,,,,,,,0
ae8ed875ecb446ab8bf15de0,禾慕蛋糕坊,美食,蛋糕甜品店,广西壮族自治区,南宁市,江南区,广西壮族自治区南宁市江南区乐富南路9号,,1,0,108.267844,22.820735,15077101635,cater,http://api.map.baidu.com/place/detail?uid=ae8ed875ecb446ab8bf15de0&output=html&source=placeapi_v2,,,,,,,,,,,,,,,,,,,,0
9ea9f7618f0c7d63d4851f70,范记饼屋(富德店),美食,蛋糕甜品店,广西壮族自治区,南宁市,江南区,广西壮族自治区南宁市江南区德洲商务宾馆43号综合楼一楼第五间,9ea9f7618f0c7d63d4851f70,1,0,108.271864,22.816375,(0771)4989605,cater,http://api.map.baidu.com/place/detail?uid=9ea9f7618f0c7d63d4851f70&output=html&source=placeapi_v2,11.0,06:30-22:30,3.5,,,,,,,,0,,,,,,,108.27182006091,22.816418094686,0
f430e1636ce107f8f603b849,台北西饼屋(翠湖店),美食,蛋糕甜品店,广西壮族自治区,南宁市,江南区,广西南宁市江南区五一西路6号翠湖新城北区a8栋14号,f430e1636ce107f8f603b849,1,0,108.269408,22.812844,"(0771)4972292,18074940827",cater,http://api.map.baidu.com/place/detail?uid=f430e1636ce107f8f603b849&output=html&source=placeapi_v2,36.0,,3.5,,,,,,,,,,,,,,,108.26946467983,22.81284236932,0
2278433bfbba1c3ff7e73b0a,皇氏新鲜屋(五一路保利城店),美食,蛋糕甜品店,广西壮族自治区,南宁市,江南区,广西壮族自治区南宁市江南区时尚大道120号,2278433bfbba1c3ff7e73b0a,1,0,108.272147,22.818993,13481061153,cater,http://api.map.baidu.com/place/detail?uid=2278433bfbba1c3ff7e73b0a&output=html&source=placeapi_v2,10.0,07:00-22:00,5,,,,,,,,11,,,,,,,108.27207060461,22.81905275564,0
9d916ce418e6923c3486f4f9,提拉咪苏食尚蛋糕,美食,蛋糕甜品店,广西壮族自治区,南宁市,江南区,广西壮族自治区南宁市江南区五一西路杨坡街22~23号,9d916ce418e6923c3486f4f9,1,0,108.274223,22.817315,13471178785,cater,http://api.map.baidu.com/place/detail?uid=9d916ce418e6923c3486f4f9&output=html&source=placeapi_v2,27.0,"11:30-14:00,17:30-21:00",3.5,,,,,,,,1,,,,,,,108.27406987335,22.817317185408,0
fb5456c9f47223a8c4effbad,蒂丽雪斯(保利城店),美食,蛋糕甜品店,广西壮族自治区,南宁市,江南区,广西壮族自治区南宁市江南区五一路180号保利城13号楼115号商铺,,1,0,108.272391,22.818049,19114989925,cater,http://api.map.baidu.com/place/detail?uid=fb5456c9f47223a8c4effbad&output=html&source=placeapi_v2,14.0,10:00-21:30,,,,,,,,,,,,,,,,108.27215331788,22.817822337325,0
847bc73f6d3de0da364aae7d,河南大饼(亭子分店),美食,蛋糕甜品店,广西壮族自治区,南宁市,江南区,南宁市江南区翠湖路翠湖新城四期四栋-4号商铺,847bc73f6d3de0da364aae7d,1,0,108.265481,22.809102,17737287081,cater,http://api.map.baidu.com/place/detail?uid=847bc73f6d3de0da364aae7d&output=html&source=placeapi_v2,,05:00-20:00,0,,,,,,,,0,,,,,,,,,0
59611fa1d93ceb1471210b98,李记老面包点,美食,蛋糕甜品店,广西壮族自治区,南宁市,江南区,南宁市江南区富成路南宁市五一西路学校东南侧,,1,0,108.266332,22.810863,13768276046,cater,http://api.map.baidu.com/place/detail?uid=59611fa1d93ceb1471210b98&output=html&source=placeapi_v2,,,,,,,,,,,,,,,,,,,,0
4fd7a002b598c6844afd3f0f,蒂丽雪斯(富宁店),美食,蛋糕甜品店,广西壮族自治区,南宁市,江南区,广西壮族自治区南宁市江南区五一西路1号富宁新兴苑富宁大厦1层102号铺,,1,0,108.276943,22.811427,13299266752,cater,http://api.map.baidu.com/place/detail?uid=4fd7a002b598c6844afd3f0f&output=html&source=placeapi_v2,15.0,10:00-21:30,3.4,,,,,,,,,,,,,,,,,0
31e4f03f01270ecc157643a7,森妮西点蛋糕,美食,蛋糕甜品店,广西壮族自治区,南宁市,江南区,广西壮族自治区南宁市江南区定津路奥园名门8栋107室,,1,0,108.251781,22.812516,15278041898,cater,http://api.map.baidu.com/place/detail?uid=31e4f03f01270ecc157643a7&output=html&source=placeapi_v2,,,,,,,,,,,,,,,,,,108.25178026545,22.81241193906,0
bbc5222658931b996e20b94d,台北小站(乐富路店),美食,蛋糕甜品店,广西壮族自治区,南宁市,江南区,广西壮族自治区南宁市江南区江南街道五一路乐富学校大门正对面,bbc5222658931b996e20b94d,1,0,108.269038,22.822856,17776209036,cater,http://api.map.baidu.com/place/detail?uid=bbc5222658931b996e20b94d&output=html&source=placeapi_v2,,,,,,,,,,16,,,,,,,,108.26895652974,22.822862055253,0
ebee12235d383af14054d71c,梁小糖(宏德店),美食,蛋糕甜品店,广西壮族自治区,南宁市,江南区,广西壮族自治区南宁市江南区宏德路南区1号,ebee12235d383af14054d71c,1,0,108.27818,22.812911,4001062608,cater,http://api.map.baidu.com/place/detail?uid=ebee12235d383af14054d71c&output=html&source=placeapi_v2,6.0,10:00-24:00,0,,,,,,,15,0,,,,,,,108.27812341767,22.812856676912,0
0cdc2ffe62c1a096c36c14f5,青思蛋糕,美食,蛋糕甜品店,广西壮族自治区,南宁市,江南区,广西壮族自治区南宁市江南区五一路158号,0cdc2ffe62c1a096c36c14f5,1,0,108.278883,22.811909,18260864343,cater,http://api.map.baidu.com/place/detail?uid=0cdc2ffe62c1a096c36c14f5&output=html&source=placeapi_v2,,08:00-23:00,,,,,,,,,,,,,,,,108.27882598151,22.811705754634,0
8577336460c5703632f71d0d,都市蜜语蛋糕店,美食,蛋糕甜品店,广西壮族自治区,南宁市,江南区,南宁市江南区富德路富安公寓东侧约30米,,1,0,108.277425,22.817284,,cater,http://api.map.baidu.com/place/detail?uid=8577336460c5703632f71d0d&output=html&source=placeapi_v2,,,,,,,,,,,,,,,,,,,,0
e22ee28f2ecaa2001811d50f,细记牛杂甜品,美食,蛋糕甜品店,广西壮族自治区,南宁市,江南区,南宁市江南区杨坡街凤凰城南侧,e22ee28f2ecaa2001811d50f,1,0,108.274034,22.817126,,cater,http://api.map.baidu.com/place/detail?uid=e22ee28f2ecaa2001811d50f&output=html&source=placeapi_v2,,,,,,,,,,,,,,,,,,,,0
f403d4c26c2d00f03f9a5eb8,好童话面包店,美食,蛋糕甜品店,广西壮族自治区,南宁市,江南区,广西壮族自治区南宁市江南区富德路281号,f403d4c26c2d00f03f9a5eb8,1,0,108.276491,22.817059,13607876843,cater,http://api.map.baidu.com/place/detail?uid=f403d4c26c2d00f03f9a5eb8&output=html&source=placeapi_v2,,,,,,,,,,,,,,,,,,108.27626749963,22.817035540253,0
7d57b9c4889f98c19d95dea8,石埠乳业(仁义村店),美食,蛋糕甜品店,广西壮族自治区,南宁市,江南区,广西壮族自治区南宁市江南区上梁坡26号,7d57b9c4889f98c19d95dea8,1,0,108.255183,22.830104,13978663640,life,http://api.map.baidu.com/place/detail?uid=7d57b9c4889f98c19d95dea8&output=html&source=placeapi_v2,,07:00-22:00,,,,,,,,11,1,,,,,,,,,0
0b507f0d6c6a11277ab55c98,百香林西点(富德东一里店),美食,蛋糕甜品店,广西壮族自治区,南宁市,江南区,富德新村路红日江景小区西侧富德村第11组1栋第10间铺面,,1,0,108.278887,22.816596,13840040039,cater,http://api.map.baidu.com/place/detail?uid=0b507f0d6c6a11277ab55c98&output=html&source=placeapi_v2,9.0,,,,,,,,,,,,,,,,,,,0
1da416d0f3e039e0c62ba132,甜品炸野,美食,蛋糕甜品店,广西壮族自治区,南宁市,江南区,富德路东一里2号,,1,0,108.279921,22.81554,,cater,http://api.map.baidu.com/place/detail?uid=1da416d0f3e039e0c62ba132&output=html&source=placeapi_v2,,,0,,,,,,,,1,,,,,,,108.28004841182,22.815656460045,0
be71ff687d827e1c4657269c,凡千甜蛋糕甜品,美食,蛋糕甜品店,广西壮族自治区,南宁市,江南区,广西壮族自治区南宁市江南区定津路华南城东盟华府,,1,0,108.246198,22.811913,18776951088,cater,http://api.map.baidu.com/place/detail?uid=be71ff687d827e1c4657269c&output=html&source=placeapi_v2,,,,,,,,,,,,,,,,,,108.24619747457,22.811961176081,0
25f61f4344341d1cd23ce308,买乐饮品,美食,蛋糕甜品店,广西壮族自治区,南宁市,江南区,广西壮族自治区南宁市江南区江南街道五一西路北1号富宁夜市对面,25f61f4344341d1cd23ce308,1,0,108.278595,22.811676,18577877786,cater,http://api.map.baidu.com/place/detail?uid=25f61f4344341d1cd23ce308&output=html&source=placeapi_v2,,,3.5,,,,,,,,0,,,,,,,108.27863728436,22.811830031046,0
3a03bceac77b721dc9fa5f8d,梁姐甜品店,美食,蛋糕甜品店,广西壮族自治区,南宁市,西乡塘区,南宁市西乡塘区雅际路南宁市塑料制品总厂职工住宅楼西南侧约50米,3a03bceac77b721dc9fa5f8d,1,0,108.30956,22.813688,,cater,http://api.map.baidu.com/place/detail?uid=3a03bceac77b721dc9fa5f8d&output=html&source=placeapi_v2,,,,,,,,,,,,,,,,,,108.30959191037,22.813781522893,0
e4f080c04e8537279cf779d9,蒂丽雪斯蛋糕(瀚林新城店),美食,蛋糕甜品店,广西壮族自治区,南宁市,西乡塘区,南宁市西乡塘区永和路19号瀚林新城时代广场18-19号楼117号,e4f080c04e8537279cf779d9,1,0,108.303773,22.813587,(0771)3866926,cater,http://api.map.baidu.com/place/detail?uid=e4f080c04e8537279cf779d9&output=html&source=placeapi_v2,20.0,08:00-22:30,3.7,,,,,,,,0,,,,,,,108.30329668058,22.81359897833,0
5bb069a421463b519f09f771,郭记凉茶甜品店,美食,蛋糕甜品店,广西壮族自治区,南宁市,西乡塘区,广西壮族自治区南宁市西乡塘区壮志路9号邕江御景2号楼,5bb069a421463b519f09f771,1,0,108.318658,22.819291,13317616805,cater,http://api.map.baidu.com/place/detail?uid=5bb069a421463b519f09f771&output=html&source=placeapi_v2,4.0,10:00-20:00,3.7,,,,,,,,1,,,,,,,108.31852063146,22.819542581877,0
f44609187e34bd73b11e365a,范记饼屋(中尧店),美食,蛋糕甜品店,广西壮族自治区,南宁市,西乡塘区,广西壮族自治区南宁市西乡塘区中尧路48号南机办公大楼18号,f44609187e34bd73b11e365a,1,0,108.296068,22.82055,(0771)3150978,cater,http://api.map.baidu.com/place/detail?uid=f44609187e34bd73b11e365a&output=html&source=placeapi_v2,16.0,06:30-22:30,3.8,,,,,,,,7,,,,,,,108.29608399431,22.820401738873,0
82c06c0baf35408ea1a9342d,近好旺甜品店,美食,蛋糕甜品店,广西壮族自治区,南宁市,兴宁区,广西壮族自治区南宁市兴宁区华强路114-3号,82c06c0baf35408ea1a9342d,1,0,108.319474,22.827094,13307812943,cater,http://api.map.baidu.com/place/detail?uid=82c06c0baf35408ea1a9342d&output=html&source=placeapi_v2,,07:10-19:00,3.3,,,,,,,,10,,,,,,,,,0
dd2f5b59559313504207c18a,甜品凉茶,美食,蛋糕甜品店,广西壮族自治区,南宁市,西乡塘区,南宁市西乡塘区龙胜街龙胜小区东南侧,,1,0,108.319293,22.822263,,cater,http://api.map.baidu.com/place/detail?uid=dd2f5b59559313504207c18a&output=html&source=placeapi_v2,,,,,,,,,,,,,,,,,,,,0
0989323b16ea5131130daa88,凉茶王(中尧南路店),美食,蛋糕甜品店,广西壮族自治区,南宁市,西乡塘区,广西壮族自治区南宁市西乡塘区中尧南路66号,0989323b16ea5131130daa88,1,0,108.297534,22.816015,,cater,http://api.map.baidu.com/place/detail?uid=0989323b16ea5131130daa88&output=html&source=placeapi_v2,,,3.5,,,,,,,,0,,,,,,,108.29757203738,22.816024635407,0
e41bb4a31332164981288a49,泉草铺传统中药凉茶四季甜品,美食,蛋糕甜品店,广西壮族自治区,南宁市,西乡塘区,广西壮族自治区南宁市西乡塘区新阳路21-13号,,1,0,108.301488,22.823674,13768309383,cater,http://api.map.baidu.com/place/detail?uid=e41bb4a31332164981288a49&output=html&source=placeapi_v2,,08:00-23:30,3.6,,,,,,,,,,,,,,,108.30148226245,22.823560733498,0
cb0c7102f7845a742dfaa773,页安甜品,美食,蛋糕甜品店,广西壮族自治区,南宁市,西乡塘区,广西壮族自治区南宁市西乡塘区新阳北三路6号,cb0c7102f7845a742dfaa773,1,0,108.300178,22.824834,18977086481,cater,http://api.map.baidu.com/place/detail?uid=cb0c7102f7845a742dfaa773&output=html&source=placeapi_v2,,15:30-19:00,3.5,,,,,,,,,,,,,,,108.30006685816,22.824825393556,0
fb1d49d2cb0a973f9d95de93,优莱客蛋糕坊(五一路店),美食,蛋糕甜品店,广西壮族自治区,南宁市,江南区,广西壮族自治区南宁市江南区五一路22-36号,fb1d49d2cb0a973f9d95de93,1,0,108.307297,22.801933,18878985050,cater,http://api.map.baidu.com/place/detail?uid=fb1d49d2cb0a973f9d95de93&output=html&source=placeapi_v2,12.0,09:00-20:00,3.5,,,,,,,,28,,,,,,,,,0
6d531ea997f4e507715e806f,港之茶时尚饮品(边阳新街店),美食,蛋糕甜品店,广西壮族自治区,南宁市,西乡塘区,广西壮族自治区南宁市西乡塘区边阳新街4-1号,6d531ea997f4e507715e806f,1,0,108.307943,22.813258,,cater,http://api.map.baidu.com/place/detail?uid=6d531ea997f4e507715e806f&output=html&source=placeapi_v2,,,5,,,,,,,,3,,,,,,,,,0
fff4cbca1509902b210262c8,百草堂(北大南路店),美食,蛋糕甜品店,广西壮族自治区,南宁市,西乡塘区,广西壮族自治区南宁市西乡塘区北大南路10-10号,fff4cbca1509902b210262c8,1,0,108.311574,22.820865,13978143898,cater,http://api.map.baidu.com/place/detail?uid=fff4cbca1509902b210262c8&output=html&source=placeapi_v2,8.0,09:00-22:00,3.6,,,,,,,,11,,,,,,,108.31135312277,22.820752322141,0
6f4e4b02eaf040a116a190f5,蒂米雪(龙腾路店),美食,蛋糕甜品店,广西壮族自治区,南宁市,西乡塘区,广西壮族自治区南宁市西乡塘区龙腾路203-9号,6f4e4b02eaf040a116a190f5,1,0,108.299138,22.811217,,cater,http://api.map.baidu.com/place/detail?uid=6f4e4b02eaf040a116a190f5&output=html&source=placeapi_v2,,,,,,,,,,,,,,,,,,108.29928049589,22.810636548786,0
5b25f4462a7a0cf31029355a,范记饼屋(体育店),美食,蛋糕甜品店,广西壮族自治区,南宁市,江南区,广西壮族自治区南宁市江南区体育路3-8号,5b25f4462a7a0cf31029355a,1,0,108.320452,22.805907,(0771)4806601,cater,http://api.map.baidu.com/place/detail?uid=5b25f4462a7a0cf31029355a&output=html&source=placeapi_v2,11.0,06:30-22:30,3.6,,,,,,,,3,,,,,,,,,0
09185c56ccb41c44f119375a,范记饼屋(新阳二店),美食,蛋糕甜品店,广西壮族自治区,南宁市,西乡塘区,广西壮族自治区南宁市西乡塘区新阳路21号一栋一层12号商铺(新阳中尧路口),09185c56ccb41c44f119375a,1,0,108.30065,22.823403,(0771)3155758,cater,http://api.map.baidu.com/place/detail?uid=09185c56ccb41c44f119375a&output=html&source=placeapi_v2,23.0,06:30-22:30,3.6,,,,,,,,3,,,,,,,108.30065699277,22.823529682518,0
ddf478daccbda9174c6d46ea,蕴香奶茶店,美食,蛋糕甜品店,广西壮族自治区,南宁市,西乡塘区,广西壮族自治区南宁市西乡塘区云亭街48号,ddf478daccbda9174c6d46ea,1,0,108.316367,22.821233,13607719554,cater,http://api.map.baidu.com/place/detail?uid=ddf478daccbda9174c6d46ea&output=html&source=placeapi_v2,,10:00-23:00,3.5,,,,,,,,3,,,,,,,108.31626756087,22.821170050797,0
296902c2426becee6cc02c54,新阳姐妹凉茶店,美食,蛋糕甜品店,广西壮族自治区,南宁市,西乡塘区,广西壮族自治区南宁市西乡塘区新阳街道新阳路248号,296902c2426becee6cc02c54,1,0,108.301148,22.823722,13878121889,cater,http://api.map.baidu.com/place/detail?uid=296902c2426becee6cc02c54&output=html&source=placeapi_v2,,07:30-02:30,3.7,,,,,,,,1,,,,,,,108.30112224406,22.823577329504,0
fafe716329f477a396ca076f,雪中缘冰淇淋批发部,美食,蛋糕甜品店,广西壮族自治区,南宁市,江南区,广西壮族自治区南宁市江南区星光大道西二里5号,fafe716329f477a396ca076f,1,0,108.318276,22.809985,15994429143,cater,http://api.map.baidu.com/place/detail?uid=fafe716329f477a396ca076f&output=html&source=placeapi_v2,,08:00-24:00,3.5,,,,,,,,3,,,,,,,108.31844619248,22.810016619472,0
cecc52be24f30e0adc1e526c,壮氏水牛奶,美食,蛋糕甜品店,广西壮族自治区,南宁市,西乡塘区,南伦街23号翠堤湾对面,cecc52be24f30e0adc1e526c,1,0,108.320243,22.824119,18378794138,cater,http://api.map.baidu.com/place/detail?uid=cecc52be24f30e0adc1e526c&output=html&source=placeapi_v2,,,,,,,,,,,,,,,,,,108.3202264714,22.824064278489,0
4d45e7f17f46f8c8774ff1a4,肥伯观音莲花糕店,美食,蛋糕甜品店,广西壮族自治区,南宁市,西乡塘区,广西壮族自治区南宁市西乡塘区人民西路65号新水街市场6~7号,4d45e7f17f46f8c8774ff1a4,1,0,108.315695,22.820237,"13877115246,15177461684",cater,http://api.map.baidu.com/place/detail?uid=4d45e7f17f46f8c8774ff1a4&output=html&source=placeapi_v2,,06:30-19:00,3.8,,,,,,,,8,,,,,,,,,0
9676530a38537e5df4b9169d,美思烘焙原料,美食,蛋糕甜品店,广西壮族自治区,南宁市,西乡塘区,广西壮族自治区南宁市西乡塘区华西路15-9号,9676530a38537e5df4b9169d,1,0,108.31378,22.824729,"(0771)2868762,18076557686",cater,http://api.map.baidu.com/place/detail?uid=9676530a38537e5df4b9169d&output=html&source=placeapi_v2,,08:30-19:00,3.5,,,,,,,,0,,,,,,,108.31371701282,22.824885209658,0
7988ce215b7cbd69a3acc48f,焙香源西点,美食,蛋糕甜品店,广西壮族自治区,南宁市,西乡塘区,南宁市西乡塘区中尧南路永和朝阳小区西北侧,7988ce215b7cbd69a3acc48f,1,0,108.296163,22.815181,13977137422,cater,http://api.map.baidu.com/place/detail?uid=7988ce215b7cbd69a3acc48f&output=html&source=placeapi_v2,,,3.5,,,,,,,,,,,,,,,108.29613423114,22.815239402769,0
8d03cb2aca79e15929fc488c,老水街瑞平蛋糕店,美食,蛋糕甜品店,广西壮族自治区,南宁市,西乡塘区,广西壮族自治区南宁市西乡塘区邕江银座2号楼,8d03cb2aca79e15929fc488c,1,0,108.317521,22.819358,15177108755,cater,http://api.map.baidu.com/place/detail?uid=8d03cb2aca79e15929fc488c&output=html&source=placeapi_v2,11.0,06:00-23:00,3.6,,,,,,,,0,,,,,,,108.31741641277,22.819235753926,0
ad9da104e7bb1bc9c4f0251a,皇氏新鲜屋(锦绣豪庭店),美食,蛋糕甜品店,广西壮族自治区,南宁市,西乡塘区,广西壮族自治区南宁市西乡塘区新阳北三路20号锦绣豪庭小区59号,,1,0,108.298201,22.827497,15077167452,cater,http://api.map.baidu.com/place/detail?uid=ad9da104e7bb1bc9c4f0251a&output=html&source=placeapi_v2,,07:00-21:30,3.5,,,,,,,,,,,,,,,,,0
09185c56ccb41c44f119375a,范记饼屋(新阳二店),美食,蛋糕甜品店,广西壮族自治区,南宁市,西乡塘区,广西壮族自治区南宁市西乡塘区新阳路21号一栋一层12号商铺(新阳中尧路口),09185c56ccb41c44f119375a,1,0,108.30065,22.823403,(0771)3155758,cater,http://api.map.baidu.com/place/detail?uid=09185c56ccb41c44f119375a&output=html&source=placeapi_v2,23.0,06:30-22:30,3.6,,,,,,,,3,,,,,,,108.30065699277,22.823529682518,0
791631704de3de700f0e6bad,奥米亚烘焙蛋糕,美食,蛋糕甜品店,广西壮族自治区,南宁市,西乡塘区,南宁市西乡塘区中尧南路永和朝阳小区西北侧约30米,,1,0,108.296253,22.815407,,cater,http://api.map.baidu.com/place/detail?uid=791631704de3de700f0e6bad&output=html&source=placeapi_v2,,,,,,,,,,,,,,,,,,,,0
e41bb4a31332164981288a49,泉草铺传统中药凉茶四季甜品,美食,蛋糕甜品店,广西壮族自治区,南宁市,西乡塘区,广西壮族自治区南宁市西乡塘区新阳路21-13号,,1,0,108.301488,22.823674,13768309383,cater,http://api.map.baidu.com/place/detail?uid=e41bb4a31332164981288a49&output=html&source=placeapi_v2,,08:00-23:30,3.6,,,,,,,,,,,,,,,108.30148226245,22.823560733498,0
f44609187e34bd73b11e365a,范记饼屋(中尧店),美食,蛋糕甜品店,广西壮族自治区,南宁市,西乡塘区,广西壮族自治区南宁市西乡塘区中尧路48号南机办公大楼18号,f44609187e34bd73b11e365a,1,0,108.296068,22.82055,(0771)3150978,cater,http://api.map.baidu.com/place/detail?uid=f44609187e34bd73b11e365a&output=html&source=placeapi_v2,16.0,06:30-22:30,3.8,,,,,,,,7,,,,,,,108.29608399431,22.820401738873,0
6f4e4b02eaf040a116a190f5,蒂米雪(龙腾路店),美食,蛋糕甜品店,广西壮族自治区,南宁市,西乡塘区,广西壮族自治区南宁市西乡塘区龙腾路203-9号,6f4e4b02eaf040a116a190f5,1,0,108.299138,22.811217,,cater,http://api.map.baidu.com/place/detail?uid=6f4e4b02eaf040a116a190f5&output=html&source=placeapi_v2,,,,,,,,,,,,,,,,,,108.29928049589,22.810636548786,0
d0fe30d68869eca0601809b8,源淳老面馒头包子店,美食,蛋糕甜品店,广西壮族自治区,南宁市,西乡塘区,广西壮族自治区南宁市西乡塘区新阳路71号,d0fe30d68869eca0601809b8,1,0,108.313671,22.820869,13307868516,cater,http://api.map.baidu.com/place/detail?uid=d0fe30d68869eca0601809b8&output=html&source=placeapi_v2,,,3.6,,,,,,,,0,,,,,,,,,0
56cd822a14b4d003eaf85319,奇乐美烘焙坊,美食,蛋糕甜品店,广西壮族自治区,南宁市,江南区,广西壮族自治区南宁市江南区淡村路17-23号,,1,0,108.3102,22.801608,15506808502,cater,http://api.map.baidu.com/place/detail?uid=56cd822a14b4d003eaf85319&output=html&source=placeapi_v2,,08:00-23:30,3.4,,,,,,,,1,,,,,,,,,0
93696bd59410ff65e607387c,宇轩烘焙原料,美食,蛋糕甜品店,广西壮族自治区,南宁市,西乡塘区,南宁市西乡塘区华西路13-197号附近,,1,0,108.314842,22.823711,"13768635161,13978749415",cater,http://api.map.baidu.com/place/detail?uid=93696bd59410ff65e607387c&output=html&source=placeapi_v2,,,,,,,,,,,,,,,,,,108.31494976196,22.823623126236,0
c097693bf10441ebf4b91645,想得美烘焙原料,美食,蛋糕甜品店,广西壮族自治区,南宁市,江南区,广西壮族自治区南宁市江南区五一东路10-20号,c097693bf10441ebf4b91645,1,0,108.313003,22.800672,"18776951984,18778912897",cater,http://api.map.baidu.com/place/detail?uid=c097693bf10441ebf4b91645&output=html&source=placeapi_v2,,08:00-21:30,3.4,,,,,,,,4,,,,,,,108.31300741165,22.800522511804,0
fe6546c159a476cbf942b276,荔园饼家,美食,蛋糕甜品店,广西壮族自治区,南宁市,江南区,广西壮族自治区南宁市江南区五一东路10~1号,fe6546c159a476cbf942b276,1,0,108.313292,22.800673,17758686128,cater,http://api.map.baidu.com/place/detail?uid=fe6546c159a476cbf942b276&output=html&source=placeapi_v2,,07:00-22:00,3.7,,,,,,,,0,,,,,,,108.31329639653,22.80052969055,0
cb0c7102f7845a742dfaa773,页安甜品,美食,蛋糕甜品店,广西壮族自治区,南宁市,西乡塘区,广西壮族自治区南宁市西乡塘区新阳北三路6号,cb0c7102f7845a742dfaa773,1,0,108.300178,22.824834,18977086481,cater,http://api.map.baidu.com/place/detail?uid=cb0c7102f7845a742dfaa773&output=html&source=placeapi_v2,,15:30-19:00,3.5,,,,,,,,,,,,,,,108.30006685816,22.824825393556,0
4507dd4a6e69480722f017fc,明利烘焙,美食,蛋糕甜品店,广西壮族自治区,南宁市,西乡塘区,广西壮族自治区南宁市西乡塘区华西路15-1号h18号,4507dd4a6e69480722f017fc,1,0,108.314024,22.824896,"13768635161,13978749415",cater,http://api.map.baidu.com/place/detail?uid=4507dd4a6e69480722f017fc&output=html&source=placeapi_v2,,09:00-21:00,,,,,,,,,,,,,,,,108.31392288198,22.824997428921,0
4d45e7f17f46f8c8774ff1a4,肥伯观音莲花糕店,美食,蛋糕甜品店,广西壮族自治区,南宁市,西乡塘区,广西壮族自治区南宁市西乡塘区人民西路65号新水街市场6~7号,4d45e7f17f46f8c8774ff1a4,1,0,108.315695,22.820237,"13877115246,15177461684",cater,http://api.map.baidu.com/place/detail?uid=4d45e7f17f46f8c8774ff1a4&output=html&source=placeapi_v2,,06:30-19:00,3.8,,,,,,,,8,,,,,,,,,0
5b25f4462a7a0cf31029355a,范记饼屋(体育店),美食,蛋糕甜品店,广西壮族自治区,南宁市,江南区,广西壮族自治区南宁市江南区体育路3-8号,5b25f4462a7a0cf31029355a,1,0,108.320452,22.805907,(0771)4806601,cater,http://api.map.baidu.com/place/detail?uid=5b25f4462a7a0cf31029355a&output=html&source=placeapi_v2,11.0,06:30-22:30,3.6,,,,,,,,3,,,,,,,,,0
3d2c951060bb76fbe31103de,南宁市聚明源食品原料商行,美食,蛋糕甜品店,广西壮族自治区,南宁市,西乡塘区,广西壮族自治区南宁市西乡塘区华西路48号,3d2c951060bb76fbe31103de,1,0,108.312393,22.824342,(0771)2438295,cater,http://api.map.baidu.com/place/detail?uid=3d2c951060bb76fbe31103de&output=html&source=placeapi_v2,,08:30-18:00,,,,,,,,,,,,,,,,108.31243968347,22.824206628483,0
e563223f790b19f7ea1e972c,古早皇后手工蛋糕手工蛋卷,美食,蛋糕甜品店,广西壮族自治区,南宁市,西乡塘区,广西壮族自治区南宁市西乡塘区人民西路82-10号1栋1层15号,,1,0,108.317401,22.820693,17758691472,cater,http://api.map.baidu.com/place/detail?uid=e563223f790b19f7ea1e972c&output=html&source=placeapi_v2,,07:00-19:00,3.5,,,,,,,,0,,,,,,,,,0
306229f44d2d6a908bdb7339,蒂丽雪斯蛋糕(古城店),美食,蛋糕甜品店,广西壮族自治区,南宁市,青秀区,广西壮族自治区南宁市青秀区民族大道22-26号,306229f44d2d6a908bdb7339,1,0,108.343297,22.819682,(0771)5386420,cater,http://api.map.baidu.com/place/detail?uid=306229f44d2d6a908bdb7339&output=html&source=placeapi_v2,17.0,07:30-22:30,3.7,,,,,,,,25,,,,,,,108.3433126077,22.819531538416,0
d633048733e4935c76e5b6c6,都市甜心(古城店),美食,蛋糕甜品店,广西壮族自治区,南宁市,青秀区,广西壮族自治区南宁市青秀区古城路10-5号,d633048733e4935c76e5b6c6,1,0,108.34307,22.820531,(0771)5635338,cater,http://api.map.baidu.com/place/detail?uid=d633048733e4935c76e5b6c6&output=html&source=placeapi_v2,19.0,07:00-23:30,4.1,,,,,,,,1,,,,,,,108.34285704194,22.820532991734,0
f65ca873a676e33ed4851f75,仙度瑞拉手作美学馆,美食,蛋糕甜品店,广西壮族自治区,南宁市,青秀区,广西壮族自治区南宁市青秀区古城路10号1栋1单元102号,f65ca873a676e33ed4851f75,1,0,108.343318,22.820384,"18507810937,18677093337",cater,http://api.map.baidu.com/place/detail?uid=f65ca873a676e33ed4851f75&output=html&source=placeapi_v2,15.0,09:00-18:00,3.7,,,,,,,,0,,,,,,,108.34335922616,22.820281379134,0
922ee50a9af5acea5e0d02e4,蒂丽雪斯精品烘焙坊(新民南店),美食,蛋糕甜品店,广西壮族自治区,南宁市,青秀区,广西壮族自治区南宁市青秀区新民路6号5栋1号,922ee50a9af5acea5e0d02e4,1,0,108.335784,22.814902,(0771)2875710,cater,http://api.map.baidu.com/place/detail?uid=922ee50a9af5acea5e0d02e4&output=html&source=placeapi_v2,19.0,07:30-23:00,3.6,,,,,,,,24,,,,,,,108.33551142441,22.81493280503,0
eb07458efff3d8ecf842b2fd,都市甜心(七星店),美食,蛋糕甜品店,广西壮族自治区,南宁市,青秀区,广西壮族自治区南宁市青秀区七星路128号一层1017号商铺,eb07458efff3d8ecf842b2fd,1,0,108.337246,22.813632,(0771)2803007,cater,http://api.map.baidu.com/place/detail?uid=eb07458efff3d8ecf842b2fd&output=html&source=placeapi_v2,19.0,07:00-23:30,4.0,,,,,,,,3,,,,,,,108.3378086557,22.813777631932,0
34f68ab082b0d9138f55ec44,蒂丽雪斯蛋糕(园湖店),美食,蛋糕甜品店,广西壮族自治区,南宁市,青秀区,广西壮族自治区南宁市青秀区园湖南路7-1号华兴园综合楼一楼,34f68ab082b0d9138f55ec44,1,0,108.353677,22.822344,(0771)5841988,cater,http://api.map.baidu.com/place/detail?uid=34f68ab082b0d9138f55ec44&output=html&source=placeapi_v2,37.0,08:00-22:00,3.7,,,,,,,,28,,,,,,,108.35385363087,22.822343041678,0
5a4aece123c454abe215f948,元祖食品(百佳华百货桃源店),美食,蛋糕甜品店,广西壮族自治区,南宁市,青秀区,青秀区教育路22号南湖御景裙楼1-4楼百佳华百货(桃源店)F2百佳华百货F1,5a4aece123c454abe215f948,1,0,108.342122,22.80643,(0771)5670301,cater,http://api.map.baidu.com/place/detail?uid=5a4aece123c454abe215f948&output=html&source=placeapi_v2,36.0,09:00-21:30,0,,,,,,,,0,,,,,,,108.34124136492,22.806304186011,0
832d309b3a8707560aa8d4c0,黛慕蛋糕(三街两巷店),美食,蛋糕甜品店,广西壮族自治区,南宁市,兴宁区,广西壮族自治区南宁市兴宁区民族大道37号a区113铺,832d309b3a8707560aa8d4c0,1,0,108.326722,22.819183,19977156753,cater,http://api.map.baidu.com/place/detail?uid=832d309b3a8707560aa8d4c0&output=html&source=placeapi_v2,30.0,10:00-22:00,4.6,,,,,,,,170,,,,,,,108.32672233414,22.819065704486,0
3c5903463ca1072cbda2405b,都市甜心(桃源店),美食,蛋糕甜品店,广西壮族自治区,南宁市,青秀区,广西壮族自治区南宁市青秀区桃源路62号利诚广场1~4号,3c5903463ca1072cbda2405b,1,0,108.338922,22.807031,(0771)2859036,cater,http://api.map.baidu.com/place/detail?uid=3c5903463ca1072cbda2405b&output=html&source=placeapi_v2,15.0,11:30-23:00,3.9,,,,,,,,1,,,,,,,108.33900334274,22.807125273691,0
0abe9c65105d7d9fae31e562,皇氏新鲜屋(星湖小学店),美食,蛋糕甜品店,广西壮族自治区,南宁市,青秀区,广西壮族自治区南宁市青秀区园湖南路西一里3号新一栋107号房,0abe9c65105d7d9fae31e562,1,0,108.352408,22.817786,18077117953,cater,http://api.map.baidu.com/place/detail?uid=0abe9c65105d7d9fae31e562&output=html&source=placeapi_v2,,07:00-22:30,3.5,,,,,,,,0,,,,,,,108.35240971795,22.817680719941,0
e2c734e47f4dc35c15a1905e,美点饼业(文化店),美食,蛋糕甜品店,广西壮族自治区,南宁市,青秀区,广西壮族自治区南宁市青秀区新民路6号,e2c734e47f4dc35c15a1905e,1,0,108.335963,22.815317,(0771)2623433,cater,http://api.map.baidu.com/place/detail?uid=e2c734e47f4dc35c15a1905e&output=html&source=placeapi_v2,14.0,07:00-23:00,3.6,,,,,,,,42,,,,,,,108.33597111244,22.815236950991,0
534bda9b3bdc0d979122e05a,帕帕珍味(古城店),美食,蛋糕甜品店,广西壮族自治区,南宁市,青秀区,广西壮族自治区南宁市青秀区民族大道5号1栋1号临街铺面,534bda9b3bdc0d979122e05a,1,0,108.343264,22.819674,(0771)5387666,cater,http://api.map.baidu.com/place/detail?uid=534bda9b3bdc0d979122e05a&output=html&source=placeapi_v2,15.0,08:00-24:00,3.8,,,,,,,,3,,,,,,,,,0
4e175ff3b12324c976e5b6dd,范记饼屋(民族园湖店),美食,蛋糕甜品店,广西壮族自治区,南宁市,青秀区,南宁市青秀区民族大道77-1-3号铺面,4e175ff3b12324c976e5b6dd,1,0,108.353443,22.819676,(0771)5587334,cater,http://api.map.baidu.com/place/detail?uid=4e175ff3b12324c976e5b6dd&output=html&source=placeapi_v2,21.0,06:30-23:00,3.5,,,,,,,,0,,,,,,,108.35344715122,22.819361090943,0
45ce20e3b2e3edaa9f09f7a5,甜点冷饮店(新梦百货・A馆3F国际生活馆店),美食,蛋糕甜品店,广西壮族自治区,南宁市,青秀区,南宁市青秀区民族大道49号新梦百货B馆F1,45ce20e3b2e3edaa9f09f7a5,1,0,108.342482,22.820113,,cater,http://api.map.baidu.com/place/detail?uid=45ce20e3b2e3edaa9f09f7a5&output=html&source=placeapi_v2,,,,,,,,,,,,,,,,,,,,0
f1cf3544094cca3001294f6c,淘淘树烘焙原料坊,美食,蛋糕甜品店,广西壮族自治区,南宁市,青秀区,广西壮族自治区南宁市青秀区建政路51-5号,f1cf3544094cca3001294f6c,1,0,108.341571,22.82604,"18278161933,18977092874",cater,http://api.map.baidu.com/place/detail?uid=f1cf3544094cca3001294f6c&output=html&source=placeapi_v2,,09:00-22:00,3.7,,,,,,,,1,,,,,,,108.3414903285,22.826221059289,0
262986a45f82c4e2d72ce219,芝度法式烘焙(青山店),美食,蛋糕甜品店,广西壮族自治区,南宁市,青秀区,广西壮族自治区南宁市青秀区青山路8-2号东方园10号铺(南宁三中对面),262986a45f82c4e2d72ce219,1,0,108.36139,22.807238,(0771)2835777,cater,http://api.map.baidu.com/place/detail?uid=262986a45f82c4e2d72ce219&output=html&source=placeapi_v2,20.0,07:00-22:30,3.6,,,,,,,,26,,,,,,,108.36144285448,22.80727128838,0
903edabc6ffeeae728d7abd6,洛可可甜点,美食,蛋糕甜品店,广西壮族自治区,南宁市,青秀区,广西壮族自治区南宁市青秀区七星路一巷30号上海滩公馆2层2~03号铺(中国电信)(民生银行),903edabc6ffeeae728d7abd6,1,0,108.337217,22.816595,18577167724,cater,http://api.map.baidu.com/place/detail?uid=903edabc6ffeeae728d7abd6&output=html&source=placeapi_v2,10.0,09:30-17:30,3.5,,,,,,,,1,,,,,,,108.33719734533,22.816781722589,0
57e39b6935a3c67729fc48a6,都市甜心(思贤店),美食,蛋糕甜品店,广西壮族自治区,南宁市,青秀区,广西壮族自治区南宁市青秀区思贤路38-7号1层,57e39b6935a3c67729fc48a6,1,0,108.343488,22.828257,(0771)2862905,cater,http://api.map.baidu.com/place/detail?uid=57e39b6935a3c67729fc48a6&output=html&source=placeapi_v2,19.0,07:30-23:30,3.8,,,,,,,,0,,,,,,,108.34339437955,22.828178973776,0
697264047035702df2193731,都市甜心(园湖店),美食,蛋糕甜品店,广西壮族自治区,南宁市,青秀区,广西壮族自治区南宁市青秀区园湖路37号永华大厦一楼,697264047035702df2193731,1,0,108.347711,22.830793,(0771)2866548,cater,http://api.map.baidu.com/place/detail?uid=697264047035702df2193731&output=html&source=placeapi_v2,18.0,07:00-23:30,3.9,,,,,,,,1,,,,,,,108.34772080034,22.83085440083,0
95e6ccee16e19d51f8dc852d,洋仔烘焙,美食,蛋糕甜品店,广西壮族自治区,南宁市,青秀区,广西壮族自治区南宁市青秀区思贤路1栋101号,,1,0,108.346173,22.82263,18007866880,cater,http://api.map.baidu.com/place/detail?uid=95e6ccee16e19d51f8dc852d&output=html&source=placeapi_v2,,,3.5,,,,,,,,,,,,,,,108.34652830157,22.822602645192,0
f5e3bcae929aaad85e17c35a,范记饼屋(东葛店),美食,蛋糕甜品店,广西壮族自治区,南宁市,青秀区,广西壮族自治区南宁市青秀区东葛路85号,f5e3bcae929aaad85e17c35a,1,0,108.350988,22.827681,(0771)5667098,cater,http://api.map.baidu.com/place/detail?uid=f5e3bcae929aaad85e17c35a&output=html&source=placeapi_v2,9.0,06:30-22:30,3.7,,,,,,,,8,,,,,,,108.35116782945,22.827670748944,0
33fbfa836bde0dc20af5eba6,一品轩西饼(津头店),美食,蛋糕甜品店,广西壮族自治区,南宁市,青秀区,广西壮族自治区南宁市青秀区双拥路9号,33fbfa836bde0dc20af5eba6,1,0,108.35,22.804795,(0771)5337121,cater,http://api.map.baidu.com/place/detail?uid=33fbfa836bde0dc20af5eba6&output=html&source=placeapi_v2,11.0,07:00-23:00,3.5,,,,,,,,4,,,,,,,108.34994709873,22.804786382158,0
047720223587eb4e82a12e69,元祖食品(民主店),美食,蛋糕甜品店,广西壮族自治区,南宁市,兴宁区,广西壮族自治区南宁市兴宁区民主路16号精通酒店一楼,047720223587eb4e82a12e69,1,0,108.337181,22.827471,(0771)2836901,cater,http://api.map.baidu.com/place/detail?uid=047720223587eb4e82a12e69&output=html&source=placeapi_v2,64.0,09:00-22:00,3.6,,,,,,,,62,,,,,,,108.33726089595,22.827304397661,0
9925f57e823ab9d6f942b28c,鲍师傅糕点(西南商都店),美食,蛋糕甜品店,广西壮族自治区,南宁市,兴宁区,广西壮族自治区南宁市兴宁区朝阳路29号南商都一层38号商铺,9925f57e823ab9d6f942b28c,1,0,108.327903,22.820806,13297066990,cater,http://api.map.baidu.com/place/detail?uid=9925f57e823ab9d6f942b28c&output=html&source=placeapi_v2,34.0,10:30-23:00,4.0,,,,,,,,2,,,,,,,108.32812839516,22.820881943573,0
9cbb6e389e2ff327f7c59c6f,一品轩西饼(新竹店),美食,蛋糕甜品店,广西壮族自治区,南宁市,青秀区,广西壮族自治区南宁市青秀区新竹路37-1-11号,9cbb6e389e2ff327f7c59c6f,1,0,108.358199,22.822224,(0771)5894373,cater,http://api.map.baidu.com/place/detail?uid=9cbb6e389e2ff327f7c59c6f&output=html&source=placeapi_v2,64.0,07:00-23:00,3.8,,,,,,,,5,,,,,,,108.35818230282,22.822138098532,0
ec54fbb6a0f401a2130daade,艾伦杰瑞蛋糕,美食,蛋糕甜品店,广西壮族自治区,南宁市,青秀区,广西壮族自治区南宁市青秀区建政路4号,ec54fbb6a0f401a2130daade,1,0,108.35061,22.833345,(0771)5668165,cater,http://api.map.baidu.com/place/detail?uid=ec54fbb6a0f401a2130daade&output=html&source=placeapi_v2,21.0,09:30-21:30,3.7,,,,,,,,3,,,,,,,108.35069501263,22.833189286284,0
776a1066e4bcb1a788b98874,察理王子茶饮专卖店(东葛店),美食,蛋糕甜品店,广西壮族自治区,南宁市,青秀区,广西壮族自治区南宁市青秀区东葛路20-7a号,776a1066e4bcb1a788b98874,1,0,108.344301,22.82336,(0771)6728918,cater,http://api.map.baidu.com/place/detail?uid=776a1066e4bcb1a788b98874&output=html&source=placeapi_v2,11.0,10:30-22:30,3.6,,,,,,,,0,,,,,,,108.34417520916,22.82352744746,0
79b49096830a369f4d55473e,皇氏新鲜屋(新民店),美食,蛋糕甜品店,广西壮族自治区,南宁市,青秀区,广西壮族自治区南宁市青秀区纬武路21号锦光花苑b座2号(南宁天使口腔医院旁),79b49096830a369f4d55473e,1,0,108.335744,22.817203,(0771)2852901,cater,http://api.map.baidu.com/place/detail?uid=79b49096830a369f4d55473e&output=html&source=placeapi_v2,10.0,07:00-22:30,3.7,,,,,,,,16,,,,,,,108.33572266455,22.817189829852,0
6a3d0467a1298b38f4e73b37,皇氏新鲜屋(建政路店),美食,蛋糕甜品店,广西壮族自治区,南宁市,青秀区,广西壮族自治区南宁市青秀区思贤路59-2号,6a3d0467a1298b38f4e73b37,1,0,108.343194,22.828081,13299219550,cater,http://api.map.baidu.com/place/detail?uid=6a3d0467a1298b38f4e73b37&output=html&source=placeapi_v2,10.0,07:00-22:30,3.7,,,,,,,,,,,,,,,108.3433827986,22.828190805378,0
38c97f9ed197ab7a581093a0,7cake榴莲千层蛋糕(南宁店),美食,蛋糕甜品店,广西壮族自治区,南宁市,青秀区,广西壮族自治区南宁市青秀区园湖路葛岭巷160号东龙旅馆2楼,,1,0,108.354379,22.829643,19163784485,cater,http://api.map.baidu.com/place/detail?uid=38c97f9ed197ab7a581093a0&output=html&source=placeapi_v2,20.0,09:00-22:00,3.6,,,,,,,,0,,,,,,,,,0
fb0321b9459706b84afc8da1,亿然烘焙原料,美食,蛋糕甜品店,广西壮族自治区,南宁市,青秀区,广西壮族自治区南宁市青秀区新竹路31-27号,,1,0,108.352822,22.822148,13978896131,cater,http://api.map.baidu.com/place/detail?uid=fb0321b9459706b84afc8da1&output=html&source=placeapi_v2,,10:00-22:00,3.5,,,,,,,,,,,,,,,108.35274396036,22.822072105023,0
250fb51d69b4269983a00c1d,皇氏新鲜屋(七星店),美食,蛋糕甜品店,广西壮族自治区,南宁市,青秀区,广西壮族自治区南宁市青秀区七星路102-1-2号,250fb51d69b4269983a00c1d,1,0,108.333105,22.814821,15815319993,cater,http://api.map.baidu.com/place/detail?uid=250fb51d69b4269983a00c1d&output=html&source=placeapi_v2,10.0,07:00-22:30,3.5,,,,,,,,14,,,,,,,108.33319201216,22.815084074161,0
bbd9fd8f71dd8342901fc9fa,海时光烘焙蛋糕,美食,蛋糕甜品店,广西壮族自治区,南宁市,青秀区,南宁市青秀区东葛路24-8号凯丰大厦A单元A1402号房,,1,0,108.347889,22.825363,"13737177130,18677094960",cater,http://api.map.baidu.com/place/detail?uid=bbd9fd8f71dd8342901fc9fa&output=html&source=placeapi_v2,,08:30-23:30,3.5,,,,,,,,0,,,,,,,,,0
479dd61cb19b6df8a104647e,大维饮品(思贤店),美食,蛋糕甜品店,广西壮族自治区,南宁市,青秀区,广西壮族自治区南宁市青秀区思贤路1号,479dd61cb19b6df8a104647e,1,0,108.346416,22.822713,(0771)5874193,cater,http://api.map.baidu.com/place/detail?uid=479dd61cb19b6df8a104647e&output=html&source=placeapi_v2,10.0,10:00-22:30,3.7,,,,,,,,33,,,,,,,,,0
d4d9e73c2f86f7a452e5c58a,蒋记烤饼(医科大学店),美食,蛋糕甜品店,广西壮族自治区,南宁市,青秀区,广西壮族自治区南宁市青秀区双拥路黄屋坡77号,d4d9e73c2f86f7a452e5c58a,1,0,108.351879,22.804415,13647873677,cater,http://api.map.baidu.com/place/detail?uid=d4d9e73c2f86f7a452e5c58a&output=html&source=placeapi_v2,6.0,16:30-24:00,3.9,,,,,,,,6,,,,,,,,,0
ff73d85cdbbd4a7ab8bd6331,唐糖甜品,美食,蛋糕甜品店,广西壮族自治区,南宁市,青秀区,广西壮族自治区南宁市青秀区七星路91-1号,ff73d85cdbbd4a7ab8bd6331,1,0,108.332293,22.815516,18878777733,cater,http://api.map.baidu.com/place/detail?uid=ff73d85cdbbd4a7ab8bd6331&output=html&source=placeapi_v2,13.0,13:30-01:30,3.6,,,,,,,,36,,,,,,,,,0
b80b8002bc23e100210262d2,麦子叔叔手感烘焙,美食,蛋糕甜品店,广西壮族自治区,南宁市,青秀区,广西壮族自治区南宁市青秀区七星路一巷36-1号怡景西湖新天地1栋,,1,0,108.337073,22.81562,,cater,http://api.map.baidu.com/place/detail?uid=b80b8002bc23e100210262d2&output=html&source=placeapi_v2,,,,,,,,,,,,,,,,,,108.33701555884,22.815557825944,0
93c17206c783141d4f3a5918,美点饼业(民族大道店),美食,蛋糕甜品店,广西壮族自治区,南宁市,青秀区,广西壮族自治区南宁市青秀区民族大道86号,93c17206c783141d4f3a5918,1,0,108.361155,22.818982,18577116050,cater,http://api.map.baidu.com/place/detail?uid=93c17206c783141d4f3a5918&output=html&source=placeapi_v2,20.0,07:00-23:00,1.2,,,,,,,,7,,,,,,,108.36103699825,22.819057066842,0
32c274d4627d37436f3e1b53,泸溪河桃酥(悦荟店),美食,蛋糕甜品店,广西壮族自治区,南宁市,兴宁区,广西壮族自治区南宁市兴宁区民生街道朝阳路青云街18号悦荟百盛广场B1,32c274d4627d37436f3e1b53,1,0,108.329317,22.819576,17396706005,cater,http://api.map.baidu.com/place/detail?uid=32c274d4627d37436f3e1b53&output=html&source=placeapi_v2,31.0,10:00-22:30,4.2,,,,,,,,0,,,,,,,108.32883197947,22.821374356093,0
e03939cfbf16b809d1f49ea5,邓老凉茶(七星路店),美食,蛋糕甜品店,广西壮族自治区,南宁市,青秀区,广西壮族自治区南宁市青秀区七星路116-3号,e03939cfbf16b809d1f49ea5,1,0,108.33297,22.815005,13928878925,life,http://api.map.baidu.com/place/detail?uid=e03939cfbf16b809d1f49ea5&output=html&source=placeapi_v2,,00:00-24:00,4,,,,,,,21,2,,,,,,,108.3331297012,22.815102174698,0
45b34d796661a17783a00cef,穗味轩创意蛋糕(朝阳店),美食,蛋糕甜品店,广西壮族自治区,南宁市,兴宁区,广西壮族自治区南宁市兴宁区北宁街骏景苑1层1~5号商铺,,1,0,108.329783,22.824769,13560539619,cater,http://api.map.baidu.com/place/detail?uid=45b34d796661a17783a00cef&output=html&source=placeapi_v2,,09:00-22:00,3.6,,,,,,,,,,,,,,,,,0
dde9583028d315dfad045798,米兰西饼(朝阳店),美食,蛋糕甜品店,广西壮族自治区,南宁市,青秀区,广西南宁市青秀区乐业路8-2号时代大厦,dde9583028d315dfad045798,1,0,108.326881,22.817963,17377166474,cater,http://api.map.baidu.com/place/detail?uid=dde9583028d315dfad045798&output=html&source=placeapi_v2,76.0,08:00-00:30,3.5,,,,,,,,1,,,,,,,,,0
b703e96b3dd938e38f1a89c3,喵园(国贸购物中心店),美食,蛋糕甜品店,广西壮族自治区,南宁市,青秀区,南宁市青秀区民族大道41号国贸中心A座18层1806号,b703e96b3dd938e38f1a89c3,1,0,108.330335,22.819699,18677110984,cater,http://api.map.baidu.com/place/detail?uid=b703e96b3dd938e38f1a89c3&output=html&source=placeapi_v2,35.0,14:00-23:00,4.1,,,,,,,,10,,,,,,,108.33012094727,22.819876890628,0
7e084ab604716ef939e4a65e,猫猫烘焙店,美食,蛋糕甜品店,广西壮族自治区,南宁市,青秀区,广西壮族自治区南宁市青秀区桃源路82-1号,7e084ab604716ef939e4a65e,1,0,108.342215,22.80434,"(0771)5787363,18077126642",cater,http://api.map.baidu.com/place/detail?uid=7e084ab604716ef939e4a65e&output=html&source=placeapi_v2,,,5,,,,,,,,1,,,,,,,,,0
09ff143b63ce8b02132935de,秀敏饮品店,美食,蛋糕甜品店,广西壮族自治区,南宁市,青秀区,广西壮族自治区南宁市青秀区星湖路南一里16-3号,09ff143b63ce8b02132935de,1,0,108.347354,22.811278,,cater,http://api.map.baidu.com/place/detail?uid=09ff143b63ce8b02132935de&output=html&source=placeapi_v2,,,0,,,,,,,,2,,,,,,,108.34741864989,22.811317584533,0
14b8dab8b9e58f058c77274f,威尔小站(东葛路店),美食,蛋糕甜品店,广西壮族自治区,南宁市,青秀区,广西壮族自治区南宁市青秀区东葛路27号银宇大厦1楼,14b8dab8b9e58f058c77274f,1,0,108.343095,22.823343,,cater,http://api.map.baidu.com/place/detail?uid=14b8dab8b9e58f058c77274f&output=html&source=placeapi_v2,,10:00-24:00,3.5,,,,,,,12,0,,,,,,,108.34313533314,22.823261162035,0
b037c061db1eff92bfa822a7,大维饮品(东葛店),美食,蛋糕甜品店,广西壮族自治区,南宁市,青秀区,广西壮族自治区南宁市青秀区东葛路20-1号,b037c061db1eff92bfa822a7,1,0,108.343587,22.822897,"(0771)5844910,15078895487",cater,http://api.map.baidu.com/place/detail?uid=b037c061db1eff92bfa822a7&output=html&source=placeapi_v2,11.0,11:00-23:00,3.5,,,,,,,,17,,,,,,,,,0
bce19ac7128b032b43afe6e8,饶氏糕点,美食,蛋糕甜品店,广西壮族自治区,南宁市,青秀区,广西壮族自治区南宁市青秀区桃源路88-4号,bce19ac7128b032b43afe6e8,1,0,108.345856,22.803875,18507013338,cater,http://api.map.baidu.com/place/detail?uid=bce19ac7128b032b43afe6e8&output=html&source=placeapi_v2,13.0,07:00-22:00,3.7,,,,,,,,0,,,,,,,108.34588744863,22.803949228672,0
9e922c0752d042112a02e1e5,米糖烘焙生日蛋糕(东葛店),美食,蛋糕甜品店,广西壮族自治区,南宁市,青秀区,广西壮族自治区南宁市青秀区园湖路葛岭巷147号1－1号,,1,0,108.353952,22.830716,"13471171810,13662384131",cater,http://api.map.baidu.com/place/detail?uid=9e922c0752d042112a02e1e5&output=html&source=placeapi_v2,,09:00-22:00,3.4,,,,,,,,,,,,,,,,,0
be8f13e9e40371883c9a5eb0,竞美甜品,美食,蛋糕甜品店,广西壮族自治区,南宁市,青秀区,广西壮族自治区南宁市青秀区黄屋坡路82号,be8f13e9e40371883c9a5eb0,1,0,108.351666,22.804312,15878818589,cater,http://api.map.baidu.com/place/detail?uid=be8f13e9e40371883c9a5eb0&output=html&source=placeapi_v2,6.0,09:00-22:00,3.5,,,,,,,,3,,,,,,,,,0
f826c700817e01a32fb96dfc,古早皇后(官塘总店),美食,蛋糕甜品店,广西壮族自治区,南宁市,兴宁区,广西壮族自治区南宁市兴宁区民主路10栋2号,,1,0,108.33992,22.831372,17758696193,cater,http://api.map.baidu.com/place/detail?uid=f826c700817e01a32fb96dfc&output=html&source=placeapi_v2,13.0,07:00-19:00,3.9,,,,,,,,2,,,,,,,108.33992676667,22.831291888406,0
f5d15a79b4016e0349fc8d05,冰神糖水铺(中山路店),美食,蛋糕甜品店,广西壮族自治区,南宁市,青秀区,广西壮族自治区南宁市青秀区中山路256-1号,f5d15a79b4016e0349fc8d05,1,0,108.329,22.818073,(0771)2617933,cater,http://api.map.baidu.com/place/detail?uid=f5d15a79b4016e0349fc8d05&output=html&source=placeapi_v2,13.0,10:30-23:30,4.2,,,,,,,,200,,,,,,,108.32890163049,22.81803452465,0
bdce465b12d1c1de15764352,通记鲜榨玉米汁(植物店),美食,蛋糕甜品店,广西壮族自治区,南宁市,青秀区,广西壮族自治区南宁市青秀区植物路23号,bdce465b12d1c1de15764352,1,0,108.333544,22.808777,13768413891,cater,http://api.map.baidu.com/place/detail?uid=bdce465b12d1c1de15764352&output=html&source=placeapi_v2,10.0,07:00-19:30,3.5,,,,,,,,28,,,,,,,108.33347097016,22.808780546445,0
8f0df9079e94a564e6e965c7,党公(双拥路店),美食,蛋糕甜品店,广西壮族自治区,南宁市,青秀区,广西壮族自治区南宁市青秀区双拥路26-8号,8f0df9079e94a564e6e965c7,1,0,108.359194,22.80795,13878853477,cater,http://api.map.baidu.com/place/detail?uid=8f0df9079e94a564e6e965c7&output=html&source=placeapi_v2,11.0,09:00-23:30,3.7,,,,,,,,18,,,,,,,108.35913450666,22.808031260082,0
b8b7da8b1e689363cafa5f79,蜜雪冰城(西南商都店),美食,蛋糕甜品店,广西壮族自治区,南宁市,兴宁区,广西壮族自治区南宁市兴宁区朝阳路29号西南商都2楼,b8b7da8b1e689363cafa5f79,1,0,108.327673,22.820593,17777190437,cater,http://api.map.baidu.com/place/detail?uid=b8b7da8b1e689363cafa5f79&output=html&source=placeapi_v2,5.0,10:20-23:00,3.7,,,,,,,,0,,,,,,,108.32788400935,22.821370846764,0
ee2f7a9dd7ca3b046218099b,曾盛福甜品店,美食,蛋糕甜品店,广西壮族自治区,南宁市,青秀区,广西壮族自治区南宁市青秀区桃源路82号,ee2f7a9dd7ca3b046218099b,1,0,108.341104,22.804258,13558011191,cater,http://api.map.baidu.com/place/detail?uid=ee2f7a9dd7ca3b046218099b&output=html&source=placeapi_v2,14.0,,3.4,,,,,,,,0,,,,,,,108.34106686997,22.804322628738,0
e663839f98bbb11d047ce8f2,皇氏新鲜屋(建政一店),美食,蛋糕甜品店,广西壮族自治区,南宁市,青秀区,青秀区建政路南一里16号,,1,0,108.348,22.829653,,cater,http://api.map.baidu.com/place/detail?uid=e663839f98bbb11d047ce8f2&output=html&source=placeapi_v2,,,,,,,,,,,,,,,,,,,,0
e83452253ce2ff6c4acc4a6f,清心堂凉茶(新竹路五店),美食,蛋糕甜品店,广西壮族自治区,南宁市,青秀区,广西壮族自治区南宁市青秀区园湖新竹30-1号,e83452253ce2ff6c4acc4a6f,1,0,108.354624,22.821862,13977152768,cater,http://api.map.baidu.com/place/detail?uid=e83452253ce2ff6c4acc4a6f&output=html&source=placeapi_v2,13.0,09:00-22:00,3.6,,,,,,,,1,,,,,,,108.35462316518,22.822100407268,0
0670eddc433a8d457369d364,原麦香包点,美食,蛋糕甜品店,广西壮族自治区,南宁市,青秀区,广西壮族自治区南宁市青秀区双拥路26-68号,0670eddc433a8d457369d364,1,0,108.360577,22.807429,"13768017889,15077188257",cater,http://api.map.baidu.com/place/detail?uid=0670eddc433a8d457369d364&output=html&source=placeapi_v2,,10:00-22:00,,,,,,,,,,,,,,,,,,0
0b528a0c1ce0e2f17dc87631,清甜阁玉米汁,美食,蛋糕甜品店,广西壮族自治区,南宁市,青秀区,广西壮族自治区南宁市青秀区双拥路6号,0b528a0c1ce0e2f17dc87631,1,0,108.352435,22.803025,13978644921,cater,http://api.map.baidu.com/place/detail?uid=0b528a0c1ce0e2f17dc87631&output=html&source=placeapi_v2,,,3.6,,,,,,,,1,,,,,,,108.35242101504,22.802820443214,0
2c8603992a272622fa0cadec,皇氏新鲜屋(医科大店),美食,蛋糕甜品店,广西壮族自治区,南宁市,青秀区,广西壮族自治区南宁市青秀区双拥路东一巷25号国立又一城商业广场1楼108号,2c8603992a272622fa0cadec,1,0,108.353098,22.802263,13077715877,cater,http://api.map.baidu.com/place/detail?uid=2c8603992a272622fa0cadec&output=html&source=placeapi_v2,10.0,07:30-22:30,3.7,,,,,,,,1,,,,,,,108.35293115915,22.802447209312,0
1cea15a95d8986dc07fef563,大维饮品(七星店),美食,蛋糕甜品店,广西壮族自治区,南宁市,青秀区,广西壮族自治区南宁市青秀区中山路66号外滩新城富城4楼,1cea15a95d8986dc07fef563,1,0,108.331409,22.815495,(0771)2800485,cater,http://api.map.baidu.com/place/detail?uid=1cea15a95d8986dc07fef563&output=html&source=placeapi_v2,12.0,09:00-24:00,3.7,,,,,,,,4,,,,,,,108.33146818725,22.815642516657,0
03b57ef751bcdbc4774ff1af,蜜(国贸购物中心店),美食,蛋糕甜品店,广西壮族自治区,南宁市,青秀区,南宁市青秀区民族大道41号国贸购物中心F4,03b57ef751bcdbc4774ff1af,1,0,108.330357,22.819527,18269069166,life,http://api.map.baidu.com/place/detail?uid=03b57ef751bcdbc4774ff1af&output=html&source=placeapi_v2,,09:00-21:00,,,,,,,,22,2,,,,,,,108.33131094156,22.819105911134,0
4e931256f9d0ab1df50e7768,台柠(双拥路东一巷),美食,蛋糕甜品店,广西壮族自治区,南宁市,青秀区,广西壮族自治区南宁市青秀区黄屋坡33号,4e931256f9d0ab1df50e7768,1,0,108.351003,22.804321,13217718575,cater,http://api.map.baidu.com/place/detail?uid=4e931256f9d0ab1df50e7768&output=html&source=placeapi_v2,10.0,11:00-23:00,3.5,,,,,,,,7,,,,,,,108.35094804733,22.804166042543,0
556fd293a2a4424c79b55cdc,Maan L ak sea(国贸购物中心店),美食,蛋糕甜品店,广西壮族自治区,南宁市,青秀区,南宁市青秀区民族大道41号国贸购物中心F2,556fd293a2a4424c79b55cdc,1,0,108.330621,22.819819,13397710196,life,http://api.map.baidu.com/place/detail?uid=556fd293a2a4424c79b55cdc&output=html&source=placeapi_v2,,,3.3,,,,,,,12,3,,,,,,,,,0
e27a93850baa1ade8bf15dc3,邓老凉茶(百盛步行街广场店),美食,蛋糕甜品店,广西壮族自治区,南宁市,兴宁区,广西壮族自治区南宁市兴宁区朝阳路9号百盛步行街广场F2,,1,0,108.327781,22.820698,,cater,http://api.map.baidu.com/place/detail?uid=e27a93850baa1ade8bf15dc3&output=html&source=placeapi_v2,,,0,,,,,,,,1,,,,,,,108.32720781077,22.820610252473,0
f6e57e93b11597e1441a32f2,宏信冰淇淋批发,美食,蛋糕甜品店,广西壮族自治区,南宁市,青秀区,广西壮族自治区南宁市青秀区南国街4号,f6e57e93b11597e1441a32f2,1,0,108.331433,22.815259,"(0771)2824174,15107717453",cater,http://api.map.baidu.com/place/detail?uid=f6e57e93b11597e1441a32f2&output=html&source=placeapi_v2,,10:00-22:00,4,,,,,,,,1,,,,,,,108.33155457819,22.815354498874,0
373cf757b68b6e774354d757,茗草源甜品凉茶店(园湖南路店),美食,蛋糕甜品店,广西壮族自治区,南宁市,青秀区,广西壮族自治区南宁市青秀区园湖南路7-1号华兴大厦1层,373cf757b68b6e774354d757,1,0,108.353732,22.822952,15978165816,cater,http://api.map.baidu.com/place/detail?uid=373cf757b68b6e774354d757&output=html&source=placeapi_v2,,09:00-01:00,3.6,,,,,,,,11,,,,,,,108.35385869642,22.822951468167,0
89facf65aa78a10657bfff07,艾尚烘焙(津头店),美食,蛋糕甜品店,广西壮族自治区,南宁市,青秀区,南宁市青秀区江津路永嘉公寓南侧,,1,0,108.346264,22.802211,19968348452,cater,http://api.map.baidu.com/place/detail?uid=89facf65aa78a10657bfff07&output=html&source=placeapi_v2,,,,,,,,,,,,,,,,,,,,0
1020060f6c31ffbf1894c65a,范记饼屋(新竹店),美食,蛋糕甜品店,广西壮族自治区,南宁市,青秀区,广西壮族自治区南宁市青秀区新竹路37-1-6号,1020060f6c31ffbf1894c65a,1,0,108.357998,22.822189,(0771)5890963,cater,http://api.map.baidu.com/place/detail?uid=1020060f6c31ffbf1894c65a&output=html&source=placeapi_v2,11.0,06:30-22:00,3.6,,,,,,,,2,,,,,,,,,0
27e3da5b3c661740deee8ba6,百年凉草堂(医科大店),美食,蛋糕甜品店,广西壮族自治区,南宁市,青秀区,南宁市青秀区弘医路广西医科大学-附属小学北侧,27e3da5b3c661740deee8ba6,1,0,108.352332,22.802885,18777178967,cater,http://api.map.baidu.com/place/detail?uid=27e3da5b3c661740deee8ba6&output=html&source=placeapi_v2,,,0,,,,,,,,0,,,,,,,108.3523283171,22.80282592107,0
fdffbd5ab59708cef02d8332,鸿成休闲吧,美食,蛋糕甜品店,广西壮族自治区,南宁市,青秀区,广西壮族自治区南宁市青秀区麻村二街39号,fdffbd5ab59708cef02d8332,1,0,108.360494,22.818149,13878830226,cater,http://api.map.baidu.com/place/detail?uid=fdffbd5ab59708cef02d8332&output=html&source=placeapi_v2,,,3.5,,,,,,,,2,,,,,,,108.36040572214,22.81826375618,0
eacc2d27166968c845e27453,5叶茶(黄屋店),美食,蛋糕甜品店,广西壮族自治区,南宁市,青秀区,双拥路东一巷108号铺面(艾颜化妆品进来第二个铺面),eacc2d27166968c845e27453,1,0,108.351471,22.803957,"13100511836,13152669665",cater,http://api.map.baidu.com/place/detail?uid=eacc2d27166968c845e27453&output=html&source=placeapi_v2,10.0,11:00-24:00,4.4,,,,,,,,24,,,,,,,,,0
d5edf0b3c09c27e244572644,虞美人(国贸购物中心店),美食,蛋糕甜品店,广西壮族自治区,南宁市,青秀区,南宁市青秀区民族大道41号国贸购物中心F2,d5edf0b3c09c27e244572644,1,0,108.330707,22.819449,,cater,http://api.map.baidu.com/place/detail?uid=d5edf0b3c09c27e244572644&output=html&source=placeapi_v2,,,,,,,,,,,,,,,,,,108.33131094156,22.819105911134,0
e86d5d0fea3579d3b44f5450,草芝芋香(会展航洋城店),美食,蛋糕甜品店,广西壮族自治区,南宁市,青秀区,广西壮族自治区南宁市青秀区民族大道131号会展航洋城B2,e86d5d0fea3579d3b44f5450,1,0,108.39048,22.82054,18978917369,cater,http://api.map.baidu.com/place/detail?uid=e86d5d0fea3579d3b44f5450&output=html&source=placeapi_v2,8.0,10:00-22:00,3.5,,,,,,,,1,,,,,,,108.39011128758,22.82059586764,0
d0b8923fe4712cfbb5f42f4b,范记饼屋(祥宾店),美食,蛋糕甜品店,广西壮族自治区,南宁市,青秀区,广西壮族自治区南宁市青秀区祥宾路一期79栋3号,d0b8923fe4712cfbb5f42f4b,1,0,108.380739,22.826944,(0771)5526887,life,http://api.map.baidu.com/place/detail?uid=d0b8923fe4712cfbb5f42f4b&output=html&source=placeapi_v2,,05:40-17:40,,,,,,,,50,1,,,,,,,108.38073834005,22.826864120751,0
bccbe52aa4877690d4851fdf,哈根达斯(梦之岛百货店),美食,蛋糕甜品店,广西壮族自治区,南宁市,青秀区,广西壮族自治区南宁市青秀区金湖路61号梦之岛水晶城1层,bccbe52aa4877690d4851fdf,1,0,108.375465,22.822614,(0771)5536919,cater,http://api.map.baidu.com/place/detail?uid=bccbe52aa4877690d4851fdf&output=html&source=placeapi_v2,83.0,10:00-22:00,4.1,,,,,,,,3,,,,,,,108.37553821833,22.822596691213,0
fd405c8980ba378e32f71d14,皇氏新鲜屋(云景店),美食,蛋糕甜品店,广西壮族自治区,南宁市,青秀区,广西壮族自治区南宁市青秀区凤翔路6号蓝山上城7号楼B13号铺,fd405c8980ba378e32f71d14,1,0,108.392241,22.824732,(0771)5383259,cater,http://api.map.baidu.com/place/detail?uid=fd405c8980ba378e32f71d14&output=html&source=placeapi_v2,35.0,08:00-22:00,3.6,,,,,,,,18,,,,,,,108.39229459217,22.824607345572,0
504d6113fd066aaa4657264b,范记饼屋(中泰店),美食,蛋糕甜品店,广西壮族自治区,南宁市,青秀区,广西壮族自治区南宁市青秀区青秀路9号盛天茗城地下室一期1区45号,504d6113fd066aaa4657264b,1,0,108.400457,22.810701,(0771)5383207,cater,http://api.map.baidu.com/place/detail?uid=504d6113fd066aaa4657264b&output=html&source=placeapi_v2,8.0,07:00-22:30,3.6,,,,,,,,18,,,,,,,108.40062044876,22.810735739583,0
69e035feb307b927ce04eff3,皇氏新鲜屋(金湖店),美食,蛋糕甜品店,广西壮族自治区,南宁市,青秀区,广西壮族自治区南宁市青秀区金湖路51号6栋1号,69e035feb307b927ce04eff3,1,0,108.375414,22.817637,18178611191,cater,http://api.map.baidu.com/place/detail?uid=69e035feb307b927ce04eff3&output=html&source=placeapi_v2,10.0,07:00-22:30,0,,,,,,,,2,,,,,,,108.37551463332,22.817725757582,0
c514d8c9a663c43633169b5d,范记饼屋(琅西店),美食,蛋糕甜品店,广西壮族自治区,南宁市,青秀区,广西省南宁市青秀区金洲路45号,c514d8c9a663c43633169b5d,1,0,108.369395,22.81289,(0771)5524969,cater,http://api.map.baidu.com/place/detail?uid=c514d8c9a663c43633169b5d&output=html&source=placeapi_v2,17.0,06:30-22:30,3.6,,,,,,,,6,,,,,,,108.36925596366,22.813009904693,0
848b2806cd3c3a5eca1b9503,9度缘(桂雅店),美食,蛋糕甜品店,广西壮族自治区,南宁市,青秀区,广西壮族自治区南宁市青秀区中马路1号绿海云天7-7号,848b2806cd3c3a5eca1b9503,1,0,108.39978,22.806903,(0771)5805790,cater,http://api.map.baidu.com/place/detail?uid=848b2806cd3c3a5eca1b9503&output=html&source=placeapi_v2,21.0,08:00-23:00,3.7,,,,,,,,20,,,,,,,108.39975455052,22.806993927223,0
0364e40e8ce1f487adcb662e,鸡王盐h食品(东盟店),美食,蛋糕甜品店,广西壮族自治区,南宁市,青秀区,广西壮族自治区南宁市青秀区青秀路9号盛天茗城地下室I区I区26号,0364e40e8ce1f487adcb662e,1,0,108.400814,22.810008,(0771)2622953,cater,http://api.map.baidu.com/place/detail?uid=0364e40e8ce1f487adcb662e&output=html&source=placeapi_v2,19.0,09:00-22:00,3.5,,,,,,,,4,,,,,,,108.40096907228,22.810135837509,0
a8febc8414cc6849b1077dc8,蒂丽雪斯(竹溪店),美食,蛋糕甜品店,广西壮族自治区,南宁市,青秀区,广西壮族自治区南宁市青秀区竹溪大道39号左岸青园a栋1层a6-2号,,1,0,108.374698,22.807256,,cater,http://api.map.baidu.com/place/detail?uid=a8febc8414cc6849b1077dc8&output=html&source=placeapi_v2,15.0,10:00-21:30,3.5,,,,,,,,,,,,,,,,,0
f58b7599857c811e96f08cbb,食尚麦点(中柬路店),美食,蛋糕甜品店,广西壮族自治区,南宁市,青秀区,广西壮族自治区南宁市青秀区耀凯凤岭一号1楼商铺,f58b7599857c811e96f08cbb,1,0,108.403466,22.813223,13801802671,cater,http://api.map.baidu.com/place/detail?uid=f58b7599857c811e96f08cbb&output=html&source=placeapi_v2,9.0,05:30-19:30,3.5,,,,,,,,0,,,,,,,108.40356066288,22.813319668727,0
a25e1042073f8bea38e4a693,皇氏新鲜屋(丽景店),美食,蛋糕甜品店,广西壮族自治区,南宁市,青秀区,广西壮族自治区南宁市青秀区竹溪路39-1号丽景豪庭3栋,a25e1042073f8bea38e4a693,1,0,108.375017,22.80749,15807711028,cater,http://api.map.baidu.com/place/detail?uid=a25e1042073f8bea38e4a693&output=html&source=placeapi_v2,10.0,07:00-22:00,3.7,,,,,,,,17,,,,,,,108.37503807792,22.807471216316,0
cafd910fc8aae714abf729e8,清心堂凉茶(琅东一分店),美食,蛋糕甜品店,广西壮族自治区,南宁市,青秀区,广西壮族自治区南宁市青秀区滨湖路68号,cafd910fc8aae714abf729e8,1,0,108.375139,22.829337,18775362216,cater,http://api.map.baidu.com/place/detail?uid=cafd910fc8aae714abf729e8&output=html&source=placeapi_v2,29.0,10:00-22:30,3.4,,,,,,,,1,,,,,,,108.37506039436,22.829113172981,0
77044f006f6029fa8b36ee77,鱼糖生日蛋糕甜点下午茶,美食,蛋糕甜品店,广西壮族自治区,南宁市,青秀区,广西壮族自治区南宁市青秀区丹凤路3号维也纳森林幼儿园门口,,1,0,108.393287,22.82988,19977107218,cater,http://api.map.baidu.com/place/detail?uid=77044f006f6029fa8b36ee77&output=html&source=placeapi_v2,,09:00-21:00,,,,,,,,,,,,,,,,,,0
d3f4d86042b87f08250bd062,冰淇淋,美食,蛋糕甜品店,广西壮族自治区,南宁市,青秀区,广西壮族自治区南宁市青秀区新竹路57栋4号,d3f4d86042b87f08250bd062,1,0,108.375816,22.822943,,cater,http://api.map.baidu.com/place/detail?uid=d3f4d86042b87f08250bd062&output=html&source=placeapi_v2,,,,,,,,,,,,,,,,,,108.37648661156,22.822837678593,0
bc9ae27306c4d723e507381e,大台北饮品(桂春店),美食,蛋糕甜品店,广西壮族自治区,南宁市,青秀区,青秀区桂春路琅西市场12号,bc9ae27306c4d723e507381e,1,0,108.371548,22.812044,13407738783,cater,http://api.map.baidu.com/place/detail?uid=bc9ae27306c4d723e507381e&output=html&source=placeapi_v2,27.0,10:00-21:00,3.5,,,,,,,,8,,,,,,,108.37147840743,22.811915937547,0
ba5501a5734c3017c5effbfa,猫柠蛋糕奶茶甜品美食,美食,蛋糕甜品店,广西壮族自治区,南宁市,青秀区,广西壮族自治区南宁市青秀区长湖路a区38栋5号,,1,0,108.379443,22.829976,18776159211,cater,http://api.map.baidu.com/place/detail?uid=ba5501a5734c3017c5effbfa&output=html&source=placeapi_v2,,10:00-01:00,3.5,,,,,,,,,,,,,,,108.37935919405,22.829849255894,0
923ffd00642f18aed92f284b,范记饼屋(汇东郦城店),美食,蛋糕甜品店,广西壮族自治区,南宁市,青秀区,广西壮族自治区南宁市青秀区青环路90号汇东郦城a组团1128号,923ffd00642f18aed92f284b,1,0,108.425144,22.81662,,cater,http://api.map.baidu.com/place/detail?uid=923ffd00642f18aed92f284b&output=html&source=placeapi_v2,105.0,06:30-22:00,3.6,,,,,,,,2,,,,,,,108.42515452148,22.816772378162,0
20f8f51fcc214c1173455b3e,食尚麦点(文景店),美食,蛋糕甜品店,广西壮族自治区,南宁市,青秀区,广西壮族自治区南宁市青秀区百花岭路2号文景园地下1层25-1号,20f8f51fcc214c1173455b3e,1,0,108.421584,22.823606,15277154979,cater,http://api.map.baidu.com/place/detail?uid=20f8f51fcc214c1173455b3e&output=html&source=placeapi_v2,13.0,05:00-19:30,3.5,,,,,,,,0,,,,,,,108.42158481079,22.823449131199,0
43c7f453dec05e75e8e582d8,皇氏新鲜屋(山语城店),美食,蛋糕甜品店,广西壮族自治区,南宁市,青秀区,广西壮族自治区南宁市青秀区枫林路16号百花岭路山语城G-107号铺,43c7f453dec05e75e8e582d8,1,0,108.424944,22.825608,(0771)5823383,cater,http://api.map.baidu.com/place/detail?uid=43c7f453dec05e75e8e582d8&output=html&source=placeapi_v2,10.0,07:00-21:00,3.6,,,,,,,,1,,,,,,,,,0
a4915ae871b4d85e2cb96dc9,皇氏新鲜屋(荣和店),美食,蛋糕甜品店,广西壮族自治区,南宁市,青秀区,广西壮族自治区南宁市青秀区民族大道155号荣和山水美地六组团21栋3号商铺,a4915ae871b4d85e2cb96dc9,1,0,108.411801,22.825282,13659608105,cater,http://api.map.baidu.com/place/detail?uid=a4915ae871b4d85e2cb96dc9&output=html&source=placeapi_v2,10.0,07:00-22:30,3.5,,,,,,,,11,,,,,,,108.41195296083,22.825267730542,0
502102781e180425c1f1cf8d,果瘦水果捞(东盟店),美食,蛋糕甜品店,广西壮族自治区,南宁市,青秀区,青秀区桂雅路96号老挝园区东盟国际第1街商业7栋1-01号,,1,0,108.409527,22.814155,18077795245,cater,http://api.map.baidu.com/place/detail?uid=502102781e180425c1f1cf8d&output=html&source=placeapi_v2,,11:00-23:30,5.0,,,,,,,,1,,,,,,,108.40952731856,22.814585732771,0
a911f93e385b516a8415419c,甜蜜时光私人定制蛋糕甜品,美食,蛋糕甜品店,广西壮族自治区,南宁市,青秀区,南宁市青秀区蓉茉大道西二里蓉茉蓝天幼儿园东南侧约30米,,1,0,108.455298,22.818723,18877133772,cater,http://api.map.baidu.com/place/detail?uid=a911f93e385b516a8415419c&output=html&source=placeapi_v2,,,,,,,,,,,,,,,,,,108.4552992092,22.818600008105,0
d1872e641f68b446bfa82251,范记饼屋(仙葫三店),美食,蛋糕甜品店,广西壮族自治区,南宁市,青秀区,广西壮族自治区南宁市青秀区开泰路132号,d1872e641f68b446bfa82251,1,0,108.451523,22.813624,18978906359,cater,http://api.map.baidu.com/place/detail?uid=d1872e641f68b446bfa82251&output=html&source=placeapi_v2,10.0,06:30-22:30,3.6,,,,,,,,15,,,,,,,108.45166512055,22.813639449534,0
631c41572562957831f71d5a,范记饼屋(仙葫二店),美食,蛋糕甜品店,广西壮族自治区,南宁市,青秀区,广西壮族自治区南宁市青秀区通泰路70号怡景苑102号,631c41572562957831f71d5a,1,0,108.450968,22.81516,18978889323,cater,http://api.map.baidu.com/place/detail?uid=631c41572562957831f71d5a&output=html&source=placeapi_v2,29.0,07:00-22:30,3.6,,,,,,,,4,,,,,,,108.45098758978,22.815050832082,0
cd86adec16581981336212d1,皇氏新鲜屋(天池山店),美食,蛋糕甜品店,广西壮族自治区,南宁市,青秀区,广西壮族自治区南宁市青秀区莺歌路2-39号,cd86adec16581981336212d1,1,0,108.463501,22.818145,"(0771)2031085,13768601483",cater,http://api.map.baidu.com/place/detail?uid=cd86adec16581981336212d1&output=html&source=placeapi_v2,21.0,07:00-22:30,3.7,,,,,,,40,25,,,,,,,108.46337894804,22.818088177644,0
6243b4cfede32d279c09f7a1,私房甜品(仙葫店),美食,蛋糕甜品店,广西壮族自治区,南宁市,青秀区,广西壮族自治区南宁市青秀区仙葫富兴路96号一楼,6243b4cfede32d279c09f7a1,1,0,108.456943,22.814326,18578966188,cater,http://api.map.baidu.com/place/detail?uid=6243b4cfede32d279c09f7a1&output=html&source=placeapi_v2,28.0,09:00-24:00,3.6,,,,,,,,0,,,,,,,,,0
4363f0d835fc5397e215f906,甜蜜盒子烘焙,美食,蛋糕甜品店,广西壮族自治区,南宁市,青秀区,青秀区通泰路87号,,1,0,108.452912,22.813072,19968072701,cater,http://api.map.baidu.com/place/detail?uid=4363f0d835fc5397e215f906&output=html&source=placeapi_v2,,09:00-22:00,,,,,,,,,,,,,,,,,,0
5ffb181627eb32226f4760fc,佳美冰珍珠奶茶屋,美食,蛋糕甜品店,广西壮族自治区,南宁市,青秀区,广西壮族自治区南宁市青秀区仙葫大道西213号,5ffb181627eb32226f4760fc,1,0,108.448008,22.81496,18677186653,cater,http://api.map.baidu.com/place/detail?uid=5ffb181627eb32226f4760fc&output=html&source=placeapi_v2,11.0,10:00-22:00,3.5,,,,,,,,1,,,,,,,108.44795063625,22.814869468511,0
2889ba6896f02ffe96ca079d,朱氏与众不同凉茶店,美食,蛋糕甜品店,广西壮族自治区,南宁市,青秀区,广西壮族自治区南宁市青秀区富兴路28号,2889ba6896f02ffe96ca079d,1,0,108.451131,22.813962,"13014987731,15177910177",cater,http://api.map.baidu.com/place/detail?uid=2889ba6896f02ffe96ca079d&output=html&source=placeapi_v2,,11:00-24:00,3.4,,,,,,,,3,,,,,,,108.45112588661,22.814019986023,0
26e1bf964cef3eaf4e2fdf1f,大维饮品(仙葫店),美食,蛋糕甜品店,广西壮族自治区,南宁市,青秀区,广西壮族自治区南宁市青秀区开泰路91号,26e1bf964cef3eaf4e2fdf1f,1,0,108.451917,22.814514,(0771)4705011,cater,http://api.map.baidu.com/place/detail?uid=26e1bf964cef3eaf4e2fdf1f&output=html&source=placeapi_v2,13.0,11:00-24:00,3.7,,,,,,,,4,,,,,,,108.45176516034,22.814505964115,0
2dcecfa2681b6e95095cb3d8,芳众冰淇淋批零部,美食,蛋糕甜品店,广西壮族自治区,南宁市,西乡塘区,广西壮族自治区南宁市西乡塘区顶乐食品厂金沙湖风景区西南,2dcecfa2681b6e95095cb3d8,1,0,108.172061,22.840169,"13597348889,15077159381",cater,http://api.map.baidu.com/place/detail?uid=2dcecfa2681b6e95095cb3d8&output=html&source=placeapi_v2,,,,,,,,,,,,,,,,,,108.1722254366,22.840272801869,0
cbff158f5f7d507049fc8d21,天然甜蛋糕,美食,蛋糕甜品店,广西壮族自治区,南宁市,西乡塘区,广西壮族自治区南宁市西乡塘区新村路8号,,1,0,108.232294,22.845796,15278186887,cater,http://api.map.baidu.com/place/detail?uid=cbff158f5f7d507049fc8d21&output=html&source=placeapi_v2,,08:00-22:00,,,,,,,,,,,,,,,,,,0
07836053e35405060869d93f,玖月烘焙(新村店),美食,蛋糕甜品店,广西壮族自治区,南宁市,西乡塘区,西乡塘区石埠街道西宁路西明村一组19栋,07836053e35405060869d93f,1,0,108.2296,22.839871,18587938434,cater,http://api.map.baidu.com/place/detail?uid=07836053e35405060869d93f&output=html&source=placeapi_v2,,09:00-23:00,5,,,,,,,,5,,,,,,,,,0
15fb7970238272b82b11d173,甜桔蛋糕店,美食,蛋糕甜品店,广西壮族自治区,南宁市,西乡塘区,西乡塘区西明村五组5栋3单元1号房,,1,0,108.222261,22.837233,18776746579,cater,http://api.map.baidu.com/place/detail?uid=15fb7970238272b82b11d173&output=html&source=placeapi_v2,,09:30-21:00,,,,,,,,,,,,,,,,108.2221768077,22.837211904778,0
1bab65654f47acad081cc7a3,冰盟糖水店(冰雪儿),美食,蛋糕甜品店,广西壮族自治区,南宁市,西乡塘区,广西壮族自治区南宁市西乡塘区石灰窑3号,1bab65654f47acad081cc7a3,1,0,108.239125,22.852462,13299203456,cater,http://api.map.baidu.com/place/detail?uid=1bab65654f47acad081cc7a3&output=html&source=placeapi_v2,13.0,"10:00-14:00,17:00-22:00",3.4,,,,,,,,0,,,,,,,108.23926898611,22.852543629347,0
ba2f1399c548fc3a9cec2b7b,咔优蛋糕店,美食,蛋糕甜品店,广西壮族自治区,南宁市,西乡塘区,广西壮族自治区南宁市西乡塘区西宁路中旭天悦3号楼101号,,1,0,108.232566,22.836103,18078189670,cater,http://api.map.baidu.com/place/detail?uid=ba2f1399c548fc3a9cec2b7b&output=html&source=placeapi_v2,,10:00-22:00,,,,,,,,,1,,,,,,,108.23235694113,22.836103753991,0
55420af602ae37889b68b4a7,皇氏新鲜屋(西宁路店),美食,蛋糕甜品店,广西壮族自治区,南宁市,西乡塘区,广西壮族自治区南宁市西乡塘区西宁路5号,,1,0,108.233485,22.839052,"15578180312,15678987340",cater,http://api.map.baidu.com/place/detail?uid=55420af602ae37889b68b4a7&output=html&source=placeapi_v2,,07:00-22:30,,,,,,,,,,,,,,,,,,0
cba916c1df78b05f96f08cae,茶咖师,美食,蛋糕甜品店,广西壮族自治区,南宁市,西乡塘区,南宁市西乡塘区大学东路188号广西民族大学东校区图书馆副楼一楼,cba916c1df78b05f96f08cae,1,0,108.240747,22.847271,13977188158,cater,http://api.map.baidu.com/place/detail?uid=cba916c1df78b05f96f08cae&output=html&source=placeapi_v2,,10:00-23:00,3.6,,,,,,,,0,,,,,,,,,0
2ac754360a05d0a34c6d46c1,玖月烘焙(西明村店),美食,蛋糕甜品店,广西壮族自治区,南宁市,西乡塘区,广西壮族自治区南宁市西乡塘区西宁路5号19栋,,1,0,108.234319,22.839542,18587938494,cater,http://api.map.baidu.com/place/detail?uid=2ac754360a05d0a34c6d46c1&output=html&source=placeapi_v2,,,3.5,,,,,,,,,,,,,,,108.23434047784,22.839646678964,0
1ca5b9fcfdec71a458f6beff,皇氏新鲜屋(民大店),美食,蛋糕甜品店,广西壮族自治区,南宁市,西乡塘区,广西壮族自治区南宁市西乡塘区相思湖北路广西民族大学北门东1号铺,1ca5b9fcfdec71a458f6beff,1,0,108.242317,22.854657,15307718818,cater,http://api.map.baidu.com/place/detail?uid=1ca5b9fcfdec71a458f6beff&output=html&source=placeapi_v2,11.0,07:30-22:30,3.8,,,,,,,,0,,,,,,,108.24226441907,22.854695532696,0
52af3776cd504be0d42ce214,冰神马姐私房面馆(林屋坡三产综合楼南),美食,蛋糕甜品店,广西壮族自治区,南宁市,西乡塘区,广西壮族自治区南宁市西乡塘区林屋坡108号,52af3776cd504be0d42ce214,1,0,108.231481,22.860504,15077141158,cater,http://api.map.baidu.com/place/detail?uid=52af3776cd504be0d42ce214&output=html&source=placeapi_v2,13.0,"10:30-13:30,16:00-19:30",3.6,,,,,,,,3,,,,,,,108.23152827585,22.860537650811,0
87f330fe71d7c7c240afe697,鸿乐饼屋(民大北门店),美食,蛋糕甜品店,广西壮族自治区,南宁市,西乡塘区,广西壮族自治区南宁市西乡塘区大学东路188号,87f330fe71d7c7c240afe697,1,0,108.24235,22.854662,13878186227,cater,http://api.map.baidu.com/place/detail?uid=87f330fe71d7c7c240afe697&output=html&source=placeapi_v2,11.0,10:30-21:30,3.5,,,,,,,,0,,,,,,,108.24238825587,22.854695297577,0
eaeede6c8fab1e4f8f1a89d4,好滋味甜品,美食,蛋糕甜品店,广西壮族自治区,南宁市,西乡塘区,广西壮族自治区南宁市西乡塘区鹏飞路3号童乐嘉园小区6栋130商铺,,1,0,108.208153,22.839734,,cater,http://api.map.baidu.com/place/detail?uid=eaeede6c8fab1e4f8f1a89d4&output=html&source=placeapi_v2,,,,,,,,,,,,,,,,,,108.20845459555,22.83972779296,0
8162743e8c4cc5c0931fc920,御香糕点(大学东路店),美食,蛋糕甜品店,广西壮族自治区,南宁市,西乡塘区,广西壮族自治区南宁市西乡塘区大学东路168号,8162743e8c4cc5c0931fc920,1,0,108.264715,22.846662,13978737881,cater,http://api.map.baidu.com/place/detail?uid=8162743e8c4cc5c0931fc920&output=html&source=placeapi_v2,,10:00-22:00,3.5,,,,,,,,0,,,,,,,,,0
c80b59227bcd118d3686f417,巧味蛋糕店(陈东店),美食,蛋糕甜品店,广西壮族自治区,南宁市,西乡塘区,广西壮族自治区南宁市西乡塘区陈东路104号,,1,0,108.264652,22.843768,18577842090,cater,http://api.map.baidu.com/place/detail?uid=c80b59227bcd118d3686f417&output=html&source=placeapi_v2,,08:00-23:00,3.5,,,,,,,,,,,,,,,108.26441385358,22.843771595352,0
c39587f840f92c56be4842e7,蒂丽雪斯(相思湖店),美食,蛋糕甜品店,广西壮族自治区,南宁市,西乡塘区,广西壮族自治区南宁市西乡塘区相思湖东路2号西建水岸华府东校区4号楼1楼3号铺,,1,0,108.254574,22.840866,(0771)3947600,cater,http://api.map.baidu.com/place/detail?uid=c39587f840f92c56be4842e7&output=html&source=placeapi_v2,15.0,10:00-21:30,3.5,,,,,,,,0,,,,,,,108.25455260783,22.841102989369,0
7e94458269f24321744ff17b,美点(科园大道店),美食,蛋糕甜品店,广西壮族自治区,南宁市,西乡塘区,广西壮族自治区南宁市西乡塘区科园大道31号,7e94458269f24321744ff17b,1,0,108.27798,22.852276,(0771)3220833,cater,http://api.map.baidu.com/place/detail?uid=7e94458269f24321744ff17b&output=html&source=placeapi_v2,11.0,07:00-23:00,3.4,,,,,,,,8,,,,,,,108.27815874983,22.852264864421,0
0b5ca1627ddb4922223bf29d,烘焙元素(科德路店),美食,蛋糕甜品店,广西壮族自治区,南宁市,西乡塘区,广西壮族自治区南宁市西乡塘区科德路31号高新苑41栋11号,0b5ca1627ddb4922223bf29d,1,0,108.275129,22.853499,(0771)3221146,cater,http://api.map.baidu.com/place/detail?uid=0b5ca1627ddb4922223bf29d&output=html&source=placeapi_v2,10.0,07:30-22:00,3.6,,,,,,,,4,,,,,,,108.27515131191,22.853659262079,0
2b97aafd737ec0a088f15d31,范记饼屋(相思湖店),美食,蛋糕甜品店,广西壮族自治区,南宁市,西乡塘区,广西壮族自治区南宁市西乡塘区相思湖西路7号相思湖花园3号楼112号,2b97aafd737ec0a088f15d31,1,0,108.246074,22.853347,(0771)3926947,cater,http://api.map.baidu.com/place/detail?uid=2b97aafd737ec0a088f15d31&output=html&source=placeapi_v2,8.0,07:00-19:00,3.6,,,,,,,,5,,,,,,,108.24614945924,22.853338196133,0
04aa383582b1a29bf42310f5,糕师傅蛋糕(陈东店),美食,蛋糕甜品店,广西壮族自治区,南宁市,西乡塘区,陈东路南宁市陈村小学东北侧约210米,04aa383582b1a29bf42310f5,1,0,108.263713,22.840523,13597244598,cater,http://api.map.baidu.com/place/detail?uid=04aa383582b1a29bf42310f5&output=html&source=placeapi_v2,,09:30-21:30,,,,,,,,,,,,,,,,,,0
6856823d43294377f50e7723,金桂园(科园大道店),美食,蛋糕甜品店,广西壮族自治区,南宁市,西乡塘区,广西壮族自治区南宁市西乡塘区科园大道科园西二路华成都市广场旁,6856823d43294377f50e7723,1,0,108.275245,22.848676,,cater,http://api.map.baidu.com/place/detail?uid=6856823d43294377f50e7723&output=html&source=placeapi_v2,,,,,,,,,,,1,,,,,,,108.27489206903,22.84945920085,0
779df5d78547f8cfb25c6ac5,甜赐良缘甜品(华成都市店),美食,蛋糕甜品店,广西壮族自治区,南宁市,西乡塘区,广西壮族自治区南宁市高新区科园大道52-1号嘉华绿洲锦华苑1号楼s31号,779df5d78547f8cfb25c6ac5,1,0,108.272567,22.847509,13557573500,cater,http://api.map.baidu.com/place/detail?uid=779df5d78547f8cfb25c6ac5&output=html&source=placeapi_v2,,12:00-24:00,,,,,,,,,,,,,,,,,,0
3fa395e01746ecd0cafa5fd4,农小姐的蛋糕店,美食,蛋糕甜品店,广西壮族自治区,南宁市,西乡塘区,广西壮族自治区南宁市西乡塘区科园大道43号盛天熙府b135,,1,0,108.277687,22.859083,13407734343,cater,http://api.map.baidu.com/place/detail?uid=3fa395e01746ecd0cafa5fd4&output=html&source=placeapi_v2,,10:00-20:00,3.9,,,,,,,,,,,,,,,108.27768135524,22.858842410985,0
1ca1287f0a9497bcf942b2a2,檬哆哆,美食,蛋糕甜品店,广西壮族自治区,南宁市,西乡塘区,广西壮族自治区南宁市西乡塘区陈西路19号,1ca1287f0a9497bcf942b2a2,1,0,108.260468,22.844189,13768303133,cater,http://api.map.baidu.com/place/detail?uid=1ca1287f0a9497bcf942b2a2&output=html&source=placeapi_v2,,,,,,,,,,,,,,,,,,108.260284848,22.844182110594,0
43c75da562d8ab6ee81e976e,喜多乐蛋糕(科园店),美食,蛋糕甜品店,广西壮族自治区,南宁市,西乡塘区,广西壮族自治区南宁市西乡塘区科园大道位子渌路113-6号,43c75da562d8ab6ee81e976e,1,0,108.279635,22.846981,18978838366,cater,http://api.map.baidu.com/place/detail?uid=43c75da562d8ab6ee81e976e&output=html&source=placeapi_v2,35.0,07:00-23:00,3.5,,,,,,,,0,,,,,,,108.27954350574,22.846955697789,0
46346a13082e39981f3894ca,雅米烘焙,美食,蛋糕甜品店,广西壮族自治区,南宁市,西乡塘区,广西壮族自治区南宁市西乡塘区新苑路34-40号楼1层43号商铺嘉士涌金广场旁,46346a13082e39981f3894ca,1,0,108.273753,22.852728,15977767045,cater,http://api.map.baidu.com/place/detail?uid=46346a13082e39981f3894ca&output=html&source=placeapi_v2,53.0,09:00-21:00,3.6,,,,,,,,30,,,,,,,108.27358559326,22.852728323677,0
51121271b33aade5c61e51ac,佳佳老面馒头包子店,美食,蛋糕甜品店,广西壮族自治区,南宁市,西乡塘区,广西壮族自治区南宁市西乡塘区陈东路104号,,1,0,108.263996,22.841479,13557499056,cater,http://api.map.baidu.com/place/detail?uid=51121271b33aade5c61e51ac&output=html&source=placeapi_v2,,,0,,,,,,,,0,,,,,,,,,0
d0c6425cbdf7ac3ec7f50d2f,皇氏新鲜屋(相思湖店),美食,蛋糕甜品店,广西壮族自治区,南宁市,西乡塘区,广西壮族自治区南宁市西乡塘区相思湖东路3号西湖东郡北区1-113号,d0c6425cbdf7ac3ec7f50d2f,1,0,108.25441,22.841418,18154520080,cater,http://api.map.baidu.com/place/detail?uid=d0c6425cbdf7ac3ec7f50d2f&output=html&source=placeapi_v2,10.0,07:00-22:30,3.4,,,,,,,,14,,,,,,,108.2544029151,22.841111324843,0
5e95111e373081c108f5ebc6,宁锋玛利蛋糕(大学东路店),美食,蛋糕甜品店,广西壮族自治区,南宁市,西乡塘区,广西壮族自治区南宁市西乡塘区大学西路10号瑞士花园翠湖宛2栋1层,5e95111e373081c108f5ebc6,1,0,108.274661,22.844111,13711785718,cater,http://api.map.baidu.com/place/detail?uid=5e95111e373081c108f5ebc6&output=html&source=placeapi_v2,,09:00-22:00,,,,,,,,,,,,,,,,108.27459724606,22.843884863224,0
f45f05f1466189a082a12e5e,甜品小栈,美食,蛋糕甜品店,广西壮族自治区,南宁市,西乡塘区,南宁市西乡塘区大化路颐华居北侧约120米,f45f05f1466189a082a12e5e,1,0,108.270379,22.843495,,cater,http://api.map.baidu.com/place/detail?uid=f45f05f1466189a082a12e5e&output=html&source=placeapi_v2,,,,,,,,,,,,,,,,,,108.2701632433,22.843518643441,0
6ab0cfa6f82e2140f8f0cb0d,小杭家现烤蛋糕,美食,蛋糕甜品店,广西壮族自治区,南宁市,西乡塘区,南宁市西乡塘区新苑路科德综合农贸市场,,1,0,108.273228,22.855715,,cater,http://api.map.baidu.com/place/detail?uid=6ab0cfa6f82e2140f8f0cb0d&output=html&source=placeapi_v2,,,,,,,,,,,,,,,,,,,,0
177b96628c90d69587420e4b,益生堂(总店),美食,蛋糕甜品店,广西壮族自治区,南宁市,西乡塘区,广西壮族自治区南宁市西乡塘区大学东路160号瑞士花园银湖苑,177b96628c90d69587420e4b,1,0,108.275045,22.844493,13978648251,cater,http://api.map.baidu.com/place/detail?uid=177b96628c90d69587420e4b&output=html&source=placeapi_v2,,,5,,,,,,,,2,,,,,,,108.27513358571,22.844472829978,0
e7eb12bdbe17c396601809ce,香麦鲜蛋糕房,美食,蛋糕甜品店,广西壮族自治区,南宁市,西乡塘区,广西壮族自治区南宁市西乡塘区清川大道一区69号,,1,0,108.260204,22.838256,13557310518,cater,http://api.map.baidu.com/place/detail?uid=e7eb12bdbe17c396601809ce&output=html&source=placeapi_v2,,,,,,,,,,,,,,,,,,108.2602178937,22.838170958716,0
b0288fa6d76557692fb96d7b,腾静烘焙坊,美食,蛋糕甜品店,广西壮族自治区,南宁市,西乡塘区,西乡塘区陈东路南宁市陈村小学东侧约120米,b0288fa6d76557692fb96d7b,1,0,108.26433,22.838246,15977798992,cater,http://api.map.baidu.com/place/detail?uid=b0288fa6d76557692fb96d7b&output=html&source=placeapi_v2,,06:30-23:30,,,,,,,,,,,,,,,,108.26422486717,22.8382461408,0
dba75dfbd899323ad81318ba,蜜记甜品屋,美食,蛋糕甜品店,广西壮族自治区,南宁市,西乡塘区,广西壮族自治区南宁市西乡塘区西乡翔锐幼儿园,dba75dfbd899323ad81318ba,1,0,108.256477,22.86482,,cater,http://api.map.baidu.com/place/detail?uid=dba75dfbd899323ad81318ba&output=html&source=placeapi_v2,,,4,,,,,,,,1,,,,,,,108.2564734536,22.864741922284,0
9be2b70daf4550d3e015f9cc,竹安堂(陈东分店),美食,蛋糕甜品店,广西壮族自治区,南宁市,西乡塘区,广西壮族自治区南宁市西乡塘区大润发(西乡塘店)东南,9be2b70daf4550d3e015f9cc,1,0,108.270233,22.84336,13737049188,cater,http://api.map.baidu.com/place/detail?uid=9be2b70daf4550d3e015f9cc&output=html&source=placeapi_v2,,,,,,,,,,,,,,,,,,,,0
d97c4f7584dfb8009d9d68e6,俐莎糕坊,美食,蛋糕甜品店,广西壮族自治区,南宁市,西乡塘区,广西壮族自治区南宁市西乡塘区位子渌路21号1楼,,1,0,108.282654,22.845625,"13607871651,18376728515",cater,http://api.map.baidu.com/place/detail?uid=d97c4f7584dfb8009d9d68e6&output=html&source=placeapi_v2,,10:00-18:00,,,,,,,,1,,,,,,,,108.2828057507,22.845619335166,0
0921d03b2820c27c5e0d0275,零度饮品(凤岭路店),美食,蛋糕甜品店,广西壮族自治区,南宁市,西乡塘区,广西壮族自治区南宁市西乡塘区大学东路174号,0921d03b2820c27c5e0d0275,1,0,108.251782,22.847573,15977795757,cater,http://api.map.baidu.com/place/detail?uid=0921d03b2820c27c5e0d0275&output=html&source=placeapi_v2,9.0,10:00-24:00,0,,,,,,,,1,,,,,,,108.25178985217,22.847660054737,0
c99b2f8f2c02872531870afb,冰雪儿糖水店(西大东门店),美食,蛋糕甜品店,广西壮族自治区,南宁市,西乡塘区,广西壮族自治区南宁市西乡塘区友爱路西三巷2号秀厢商业城一层01号铺面,c99b2f8f2c02872531870afb,1,0,108.306518,22.849619,18776775966,cater,http://api.map.baidu.com/place/detail?uid=c99b2f8f2c02872531870afb&output=html&source=placeapi_v2,24.0,09:30-24:00,3.6,,,,,,,,0,,,,,,,,,0
d57361928bb5fd35badf8f10,都市甜心(秀灵店),美食,蛋糕甜品店,广西壮族自治区,南宁市,西乡塘区,广西壮族自治区南宁市西乡塘区秀灵路8号天域・香格里拉一楼S101、S102,d57361928bb5fd35badf8f10,1,0,108.308221,22.849946,(0771)3813124,cater,http://api.map.baidu.com/place/detail?uid=d57361928bb5fd35badf8f10&output=html&source=placeapi_v2,25.0,06:30-23:30,4.0,,,,,,,,0,,,,,,,,,0
6dcefedd75b2f085441a32ff,历史黄记蛋糕店(秀隆旗舰店),美食,蛋糕甜品店,广西壮族自治区,南宁市,西乡塘区,广西壮族自治区南宁市西乡塘区秀灵路东五里9号秀隆农贸市场一楼外铺20~21号商铺(阿里妈烤鱼隔壁),6dcefedd75b2f085441a32ff,1,0,108.309937,22.852133,"18376684546,18376687660",cater,http://api.map.baidu.com/place/detail?uid=6dcefedd75b2f085441a32ff&output=html&source=placeapi_v2,20.0,07:30-00:30,4.0,,,,,,,,5,,,,,,,108.30995300044,22.852069005859,0
3bce39c6b49b7c40bb17e70b,美点(秀灵店),美食,蛋糕甜品店,广西壮族自治区,南宁市,西乡塘区,广西壮族自治区南宁市西乡塘区秀灵路88号,3bce39c6b49b7c40bb17e70b,1,0,108.307695,22.850638,,cater,http://api.map.baidu.com/place/detail?uid=3bce39c6b49b7c40bb17e70b&output=html&source=placeapi_v2,14.0,07:00-24:00,3.7,,,,,,,,9,,,,,,,108.30764306801,22.85060951964,0
f8f91b7188efa96dd8131858,欧西蛋糕店(南宁总店),美食,蛋糕甜品店,广西壮族自治区,南宁市,西乡塘区,广西壮族自治区南宁市西乡塘区友爱路西五巷30号,,1,0,108.311713,22.853494,18376778591,cater,http://api.map.baidu.com/place/detail?uid=f8f91b7188efa96dd8131858&output=html&source=placeapi_v2,,08:00-24:00,3.5,,,,,,,,0,,,,,,,108.31178249304,22.853421638173,0
a16ba24549e33e0717a19042,蒂丽雪斯蛋糕(明秀西店),美食,蛋糕甜品店,广西壮族自治区,南宁市,西乡塘区,广西壮族自治区南宁市西乡塘区明秀西路52号友爱农贸市场外铺15~16号,a16ba24549e33e0717a19042,1,0,108.311438,22.842906,(0771)5772386,cater,http://api.map.baidu.com/place/detail?uid=a16ba24549e33e0717a19042&output=html&source=placeapi_v2,13.0,08:00-22:30,3.5,,,,,,,,0,,,,,,,108.31156971231,22.842728786181,0
24d759d5505240601ef74d13,广隆蛋挞王(南宁店),美食,蛋糕甜品店,广西壮族自治区,南宁市,西乡塘区,南宁市西乡塘区秀灵路90-3号,24d759d5505240601ef74d13,1,0,108.307362,22.850829,,cater,http://api.map.baidu.com/place/detail?uid=24d759d5505240601ef74d13&output=html&source=placeapi_v2,9.5,"10:00-16:00,17:30-20:00",4.7,,,,,,,,200,,,,,,,,,0
535107dd2d73d4d249cc4aa5,森普软欧面包,美食,蛋糕甜品店,广西壮族自治区,南宁市,西乡塘区,广西壮族自治区南宁市西乡塘区秀灵路西一里建院小区二期8号,,1,0,108.302635,22.844315,15678882734,cater,http://api.map.baidu.com/place/detail?uid=535107dd2d73d4d249cc4aa5&output=html&source=placeapi_v2,17.0,05:00-20:00,3.8,,,,,,,,1,,,,,,,108.30264045148,22.844092485628,0
4c85205617d90101c1f1cfb0,一只火烈鸟烘焙蛋糕,美食,蛋糕甜品店,广西壮族自治区,南宁市,西乡塘区,广西壮族自治区南宁市西乡塘区南宁市秀灵路32号万汇华府1栋一层107号铺,4c85205617d90101c1f1cfb0,1,0,108.310761,22.845853,15278006190,cater,http://api.map.baidu.com/place/detail?uid=4c85205617d90101c1f1cfb0&output=html&source=placeapi_v2,21.0,08:00-23:00,3.8,,,,,,,,0,,,,,,,108.31051562984,22.845715387068,0
a4940348a2cc032332f71d2e,百香林西点(友爱店),美食,蛋糕甜品店,广西壮族自治区,南宁市,西乡塘区,西乡塘区友爱路西三巷47号,a4940348a2cc032332f71d2e,1,0,108.314385,22.851112,15878254433,cater,http://api.map.baidu.com/place/detail?uid=a4940348a2cc032332f71d2e&output=html&source=placeapi_v2,9.0,11:30-24:00,3.7,,,,,,,,0,,,,,,,,,0
561702103d78886d6f3e1bfd,新意蛋糕店(鲁班路店),美食,蛋糕甜品店,广西壮族自治区,南宁市,西乡塘区,广西南宁市西乡塘区友谊路46号,561702103d78886d6f3e1bfd,1,0,108.288924,22.842673,14795529893,cater,http://api.map.baidu.com/place/detail?uid=561702103d78886d6f3e1bfd&output=html&source=placeapi_v2,32.5,10:00-20:00,4,,,,,,,,3,,,,,,,,,0
b36e92e4b5a2303c9d95de62,Miss Milk(秀灵店),美食,蛋糕甜品店,广西壮族自治区,南宁市,西乡塘区,南宁市西乡塘区秀灵路88号天域香格里拉商业街N130号,b36e92e4b5a2303c9d95de62,1,0,108.308805,22.850678,18376621321,cater,http://api.map.baidu.com/place/detail?uid=b36e92e4b5a2303c9d95de62&output=html&source=placeapi_v2,12.0,10:00-21:00,0,,,,,,,20,1,,,,,,,,,0
afae1fe7c35d4935ac0457a0,荔园饼家(秀灵店),美食,蛋糕甜品店,广西壮族自治区,南宁市,西乡塘区,广西壮族自治区南宁市西乡塘区秀灵路26号,afae1fe7c35d4935ac0457a0,1,0,108.311974,22.843797,"(0771)3847113,18878872558",cater,http://api.map.baidu.com/place/detail?uid=afae1fe7c35d4935ac0457a0&output=html&source=placeapi_v2,,07:00-22:00,3.7,,,,,,,,0,,,,,,,108.31182068989,22.843711031776,0
03e4bacb77929e759a68b488,都市甜心(火炬店),美食,蛋糕甜品店,广西壮族自治区,南宁市,西乡塘区,广西壮族自治区南宁市西乡塘区火炬路17号金达花园1栋17-48号铺面,,1,0,108.300604,22.841166,"(0771)3362262,19163763885",cater,http://api.map.baidu.com/place/detail?uid=03e4bacb77929e759a68b488&output=html&source=placeapi_v2,17.0,08:00-00:30,3.9,,,,,,,,,,,,,,,108.30061399538,22.841034833259,0
61f6275f37687777ab0dd868,桃淘糖水(秀隆店),美食,蛋糕甜品店,广西壮族自治区,南宁市,西乡塘区,南宁市西乡塘区秀灵路东五里秀厢村二组25号铺大康惠超市旁,61f6275f37687777ab0dd868,1,0,108.309156,22.852168,15296312018,cater,http://api.map.baidu.com/place/detail?uid=61f6275f37687777ab0dd868&output=html&source=placeapi_v2,,09:00-22:00,3.5,,,,,,,,0,,,,,,,108.30912512927,22.852155450915,0
760257d8fd101d9eeb1e97cb,萌萌哒蛋糕店,美食,蛋糕甜品店,广西壮族自治区,南宁市,西乡塘区,西乡塘区友爱村解元二巷52号1楼5号房,760257d8fd101d9eeb1e97cb,1,0,108.315067,22.850441,,cater,http://api.map.baidu.com/place/detail?uid=760257d8fd101d9eeb1e97cb&output=html&source=placeapi_v2,,,,,,,,,,,,,,,,,,108.31543895399,22.850646020213,0
cb01c269ccd8c5165abbbcb3,东方月皇(正恒国际店),美食,蛋糕甜品店,广西壮族自治区,南宁市,西乡塘区,广西壮族自治区南宁市西乡塘区明秀西路111号正恒国际广场10栋112号,cb01c269ccd8c5165abbbcb3,1,0,108.306367,22.838457,"(0771)3293583,(0771)5612993",cater,http://api.map.baidu.com/place/detail?uid=cb01c269ccd8c5165abbbcb3&output=html&source=placeapi_v2,14.0,07:00-23:00,3.9,,,,,,,,3,,,,,,,108.30654718143,22.838284767863,0
9ac90a076c1d22183be4a60f,云来记古早味现烤蛋糕,美食,蛋糕甜品店,广西壮族自治区,南宁市,西乡塘区,广西壮族自治区南宁市西乡塘区沈阳路3-9号,,1,0,108.308489,22.839139,18776882625,cater,http://api.map.baidu.com/place/detail?uid=9ac90a076c1d22183be4a60f&output=html&source=placeapi_v2,,10:00-22:00,3.5,,,,,,,,3,,,,,,,,,0
48cba3fc5647df99d8eced84,意典香蛋糕店,美食,蛋糕甜品店,广西壮族自治区,南宁市,西乡塘区,广西壮族自治区南宁市西乡塘区万秀北路175号,48cba3fc5647df99d8eced84,1,0,108.317593,22.856567,(0771)3924927,cater,http://api.map.baidu.com/place/detail?uid=48cba3fc5647df99d8eced84&output=html&source=placeapi_v2,31.0,09:00-21:00,,,,,,,,,,,,,,,,108.31771105967,22.856629908135,0
0b7fcd755846d3bdfe0eb018,河南大饼脆皮蛋糕,美食,蛋糕甜品店,广西壮族自治区,南宁市,西乡塘区,南宁市西乡塘区细新巷南宁市第八人民医院北侧约60米,0b7fcd755846d3bdfe0eb018,1,0,108.310326,22.84253,15578015737,cater,http://api.map.baidu.com/place/detail?uid=0b7fcd755846d3bdfe0eb018&output=html&source=placeapi_v2,,,,,,,,,,,,,,,,,,,,0
0ce65c2ddf6ce9402d47334b,范记饼屋(友爱北二店),美食,蛋糕甜品店,广西壮族自治区,南宁市,西乡塘区,广西壮族自治区南宁市西乡塘区友爱北路26号,0ce65c2ddf6ce9402d47334b,1,0,108.317165,22.84877,"(0771)3800664,(0771)3947097",cater,http://api.map.baidu.com/place/detail?uid=0ce65c2ddf6ce9402d47334b&output=html&source=placeapi_v2,13.0,06:50-22:00,3.6,,,,,,,,7,,,,,,,108.31708373161,22.848717357524,0
59d2a9941df4646e58f6beb6,百香林西点(农院路店),美食,蛋糕甜品店,广西壮族自治区,南宁市,西乡塘区,广西壮族自治区南宁市西乡塘区农院路1号118号,59d2a9941df4646e58f6beb6,1,0,108.30164,22.839369,13597076338,cater,http://api.map.baidu.com/place/detail?uid=59d2a9941df4646e58f6beb6&output=html&source=placeapi_v2,11.0,11:00-23:00,0,,,,,,,,0,,,,,,,108.3017154967,22.839349675947,0
257725ed164bcb5d2cb96d8d,皇氏新鲜屋(檀悦店),美食,蛋糕甜品店,广西壮族自治区,南宁市,西乡塘区,广西壮族自治区南宁市西乡塘区秀灵路8-23号阳光城檀悦3栋129号,,1,0,108.305678,22.856029,15277111839,cater,http://api.map.baidu.com/place/detail?uid=257725ed164bcb5d2cb96d8d&output=html&source=placeapi_v2,,08:00-22:30,,,,,,,,,,,,,,,,,,0
697f042253f60ce625e0a0cd,简爱西点(西大店),美食,蛋糕甜品店,广西壮族自治区,南宁市,西乡塘区,农院路金三角A号铁硼3号铺面(正恒国际内),697f042253f60ce625e0a0cd,1,0,108.301294,22.843201,13377006662,cater,http://api.map.baidu.com/place/detail?uid=697f042253f60ce625e0a0cd&output=html&source=placeapi_v2,10.0,09:00-21:00,5,,,,,,,,1,,,,,,,,,0
902557e96b3a5a1007fef5fe,皇氏乳业新鲜屋(正恒国际店),美食,蛋糕甜品店,广西壮族自治区,南宁市,西乡塘区,广西壮族自治区南宁市西乡塘区明秀西路111号正恒国际广场8号楼一层113号,902557e96b3a5a1007fef5fe,1,0,108.307763,22.839634,(0771)3865251,cater,http://api.map.baidu.com/place/detail?uid=902557e96b3a5a1007fef5fe&output=html&source=placeapi_v2,10.0,08:00-22:00,3.8,,,,,,,,3,,,,,,,,,0
990b26690904ef8843afe657,都市甜心(正恒店),美食,蛋糕甜品店,广西壮族自治区,南宁市,西乡塘区,广西壮族自治区南宁市西乡塘区明秀西路111号,990b26690904ef8843afe657,1,0,108.306989,22.840031,(0771)3926755,cater,http://api.map.baidu.com/place/detail?uid=990b26690904ef8843afe657&output=html&source=placeapi_v2,20.0,07:30-23:30,4.2,,,,,,,,0,,,,,,,108.30679116807,22.840435845732,0
7e9aabbebe5604d1fa0cad8f,一只酸奶牛(农院路店),美食,蛋糕甜品店,广西壮族自治区,南宁市,西乡塘区,广西壮族自治区南宁市西乡塘区农院路1号,7e9aabbebe5604d1fa0cad8f,1,0,108.301654,22.839598,15977761011,cater,http://api.map.baidu.com/place/detail?uid=7e9aabbebe5604d1fa0cad8f&output=html&source=placeapi_v2,12.0,11:30-24:00,3.8,,,,,,,,0,,,,,,,108.30174127268,22.839615264658,0
de72113865a9e6755cbe8682,意大利拔丝蛋糕,美食,蛋糕甜品店,广西壮族自治区,南宁市,西乡塘区,广西壮族自治区南宁市西乡塘区友爱路东五巷30号,,1,0,108.313943,22.859039,13527886022,cater,http://api.map.baidu.com/place/detail?uid=de72113865a9e6755cbe8682&output=html&source=placeapi_v2,,,,,,,,,,,,,,,,,,108.31398509862,22.858900228749,0
1abf1ab51568529cc17da248,好滋味蛋糕坊(西大店),美食,蛋糕甜品店,广西壮族自治区,南宁市,西乡塘区,南宁市西乡塘区大学路31号时代天骄A座603室,1abf1ab51568529cc17da248,1,0,108.295252,22.837328,18877143340,cater,http://api.map.baidu.com/place/detail?uid=1abf1ab51568529cc17da248&output=html&source=placeapi_v2,32.0,,0,,,,,,,,0,,,,,,,,,0
d9010ad9e0cbd545471a3203,奈斯蒂蛋糕甜品,美食,蛋糕甜品店,广西壮族自治区,南宁市,西乡塘区,广西壮族自治区南宁市西乡塘区明秀西路6号,,1,0,108.317763,22.845677,15177762604,cater,http://api.map.baidu.com/place/detail?uid=d9010ad9e0cbd545471a3203&output=html&source=placeapi_v2,,,3.5,,,,,,,,1,,,,,,,,,0
fa835ce2554198b5e912e4a6,一品轩西饼(衡阳店),美食,蛋糕甜品店,广西壮族自治区,南宁市,西乡塘区,广西壮族自治区南宁市西乡塘区衡阳西路14号,fa835ce2554198b5e912e4a6,1,0,108.31767,22.838916,(0771)3115012,cater,http://api.map.baidu.com/place/detail?uid=fa835ce2554198b5e912e4a6&output=html&source=placeapi_v2,20.0,07:00-23:00,3.8,,,,,,,,5,,,,,,,108.31771399174,22.83899748895,0
2e698281fa65c50372455b53,金诚蛋挞(正恒店),美食,蛋糕甜品店,广西壮族自治区,南宁市,西乡塘区,广西壮族自治区南宁市西乡塘区明秀西路111号正恒国际广场9栋119铺,2e698281fa65c50372455b53,1,0,108.306103,22.838491,18260903380,cater,http://api.map.baidu.com/place/detail?uid=2e698281fa65c50372455b53&output=html&source=placeapi_v2,4.0,10:00-23:30,3.8,,,,,,,,1,,,,,,,108.30626785211,22.838449234609,0
1afc9dd835d36a92b21e3618,荔园饼家(大学路店),美食,蛋糕甜品店,广西壮族自治区,南宁市,西乡塘区,广西壮族自治区南宁市西乡塘区大学东路128号,1afc9dd835d36a92b21e3618,1,0,108.288523,22.840515,(0771)3807781,cater,http://api.map.baidu.com/place/detail?uid=1afc9dd835d36a92b21e3618&output=html&source=placeapi_v2,24.0,07:00-22:30,3.8,,,,,,,,28,,,,,,,108.28859837766,22.840484946384,0
a7022a90d453df2ae31103d5,格林童话蛋糕店(南宁店),美食,蛋糕甜品店,广西壮族自治区,南宁市,西乡塘区,广西壮族自治区南宁市西乡塘区明秀西路122号城市碧园7栋,,1,0,108.296728,22.835525,18878727998,cater,http://api.map.baidu.com/place/detail?uid=a7022a90d453df2ae31103d5&output=html&source=placeapi_v2,,,3.4,,,,,,,,,,,,,,,108.29647595464,22.835193374299,0
c214c9cb69b3a9353586f45c,EARLY CAFE,美食,蛋糕甜品店,广西壮族自治区,南宁市,西乡塘区,南宁市西乡塘区鲁班路83号红日学府21号商铺,,1,0,108.289036,22.844082,15678160208,cater,http://api.map.baidu.com/place/detail?uid=c214c9cb69b3a9353586f45c&output=html&source=placeapi_v2,27.0,10:30-23:00,3.6,,,,,,,1,2,,,,,,,108.28903802635,22.844253332876,0
1451991c9ec8e3eb8bb988b1,范记饼屋(明秀中店),美食,蛋糕甜品店,广西壮族自治区,南宁市,西乡塘区,广西壮族自治区南宁市西乡塘区明秀西路16-1号,1451991c9ec8e3eb8bb988b1,1,0,108.316288,22.844856,(0771)3259383,cater,http://api.map.baidu.com/place/detail?uid=1451991c9ec8e3eb8bb988b1&output=html&source=placeapi_v2,11.0,06:30-22:00,3.5,,,,,,,,5,,,,,,,108.31634590389,22.844708771429,0
550fd5f900d8ec60931fc926,茶道夫(农院路敬贤店),美食,蛋糕甜品店,广西壮族自治区,南宁市,西乡塘区,广西壮族自治区南宁市西乡塘区农院路115~116号,550fd5f900d8ec60931fc926,1,0,108.301718,22.840045,19195781680,cater,http://api.map.baidu.com/place/detail?uid=550fd5f900d8ec60931fc926&output=html&source=placeapi_v2,13.0,10:00-23:30,3.8,,,,,,,13,1,,,,,,,108.30176741786,22.840042795984,0
3ac56e3de619f644c1f1cfd4,小明烘焙原料店(衡阳第四分店),美食,蛋糕甜品店,广西壮族自治区,南宁市,西乡塘区,广西壮族自治区南宁市西乡塘区衡阳西路19号,,1,0,108.316679,22.837967,18778000377,cater,http://api.map.baidu.com/place/detail?uid=3ac56e3de619f644c1f1cfd4&output=html&source=placeapi_v2,,10:00-22:00,3.5,,,,,,,,1,,,,,,,108.31661057703,22.838088593102,0
65f43f34161fe9bd57bfff8c,微微笑饼屋(秀安店),美食,蛋糕甜品店,广西壮族自治区,南宁市,西乡塘区,广西壮族自治区南宁市西乡塘区秀厢大道1-8号秀安农贸市场4号楼D42号商铺(棕榈湾幼儿园对面),65f43f34161fe9bd57bfff8c,1,0,108.314022,22.865236,14797710631,cater,http://api.map.baidu.com/place/detail?uid=65f43f34161fe9bd57bfff8c&output=html&source=placeapi_v2,32.0,07:00-23:00,3.7,,,,,,,,2,,,,,,,108.31401445974,22.865281227918,0
cb1f65884aa488f09fe32136,南园晶艺饼屋,美食,蛋糕甜品店,广西壮族自治区,南宁市,西乡塘区,广西壮族自治区南宁市西乡塘区友爱路东1巷146号,cb1f65884aa488f09fe32136,1,0,108.319423,22.853874,"13768018137,13807817782",cater,http://api.map.baidu.com/place/detail?uid=cb1f65884aa488f09fe32136&output=html&source=placeapi_v2,,,0,,,,,,,,1,,,,,,,108.31931253089,22.853966387758,0
c116db20d089631c96ca07ce,甜心饼屋(明秀路北一里),美食,蛋糕甜品店,广西壮族自治区,南宁市,西乡塘区,广西壮族自治区南宁市西乡塘区明秀路北一里180号,c116db20d089631c96ca07ce,1,0,108.322173,22.854937,18878782819,cater,http://api.map.baidu.com/place/detail?uid=c116db20d089631c96ca07ce&output=html&source=placeapi_v2,25.0,07:30-24:00,3.5,,,,,,,,0,,,,,,,,,0
34904ed883658d0f21f017c7,思味阁蛋糕坊,美食,蛋糕甜品店,广西壮族自治区,南宁市,西乡塘区,广西壮族自治区南宁市西乡塘区灵厢路26号1楼1号铺,34904ed883658d0f21f017c7,1,0,108.315088,22.856205,18978962135,cater,http://api.map.baidu.com/place/detail?uid=34904ed883658d0f21f017c7&output=html&source=placeapi_v2,,09:00-22:30,,,,,,,,,,,,,,,,,,0
9220a0920b2147409c09f7e9,果多多烘焙蛋糕店,美食,蛋糕甜品店,广西壮族自治区,南宁市,西乡塘区,大学东路98号世贸西城广场B区A座1201号,,1,0,108.296823,22.838082,18648817330,cater,http://api.map.baidu.com/place/detail?uid=9220a0920b2147409c09f7e9&output=html&source=placeapi_v2,,,,,,,,,,,,,,,,,,,,0
15646049524f40c16c3e1bc8,南园食品餐饮有限公司(友爱店),美食,蛋糕甜品店,广西壮族自治区,南宁市,西乡塘区,广西壮族自治区南宁市西乡塘区友爱南路42号,15646049524f40c16c3e1bc8,1,0,108.319296,22.845632,(0771)3938068,cater,http://api.map.baidu.com/place/detail?uid=15646049524f40c16c3e1bc8&output=html&source=placeapi_v2,31.0,07:00-23:30,0,,,,,,,12,2,,,,,,,108.31920190546,22.845818139885,0
756c7617418a2ab1cd04eff4,五谷堂(友爱18店),美食,蛋糕甜品店,广西壮族自治区,南宁市,西乡塘区,广西壮族自治区南宁市西乡塘区友爱北路26号,756c7617418a2ab1cd04eff4,1,0,108.317189,22.848732,,cater,http://api.map.baidu.com/place/detail?uid=756c7617418a2ab1cd04eff4&output=html&source=placeapi_v2,7.0,10:00-02:00,0,,,,,,,25,1,,,,,,,108.31710386893,22.848685674656,0
34731c45adb6aef696ca07f0,麦可加顿西点,美食,蛋糕甜品店,广西壮族自治区,南宁市,西乡塘区,广西壮族自治区南宁市西乡塘区明秀路北一里164-1号,,1,0,108.322386,22.854484,19911205187,cater,http://api.map.baidu.com/place/detail?uid=34731c45adb6aef696ca07f0&output=html&source=placeapi_v2,,09:00-23:30,3.8,,,,,,,,,,,,,,,108.32239429909,22.854426687856,0
3758be33af5b3810cae33cbd,味之华原味蛋挞王(南铁店),美食,蛋糕甜品店,广西壮族自治区,南宁市,西乡塘区,广西壮族自治区南宁市西乡塘区南铁四街46号,3758be33af5b3810cae33cbd,1,0,108.31109,22.836959,18978988300,cater,http://api.map.baidu.com/place/detail?uid=3758be33af5b3810cae33cbd&output=html&source=placeapi_v2,,07:00-24:00,3.5,,,,,,,,0,,,,,,,108.31113562953,22.836800300176,0
fc09459b2159ea05213bf252,巧慕斯蛋糕,美食,蛋糕甜品店,广西壮族自治区,南宁市,西乡塘区,南宁市西乡塘区灵厢路秀华幼儿园南侧约110米,fc09459b2159ea05213bf252,1,0,108.314939,22.856728,,cater,http://api.map.baidu.com/place/detail?uid=fc09459b2159ea05213bf252&output=html&source=placeapi_v2,,,,,,,,,,,,,,,,,,,,0
96ccff31a5a7bcb33be4a603,米兰西饼西大店(城市碧园店),美食,蛋糕甜品店,广西壮族自治区,南宁市,西乡塘区,广西壮族自治区南宁市西乡塘区明秀西路122号城市碧园1栋10号,,1,0,108.295956,22.836667,18878873252,cater,http://api.map.baidu.com/place/detail?uid=96ccff31a5a7bcb33be4a603&output=html&source=placeapi_v2,76.0,08:00-23:30,3.5,,,,,,,,1,,,,,,,,,0
27d7b9ca783c60c03fe231a8,爱玲思蛋糕店,美食,蛋糕甜品店,广西壮族自治区,南宁市,西乡塘区,广西壮族自治区南宁市西乡塘区友爱路东一巷184号,27d7b9ca783c60c03fe231a8,1,0,108.319389,22.855652,18776151838,cater,http://api.map.baidu.com/place/detail?uid=27d7b9ca783c60c03fe231a8&output=html&source=placeapi_v2,,,,,,,,,,,,,,,,,,108.31949983837,22.855747818301,0
d79d738c56335ab19ee321e2,一口爽糕点,美食,蛋糕甜品店,广西壮族自治区,南宁市,西乡塘区,广西壮族自治区南宁市西乡塘区衡阳西路南铁二街20号,d79d738c56335ab19ee321e2,1,0,108.310194,22.837158,13877129139,cater,http://api.map.baidu.com/place/detail?uid=d79d738c56335ab19ee321e2&output=html&source=placeapi_v2,,05:00-18:00,3.5,,,,,,,,3,,,,,,,108.31026791132,22.837200186881,0
b370aaad6868a6740c0a70c1,麦可香烘焙,美食,蛋糕甜品店,广西壮族自治区,南宁市,西乡塘区,广西壮族自治区南宁市西乡塘区万秀北路115号,b370aaad6868a6740c0a70c1,1,0,108.316975,22.855769,18277120071,cater,http://api.map.baidu.com/place/detail?uid=b370aaad6868a6740c0a70c1&output=html&source=placeapi_v2,,09:00-21:00,,,,,,,,,,,,,,,,108.31714398366,22.855719072218,0
12689273d486c573b020a84d,党公(衡阳西路店),美食,蛋糕甜品店,广西壮族自治区,南宁市,西乡塘区,广西壮族自治区南宁市西乡塘区衡阳西路19-27号钢精厂生活区1层,12689273d486c573b020a84d,1,0,108.315687,22.837515,15277087837,cater,http://api.map.baidu.com/place/detail?uid=12689273d486c573b020a84d&output=html&source=placeapi_v2,,09:00-24:00,3.5,,,,,,,,9,,,,,,,108.31559743574,22.83762170554,0
