{ "type": "FeatureCollection", "features": [{"type":"Feature","geometry":{"type":"Point","coordinates":[-73.8890042099849,40.8425932379165]},"properties":{"districtcode":"BX06","city":"Bronx","name":"BX06G","zip":"10460","state":"NY","bbl":"2029530021","borocd":"206","objectid":"34","address":"800 E 176 St","boro":"2","bin":"2097278","type":"Garage"}},{"type":"Feature","geometry":{"type":"Point","coordinates":[-73.9154738639854,40.8007778350867]},"properties":{"districtcode":"BX03","city":"Bronx","name":"BX03A","zip":"10454","state":"NY","bbl":"2025430060","borocd":"201","objectid":"292","address":"720 E 132 St","boro":"2","bin":"2003581","type":"Garage"}},{"type":"Feature","geometry":{"type":"Point","coordinates":[-73.953408695776,40.6978316891077]},"properties":{"districtcode":"BKN03","city":"Brooklyn","name":"BKN03G (Future)","zip":"11205","state":"NY","bbl":"3017180001","borocd":"303","objectid":"249","address":"60 Nostrand Ave","boro":"3","bin":"3393662","type":"Garage"}},{"type":"Feature","geometry":{"type":"Point","coordinates":[-73.9009149927116,40.6538949106293]},"properties":{"districtcode":"BKS18","city":"Brooklyn","name":"BKN17G","zip":"11236","state":"NY","bbl":"3081380001","borocd":"318","objectid":"227","address":"10502 Ave D","boro":"3","bin":"3378181","type":"Garage"}},{"type":"Feature","geometry":{"type":"Point","coordinates":[-74.0199311478343,40.6492047929062]},"properties":{"districtcode":"BKS07","city":"Brooklyn","name":"BKS10G","zip":"11232","state":"NY","bbl":"3008030005","borocd":"307","objectid":"76","address":"5100 1 Ave","boro":"3","bin":"3332515","type":"Garage"}},{"type":"Feature","geometry":{"type":"Point","coordinates":[-73.9119634671337,40.8685595318112]},"properties":{"districtcode":"MN12","city":"New York","name":"MN12G","zip":"10034","state":"NY","bbl":"1021960001","borocd":"112","objectid":"118","address":"301 W 215 St","boro":"1","bin":"1064485","type":"Garage"}},{"type":"Feature","geometry":{"type":"Point","coordinates":[-73.9192702160019,40.6425188999539]},"properties":{"districtcode":"BKS18","city":"Brooklyn","name":"BKS14G","zip":"11236","state":"NY","bbl":"3079180145","borocd":"318","objectid":"175","address":"1397 Ralph Ave","boro":"3","bin":"3221978","type":"Garage"}},{"type":"Feature","geometry":{"type":"Point","coordinates":[-73.9352084281651,40.7620472680586]},"properties":{"districtcode":"QW01","city":"Astoria","name":"QW01G","zip":"11106","state":"NY","bbl":"4005230012","borocd":"401","objectid":"144","address":"34-28 21 St","boro":"4","bin":"4005787","type":"Garage"}},{"type":"Feature","geometry":{"type":"Point","coordinates":[-73.8462820564527,40.7702977808965]},"properties":{"districtcode":"QE07","city":"Flushing","name":"QE11A","zip":"11354","state":"NY","bbl":"4043500001","borocd":"407","objectid":"174","address":"30-19 122 St","boro":"4","bin":"4570021","type":"Garage"}},{"type":"Feature","geometry":{"type":"Point","coordinates":[-73.8427546997138,40.8252853402062]},"properties":{"districtcode":"BX09","city":"Bronx","name":"BX09G","zip":"10473","state":"NY","bbl":"2037020001","borocd":"209","objectid":"89","address":"850 Zerega Ave","boro":"2","bin":"2094841","type":"Garage"}},{"type":"Feature","geometry":{"type":"Point","coordinates":[-73.9053043360628,40.7335436689735]},"properties":{"districtcode":"QW02","city":"Woodside","name":"QW02G","zip":"11377","state":"NY","bbl":"4023610268","borocd":"402","objectid":"213","address":"52-35 58 St","boro":"4","bin":"4462505","type":"Garage"}},{"type":"Feature","geometry":{"type":"Point","coordinates":[-73.9931622626557,40.7718928165089]},"properties":{"districtcode":"MN04","city":"New York","name":"MN04G","zip":"10019","state":"NY","bbl":"1011040001","borocd":"104","objectid":"188","address":"650 West 57 St","boro":"1","bin":"1087609","type":"Garage"}},{"type":"Feature","geometry":{"type":"Point","coordinates":[-73.846427308618,40.7690790168918]},"properties":{"districtcode":"QE07","city":"Flushing","name":"QN LCU","zip":"11354","state":"NY","bbl":"4043500001","borocd":"407","objectid":"105","address":"30-19 122 St","boro":"4","bin":"4570021","type":"Garage"}},{"type":"Feature","geometry":{"type":"Point","coordinates":[-73.889836942789,40.6543207638033]},"properties":{"districtcode":"BKN05","city":"Brooklyn","name":"BKN16G","zip":"11207","state":"NY","bbl":"3043880001","borocd":"305","objectid":"75","address":"922 Georgia Ave","boro":"3","bin":"3097871","type":"Garage"}},{"type":"Feature","geometry":{"type":"Point","coordinates":[-73.9148684294337,40.8696026131043]},"properties":{"districtcode":"MN12","city":"New York","name":"BX08G","zip":"10034","state":"NY","bbl":"1022120001","borocd":"112","objectid":"7","address":"423 W 215 St","boro":"1","bin":"1082036","type":"Garage"}},{"type":"Feature","geometry":{"type":"Point","coordinates":[-73.9960261253358,40.5895203681424]},"properties":{"districtcode":"BKS11","city":"Brooklyn","name":"BKS11G","zip":"11214","state":"NY","bbl":"3069430030","borocd":"311","objectid":"161","address":"1824 Shore Pkwy","boro":"3","bin":"3378180","type":"Garage"}},{"type":"Feature","geometry":{"type":"Point","coordinates":[-73.9225228967127,40.7205634814492]},"properties":{"districtcode":"QW05","city":"Maspeth","name":"QW05G","zip":"11378","state":"NY","bbl":"4026000001","borocd":"405","objectid":"61","address":"48-01 58 Rd","boro":"4","bin":"4307983","type":"Garage"}},{"type":"Feature","geometry":{"type":"Point","coordinates":[-73.9148493016614,40.8012909231665]},"properties":{"districtcode":"BX01","city":"Bronx","name":"MN08A","zip":"10454","state":"NY","bbl":"2025430060","borocd":"201","objectid":"291","address":"720 E 132 St","boro":"2","bin":"2003581","type":"Garage"}},{"type":"Feature","geometry":{"type":"Point","coordinates":[-73.9084648992865,40.7342378143136]},"properties":{"districtcode":"QW02","city":"Woodside","name":"QW03G","zip":"11377","state":"NY","bbl":"4023610268","borocd":"402","objectid":"20","address":"52-35 58 St","boro":"4","bin":"4462505","type":"Garage"}},{"type":"Feature","geometry":{"type":"Point","coordinates":[-73.9372331758594,40.8027654066036]},"properties":{"districtcode":"MN11","city":"New York","name":"MN LCU","zip":"10035","state":"NY","bbl":"1017720031","borocd":"111","objectid":"231","address":"177 E 123 St","boro":"1","bin":"1054433","type":"Garage"}},{"type":"Feature","geometry":{"type":"Point","coordinates":[-73.985192696631,40.7097185990522]},"properties":{"districtcode":"MN03","city":"New York","name":"MN03G","zip":"10002","state":"NY","bbl":"1002410013","borocd":"103","objectid":"62","address":"299 South St (Pier 36)","boro":"1","bin":"1078939","type":"Garage"}},{"type":"Feature","geometry":{"type":"Point","coordinates":[-73.9941083954515,40.7695202403686]},"properties":{"districtcode":"MN04","city":"New York","name":"MN03A","zip":"10019","state":"NY","bbl":"1011030044","borocd":"104","objectid":"162","address":"786 12 Ave","boro":"1","bin":"1027163","type":"Garage"}},{"type":"Feature","geometry":{"type":"Point","coordinates":[-73.8477026619183,40.7709328834291]},"properties":{"districtcode":"QE07","city":"Flushing","name":"QE07G","zip":"11354","state":"NY","bbl":"4043460075","borocd":"407","objectid":"134","address":"120-15 31 Ave","boro":"4","bin":"4438018","type":"Garage"}},{"type":"Feature","geometry":{"type":"Point","coordinates":[-73.7844194279626,40.6650961266108]},"properties":{"districtcode":"QE12","city":"Jamaica","name":"QE13G","zip":"11434","state":"NY","bbl":"4150010073","borocd":"412","objectid":"24","address":"153-67 146 Ave","boro":"4","bin":"4433112","type":"Garage"}},{"type":"Feature","geometry":{"type":"Point","coordinates":[-73.8083315271706,40.6648348041099]},"properties":{"districtcode":"QE10","city":"South Ozone Park","name":"QE10G","zip":"11420","state":"NY","bbl":"4118840001","borocd":"410","objectid":"187","address":"130-23 150 Ave","boro":"4","bin":"4257531","type":"Garage"}},{"type":"Feature","geometry":{"type":"Point","coordinates":[-73.9263064343022,40.7090877749797]},"properties":{"districtcode":"BKN01","city":"Brooklyn","name":"BKN03G","zip":"11237","state":"NY","bbl":"3029870016","borocd":"301","objectid":"148","address":"525 Johnson Ave","boro":"3","bin":"3070584","type":"Garage"}},{"type":"Feature","geometry":{"type":"Point","coordinates":[-74.01003922842,40.7280116732352]},"properties":{"districtcode":"MN02","city":"New York","name":"MN02G","zip":"10014","state":"NY","bbl":"1005967501","borocd":"102","objectid":"38","address":"353 Spring St","boro":"1","bin":"1089625","type":"Garage"}},{"type":"Feature","geometry":{"type":"Point","coordinates":[-73.733544363266,40.743658272532]},"properties":{"districtcode":"QE11","city":"Little Neck","name":"QE11G","zip":"11362","state":"NY","bbl":null,"borocd":"411","objectid":"228","address":"75-05 Douglaston Pkwy","boro":"4","bin":"4557769","type":"Garage"}},{"type":"Feature","geometry":{"type":"Point","coordinates":[-73.993864638347,40.7707593807869]},"properties":{"districtcode":"MN04","city":"New York","name":"MN07G","zip":"10019","state":"NY","bbl":"1011040001","borocd":"104","objectid":"79","address":"650 West 57 St","boro":"1","bin":"1087609","type":"Garage"}},{"type":"Feature","geometry":{"type":"Point","coordinates":[-73.9936564775239,40.7131879580937]},"properties":{"districtcode":"MN03","city":"New York","name":"Henry Street","zip":"10002","state":"NY","bbl":"1002750003","borocd":"103","objectid":"8","address":"80 Henry St","boro":"1","bin":"1079607","type":"Garage"}},{"type":"Feature","geometry":{"type":"Point","coordinates":[-73.9288814311063,40.8192542807529]},"properties":{"districtcode":"BX04","city":"Bronx","name":"MN09G","zip":"10451","state":"NY","bbl":"2023520028","borocd":"204","objectid":"214","address":"125 E 149 St","boro":"2","bin":"2001102","type":"Garage"}},{"type":"Feature","geometry":{"type":"Point","coordinates":[-74.0775039237615,40.6344178017821]},"properties":{"districtcode":"SI01","city":"Staten Island","name":"SI LCU","zip":"10301","state":"NY","bbl":"5005040049","borocd":"501","objectid":"119","address":"66 Swan St","boro":"5","bin":null,"type":"Garage"}},{"type":"Feature","geometry":{"type":"Point","coordinates":[-73.8429323172735,40.8265309651079]},"properties":{"districtcode":"BX09","city":"Bronx","name":"BX10G","zip":"10473","state":"NY","bbl":"2037020001","borocd":"209","objectid":"21","address":"850 Zerega Ave","boro":"2","bin":"2094841","type":"Garage"}},{"type":"Feature","geometry":{"type":"Point","coordinates":[-73.9439511806057,40.7856851055497]},"properties":{"districtcode":"MN11","city":"New York","name":"MN11A","zip":"10029","state":"NY","bbl":"1016710020","borocd":"111","objectid":"289","address":"343 E 99 St","boro":"1","bin":"1089407","type":"Garage"}},{"type":"Feature","geometry":{"type":"Point","coordinates":[-73.9320212214762,40.5916882941813]},"properties":{"districtcode":"BKS15","city":"Brooklyn","name":"BKS15KN","zip":"11235","state":"NY","bbl":"3088350040","borocd":"315","objectid":"158","address":"2501 Knapp St","boro":"3","bin":"3397325","type":"Garage"}},{"type":"Feature","geometry":{"type":"Point","coordinates":[-74.020775712051,40.6502800020963]},"properties":{"districtcode":"BKS07","city":"Brooklyn","name":"BKS07G","zip":"11232","state":"NY","bbl":"3008030005","borocd":"307","objectid":"147","address":"5100 1 Ave","boro":"3","bin":"3332515","type":"Garage"}},{"type":"Feature","geometry":{"type":"Point","coordinates":[-74.1704970170843,40.5867185660302]},"properties":{"districtcode":"SI02","city":"Staten Island","name":"SI02G","zip":"10314","state":"NY","bbl":"5025200001","borocd":"502","objectid":"106","address":"2500 Richmond Ave","boro":"5","bin":"5041599","type":"Garage"}},{"type":"Feature","geometry":{"type":"Point","coordinates":[-74.0102404498333,40.726768130923]},"properties":{"districtcode":"MN02","city":"New York","name":"MN05G","zip":"10014","state":"NY","bbl":"1005967501","borocd":"102","objectid":"49","address":"353 Spring St","boro":"1","bin":"1089625","type":"Garage"}},{"type":"Feature","geometry":{"type":"Point","coordinates":[-73.9132546330605,40.8693399551439]},"properties":{"districtcode":"MN12","city":"New York","name":"MN08G","zip":"10034","state":"NY","bbl":"1022120001","borocd":"112","objectid":"201","address":"4036 9 Ave","boro":"1","bin":"1082037","type":"Garage"}},{"type":"Feature","geometry":{"type":"Point","coordinates":[-73.9138931225019,40.8706961268832]},"properties":{"districtcode":"MN12","city":"New York","name":"BX07G","zip":"10034","state":"NY","bbl":"1022120001","borocd":"112","objectid":"186","address":"423 W 215 St","boro":"1","bin":"1082036","type":"Garage"}},{"type":"Feature","geometry":{"type":"Point","coordinates":[-73.9179527662408,40.8014508971829]},"properties":{"districtcode":"BX01","city":"Bronx","name":"BX03G","zip":"10454","state":"NY","bbl":"2025430060","borocd":"201","objectid":"107","address":"680-720 E 132 St","boro":"2","bin":"2003581","type":"Garage"}},{"type":"Feature","geometry":{"type":"Point","coordinates":[-73.9943264420739,40.6709872488847]},"properties":{"districtcode":"BKS06","city":"Brooklyn","name":"BKS06G","zip":"11215","state":"NY","bbl":"3010200001","borocd":"306","objectid":"64","address":"127 2 Ave","boro":"3","bin":"3022747","type":"Garage"}},{"type":"Feature","geometry":{"type":"Point","coordinates":[-73.8424393630867,40.8240555411185]},"properties":{"districtcode":"BX09","city":"Bronx","name":"BX11G","zip":"10473","state":"NY","bbl":"2037020001","borocd":"209","objectid":"172","address":"800 Zerega Ave","boro":"2","bin":"2094842","type":"Garage"}},{"type":"Feature","geometry":{"type":"Point","coordinates":[-74.084544119964,40.6363957532711]},"properties":{"districtcode":"SI01","city":"Staten Island","name":"SI01G","zip":"10301","state":"NY","bbl":"5000340001","borocd":"501","objectid":"23","address":"539 Jersey St","boro":"5","bin":"5106487","type":"Garage"}},{"type":"Feature","geometry":{"type":"Point","coordinates":[-73.8699966396461,40.6610164746872]},"properties":{"districtcode":"BKN05","city":"Brooklyn","name":"BKN05G","zip":"11208","state":"NY","bbl":"3045620001","borocd":"305","objectid":"216","address":"606 Milford St","boro":"3","bin":"3099068","type":"Garage"}},{"type":"Feature","geometry":{"type":"Point","coordinates":[-73.9319763084715,40.6768091633224]},"properties":{"districtcode":"BKN08","city":"Brooklyn","name":"BKN08G","zip":"11213","state":"NY","bbl":"3013360018","borocd":"308","objectid":"78","address":"1755 Pacific St","boro":"3","bin":"3330693","type":"Garage"}},{"type":"Feature","geometry":{"type":"Point","coordinates":[-73.882234409906,40.8362798536322]},"properties":{"districtcode":"BX03","city":"Bronx","name":"BX06A","zip":"10460","state":"NY","bbl":"2030150058","borocd":"203","objectid":"93","address":"1787 W Farms Rd","boro":"2","bin":"2010955","type":"Garage"}},{"type":"Feature","geometry":{"type":"Point","coordinates":[-73.9828132411123,40.6231061158309]},"properties":{"districtcode":"BKS12","city":"Brooklyn","name":"BKS12G","zip":"11204","state":"NY","bbl":"3054940089","borocd":"312","objectid":"9","address":"5602 19 Ave","boro":"3","bin":"3328495","type":"Garage"}},{"type":"Feature","geometry":{"type":"Point","coordinates":[-73.9474944052433,40.6565627285672]},"properties":{"districtcode":"BKN09","city":"Brooklyn","name":"BKN09G","zip":"11225","state":"NY","bbl":"3048270039","borocd":"309","objectid":"230","address":"690 New York Ave","boro":"3","bin":"3327687","type":"Garage"}},{"type":"Feature","geometry":{"type":"Point","coordinates":[-73.9965024425534,40.6695942478775]},"properties":{"districtcode":"BKS06","city":"Brooklyn","name":"BKN02G","zip":"11215","state":"NY","bbl":"3010380001","borocd":"306","objectid":"133","address":"465 Hamilton Ave","boro":"3","bin":"3023562","type":"Garage"}},{"type":"Feature","geometry":{"type":"Point","coordinates":[-73.9287048439593,40.7101197919322]},"properties":{"districtcode":"BKN01","city":"Brooklyn","name":"BKN04G","zip":"11237","state":"NY","bbl":"3029620001","borocd":"301","objectid":"37","address":"161 Varick Ave","boro":"3","bin":"3400387","type":"Garage"}},{"type":"Feature","geometry":{"type":"Point","coordinates":[-74.1944925895734,40.570197218316]},"properties":{"districtcode":"SI03","city":"Staten Island","name":"SI01G/SI03G","zip":"10314","state":"NY","bbl":"5059000500","borocd":"503","objectid":"251","address":"1000 West Service Rd","boro":"5","bin":null,"type":"Garage"}},{"type":"Feature","geometry":{"type":"Point","coordinates":[-73.8938800614555,40.8513216911193]},"properties":{"districtcode":"BX06","city":"Bronx","name":"BX LCU","zip":"10457","state":"NY","bbl":"2030470050","borocd":"206","objectid":"146","address":"4401 3 Ave","boro":"2","bin":"2011508","type":"Garage"}},{"type":"Feature","geometry":{"type":"Point","coordinates":[-73.9216287184432,40.8400638484612]},"properties":{"districtcode":"BX04","city":"Bronx","name":"BX05G","zip":"10452","state":"NY","bbl":"2028710077","borocd":"204","objectid":"103","address":"1331 Cromwell Ave","boro":"2","bin":"2008640","type":"Garage"}},{"type":"Feature","geometry":{"type":"Point","coordinates":[-73.9293871174267,40.7123081963271]},"properties":{"districtcode":"BKN01","city":"Brooklyn","name":"BKN01G","zip":"11237","state":"NY","bbl":"3029620001","borocd":"301","objectid":"50","address":"161 Varick Ave","boro":"3","bin":"3400387","type":"Garage"}},{"type":"Feature","geometry":{"type":"Point","coordinates":[-73.9180939696058,40.8026992095841]},"properties":{"districtcode":"BX01","city":"Bronx","name":"BX01G","zip":"10454","state":"NY","bbl":"2025430060","borocd":"201","objectid":"200","address":"680 E 132 St","boro":"2","bin":"2003581","type":"Garage"}},{"type":"Feature","geometry":{"type":"Point","coordinates":[-73.9880190079758,40.578447040694]},"properties":{"districtcode":"BKS13","city":"Brooklyn","name":"BKS13G","zip":"11224","state":"NY","bbl":"3070180001","borocd":"313","objectid":"92","address":"2012 Neptune Ave","boro":"3","bin":"3188979","type":"Garage"}},{"type":"Feature","geometry":{"type":"Point","coordinates":[-73.9279846624209,40.6180704511537]},"properties":{"districtcode":"BKS18","city":"Brooklyn","name":"BKS15A","zip":"11234","state":"NY","bbl":"3078930052","borocd":"318","objectid":"36","address":"1750 E 49 St","boro":"3","bin":"3220944","type":"Garage"}},{"type":"Feature","geometry":{"type":"Point","coordinates":[-73.8601676197641,40.6646060844995]},"properties":{"districtcode":"BKN05","city":"Brooklyn","name":"BK LCU","zip":"11208","state":"NY","bbl":"3045550001","borocd":"305","objectid":"202","address":"803 Forbell St","boro":"3","bin":"3099064","type":"Garage"}},{"type":"Feature","geometry":{"type":"Point","coordinates":[-73.916438071704,40.8009559806061]},"properties":{"districtcode":"BX01","city":"Bronx","name":"BX04G","zip":"10454","state":"NY","bbl":"2025430060","borocd":"201","objectid":"159","address":"720 E 132 St","boro":"2","bin":"2003581","type":"Garage"}},{"type":"Feature","geometry":{"type":"Point","coordinates":[-73.8164863034036,40.6967293623123]},"properties":{"districtcode":"QW09","city":"Richmond Hill","name":"QW09G","zip":"11418","state":"NY","bbl":"4093750261","borocd":"409","objectid":"217","address":"132-05 Atlantic Ave","boro":"4","bin":"4196969","type":"Garage"}},{"type":"Feature","geometry":{"type":"Point","coordinates":[-73.8446367444289,40.7702260740634]},"properties":{"districtcode":"QE07","city":"Flushing","name":"QN07A","zip":"11354","state":"NY","bbl":"4043500001","borocd":"407","objectid":"22","address":"30-19 122 St","boro":"4","bin":"4570021","type":"Garage"}},{"type":"Feature","geometry":{"type":"Point","coordinates":[-73.889760239095,40.8130554440983]},"properties":{"districtcode":"BX02","city":"Bronx","name":"BX02G","zip":"10474","state":"NY","bbl":"2027650177","borocd":"202","objectid":"117","address":"650 Casanova St","boro":"2","bin":"2006621","type":"Garage"}},{"type":"Feature","geometry":{"type":"Point","coordinates":[-73.7804377687846,40.6014587368239]},"properties":{"districtcode":"QE14","city":"Far Rockaway","name":"QS LCU","zip":"11691","state":"NY","bbl":"4159800100","borocd":"414","objectid":"120","address":"51-10 Almeda Ave","boro":"4","bin":"4000000","type":"Garage"}},{"type":"Feature","geometry":{"type":"Point","coordinates":[-73.908313691177,40.7328864815852]},"properties":{"districtcode":"QW02","city":"Woodside","name":"QW06G","zip":"11377","state":"NY","bbl":"4023610151","borocd":"402","objectid":"173","address":"58-73 53 Ave","boro":"4","bin":"4054277","type":"Garage"}},{"type":"Feature","geometry":{"type":"Point","coordinates":[-73.7348877593366,40.7429331157879]},"properties":{"districtcode":"QE11","city":"Little Neck","name":"QE13A","zip":"11362","state":"NY","bbl":null,"borocd":"411","objectid":"77","address":"75-05 Douglaston Pkwy","boro":"4","bin":"4557769","type":"Garage"}},{"type":"Feature","geometry":{"type":"Point","coordinates":[-74.1965492729346,40.5753472050145]},"properties":{"districtcode":"SI03","city":"Staten Island","name":"SI01 Annex","zip":"10314","state":"NY","bbl":"5059000500","borocd":"503","objectid":"176","address":"3 Muldoon Avenue","boro":"5","bin":"5000000","type":"Garage"}},{"type":"Feature","geometry":{"type":"Point","coordinates":[-73.9220459455816,40.7217782331186]},"properties":{"districtcode":"QW05","city":"Maspeth","name":"QW05A","zip":"11378","state":"NY","bbl":"4026000001","borocd":"405","objectid":"229","address":"58-02 48 St","boro":"4","bin":"4544131","type":"Garage"}},{"type":"Feature","geometry":{"type":"Point","coordinates":[-73.9925389380335,40.7697022961183]},"properties":{"districtcode":"MN04","city":"New York","name":"MN04A","zip":"10019","state":"NY","bbl":"1011030044","borocd":"104","objectid":"10","address":"786 12 Ave","boro":"1","bin":"1027163","type":"Garage"}},{"type":"Feature","geometry":{"type":"Point","coordinates":[-74.0104183829902,40.7255225360961]},"properties":{"districtcode":"MN02","city":"New York","name":"MN01G","zip":"10014","state":"NY","bbl":"1005967501","borocd":"102","objectid":"65","address":"353 Spring St","boro":"1","bin":"1089625","type":"Garage"}},{"type":"Feature","geometry":{"type":"Point","coordinates":[-73.809931577286,40.6651269791107]},"properties":{"districtcode":"QE10","city":"South Ozone Park","name":"QE08G","zip":"11420","state":"NY","bbl":"4118840001","borocd":"410","objectid":"145","address":"130-23 150 Ave","boro":"4","bin":"4257531","type":"Garage"}},{"type":"Feature","geometry":{"type":"Point","coordinates":[-73.7813947702678,40.6004400121724]},"properties":{"districtcode":"QE14","city":"Far Rockaway","name":"QE14G","zip":"11691","state":"NY","bbl":"4159800100","borocd":"414","objectid":"160","address":"51-10 Almeda Ave","boro":"4","bin":"4000000","type":"Garage"}},{"type":"Feature","geometry":{"type":"Point","coordinates":[-73.9069086578721,40.7338273936846]},"properties":{"districtcode":"QW02","city":"Woodside","name":"QW04G","zip":"11377","state":"NY","bbl":"4023610268","borocd":"402","objectid":"90","address":"52-35 58 St","boro":"4","bin":"4462505","type":"Garage"}},{"type":"Feature","geometry":{"type":"Point","coordinates":[-73.9868081124356,40.7095794945046]},"properties":{"districtcode":"MN03","city":"New York","name":"MN06G","zip":"10002","state":"NY","bbl":"1002410013","borocd":"103","objectid":"190","address":"299 South St (Pier 36)","boro":"1","bin":"1078939","type":"Garage"}},{"type":"Feature","geometry":{"type":"Point","coordinates":[-73.9329849481077,40.8045464078156]},"properties":{"districtcode":"MN11","city":"New York","name":"MN11G","zip":"10035","state":"NY","bbl":"1017920005","borocd":"111","objectid":"250","address":"2495 2nd Avenue","boro":"1","bin":"1087849","type":"Garage"}},{"type":"Feature","geometry":{"type":"Point","coordinates":[-73.826639647059,40.8883476964768]},"properties":{"districtcode":"BX12","city":"Bronx","name":"BX12G","zip":"10466","state":"NY","bbl":"2049740028","borocd":"212","objectid":"6","address":"1635 E 233 St","boro":"2","bin":"2090261","type":"Garage"}},{"type":"Feature","geometry":{"type":"Point","coordinates":[-73.9000196346849,40.6525873627111]},"properties":{"districtcode":"BKS18","city":"Brooklyn","name":"BKS18G","zip":"11236","state":"NY","bbl":"3081380001","borocd":"318","objectid":"104","address":"105-01 Foster Ave","boro":"3","bin":"3378181","type":"Garage"}},{"type":"Feature","geometry":{"type":"Point","coordinates":[-73.9361053401838,40.8084552972235]},"properties":{"districtcode":"MN11","city":"New York","name":"MN10G","zip":"10037","state":"NY","bbl":"1017790001","borocd":"111","objectid":"203","address":"110 E 131 St","boro":"1","bin":"1054511","type":"Garage"}},{"type":"Feature","geometry":{"type":"Point","coordinates":[-73.8115260451189,40.6654363648992]},"properties":{"districtcode":"QE10","city":"South Ozone Park","name":"QE12G","zip":"11420","state":"NY","bbl":"4118840001","borocd":"410","objectid":"35","address":"130-23 150 Ave","boro":"4","bin":"4257531","type":"Garage"}},{"type":"Feature","geometry":{"type":"Point","coordinates":[-74.0048304634398,40.6853931425455]},"properties":{"districtcode":"BKS06","city":"Brooklyn","name":"BKS06A","zip":"11231","state":"NY","bbl":"3003350001","borocd":"306","objectid":"51","address":"87-93 Van Brunt St","boro":"3","bin":"3004232","type":"Garage"}}], "crs" : { "type": "name", "properties": { "name": "urn:ogc:def:crs:OGC:1.3:CRS84" } } }