uid,name,cat_L1,cat_L2,province,city,area,address,street_id,detail,child_num,loc_lng,loc_lat,telephone,type,detail_url,price,shop_hours,overall_rating,taste_rating,service_rating,environment_rating,facility_rating,hygiene_rating,technology_rating,image_num,comment_num,groupon_num,discount_num,favorite_num,checkin_num,brand,content_tag,naviloc_lng,naviloc_lat,child_num
f3ac90be6b10ee4b21f01732,无锡海岸影城(海岸城购物中心店),休闲娱乐,电影院,江苏省,无锡市,滨湖区,江苏省无锡市滨湖区立信大道168号海岸城购物中心F5,f3ac90be6b10ee4b21f01732,1,0,120.30988,31.494275,(0510)85918813,life,http://api.map.baidu.com/place/detail?uid=f3ac90be6b10ee4b21f01732&output=html&source=placeapi_v2,53,,3.4,,,,,,,32,11,,,,,,,120.31053282414,31.494869321302,0
32a4cfcb14680182b817e713,中影未来影城(华庄商业广场店),休闲娱乐,电影院,江苏省,无锡市,滨湖区,瑞景道199号华庄商业广场F1,32a4cfcb14680182b817e713,1,0,120.346732,31.480971,,life,http://api.map.baidu.com/place/detail?uid=32a4cfcb14680182b817e713&output=html&source=placeapi_v2,39,,4.3,,,,,,,8,29,,,,,,,120.34605041546,31.480719366638,0
51b843b3ba3ae92979b55cc8,上影国际影城(富安商业广场店),休闲娱乐,电影院,江苏省,无锡市,滨湖区,江苏省无锡市滨湖区胡埭镇芙蓉北路19号富安商业广场F4,51b843b3ba3ae92979b55cc8,1,0,120.136481,31.554419,(0510)85596176,life,http://api.map.baidu.com/place/detail?uid=51b843b3ba3ae92979b55cc8&output=html&source=placeapi_v2,34,,0,,,,,,,9,0,,,,,,,120.13654488076,31.553195937805,0
6352570a735422ab48cc4a3a,蜗牛影咖(职校园2店),休闲娱乐,电影院,江苏省,无锡市,惠山区,江苏省无锡市惠山区钱藕路2-13号,6352570a735422ab48cc4a3a,1,0,120.179638,31.576006,18921193155,life,http://api.map.baidu.com/place/detail?uid=6352570a735422ab48cc4a3a&output=html&source=placeapi_v2,,,5,,,,,,,11,6,,,,,,,120.17909152046,31.575820613668,0
c5c9122114e41597e01103bc,Nice影(滨湖店),休闲娱乐,电影院,江苏省,无锡市,滨湖区,江苏无锡市滨湖区青祁路润华国际大厦53楼,c5c9122114e41597e01103bc,1,0,120.275778,31.548046,13347900782,life,http://api.map.baidu.com/place/detail?uid=c5c9122114e41597e01103bc&output=html&source=placeapi_v2,,,5.0,,,,,,,0,1,,,,,,,120.27566016947,31.547811271186,0
9ee392b8df3a9b58bbbd63d3,橙天嘉禾影城(茂业天地清扬店),休闲娱乐,电影院,江苏省,无锡市,梁溪区,无锡市梁溪区清扬路128号茂业天地购物中心(清扬店)F1茂业23广场F1茂业天地F7,9ee392b8df3a9b58bbbd63d3,1,0,120.317755,31.554754,(0510)68785858,life,http://api.map.baidu.com/place/detail?uid=9ee392b8df3a9b58bbbd63d3&output=html&source=placeapi_v2,37,,3.6,,,,,,,17,16,,,,,,,120.31793693124,31.554817334556,0
ec450c021b243e3c1f5800b2,大世界影城(建筑路店),休闲娱乐,电影院,江苏省,无锡市,滨湖区,江苏省无锡市滨湖区河埒街道建筑路349号溪南公馆4楼,ec450c021b243e3c1f5800b2,1,0,120.2842,31.554477,(0510)68511300,life,http://api.map.baidu.com/place/detail?uid=ec450c021b243e3c1f5800b2&output=html&source=placeapi_v2,34,,1,,,,,,,4,1,,,,,,,120.2844443505,31.554575766318,0
665ea4c7984aae1bf503b80d,城市数字影院韩国馆,休闲娱乐,电影院,江苏省,无锡市,新吴区,无锡市新吴区泰山路彩虹城(建设中),665ea4c7984aae1bf503b80d,1,0,120.370802,31.543405,,life,http://api.map.baidu.com/place/detail?uid=665ea4c7984aae1bf503b80d&output=html&source=placeapi_v2,,,,,,,,,,3,,,,,,,,,,0
ab77dd527b21580ee81e97a2,大世界影城(梅里古镇店),休闲娱乐,电影院,江苏省,无锡市,新吴区,江苏省无锡市新吴区梅村街道吴音水岸91号203-127号,,1,0,120.445104,31.547182,(0510)88101032,life,http://api.map.baidu.com/place/detail?uid=ab77dd527b21580ee81e97a2&output=html&source=placeapi_v2,,,,,,,,,,6,,,,,,,,120.44585409257,31.547062200044,0
e94e322e5d104818441a32e7,影院,休闲娱乐,电影院,江苏省,无锡市,惠山区,江苏省无锡市惠山区钱藕路2号,e94e322e5d104818441a32e7,1,0,120.191444,31.586195,,life,http://api.map.baidu.com/place/detail?uid=e94e322e5d104818441a32e7&output=html&source=placeapi_v2,,,,,,,,,,,,,,,,,,,,0
22ac328ab03caf01aeb22a37,中影东方国际影城(惠山店),休闲娱乐,电影院,江苏省,无锡市,惠山区,江苏省无锡市惠山区文良路50号青春假日广场2期5楼,22ac328ab03caf01aeb22a37,1,0,120.191286,31.58546,"(0510)83278333,(0510)83291125",life,http://api.map.baidu.com/place/detail?uid=22ac328ab03caf01aeb22a37&output=html&source=placeapi_v2,,,0,,,,,,,8,1,,,,,,,120.19107109637,31.585684325106,0
6352570a735422ab48cc4a3a,蜗牛影咖(职校园2店),休闲娱乐,电影院,江苏省,无锡市,惠山区,江苏省无锡市惠山区钱藕路2-13号,6352570a735422ab48cc4a3a,1,0,120.179638,31.576006,18921193155,life,http://api.map.baidu.com/place/detail?uid=6352570a735422ab48cc4a3a&output=html&source=placeapi_v2,,,5,,,,,,,11,6,,,,,,,120.17909152046,31.575820613668,0
7e5009cee48e8792b6147fc7,博纳国际影城(茂业亿百店),休闲娱乐,电影院,江苏省,无锡市,梁溪区,江苏省无锡市梁溪区中山路618号茂业天地8楼,7e5009cee48e8792b6147fc7,1,0,120.304955,31.589344,(0510)82210909,life,http://api.map.baidu.com/place/detail?uid=7e5009cee48e8792b6147fc7&output=html&source=placeapi_v2,40,,5,,,,,,,19,1,,,,,,,120.30549407133,31.589918503208,0
24d0550844dd31b612882468,无锡和平电影院(书院弄店),休闲娱乐,电影院,江苏省,无锡市,梁溪区,江苏省无锡市梁溪区书院弄34号,24d0550844dd31b612882468,1,0,120.306883,31.58729,(0510)82830430,life,http://api.map.baidu.com/place/detail?uid=24d0550844dd31b612882468&output=html&source=placeapi_v2,33,,4.6,,,,,,,26,17,,,,,,,120.3067652437,31.587241633703,0
708f12d1aa9c4c8e96f08cf6,幸福蓝海国际影城(无锡金太湖店),休闲娱乐,电影院,江苏省,无锡市,梁溪区,江苏省无锡市梁溪区青石路518号金太湖国际城三期1楼,708f12d1aa9c4c8e96f08cf6,1,0,120.296428,31.599607,(0510)85032800,life,http://api.map.baidu.com/place/detail?uid=708f12d1aa9c4c8e96f08cf6&output=html&source=placeapi_v2,29,,4.7,,,,,,,24,12,,,,,,,120.2965374336,31.59974574893,0
fc3bf6016813a9f55d17c3a6,洛克LOOK私人影院(三阳百盛店),休闲娱乐,电影院,江苏省,无锡市,梁溪区,江苏省无锡市梁溪区人民路摩天360大厦39楼3910座,fc3bf6016813a9f55d17c3a6,1,0,120.307851,31.581271,15358004526,life,http://api.map.baidu.com/place/detail?uid=fc3bf6016813a9f55d17c3a6&output=html&source=placeapi_v2,63,,0,,,,,,,,0,,,,,,,120.30776550599,31.581506976071,0
7bfbaf8b5e6f26385a3ac8a4,茚IN点播影院,休闲娱乐,电影院,江苏省,无锡市,梁溪区,江苏省无锡市梁溪区人民东路9-7号,7bfbaf8b5e6f26385a3ac8a4,1,0,120.317837,31.585034,18914156650,life,http://api.map.baidu.com/place/detail?uid=7bfbaf8b5e6f26385a3ac8a4&output=html&source=placeapi_v2,63,,5,,,,,,,9,1,,,,,,,,,0
0894603019280d3af4e73bb4,至潮影城(金格商业广场店),休闲娱乐,电影院,江苏省,无锡市,梁溪区,江苏省无锡市梁溪区学前东路799号金格广场三层,0894603019280d3af4e73bb4,1,0,120.341272,31.587312,(0510)80833111,life,http://api.map.baidu.com/place/detail?uid=0894603019280d3af4e73bb4&output=html&source=placeapi_v2,30,,0,,,,,,,3,0,,,,,,,120.34133453122,31.587211994137,0
be2dd25d103a67184e2fdf42,上影国际影城(红豆万花城店),休闲娱乐,电影院,江苏省,无锡市,梁溪区,江苏省无锡市梁溪区人民东路531号红豆万花城3楼,,1,0,120.331462,31.591982,(0510)88769918,life,http://api.map.baidu.com/place/detail?uid=be2dd25d103a67184e2fdf42&output=html&source=placeapi_v2,,,,,,,,,,1,,,,,,,,120.33173281262,31.591189270144,0
b9ac4a6834c3265c276e98d7,CGV影城(无锡八佰伴中心IMAX激光店),休闲娱乐,电影院,江苏省,无锡市,锡山区,江苏省无锡市锡山区东亭街道锡沪路东亭西段1号八佰伴中心四楼,b9ac4a6834c3265c276e98d7,1,0,120.355646,31.591287,18552102212,life,http://api.map.baidu.com/place/detail?uid=b9ac4a6834c3265c276e98d7&output=html&source=placeapi_v2,,,,,,,,,,3,,,,,,,,,,0
3d674d2a9ffe2b4adbecedb3,大地影院(丰汇欢乐广场店),休闲娱乐,电影院,江苏省,无锡市,锡山区,江苏省无锡市锡山区华夏南路11号丰汇欢乐广场,3d674d2a9ffe2b4adbecedb3,1,0,120.359819,31.587066,(0510)88766997,life,http://api.map.baidu.com/place/detail?uid=3d674d2a9ffe2b4adbecedb3&output=html&source=placeapi_v2,30,,4.3,,,,,,,15,12,,,,,,,120.36004331455,31.58693815174,0
2ab7d4b4989a577a220262f8,金匮主题影院,休闲娱乐,电影院,江苏省,无锡市,锡山区,无锡市锡山区资景南路蓝光五彩华庭,2ab7d4b4989a577a220262f8,1,0,120.374768,31.585082,18060559060,life,http://api.map.baidu.com/place/detail?uid=2ab7d4b4989a577a220262f8&output=html&source=placeapi_v2,,,,,,,,,,10,,,,,,,,,,0
b35f79df73054a49c036445e,无锡大光明影城(深港店),休闲娱乐,电影院,江苏省,无锡市,新吴区,江苏省无锡市新吴区纺城大道299号深港天地2楼,b35f79df73054a49c036445e,1,0,120.409245,31.585198,(0510)88278009,life,http://api.map.baidu.com/place/detail?uid=b35f79df73054a49c036445e&output=html&source=placeapi_v2,28,,4.2,,,,,,,10,56,,,,,,,120.4091839654,31.584142551387,0
1f4c70e4070da52d1e580027,中影盛天影城(查桥店),休闲娱乐,电影院,江苏省,无锡市,锡山区,江苏省无锡市锡山区查桥商业街查桥商业广场3楼,1f4c70e4070da52d1e580027,1,0,120.432628,31.60058,(0510)85809666,life,http://api.map.baidu.com/place/detail?uid=1f4c70e4070da52d1e580027&output=html&source=placeapi_v2,38,,0,,,,,,,17,0,,,,,,,120.43270869757,31.600581831557,0
86af4e9c1d783d88b64f5408,金逸影城(无锡荟聚中心店),休闲娱乐,电影院,江苏省,无锡市,锡山区,江苏省无锡市锡山区团结中路3号无锡荟聚中心4层4A02室,86af4e9c1d783d88b64f5408,1,0,120.401556,31.586409,(0510)88258866,life,http://api.map.baidu.com/place/detail?uid=86af4e9c1d783d88b64f5408&output=html&source=placeapi_v2,,,,,,,,,,2,,,,,,,,,,0
5afdfe166bae76aaae31e52b,CGV星聚汇影城(无锡盛岸店),休闲娱乐,电影院,江苏省,无锡市,惠山区,无锡市惠山区盛岸西路331号百乐广场F4,5afdfe166bae76aaae31e52b,1,0,120.249241,31.612469,(0510)68796060,life,http://api.map.baidu.com/place/detail?uid=5afdfe166bae76aaae31e52b&output=html&source=placeapi_v2,36,,4.7,,,,,,,12,4,,,,,,,120.24768757997,31.612623851361,0
37c7818fb684fbb830169bc2,中影星美德信影城(无锡五洲国际广场店),休闲娱乐,电影院,江苏省,无锡市,锡山区,江苏省无锡市锡山区锡沪路五洲国际广场2楼,37c7818fb684fbb830169bc2,1,0,120.557697,31.627734,(0510)88865688,life,http://api.map.baidu.com/place/detail?uid=37c7818fb684fbb830169bc2&output=html&source=placeapi_v2,28,,0,,,,,,,21,0,,,,,,,120.55770598871,31.627685051534,0
c9d657b610547b4558f6be18,龙之星国际影城(锡北激光店),休闲娱乐,电影院,江苏省,无锡市,锡山区,江苏省无锡市锡山区锡北镇锡港路48号星邻里生活广场3楼(张泾中学斜对面),c9d657b610547b4558f6be18,1,0,120.443939,31.664577,(0510)88772155,life,http://api.map.baidu.com/place/detail?uid=c9d657b610547b4558f6be18&output=html&source=placeapi_v2,26,,0,,,,,,,1,0,,,,,,,120.44360312402,31.664379884449,0
2fb082bbe5caa5eb3110afe3,实地影院,休闲娱乐,电影院,江苏省,无锡市,惠山区,无锡市惠山区中惠大道实地玫瑰庄园,,1,0,120.194011,31.683634,,life,http://api.map.baidu.com/place/detail?uid=2fb082bbe5caa5eb3110afe3&output=html&source=placeapi_v2,,,,,,,,,,9,,,,,,,,,,0
b9e942db8ec4c91707fef5e5,无锡名扬国际影城(无锡前洲店),休闲娱乐,电影院,江苏省,无锡市,惠山区,江苏省无锡市惠山区惠洲大道777号五洲国际广场d区d座3楼,b9e942db8ec4c91707fef5e5,1,0,120.220973,31.703922,(0510)83387000,life,http://api.map.baidu.com/place/detail?uid=b9e942db8ec4c91707fef5e5&output=html&source=placeapi_v2,43,,0,,,,,,,27,0,,,,,,,120.219600311,31.704117366258,0
466a210793a8213fb020a8f8,星聚场・私人影院(东港店),休闲娱乐,电影院,江苏省,无锡市,锡山区,无锡市锡山区红豆万花城二期3楼,,1,0,120.552568,31.706489,(0510)88885577,life,http://api.map.baidu.com/place/detail?uid=466a210793a8213fb020a8f8&output=html&source=placeapi_v2,,,0,,,,,,,,0,,,,,,,,,0
62113ab05d9a86d1e507385f,红豆影城(红豆万花城东港店),休闲娱乐,电影院,江苏省,无锡市,锡山区,江苏省无锡市锡山区香山路122号红豆万花城F3,62113ab05d9a86d1e507385f,1,0,120.550986,31.70756,(0510)81858333,life,http://api.map.baidu.com/place/detail?uid=62113ab05d9a86d1e507385f&output=html&source=placeapi_v2,42,,4,,,,,,,13,37,,,,,,,120.55128326062,31.70769654222,0
5fe89cc66f1c6b70aecb668d,幸福蓝海激光影城(徐霞客店),休闲娱乐,电影院,江苏省,无锡市,江阴市,江苏省无锡市江阴市徐霞客镇璜塘外环北路25号2层,,1,0,120.35457,31.775521,(0510)86919899,life,http://api.map.baidu.com/place/detail?uid=5fe89cc66f1c6b70aecb668d&output=html&source=placeapi_v2,,,5,,,,,,,3,2,,,,,,,120.35425054341,31.775489961859,0
bb600aa7a25779a23ce23160,江阴长泾欢乐大都会智能影城,休闲娱乐,电影院,江苏省,无锡市,江阴市,江苏省无锡市江阴市长泾镇人民西路289号长隆广场3层,bb600aa7a25779a23ce23160,1,0,120.479678,31.753938,(0510)80689666,life,http://api.map.baidu.com/place/detail?uid=bb600aa7a25779a23ce23160&output=html&source=placeapi_v2,,,3.9,,,,,,,10,17,,,,,,,120.48009170364,31.754261344972,0
a54ba9a21626aebb6f47608d,星海激光影城(亿达购物广场店),休闲娱乐,电影院,江苏省,无锡市,江阴市,无锡市江阴市福民路841号亿达购物广场F2,a54ba9a21626aebb6f47608d,1,0,120.553879,31.77424,(0510)86950982,life,http://api.map.baidu.com/place/detail?uid=a54ba9a21626aebb6f47608d&output=html&source=placeapi_v2,,,0,,,,,,,19,0,,,,,,,120.55386913917,31.774270337989,0
3765853a74f4c7abfa0caddd,亿狮影院(飞马水城购物中心店),休闲娱乐,电影院,江苏省,无锡市,江阴市,江苏省无锡市江阴市新郁中路飞马水城购物中心3楼,3765853a74f4c7abfa0caddd,1,0,120.505215,31.804481,(0510)88011666,life,http://api.map.baidu.com/place/detail?uid=3765853a74f4c7abfa0caddd&output=html&source=placeapi_v2,35,,4.3,,,,,,,6,3,,,,,,,120.5049846135,31.804702700255,0
55240a5bf3e5cce435b06c99,星皇激光影城(月城店),休闲娱乐,电影院,江苏省,无锡市,江阴市,江苏省无锡市江阴市文化路116号2楼,,1,0,120.225442,31.815047,(0510)86899599,life,http://api.map.baidu.com/place/detail?uid=55240a5bf3e5cce435b06c99&output=html&source=placeapi_v2,,,,,,,,,,4,,,,,,,,,,0
1b418ff5ea6e9ab32ce67b3c,中宁国际影城(华西村店),休闲娱乐,电影院,江苏省,无锡市,江阴市,华士镇新市村民族路99号文体中心内,1b418ff5ea6e9ab32ce67b3c,1,0,120.437775,31.832611,(0510)86202168,life,http://api.map.baidu.com/place/detail?uid=1b418ff5ea6e9ab32ce67b3c&output=html&source=placeapi_v2,,,0,,,,,,,1,0,,,,,,,120.43769890685,31.832737054407,0
b7657772d31807de593ac83a,大地影院(新世界商业广场店),休闲娱乐,电影院,江苏省,无锡市,江阴市,江苏省无锡市江阴市人民路110号新世界商业广场F1,b7657772d31807de593ac83a,1,0,120.470827,31.841147,(0510)81691558,life,http://api.map.baidu.com/place/detail?uid=b7657772d31807de593ac83a&output=html&source=placeapi_v2,31,,1,,,,,,,13,2,,,,,,,120.47031857987,31.841374796213,0
5c29955199115403a6c75675,大地影院(新桥店),休闲娱乐,电影院,江苏省,无锡市,江阴市,江苏省无锡市江阴市陶新路368号,5c29955199115403a6c75675,1,0,120.513135,31.817243,,life,http://api.map.baidu.com/place/detail?uid=5c29955199115403a6c75675&output=html&source=placeapi_v2,19,,0,,,,,,,2,0,,,,,,,120.51318855835,31.817029918516,0
390eb341c97da2a11894c63b,南闸影院,休闲娱乐,电影院,江苏省,无锡市,江阴市,无锡市江阴市南闸镇西河南街33号,390eb341c97da2a11894c63b,1,0,120.248818,31.861885,,life,http://api.map.baidu.com/place/detail?uid=390eb341c97da2a11894c63b&output=html&source=placeapi_v2,,,0.0,,,,,,,5,1,,,,,,,120.24894175516,31.861888733315,0
5c1ee3b923d0a84b32f71d0a,新世界国际影城(中翔广场店),休闲娱乐,电影院,江苏省,无锡市,江阴市,江苏省无锡市江阴市周庄镇世纪大道288号中翔广场F3(周庄客运站对面),5c1ee3b923d0a84b32f71d0a,1,0,120.402241,31.861945,(0510)81661555,life,http://api.map.baidu.com/place/detail?uid=5c1ee3b923d0a84b32f71d0a&output=html&source=placeapi_v2,,,0,,,,,,,7,0,,,,,,,120.40272491882,31.861416144604,0
7529a235ba81b3ecb6147f0a,星图国际影城(周庄店),休闲娱乐,电影院,江苏省,无锡市,江阴市,江苏省无锡市江阴市周庄西大街125号4楼,7529a235ba81b3ecb6147f0a,1,0,120.41322,31.868503,(0510)86909068,life,http://api.map.baidu.com/place/detail?uid=7529a235ba81b3ecb6147f0a&output=html&source=placeapi_v2,34,,0,,,,,,,19,1,,,,,,,120.41317921778,31.86852023004,0
dac19410006314da8a36ee60,国信三房巷影城,休闲娱乐,电影院,江苏省,无锡市,江阴市,江苏省无锡市江阴市澄鹿路1390号三房巷影视商业广场3层,dac19410006314da8a36ee60,1,0,120.41469,31.855438,,life,http://api.map.baidu.com/place/detail?uid=dac19410006314da8a36ee60&output=html&source=placeapi_v2,33,,0,,,,,,,15,2,,,,,,,120.41477949066,31.855637700222,0
5c1ee3b923d0a84b32f71d0a,新世界国际影城(中翔广场店),休闲娱乐,电影院,江苏省,无锡市,江阴市,江苏省无锡市江阴市周庄镇世纪大道288号中翔广场F3(周庄客运站对面),5c1ee3b923d0a84b32f71d0a,1,0,120.402241,31.861945,(0510)81661555,life,http://api.map.baidu.com/place/detail?uid=5c1ee3b923d0a84b32f71d0a&output=html&source=placeapi_v2,,,0,,,,,,,7,0,,,,,,,120.40272491882,31.861416144604,0
c638fe1d1964a5048ab988d7,江阴恒大嘉凯影城(江阴店),休闲娱乐,电影院,江苏省,无锡市,江阴市,江苏省无锡市江阴市澄南路1期1楼,c638fe1d1964a5048ab988d7,1,0,120.287924,31.892806,(0510)86889955,life,http://api.map.baidu.com/place/detail?uid=c638fe1d1964a5048ab988d7&output=html&source=placeapi_v2,47,,4.3,,,,,,,9,46,,,,,,,120.28801427499,31.892818683314,0
06a068a247d25b8cd518b706,艾米1895电影街(江阴店),休闲娱乐,电影院,江苏省,无锡市,江阴市,江苏省无锡市江阴市人民东路86号兴澄银座B1,06a068a247d25b8cd518b706,1,0,120.290187,31.906467,(0510)86995877,life,http://api.map.baidu.com/place/detail?uid=06a068a247d25b8cd518b706&output=html&source=placeapi_v2,70,,5,,,,,,,12,1,,,,,,,120.29015632041,31.906689751897,0
d006514598784e130b69d9b0,整体影院,休闲娱乐,电影院,江苏省,无锡市,江阴市,无锡市江阴市新华路丽都城市花园-南区,d006514598784e130b69d9b0,1,0,120.307899,31.909085,,life,http://api.map.baidu.com/place/detail?uid=d006514598784e130b69d9b0&output=html&source=placeapi_v2,,,,,,,,,,2,,,,,,,,,,0
303217ab52eb1155ed74f818,良晨心悦绘影城,休闲娱乐,电影院,江苏省,无锡市,江阴市,江苏省无锡市江阴市河北街190号2楼,303217ab52eb1155ed74f818,1,0,120.292124,31.908255,(0510)80682777,life,http://api.map.baidu.com/place/detail?uid=303217ab52eb1155ed74f818&output=html&source=placeapi_v2,36,,0,,,,,,,14,1,,,,,,,120.29185438911,31.908294454956,0
0e6ed828c991923f1df74d9f,街电(山美嘉城店),休闲娱乐,电影院,江苏省,无锡市,江阴市,江苏省无锡市江阴市银桂路29号美嘉城山美嘉城F4,,1,0,120.338826,31.894293,,life,http://api.map.baidu.com/place/detail?uid=0e6ed828c991923f1df74d9f&output=html&source=placeapi_v2,,00:00-24:00,,,,,,,,,,,,,,,,120.33984191347,31.894336405807,0
