uid,name,cat_L1,cat_L2,province,city,area,address,street_id,detail,child_num,loc_lng,loc_lat,telephone,type,detail_url,price,shop_hours,overall_rating,taste_rating,service_rating,environment_rating,facility_rating,hygiene_rating,technology_rating,image_num,comment_num,groupon_num,discount_num,favorite_num,checkin_num,brand,content_tag,naviloc_lng,naviloc_lat,child_num
60a4b706138f0d551e5800d8,吉利彩钢瓦出租脚手架,购物,家居建材,江苏省,无锡市,滨湖区,江苏省无锡市滨湖区方庙路42号,60a4b706138f0d551e5800d8,1,0,120.298459,31.492608,,shopping,http://api.map.baidu.com/place/detail?uid=60a4b706138f0d551e5800d8&output=html&source=placeapi_v2,,,,,,,,,,,,,,,,,,120.29845507692,31.492456470058,0
a29fe6a2fe67f670e9f85386,佳美隐形纱门窗,购物,家居建材,江苏省,无锡市,滨湖区,无锡市滨湖区方庙路方桥商住小区西北侧约50米,a29fe6a2fe67f670e9f85386,1,0,120.295589,31.49259,"15052249406,15861679869",shopping,http://api.map.baidu.com/place/detail?uid=a29fe6a2fe67f670e9f85386&output=html&source=placeapi_v2,,,,,,,,,,,,,,,,,,120.29559452004,31.492411255042,0
5a74df09c1eae449f42310e7,晓来不锈钢,购物,家居建材,江苏省,无锡市,滨湖区,江苏省无锡市滨湖区丰裕园30-4东南方向150米,5a74df09c1eae449f42310e7,1,0,120.299069,31.484631,18961881787,shopping,http://api.map.baidu.com/place/detail?uid=5a74df09c1eae449f42310e7&output=html&source=placeapi_v2,,08:00-17:00,,,,,,,,,,,,,,,,,,0
81c33efb4a7bf8922b11d1d0,方太(红星美凯龙滨湖店),购物,家居建材,江苏省,无锡市,滨湖区,江苏省无锡市滨湖区五湖大道116号滨湖美凯龙b区2楼,81c33efb4a7bf8922b11d1d0,1,0,120.295747,31.499354,15251577636,shopping,http://api.map.baidu.com/place/detail?uid=81c33efb4a7bf8922b11d1d0&output=html&source=placeapi_v2,,09:00-18:00,3.9,,,,,,,,2,,,,,,,120.29626606449,31.500070710674,0
46f388fb17d0a18340ab9a50,顺发门窗(方庙路店),购物,家居建材,江苏省,无锡市,滨湖区,江苏省无锡市滨湖区方桥街商住小区214号,46f388fb17d0a18340ab9a50,1,0,120.296567,31.4922,13665163295,shopping,http://api.map.baidu.com/place/detail?uid=46f388fb17d0a18340ab9a50&output=html&source=placeapi_v2,,00:00-24:00,,,,,,,,,,,,,,,,,,0
809e285726bc1b338f1a89b6,称心门窗,购物,家居建材,江苏省,无锡市,滨湖区,无锡市滨湖区方庙路无锡市太湖格致中学东侧,809e285726bc1b338f1a89b6,1,0,120.295311,31.492898,"15251643598,15861443081",shopping,http://api.map.baidu.com/place/detail?uid=809e285726bc1b338f1a89b6&output=html&source=placeapi_v2,,,,,,,,,,,,,,,,,,,,0
2dc9ad1b761374b2b75f1e1e,前锦家具城(震泽路店),购物,家居建材,江苏省,无锡市,滨湖区,江苏省无锡市滨湖区震泽路712号,2dc9ad1b761374b2b75f1e1e,1,0,120.29609,31.478813,13656174729,shopping,http://api.map.baidu.com/place/detail?uid=2dc9ad1b761374b2b75f1e1e&output=html&source=placeapi_v2,,07:30-19:00,0.0,,,,,,,,1,,,,,,,,,0
ad2eb9d77440adce0c0a7043,全城厨业,购物,家居建材,江苏省,无锡市,滨湖区,江苏省无锡市滨湖区雪丰路30号,ad2eb9d77440adce0c0a7043,1,0,120.301462,31.485031,,shopping,http://api.map.baidu.com/place/detail?uid=ad2eb9d77440adce0c0a7043&output=html&source=placeapi_v2,,,,,,,,,,,,,,,,,,,,0
44386cc9adef89a60bccdd07,莫多家居(红星美凯龙店),购物,家居建材,江苏省,无锡市,滨湖区,无锡市滨湖区五湖大道116号红星美凯龙F4,44386cc9adef89a60bccdd07,1,0,120.295982,31.49893,,shopping,http://api.map.baidu.com/place/detail?uid=44386cc9adef89a60bccdd07&output=html&source=placeapi_v2,,,3.2,,,,,,,,6,,,,,,,,,0
914b0b9d2d75f4a001897293,明辉玻璃(方庙路店),购物,家居建材,江苏省,无锡市,滨湖区,雪浪街道方桥商住小区大门对面,914b0b9d2d75f4a001897293,1,0,120.296385,31.492788,,shopping,http://api.map.baidu.com/place/detail?uid=914b0b9d2d75f4a001897293&output=html&source=placeapi_v2,,,,,,,,,,,,,,,,,,120.29638572687,31.492751264887,0
159b37f7fa82e6b888db73df,喜临门(红星美凯龙店),购物,家居建材,江苏省,无锡市,滨湖区,江苏省无锡市滨湖区五湖大道116号红星美凯龙5楼,159b37f7fa82e6b888db73df,1,0,120.296571,31.498605,,shopping,http://api.map.baidu.com/place/detail?uid=159b37f7fa82e6b888db73df&output=html&source=placeapi_v2,,09:00-18:00,3.4,,,,,,,,1,,,,,,,120.29626606449,31.500070710674,0
6b28d9f69adbe8651676436e,西蒙电气(红星美凯龙店),购物,家居建材,江苏省,无锡市,滨湖区,无锡市滨湖区五湖大道116号红星美凯龙F2,6b28d9f69adbe8651676436e,1,0,120.295587,31.499879,,shopping,http://api.map.baidu.com/place/detail?uid=6b28d9f69adbe8651676436e&output=html&source=placeapi_v2,,,3.4,,,,,,,,1,,,,,,,120.29626606449,31.500070710674,0
22530f8c08784e6495ca07d9,沈氏五金交电公司,购物,家居建材,江苏省,无锡市,滨湖区,江苏省无锡市滨湖区老锡南路114号,22530f8c08784e6495ca07d9,1,0,120.292674,31.480722,"(0510)85180087,13706179682",enterprise,http://api.map.baidu.com/place/detail?uid=22530f8c08784e6495ca07d9&output=html&source=placeapi_v2,,06:00-19:00,3.5,,,,,,,,1,,,,,,,120.29276241429,31.480710758693,0
b42104112000b373430245e6,名人居美茵驰(红星美凯龙店),购物,家居建材,江苏省,无锡市,滨湖区,无锡市滨湖区五湖大道116号红星美凯龙F6,b42104112000b373430245e6,1,0,120.296513,31.499102,18012369872,shopping,http://api.map.baidu.com/place/detail?uid=b42104112000b373430245e6&output=html&source=placeapi_v2,,09:30-17:30,3.2,,,,,,,,1,,,,,,,120.29626606449,31.500070710674,0
f857a9a5d30a6ed42fb17e34,雪浪建材批发大院,购物,家居建材,江苏省,无锡市,滨湖区,江苏省无锡市滨湖区育才路2-1号,f857a9a5d30a6ed42fb17e34,1,0,120.292855,31.475736,18951512872,shopping,http://api.map.baidu.com/place/detail?uid=f857a9a5d30a6ed42fb17e34&output=html&source=placeapi_v2,,,0.0,,,,,,,,2,,,,,,,120.2929923796,31.475721946906,0
473c3fff7a3961461894c68e,玫瑰岛(红星美凯龙店),购物,家居建材,江苏省,无锡市,滨湖区,江苏省无锡市滨湖区五湖大道116号红星美凯龙一楼A8071室,473c3fff7a3961461894c68e,1,0,120.295964,31.498656,,shopping,http://api.map.baidu.com/place/detail?uid=473c3fff7a3961461894c68e&output=html&source=placeapi_v2,,,3.5,,,,,,,,0,,,,,,,120.29585935667,31.498204429453,0
df8b76809f6defe6fda7782b,尚美至家(红星美凯龙店),购物,家居建材,江苏省,无锡市,滨湖区,江苏省无锡市滨湖区立信大道红星美凯龙6楼,df8b76809f6defe6fda7782b,1,0,120.296701,31.499258,13093000135,shopping,http://api.map.baidu.com/place/detail?uid=df8b76809f6defe6fda7782b&output=html&source=placeapi_v2,,09:30-18:00,3.8,,,,,,,,,,,,,,,120.29626606449,31.500070710674,0
e0f5978b2bad68d80accdda2,阅梨(红星美凯龙店),购物,家居建材,江苏省,无锡市,滨湖区,江苏省无锡市滨湖区五湖大道与高浪路交叉口红星美凯龙5楼,e0f5978b2bad68d80accdda2,1,0,120.295969,31.49909,15995250833,shopping,http://api.map.baidu.com/place/detail?uid=e0f5978b2bad68d80accdda2&output=html&source=placeapi_v2,0.0,10:00-17:30,3.6,,,,,,,,0,,,,,,,120.29626606449,31.500070710674,0
e3f7ea272ce28b57213bf2d1,托斯卡纳(红星美凯龙店),购物,家居建材,江苏省,无锡市,滨湖区,江苏省无锡市滨湖区五湖大道116号红星美凯龙2楼,e3f7ea272ce28b57213bf2d1,1,0,120.295555,31.498493,13585018580,shopping,http://api.map.baidu.com/place/detail?uid=e3f7ea272ce28b57213bf2d1&output=html&source=placeapi_v2,0.0,09:00-18:00,,,,,,,,,,,,,,,,120.29626606449,31.500070710674,0
16c2b2df31be9824902ca3c5,领绣刺绣墙布(红星美凯龙店),购物,家居建材,江苏省,无锡市,滨湖区,江苏省无锡市滨湖区五湖大道红星美凯龙6楼,16c2b2df31be9824902ca3c5,1,0,120.295915,31.49974,(0510)81862333,shopping,http://api.map.baidu.com/place/detail?uid=16c2b2df31be9824902ca3c5&output=html&source=placeapi_v2,,10:00-22:00,5,,,,,,,,1,,,,,,,120.29626606449,31.500070710674,0
fa589c62789e2925a2d23058,光明家具(红星美凯龙店),购物,家居建材,江苏省,无锡市,滨湖区,江苏省无锡市滨湖区太湖街道五湖大道116号红星美凯龙五楼,fa589c62789e2925a2d23058,1,0,120.295702,31.49935,(0510)82852019,shopping,http://api.map.baidu.com/place/detail?uid=fa589c62789e2925a2d23058&output=html&source=placeapi_v2,,09:30-19:30,3.6,,,,,,,,,,,,,,,,,0
6c922361747359148605bf59,丹麦芙莱莎FLEXA(滨湖红星美凯龙店),购物,家居建材,江苏省,无锡市,滨湖区,江苏省无锡市滨湖区五湖大道116号5楼,6c922361747359148605bf59,1,0,120.295447,31.499603,(0510)81863368,shopping,http://api.map.baidu.com/place/detail?uid=6c922361747359148605bf59&output=html&source=placeapi_v2,,09:00-21:00,3.8,,,,,,,,9,,,,,,,120.29626606449,31.500070710674,0
6c3111a14bc19b131d580023,慕思凯奇(红星美凯龙滨湖店),购物,家居建材,江苏省,无锡市,滨湖区,江苏省无锡市滨湖区五湖大道66号红星美凯龙5楼,6c3111a14bc19b131d580023,1,0,120.296892,31.499875,(0510)81863326,shopping,http://api.map.baidu.com/place/detail?uid=6c3111a14bc19b131d580023&output=html&source=placeapi_v2,,,3.4,,,,,,,,0,,,,,,,,,0
c95a1ea8c55541d3b726556f,九牧卫浴五星定制体验馆(红星美凯龙店),购物,家居建材,江苏省,无锡市,滨湖区,江苏省无锡市滨湖区五湖大道116号红星美凯龙四店1楼,c95a1ea8c55541d3b726556f,1,0,120.296135,31.498816,(0510)81863306,shopping,http://api.map.baidu.com/place/detail?uid=c95a1ea8c55541d3b726556f&output=html&source=placeapi_v2,,09:00-19:00,4.6,,,,,,,,0,,,,,,,120.29626606449,31.500070710674,0
f83144d13de68c7c5cd4feef,欧尚卫浴(红星美凯龙店),购物,家居建材,江苏省,无锡市,滨湖区,江苏无锡市滨湖区五湖大道116号红星美凯龙f1,f83144d13de68c7c5cd4feef,1,0,120.296567,31.498511,,shopping,http://api.map.baidu.com/place/detail?uid=f83144d13de68c7c5cd4feef&output=html&source=placeapi_v2,,09:30-18:00,,,,,,,,,,,,,,,,120.29626606449,31.500070710674,0
1be5e7be6657214be81e9721,玛诺奇(红星美凯龙店),购物,家居建材,江苏省,无锡市,滨湖区,无锡市滨湖区五湖大道116号红星美凯龙F6,1be5e7be6657214be81e9721,1,0,120.296548,31.498631,,shopping,http://api.map.baidu.com/place/detail?uid=1be5e7be6657214be81e9721&output=html&source=placeapi_v2,,,,,,,,,,,,,,,,,,120.29626606449,31.500070710674,0
6cc2df1c9a04c8cbb04c49e7,圣象地板(红星美凯龙滨湖店),购物,家居建材,江苏省,无锡市,滨湖区,无锡市滨湖区五湖大道116号红星美凯龙(滨湖至尊店)F3,6cc2df1c9a04c8cbb04c49e7,1,0,120.296515,31.499104,4007708866,shopping,http://api.map.baidu.com/place/detail?uid=6cc2df1c9a04c8cbb04c49e7&output=html&source=placeapi_v2,,10:00-22:00,3.1,,,,,,,,1,,,,,,,,,0
4db499d6e3da9a01cafa5f96,恺撒宫家具经营部(红星美凯龙滨湖店),购物,家居建材,江苏省,无锡市,滨湖区,江苏省无锡市滨湖区五湖大道116号红星美凯龙F6层,4db499d6e3da9a01cafa5f96,1,0,120.295976,31.498655,(0510)81862077,shopping,http://api.map.baidu.com/place/detail?uid=4db499d6e3da9a01cafa5f96&output=html&source=placeapi_v2,,,0.0,,,,,,,,1,,,,,,,,,0
8aa2746ba817ef8a8c55ec1d,雪浪五金交电商行,购物,家居建材,江苏省,无锡市,滨湖区,江苏省无锡市滨湖区锡南路125号,8aa2746ba817ef8a8c55ec1d,1,0,120.293032,31.480504,(0510)85180733,shopping,http://api.map.baidu.com/place/detail?uid=8aa2746ba817ef8a8c55ec1d&output=html&source=placeapi_v2,,08:00-21:00,3.3,,,,,,,,3,,,,,,,120.29286101859,31.480463243668,0
906582ccf952ff5a3c9a5ec9,恒洁卫浴(红星美凯龙滨湖店),购物,家居建材,江苏省,无锡市,滨湖区,无锡市滨湖区五湖大道116号红星美凯龙F1,906582ccf952ff5a3c9a5ec9,1,0,120.296126,31.498933,"(0510)88879899,13771033994",shopping,http://api.map.baidu.com/place/detail?uid=906582ccf952ff5a3c9a5ec9&output=html&source=placeapi_v2,,09:30-18:00,4.4,,,,,,,,3,,,,,,,120.29626606449,31.500070710674,0
cfd6d973e49d66dfbfa822c0,红星美凯龙-墙面定制(红星美凯龙店),购物,家居建材,江苏省,无锡市,滨湖区,江苏无锡市滨湖区五湖大道116号,cfd6d973e49d66dfbfa822c0,1,0,120.296206,31.498492,,shopping,http://api.map.baidu.com/place/detail?uid=cfd6d973e49d66dfbfa822c0&output=html&source=placeapi_v2,,,0,,,,,,,,0,,,,,,,120.29626606449,31.500070710674,0
a81a027e0947f4e7c27da254,巴丽・巴丽(红星美凯龙店),购物,家居建材,江苏省,无锡市,滨湖区,江苏省无锡市滨湖区五湖大道116号红星美凯龙滨湖至尊店1楼,a81a027e0947f4e7c27da254,1,0,120.295971,31.498574,,shopping,http://api.map.baidu.com/place/detail?uid=a81a027e0947f4e7c27da254&output=html&source=placeapi_v2,,09:00-17:30,,,,,,,,,,,,,,,,120.29626606449,31.500070710674,0
9c69fde6104feda1f4e73b86,顺心整木家居(红星美凯龙店),购物,家居建材,江苏省,无锡市,滨湖区,江苏省无锡市滨湖区五湖大道116号红星美凯龙3楼,9c69fde6104feda1f4e73b86,1,0,120.295533,31.498746,13013680763,shopping,http://api.map.baidu.com/place/detail?uid=9c69fde6104feda1f4e73b86&output=html&source=placeapi_v2,,09:30-17:00,,,,,,,,,,,,,,,,120.29626606449,31.500070710674,0
d5b9ac938712cf0249fc8d6b,雪浪家具城,购物,家居建材,江苏省,无锡市,滨湖区,江苏省无锡市滨湖区锡南路114-10号,d5b9ac938712cf0249fc8d6b,1,0,120.292665,31.481009,15961816772,shopping,http://api.map.baidu.com/place/detail?uid=d5b9ac938712cf0249fc8d6b&output=html&source=placeapi_v2,,08:00-20:00,0,,,,,,,,2,,,,,,,,,0
e19645f8ff12385a90114c89,光明家具(红星美凯龙店),购物,家居建材,江苏省,无锡市,滨湖区,无锡市滨湖区五湖大道116号红星美凯龙F6,e19645f8ff12385a90114c89,1,0,120.29602,31.498522,(0510)82852019,shopping,http://api.map.baidu.com/place/detail?uid=e19645f8ff12385a90114c89&output=html&source=placeapi_v2,,09:30-18:00,0,,,,,,,,0,,,,,,,120.29626606449,31.500070710674,0
8e6ca50043a787a0d1ff23c8,包豪斯(红星美凯龙店),购物,家居建材,江苏省,无锡市,滨湖区,无锡市滨湖区五湖大道116号红星美凯龙F1,8e6ca50043a787a0d1ff23c8,1,0,120.295969,31.499109,,shopping,http://api.map.baidu.com/place/detail?uid=8e6ca50043a787a0d1ff23c8&output=html&source=placeapi_v2,,,,,,,,,,,,,,,,,,120.29626606449,31.500070710674,0
6465735e07706cb138e4a61c,黄轩滑动门,购物,家居建材,江苏省,无锡市,滨湖区,江苏无锡市滨湖区五湖大道116号红星美凯龙f3,6465735e07706cb138e4a61c,1,0,120.2959,31.499364,,shopping,http://api.map.baidu.com/place/detail?uid=6465735e07706cb138e4a61c&output=html&source=placeapi_v2,,,,,,,,,,,,,,,,,,120.29626606449,31.500070710674,0
9074daa0d904a8a4b04c4982,兴隆水暖装潢店,购物,家居建材,江苏省,无锡市,滨湖区,江苏省无锡市滨湖区震泽路板桥新村(雪浪商贸市场南200米),9074daa0d904a8a4b04c4982,1,0,120.29369,31.481414,,shopping,http://api.map.baidu.com/place/detail?uid=9074daa0d904a8a4b04c4982&output=html&source=placeapi_v2,,08:00-20:30,,,,,,,,,,,,,,,,120.29373271899,31.481384677581,0
c2fec69c31edce161c3894ec,无锡市金鼎彩钢瓦,购物,家居建材,江苏省,无锡市,滨湖区,江苏省无锡市滨湖区老锡南路文畅苑16-1号,c2fec69c31edce161c3894ec,1,0,120.291924,31.476995,13961817688,shopping,http://api.map.baidu.com/place/detail?uid=c2fec69c31edce161c3894ec&output=html&source=placeapi_v2,,,5.0,,,,,,,,1,,,,,,,,,0
e5a20e3a8e799c37f21937f0,左右沙发(红星美凯龙店),购物,家居建材,江苏省,无锡市,滨湖区,江苏省无锡市滨湖区五湖大道116号红星美凯龙4楼,e5a20e3a8e799c37f21937f0,1,0,120.295935,31.499245,(0510)81863371,shopping,http://api.map.baidu.com/place/detail?uid=e5a20e3a8e799c37f21937f0&output=html&source=placeapi_v2,,09:00-17:00,5,,,,,,,,1,,,,,,,120.29626606449,31.500070710674,0
3d040ccbb9d0f71b9ff7795f,帅康(红星美凯龙无锡1号店),购物,家居建材,江苏省,无锡市,滨湖区,无锡市滨湖区五湖大道116号红星美凯龙F2,3d040ccbb9d0f71b9ff7795f,1,0,120.29548,31.499333,,shopping,http://api.map.baidu.com/place/detail?uid=3d040ccbb9d0f71b9ff7795f&output=html&source=placeapi_v2,,,,,,,,,,,,,,,,,,120.29626606449,31.500070710674,0
703c600933f3d6c3ae080ff2,美国锡布鲁克墙纸(红星美凯龙店),购物,家居建材,江苏省,无锡市,滨湖区,江苏省无锡市滨湖区五湖大道116号红星美凯龙国际家居博览中心6楼,703c600933f3d6c3ae080ff2,1,0,120.29593,31.499567,,shopping,http://api.map.baidu.com/place/detail?uid=703c600933f3d6c3ae080ff2&output=html&source=placeapi_v2,,09:00-18:00,,,,,,,,,,,,,,,,120.29626606449,31.500070710674,0
4f20eb13a237fb5a7dc87679,赫思(红星美凯龙店),购物,家居建材,江苏省,无锡市,滨湖区,无锡市滨湖区五湖大道116号红星美凯龙F6,4f20eb13a237fb5a7dc87679,1,0,120.295905,31.499892,,shopping,http://api.map.baidu.com/place/detail?uid=4f20eb13a237fb5a7dc87679&output=html&source=placeapi_v2,,,,,,,,,,,,,,,,,,,,0
472e6afce0948cdd8f55ecbd,洛克V6(红星美凯龙滨湖至尊店),购物,家居建材,江苏省,无锡市,滨湖区,无锡市滨湖区五湖大道116号红星美凯龙F5,,1,0,120.295718,31.499159,,shopping,http://api.map.baidu.com/place/detail?uid=472e6afce0948cdd8f55ecbd&output=html&source=placeapi_v2,,,,,,,,,,,,,,,,,,,,0
68d29e3fe6078817ce04efb3,FOROERS(红星美凯龙店),购物,家居建材,江苏省,无锡市,滨湖区,无锡市滨湖区五湖大道116号红星美凯龙F2,68d29e3fe6078817ce04efb3,1,0,120.296579,31.49969,,shopping,http://api.map.baidu.com/place/detail?uid=68d29e3fe6078817ce04efb3&output=html&source=placeapi_v2,,,,,,,,,,,,,,,,,,120.29626606449,31.500070710674,0
f0d851fc4ee8201a7fc876fe,科度门窗(红星美凯龙店),购物,家居建材,江苏省,无锡市,滨湖区,江苏省无锡市滨湖区五湖大道116号红星美凯龙3楼,f0d851fc4ee8201a7fc876fe,1,0,120.295966,31.498655,"13806179479,18795620802",shopping,http://api.map.baidu.com/place/detail?uid=f0d851fc4ee8201a7fc876fe&output=html&source=placeapi_v2,0.0,10:00-22:00,0.0,,,,,,,,0,,,,,,,120.29626606449,31.500070710674,0
19506fdf379552a84251c04e,星星索(红星美凯龙店),购物,家居建材,江苏省,无锡市,滨湖区,无锡市滨湖区五湖大道116号红星美凯龙F5,19506fdf379552a84251c04e,1,0,120.295591,31.499879,,shopping,http://api.map.baidu.com/place/detail?uid=19506fdf379552a84251c04e&output=html&source=placeapi_v2,,,,,,,,,,,,,,,,,,120.29626606449,31.500070710674,0
895e853b4c8c0896ab0dd8b6,荣麟・槟榔(红星美凯龙店),购物,家居建材,江苏省,无锡市,滨湖区,无锡市滨湖区五湖大道116号红星美凯龙F5,895e853b4c8c0896ab0dd8b6,1,0,120.296631,31.499907,,shopping,http://api.map.baidu.com/place/detail?uid=895e853b4c8c0896ab0dd8b6&output=html&source=placeapi_v2,,,,,,,,,,,,,,,,,,120.29626606449,31.500070710674,0
c96be5f400571968e6e96575,艾奎斯锻打定制入户大门楼梯栏杆雨蓬(红星美凯龙店),购物,家居建材,江苏省,无锡市,滨湖区,江苏省无锡市滨湖区五湖大道116号红星美凯龙F1,c96be5f400571968e6e96575,1,0,120.295737,31.499517,,shopping,http://api.map.baidu.com/place/detail?uid=c96be5f400571968e6e96575&output=html&source=placeapi_v2,,08:00-17:00,,,,,,,,,,,,,,,,120.29626606449,31.500070710674,0
cac5fc764e133bf32db96da9,建华五金家电(雪浪店),购物,家居建材,江苏省,无锡市,滨湖区,江苏省无锡市滨湖区锡南路124号,cac5fc764e133bf32db96da9,1,0,120.293048,31.480844,(0510)85180682,shopping,http://api.map.baidu.com/place/detail?uid=cac5fc764e133bf32db96da9&output=html&source=placeapi_v2,,,0,,,,,,,,1,,,,,,,120.29290990168,31.480762617223,0
74d525ec4dd9d7b8c8213dcb,德诺橱柜(红星美凯龙店),购物,家居建材,江苏省,无锡市,滨湖区,无锡市滨湖区五湖大道116号红星美凯龙F2,74d525ec4dd9d7b8c8213dcb,1,0,120.295949,31.499914,,shopping,http://api.map.baidu.com/place/detail?uid=74d525ec4dd9d7b8c8213dcb&output=html&source=placeapi_v2,,,,,,,,,,,,,,,,,,,,0
95324754cdb926c723026288,简一大理石瓷砖(红星美凯龙店),购物,家居建材,江苏省,无锡市,滨湖区,江苏省无锡市滨湖区五湖大道116号红星美凯龙2楼,95324754cdb926c723026288,1,0,120.296154,31.499101,,shopping,http://api.map.baidu.com/place/detail?uid=95324754cdb926c723026288&output=html&source=placeapi_v2,,10:00-17:00,3.4,,,,,,,,0,,,,,,,120.29626606449,31.500070710674,0
7c75246971761e1ae6e965e1,泰金门窗,购物,家居建材,江苏省,无锡市,滨湖区,江苏省无锡市滨湖区雪浪街道融创熙园方庙路格至中学对面,7c75246971761e1ae6e965e1,1,0,120.29168,31.491891,15852843896,shopping,http://api.map.baidu.com/place/detail?uid=7c75246971761e1ae6e965e1&output=html&source=placeapi_v2,,09:00-18:00,0,,,,,,,,1,,,,,,,120.29126862296,31.4918830384,0
874b765c3d3dcb9e7bf79617,博世(红星美凯龙店),购物,家居建材,江苏省,无锡市,滨湖区,江苏省无锡市滨湖区清舒道99号5号楼,874b765c3d3dcb9e7bf79617,1,0,120.295708,31.499714,13812279899,shopping,http://api.map.baidu.com/place/detail?uid=874b765c3d3dcb9e7bf79617&output=html&source=placeapi_v2,,,,,,,,,,,,,,,,,,120.29626606449,31.500070710674,0
93bdf6b85d1a33e217c8f659,龙胜管业五金水暖(无锡雪浪店),购物,家居建材,江苏省,无锡市,滨湖区,江苏省无锡市滨湖区仙河苑5号(清晏路北),93bdf6b85d1a33e217c8f659,1,0,120.295586,31.474554,,shopping,http://api.map.baidu.com/place/detail?uid=93bdf6b85d1a33e217c8f659&output=html&source=placeapi_v2,,,3.0,,,,,,,,2,,,,,,,120.29556860841,31.47438891833,0
766c17da5ef9da488c55ec1d,美红窗帘(清晏路店),购物,家居建材,江苏省,无锡市,滨湖区,江苏省无锡市滨湖区仙河苑二期205-3号,766c17da5ef9da488c55ec1d,1,0,120.303461,31.474222,"13771124898,13961893130",shopping,http://api.map.baidu.com/place/detail?uid=766c17da5ef9da488c55ec1d&output=html&source=placeapi_v2,,08:00-20:00,0.0,,,,,,,,1,,,,,,,,,0
04f60575b00d8cf097031935,曲美b8全屋定制(红星美凯龙店),购物,家居建材,江苏省,无锡市,滨湖区,无锡市滨湖区五湖大道116号红星美凯龙F3,,1,0,120.29576,31.499348,15151708876,shopping,http://api.map.baidu.com/place/detail?uid=04f60575b00d8cf097031935&output=html&source=placeapi_v2,,,,,,,,,,,,,,,,,,120.29626606449,31.500070710674,0
f2e941c2bcac9b0fc2f1cfe5,北欧E家(红星美凯龙店),购物,家居建材,江苏省,无锡市,滨湖区,无锡市滨湖区五湖大道116号红星美凯龙F5,f2e941c2bcac9b0fc2f1cfe5,1,0,120.296556,31.499178,(0510)81863393,shopping,http://api.map.baidu.com/place/detail?uid=f2e941c2bcac9b0fc2f1cfe5&output=html&source=placeapi_v2,,,4.4,,,,,,,,0,,,,,,,,,0
1238d5ef2296bcf493114c1c,陈氏铝合金店,购物,家居建材,江苏省,无锡市,滨湖区,江苏省无锡市滨湖区老锡南路155号,1238d5ef2296bcf493114c1c,1,0,120.292135,31.477926,13301518959,shopping,http://api.map.baidu.com/place/detail?uid=1238d5ef2296bcf493114c1c&output=html&source=placeapi_v2,,07:30-20:30,,,,,,,,,,,,,,,,120.29196849188,31.477860842904,0
482273a944f989af00ec01ce,双叶家居(红星美凯龙店),购物,家居建材,江苏省,无锡市,滨湖区,江苏省无锡市滨湖区五湖大道红星美凯龙5楼,482273a944f989af00ec01ce,1,0,120.295514,31.498972,,shopping,http://api.map.baidu.com/place/detail?uid=482273a944f989af00ec01ce&output=html&source=placeapi_v2,,08:00-18:00,,,,,,,,,,,,,,,,120.29626606449,31.500070710674,0
01ee62258987cb76b320a8b5,莫干山地板(红星美凯龙店),购物,家居建材,江苏省,无锡市,滨湖区,江苏省无锡市滨湖区五湖大道116号红星美凯龙至尊店3楼,01ee62258987cb76b320a8b5,1,0,120.295763,31.499196,15961881966,shopping,http://api.map.baidu.com/place/detail?uid=01ee62258987cb76b320a8b5&output=html&source=placeapi_v2,,09:30-17:30,,,,,,,,,,,,,,,,120.29626606449,31.500070710674,0
bff02e4afdb44269cae33c06,艺家美布艺,购物,家居建材,江苏省,无锡市,滨湖区,江苏省无锡市滨湖区育才路雪浪建材市场3~5号,bff02e4afdb44269cae33c06,1,0,120.292919,31.476113,15961766277,shopping,http://api.map.baidu.com/place/detail?uid=bff02e4afdb44269cae33c06&output=html&source=placeapi_v2,,07:30-20:30,0.0,,,,,,,,1,,,,,,,120.29305648717,31.476095180289,0
68904dbe023eda25b426559b,刘氏诚信门窗(清晏路店),购物,家居建材,江苏省,无锡市,滨湖区,无锡市滨湖区清晏路仙河苑-一期西南侧约50米,68904dbe023eda25b426559b,1,0,120.293756,31.47486,"15949225507,18621603404",shopping,http://api.map.baidu.com/place/detail?uid=68904dbe023eda25b426559b&output=html&source=placeapi_v2,,07:00-20:00,0.0,,,,,,,,1,,,,,,,,,0
775ca534d03d40bf15a190a2,米兰纳木门(红星美凯龙店),购物,家居建材,江苏省,无锡市,滨湖区,无锡市滨湖区五湖大道116号红星美凯龙F3,,1,0,120.296166,31.498666,,shopping,http://api.map.baidu.com/place/detail?uid=775ca534d03d40bf15a190a2&output=html&source=placeapi_v2,,,,,,,,,,,,,,,,,,120.29626606449,31.500070710674,0
8ae08014e47da53830169bdc,启圣移门,购物,家居建材,江苏省,无锡市,滨湖区,江苏省无锡市滨湖区仙河苑5号(清晏路北),8ae08014e47da53830169bdc,1,0,120.295671,31.474529,13771505966,shopping,http://api.map.baidu.com/place/detail?uid=8ae08014e47da53830169bdc&output=html&source=placeapi_v2,,,,,,,,,,,,,,,,,,,,0
b02ffd874d116af311882496,佳华窗帘(清晏路店),购物,家居建材,江苏省,无锡市,滨湖区,江苏省无锡市滨湖区震泽路仙河苑二期453-3号,b02ffd874d116af311882496,1,0,120.301353,31.473549,13812521590,shopping,http://api.map.baidu.com/place/detail?uid=b02ffd874d116af311882496&output=html&source=placeapi_v2,,08:00-21:00,,,,,,,,,,,,,,,,120.30139978526,31.473654276609,0
621722db61dd76aeb320a8cd,亚兰帝斯国际家居生活馆(红星美凯龙店),购物,家居建材,江苏省,无锡市,滨湖区,江苏省无锡市滨湖区五湖大道116号红星美凯龙家居生活广场6楼,621722db61dd76aeb320a8cd,1,0,120.296204,31.498533,,shopping,http://api.map.baidu.com/place/detail?uid=621722db61dd76aeb320a8cd&output=html&source=placeapi_v2,,09:00-18:00,,,,,,,,,,,,,,,,120.29626606449,31.500070710674,0
edf9a76414d2c79baecb66fa,世友地板(红星美凯龙店),购物,家居建材,江苏省,无锡市,滨湖区,江苏省无锡市滨湖区五湖大道116号红星美凯龙3楼,edf9a76414d2c79baecb66fa,1,0,120.296331,31.499382,18661060065,shopping,http://api.map.baidu.com/place/detail?uid=edf9a76414d2c79baecb66fa&output=html&source=placeapi_v2,,09:00-17:00,,,,,,,,,,,,,,,,120.29626606449,31.500070710674,0
e11f3fed44ddc578f7b916b7,茗品FAMOUS・壹迪软装(红星美凯龙店),购物,家居建材,江苏省,无锡市,滨湖区,无锡市滨湖区五湖大道116号红星美凯龙F6,e11f3fed44ddc578f7b916b7,1,0,120.295483,31.499318,,shopping,http://api.map.baidu.com/place/detail?uid=e11f3fed44ddc578f7b916b7&output=html&source=placeapi_v2,,09:00-17:00,,,,,,,,,,,,,,,,120.29626606449,31.500070710674,0
caed9317f3eb4faf6ca3cc46,大自然床垫(红星美凯龙滨湖店),购物,家居建材,江苏省,无锡市,滨湖区,江苏省无锡市滨湖区五湖大道116号红星美凯龙4楼,caed9317f3eb4faf6ca3cc46,1,0,120.296598,31.499933,13575727301,shopping,http://api.map.baidu.com/place/detail?uid=caed9317f3eb4faf6ca3cc46&output=html&source=placeapi_v2,0.0,09:00-18:00,,,,,,,,,,,,,,,,120.29626606449,31.500070710674,0
fcbfe5efd21d177bbca8229b,金缘玻璃,购物,家居建材,江苏省,无锡市,滨湖区,无锡市滨湖区清晏路仙河苑-一期西南侧约50米,fcbfe5efd21d177bbca8229b,1,0,120.29376,31.474842,15061831828,shopping,http://api.map.baidu.com/place/detail?uid=fcbfe5efd21d177bbca8229b&output=html&source=placeapi_v2,,07:00-18:00,,,,,,,,,,,,,,,,120.29370395165,31.47463395075,0
ae1c07f7998e406d130daabb,新时代窗帘(清晏路店),购物,家居建材,江苏省,无锡市,滨湖区,江苏省无锡市滨湖区清晏路仙河苑二期451-8号,ae1c07f7998e406d130daabb,1,0,120.302083,31.473574,13921106953,shopping,http://api.map.baidu.com/place/detail?uid=ae1c07f7998e406d130daabb&output=html&source=placeapi_v2,,,0.0,,,,,,,,2,,,,,,,120.30208478723,31.473640113547,0
f23642614bc3788240e1925c,欧派(育才路店),购物,家居建材,江苏省,无锡市,滨湖区,无锡市滨湖区育才路文畅苑南侧约80米,f23642614bc3788240e1925c,1,0,120.292835,31.475567,13357916585,shopping,http://api.map.baidu.com/place/detail?uid=f23642614bc3788240e1925c&output=html&source=placeapi_v2,,09:00-18:00,0.0,,,,,,,,1,,,,,,,,,0
696164a11c8399ebc4f025df,敏贤窗帘,购物,家居建材,江苏省,无锡市,滨湖区,江苏省无锡市滨湖区清晏路雪浪仙何苑二期205-5号,696164a11c8399ebc4f025df,1,0,120.303324,31.474237,18352508905,shopping,http://api.map.baidu.com/place/detail?uid=696164a11c8399ebc4f025df&output=html&source=placeapi_v2,,,0.0,,,,,,,,,,,,,,,,,0
cab41fea302d9df288f15dfb,华亨电动工具气动工具,购物,家居建材,江苏省,无锡市,滨湖区,华庄街道华庄镇震泽路瑞景道向南100米公交站台,cab41fea302d9df288f15dfb,1,0,120.34513,31.484678,"(0510)85603147,13861872059",shopping,http://api.map.baidu.com/place/detail?uid=cab41fea302d9df288f15dfb&output=html&source=placeapi_v2,,,3.7,,,,,,,,6,,,,,,,120.34533212409,31.484695328528,0
f7f8f0a32610d2e1ab175aad,圆达门业,购物,家居建材,江苏省,无锡市,滨湖区,江苏省无锡市滨湖区明芳路71号,f7f8f0a32610d2e1ab175aad,1,0,120.348145,31.489199,,shopping,http://api.map.baidu.com/place/detail?uid=f7f8f0a32610d2e1ab175aad&output=html&source=placeapi_v2,,,,,,,,,,,,,,,,,,120.34828023701,31.489223284389,0
a4013ba75cc55bf4e311034e,沪伟焊材,购物,家居建材,江苏省,无锡市,滨湖区,江苏省无锡市滨湖区苏锡西路28-4号,a4013ba75cc55bf4e311034e,1,0,120.347636,31.487359,13616195910,shopping,http://api.map.baidu.com/place/detail?uid=a4013ba75cc55bf4e311034e&output=html&source=placeapi_v2,,,0.0,,,,,,,,1,,,,,,,120.34746174415,31.487325715009,0
2de2bed1b25cc61bfa42b2e1,鹏程钢铁,购物,家居建材,江苏省,无锡市,滨湖区,江苏省无锡市滨湖区震泽路16-12号,2de2bed1b25cc61bfa42b2e1,1,0,120.350243,31.487921,(0510)85601907,shopping,http://api.map.baidu.com/place/detail?uid=2de2bed1b25cc61bfa42b2e1&output=html&source=placeapi_v2,,,,,,,,,,,,,,,,,,,,0
11725c3209bef55ed5851f4a,无锡市华庄顺达建材经营部,购物,家居建材,江苏省,无锡市,滨湖区,华庄街道苏锡西路98号,11725c3209bef55ed5851f4a,1,0,120.343246,31.48763,15251656021,shopping,http://api.map.baidu.com/place/detail?uid=11725c3209bef55ed5851f4a&output=html&source=placeapi_v2,,07:00-19:00,0.0,,,,,,,,1,,,,,,,120.3433887012,31.487772206366,0
8a846001115fa2493686f417,红旗五交化(震泽路店),购物,家居建材,江苏省,无锡市,滨湖区,江苏省无锡市滨湖区震泽路30号,8a846001115fa2493686f417,1,0,120.346913,31.487215,,shopping,http://api.map.baidu.com/place/detail?uid=8a846001115fa2493686f417&output=html&source=placeapi_v2,,06:30-18:00,,,,,,,,,,,,,,,,,,0
587e1eff89e0f739364aae69,昌全彩钢,购物,家居建材,江苏省,无锡市,滨湖区,无锡市滨湖区瑞景道水清木华北侧约240米,587e1eff89e0f739364aae69,1,0,120.344822,31.487505,"13912360432,18351562622",shopping,http://api.map.baidu.com/place/detail?uid=587e1eff89e0f739364aae69&output=html&source=placeapi_v2,,08:00-18:00,,,,,,,,,,,,,,,,,,0
e4626f2ca27793ed1e1d1194,百里通石材,购物,家居建材,江苏省,无锡市,滨湖区,江苏省无锡市滨湖区瑞景道405-10号水清木华168-2号,e4626f2ca27793ed1e1d1194,1,0,120.34459,31.483989,(0510)85758309,shopping,http://api.map.baidu.com/place/detail?uid=e4626f2ca27793ed1e1d1194&output=html&source=placeapi_v2,,08:00-17:00,,,,,,,,,,,,,,,,,,0
ee65495fa2d5f4b6a11de92d,日鑫家具(华清大道店),购物,家居建材,江苏省,无锡市,滨湖区,震泽路1号,ee65495fa2d5f4b6a11de92d,1,0,120.352926,31.48854,13357911802,shopping,http://api.map.baidu.com/place/detail?uid=ee65495fa2d5f4b6a11de92d&output=html&source=placeapi_v2,0.0,08:00-23:30,5,,,,,,,,4,,,,,,,120.35294541959,31.48847159595,0
9d277161f1ce6e6ed0ff2305,中兴不锈钢家装,购物,家居建材,江苏省,无锡市,滨湖区,无锡市滨湖区震泽路育才苑西北侧约270米,9d277161f1ce6e6ed0ff2305,1,0,120.346533,31.486659,13665101536,shopping,http://api.map.baidu.com/place/detail?uid=9d277161f1ce6e6ed0ff2305&output=html&source=placeapi_v2,,,,,,,,,,,,,,,,,,120.34651169355,31.486739687396,0
3ca8725a9a11b5978f1a89bd,五金水暖灯具油漆,购物,家居建材,江苏省,无锡市,滨湖区,江苏省无锡市滨湖区育才路130号,3ca8725a9a11b5978f1a89bd,1,0,120.34607,31.482875,18362375542,shopping,http://api.map.baidu.com/place/detail?uid=3ca8725a9a11b5978f1a89bd&output=html&source=placeapi_v2,,,,,,,,,,,,,,,,,,120.34619088978,31.4827629252,0
255a6814b929f8d2f4231085,华兴水暖电器,购物,家居建材,江苏省,无锡市,滨湖区,江苏省无锡市滨湖区震泽东路3号,255a6814b929f8d2f4231085,1,0,120.353303,31.488082,(0510)85602768,shopping,http://api.map.baidu.com/place/detail?uid=255a6814b929f8d2f4231085&output=html&source=placeapi_v2,,,0,,,,,,,,1,,,,,,,120.35328742786,31.488145664189,0
569a19ee883d07c13813fd4d,正华石材,购物,家居建材,江苏省,无锡市,滨湖区,无锡市滨湖区震泽路水清木华东北侧约260米,569a19ee883d07c13813fd4d,1,0,120.346186,31.486591,"13861468582,15852762291",shopping,http://api.map.baidu.com/place/detail?uid=569a19ee883d07c13813fd4d&output=html&source=placeapi_v2,,,0.0,,,,,,,,1,,,,,,,120.34616961701,31.48667287436,0
6b2ed89473c20ac1843304eb,无锡华益华中轴承,购物,家居建材,江苏省,无锡市,滨湖区,江苏省无锡市滨湖区震泽路20号,6b2ed89473c20ac1843304eb,1,0,120.348509,31.487573,,shopping,http://api.map.baidu.com/place/detail?uid=6b2ed89473c20ac1843304eb&output=html&source=placeapi_v2,,09:00-18:00,0.0,,,,,,,,1,,,,,,,120.34852936587,31.487501027392,0
e7aa607ef84cee0558f6bead,华鑫油漆,购物,家居建材,江苏省,无锡市,滨湖区,江苏省无锡市滨湖区苏锡西路22-4号,e7aa607ef84cee0558f6bead,1,0,120.348456,31.487529,13357911802,shopping,http://api.map.baidu.com/place/detail?uid=e7aa607ef84cee0558f6bead&output=html&source=placeapi_v2,,,,,,,,,,,,,,,,,,120.3484672732,31.487487970537,0
7bf9fd0428a7de6addee8b46,福环轴承,购物,家居建材,江苏省,无锡市,滨湖区,江苏省无锡市滨湖区震泽路16号,7bf9fd0428a7de6addee8b46,1,0,120.349713,31.48781,18762611322,shopping,http://api.map.baidu.com/place/detail?uid=7bf9fd0428a7de6addee8b46&output=html&source=placeapi_v2,,,,,,,,,,,,,,,,,,,,0
1567048dd67d4203715e804b,开开门窗,购物,家居建材,江苏省,无锡市,滨湖区,无锡市滨湖区震泽路华庄集贸市场东北侧约50米,1567048dd67d4203715e804b,1,0,120.35724,31.488471,,shopping,http://api.map.baidu.com/place/detail?uid=1567048dd67d4203715e804b&output=html&source=placeapi_v2,,,5,,,,,,,,2,,,,,,,120.35728844916,31.488551274558,0
3a6daa8229bc6feedeee8bf9,小徐精品移门,购物,家居建材,江苏省,无锡市,滨湖区,江苏省无锡市滨湖区华清路50号,3a6daa8229bc6feedeee8bf9,1,0,120.352004,31.49019,15052202356,shopping,http://api.map.baidu.com/place/detail?uid=3a6daa8229bc6feedeee8bf9&output=html&source=placeapi_v2,,08:00-20:00,,,,,,,,,,,,,,,,,,0
cc7139ab08a974d2774ff1cd,吕业装潢,购物,家居建材,江苏省,无锡市,滨湖区,无锡市滨湖区和风路和风家园西南侧约30米,cc7139ab08a974d2774ff1cd,1,0,120.352473,31.491013,13057246832,shopping,http://api.map.baidu.com/place/detail?uid=cc7139ab08a974d2774ff1cd&output=html&source=placeapi_v2,,07:00-19:00,0.0,,,,,,,,,,,,,,,,,0
4c9b4eb700fce205ee74f85b,华庄家具城,购物,家居建材,江苏省,无锡市,滨湖区,江苏省无锡市滨湖区和风路江苏银行西50米(怡园小区西南),4c9b4eb700fce205ee74f85b,1,0,120.354471,31.488257,13951575755,shopping,http://api.map.baidu.com/place/detail?uid=4c9b4eb700fce205ee74f85b&output=html&source=placeapi_v2,,07:30-20:00,0.0,,,,,,,,1,,,,,,,120.35444104706,31.488417608403,0
eed73ccf1f2098b5a8059d8e,华庄电动卷帘门,购物,家居建材,江苏省,无锡市,滨湖区,无锡市滨湖区华清大道金泰一村东北侧,eed73ccf1f2098b5a8059d8e,1,0,120.352296,31.489304,15152229448,shopping,http://api.map.baidu.com/place/detail?uid=eed73ccf1f2098b5a8059d8e&output=html&source=placeapi_v2,,,,,,,,,,,,,,,,,,120.35241313944,31.489331833872,0
e776e0d4631e5ea0b6f42f8b,昊远轴承五金,购物,家居建材,江苏省,无锡市,滨湖区,江苏省无锡市滨湖区震泽西路16-6号,e776e0d4631e5ea0b6f42f8b,1,0,120.350494,31.487972,(0510)85600566,shopping,http://api.map.baidu.com/place/detail?uid=e776e0d4631e5ea0b6f42f8b&output=html&source=placeapi_v2,,07:30-17:30,0.0,,,,,,,,1,,,,,,,120.3506015348,31.487942564688,0
595ac608b31411068c55ecb8,恒大不锈钢装潢,购物,家居建材,江苏省,无锡市,滨湖区,江苏省无锡市滨湖区育才路96-18号18号,595ac608b31411068c55ecb8,1,0,120.347719,31.483192,13013628513,shopping,http://api.map.baidu.com/place/detail?uid=595ac608b31411068c55ecb8&output=html&source=placeapi_v2,,,,,,,,,,,,,,,,,,120.34776061578,31.482970522845,0
be731f5906879b9d260bd03a,双强五金机电,购物,家居建材,江苏省,无锡市,滨湖区,无锡市滨湖区震泽路怡园小区,be731f5906879b9d260bd03a,1,0,120.356057,31.488988,,shopping,http://api.map.baidu.com/place/detail?uid=be731f5906879b9d260bd03a&output=html&source=placeapi_v2,,06:30-19:00,0,,,,,,,,2,,,,,,,120.35609470803,31.488905615116,0
c8f61c036a308e57eaf853cf,时代家纺,购物,家居建材,江苏省,无锡市,滨湖区,江苏省无锡市滨湖区锡拖路1号,c8f61c036a308e57eaf853cf,1,0,120.354973,31.489109,13921110585,shopping,http://api.map.baidu.com/place/detail?uid=c8f61c036a308e57eaf853cf&output=html&source=placeapi_v2,,,,,,,,,,,,,,,,,,,,0
ab0a18c3327a4592ae04572c,米兰衣柜,购物,家居建材,江苏省,无锡市,滨湖区,江苏省无锡市滨湖区震泽路10号,ab0a18c3327a4592ae04572c,1,0,120.35549,31.488951,,shopping,http://api.map.baidu.com/place/detail?uid=ab0a18c3327a4592ae04572c&output=html&source=placeapi_v2,,09:00-18:00,,,,,,,,,,,,,,,,120.35550061997,31.488843298306,0
03714b738e4721b44151c04d,宏扬钢丝绳,购物,家居建材,江苏省,无锡市,滨湖区,江苏省无锡市滨湖区公园路14号,03714b738e4721b44151c04d,1,0,120.355922,31.486646,,shopping,http://api.map.baidu.com/place/detail?uid=03714b738e4721b44151c04d&output=html&source=placeapi_v2,,,0,,,,,,,,1,,,,,,,120.35609940976,31.486695538892,0
efdb43d939bbb58536b06ce7,华丰装潢五金,购物,家居建材,江苏省,无锡市,滨湖区,江苏省无锡市滨湖区震泽路7号,efdb43d939bbb58536b06ce7,1,0,120.353527,31.488119,(0510)85602386,shopping,http://api.map.baidu.com/place/detail?uid=efdb43d939bbb58536b06ce7&output=html&source=placeapi_v2,,08:00-18:30,0,,,,,,,,1,,,,,,,120.35336961383,31.488214928898,0
b341d87b6bdd5ca93517dcc6,亿宝金属,购物,家居建材,江苏省,无锡市,滨湖区,江苏省无锡市滨湖区震泽路59-9号,b341d87b6bdd5ca93517dcc6,1,0,120.358644,31.488592,,shopping,http://api.map.baidu.com/place/detail?uid=b341d87b6bdd5ca93517dcc6&output=html&source=placeapi_v2,,07:00-21:00,0,,,,,,,,2,,,,,,,,,0
4dd86ceb7fdbdf3d17b54b33,艾尚鞋柜(公园路店),购物,家居建材,江苏省,无锡市,滨湖区,食品药品监督管理局华庄分局西,4dd86ceb7fdbdf3d17b54b33,1,0,120.354619,31.487177,,shopping,http://api.map.baidu.com/place/detail?uid=4dd86ceb7fdbdf3d17b54b33&output=html&source=placeapi_v2,,10:00-22:00,0,,,,,,,,1,,,,,,,120.35462626957,31.487290302758,0
fcd754f89ad4301e2b3a9f57,伟忠水暖,购物,家居建材,江苏省,无锡市,新吴区,江苏省无锡市新吴区新湖南街24号,fcd754f89ad4301e2b3a9f57,1,0,120.39323,31.486185,13914255180,shopping,http://api.map.baidu.com/place/detail?uid=fcd754f89ad4301e2b3a9f57&output=html&source=placeapi_v2,,08:00-19:00,,,,,,,,,,,,,,,,,,0
5f04c23ae94d13547ab55c31,远大钢材(振新路店),购物,家居建材,江苏省,无锡市,新吴区,华新北路南湖园大酒店东侧约220米,5f04c23ae94d13547ab55c31,1,0,120.39802,31.48965,15190295186,shopping,http://api.map.baidu.com/place/detail?uid=5f04c23ae94d13547ab55c31&output=html&source=placeapi_v2,,,3.2,,,,,,,,0,,,,,,,120.39812245952,31.489826996239,0
b19dd98e6a360e2f7adbd2a4,建良水暖,购物,家居建材,江苏省,无锡市,新吴区,无锡市新吴区新湖南街无锡市新安实验小学东南侧约80米,b19dd98e6a360e2f7adbd2a4,1,0,120.392766,31.486376,"13057303803,13395145393",shopping,http://api.map.baidu.com/place/detail?uid=b19dd98e6a360e2f7adbd2a4&output=html&source=placeapi_v2,,08:00-22:00,,,,,,,,,,,,,,,,,,0
0ddf44fc85e61b77c3364462,必方斋中式古典家具,购物,家居建材,江苏省,无锡市,新吴区,江苏省无锡市新吴区城南路210-2号,0ddf44fc85e61b77c3364462,1,0,120.393105,31.500797,13951561415,shopping,http://api.map.baidu.com/place/detail?uid=0ddf44fc85e61b77c3364462&output=html&source=placeapi_v2,,08:00-22:00,,,,,,,,,,,,,,,,,,0
c8e1ed94c064b6a98d1a8948,新潮窗帘(南湖园路店),购物,家居建材,江苏省,无锡市,新吴区,江苏省无锡市新吴区区南湖园路5-1号,c8e1ed94c064b6a98d1a8948,1,0,120.395802,31.489044,(0510)85381814,shopping,http://api.map.baidu.com/place/detail?uid=c8e1ed94c064b6a98d1a8948&output=html&source=placeapi_v2,,,,,,,,,,,,,,,,,,120.39570915907,31.48908043429,0
e01e9b40102bb7680b5cb30c,暖羊羊绒线店,购物,家居建材,江苏省,无锡市,新吴区,无锡市新吴区新湖南街无锡市新安实验小学东南侧约50米,e01e9b40102bb7680b5cb30c,1,0,120.392616,31.486648,13915289157,shopping,http://api.map.baidu.com/place/detail?uid=e01e9b40102bb7680b5cb30c&output=html&source=placeapi_v2,,08:00-18:00,,,,,,,,,,,,,,,,,,0
4eafc7a49e6fb36a4f3a5997,永盛彩钢(振新路店),购物,家居建材,江苏省,无锡市,新吴区,江苏省无锡市新吴区华新北路12号,4eafc7a49e6fb36a4f3a5997,1,0,120.398137,31.490072,18001513422,shopping,http://api.map.baidu.com/place/detail?uid=4eafc7a49e6fb36a4f3a5997&output=html&source=placeapi_v2,,06:00-20:00,0.0,,,,,,,,,,,,,,,,,0
bc68ef2ecab590382bd7ab10,飞腾五金机电总汇,购物,家居建材,江苏省,无锡市,新吴区,江苏省无锡市新吴区通祥路2-2号,bc68ef2ecab590382bd7ab10,1,0,120.457034,31.48891,13665169436,shopping,http://api.map.baidu.com/place/detail?uid=bc68ef2ecab590382bd7ab10&output=html&source=placeapi_v2,,,0,,,,,,,,1,,,,,,,120.45689319651,31.488951038539,0
82b35ccb19fe150e76e5b6c3,铁木家具(政通路店),购物,家居建材,江苏省,无锡市,新吴区,江苏省无锡市新吴区政通路3号,82b35ccb19fe150e76e5b6c3,1,0,120.456456,31.487066,13665122583,shopping,http://api.map.baidu.com/place/detail?uid=82b35ccb19fe150e76e5b6c3&output=html&source=placeapi_v2,,08:00-20:00,0.0,,,,,,,,,,,,,,,120.45638889409,31.486942736647,0
9bbd0520004596fad1f49eef,新旧家具销售,购物,家居建材,江苏省,无锡市,新吴区,江苏省无锡市新吴区墙宅路咏硕苑101-1号,9bbd0520004596fad1f49eef,1,0,120.461952,31.487455,"15861689456,18914169182",shopping,http://api.map.baidu.com/place/detail?uid=9bbd0520004596fad1f49eef&output=html&source=placeapi_v2,,,,,,,,,,,,,,,,,,,,0
7ab7832c119a1890130daa67,小王高压油管,购物,家居建材,江苏省,无锡市,新吴区,无锡市新吴区墙宅路179.-1号,7ab7832c119a1890130daa67,1,0,120.458724,31.488586,"15261663821,15358009557",shopping,http://api.map.baidu.com/place/detail?uid=7ab7832c119a1890130daa67&output=html&source=placeapi_v2,,07:30-19:00,,,,,,,,,,,,,,,,120.45881959202,31.488774871861,0
c8e8f633c85d406caa0dd8a9,金太阳电器灯具行,购物,家居建材,江苏省,无锡市,新吴区,江苏省无锡市新吴区墙宅路251号,c8e8f633c85d406caa0dd8a9,1,0,120.45532,31.490137,"(0510)85307136,13013612528,18951563818",shopping,http://api.map.baidu.com/place/detail?uid=c8e8f633c85d406caa0dd8a9&output=html&source=placeapi_v2,,06:00-21:00,0,,,,,,,,1,,,,,,,120.45536172395,31.490215942462,0
15adb86bf33ad53c902ca397,晓袁装潢,购物,家居建材,江苏省,无锡市,新吴区,无锡市新吴区墙宅路江苏省无锡市硕放职业学校东南侧约80米,15adb86bf33ad53c902ca397,1,0,120.454537,31.49045,13382227938,shopping,http://api.map.baidu.com/place/detail?uid=15adb86bf33ad53c902ca397&output=html&source=placeapi_v2,,,,,,,,,,,,,,,,,,,,0
ae12f4eba41872b35abbbc66,盛得利五金电器,购物,家居建材,江苏省,无锡市,新吴区,江苏省无锡市新吴区墙宅路470号,ae12f4eba41872b35abbbc66,1,0,120.45403,31.490469,18961762125,shopping,http://api.map.baidu.com/place/detail?uid=ae12f4eba41872b35abbbc66&output=html&source=placeapi_v2,,06:30-21:00,0.0,,,,,,,,,,,,,,,120.45405232666,31.490327924504,0
0516eb67531ccafae60738af,豪雅灯饰(硕放专卖店),购物,家居建材,江苏省,无锡市,新吴区,江苏省无锡市新吴区通祥路262号,0516eb67531ccafae60738af,1,0,120.452816,31.481245,13815104196,shopping,http://api.map.baidu.com/place/detail?uid=0516eb67531ccafae60738af&output=html&source=placeapi_v2,,08:00-21:00,5,,,,,,,,2,,,,,,,120.45270913558,31.481264809455,0
a0770cea714150815d17c3d2,欧派家纺(振发路店),购物,家居建材,江苏省,无锡市,新吴区,江苏省无锡市新吴区振发路181号,a0770cea714150815d17c3d2,1,0,120.46094,31.482446,13073259645,shopping,http://api.map.baidu.com/place/detail?uid=a0770cea714150815d17c3d2&output=html&source=placeapi_v2,0.0,08:00-22:00,3.7,,,,,,,,0,,,,,,,120.46084177833,31.482299408899,0
c465a1c95a6761a34f6d46ba,嘉平白铁店,购物,家居建材,江苏省,无锡市,新吴区,无锡市新吴区墙宅路江苏省无锡市硕放职业学校东南侧约60米,c465a1c95a6761a34f6d46ba,1,0,120.454325,31.490457,,shopping,http://api.map.baidu.com/place/detail?uid=c465a1c95a6761a34f6d46ba&output=html&source=placeapi_v2,,,,,,,,,,,,,,,,,,,,0
5f20cef10013387f734b87df,典雅窗帘城,购物,家居建材,江苏省,无锡市,新吴区,江苏省无锡市新吴区南星路201号,5f20cef10013387f734b87df,1,0,120.449736,31.479393,"15190262926,15995251956",shopping,http://api.map.baidu.com/place/detail?uid=5f20cef10013387f734b87df&output=html&source=placeapi_v2,,08:00-20:00,3.2,,,,,,,,2,,,,,,,120.44990158771,31.479644891775,0
14f1fc26ec3c50859868b4f3,巴黎衣柜(振发路店),购物,家居建材,江苏省,无锡市,新吴区,江苏省无锡市新吴区振发路68号,14f1fc26ec3c50859868b4f3,1,0,120.455921,31.484406,15052283042,shopping,http://api.map.baidu.com/place/detail?uid=14f1fc26ec3c50859868b4f3&output=html&source=placeapi_v2,,10:00-21:00,0,,,,,,,,0,,,,,,,,,0
1edaa891904146dc8505bfc8,晋帛家纺(通祥路店),购物,家居建材,江苏省,无锡市,新吴区,江苏省无锡市新吴区通祥路248号,1edaa891904146dc8505bfc8,1,0,120.452912,31.481628,,shopping,http://api.map.baidu.com/place/detail?uid=1edaa891904146dc8505bfc8&output=html&source=placeapi_v2,,09:00-21:00,3.5,,,,,,,,0,,,,,,,,,0
4f8be05df72f7a83f8dc859a,钱勇不锈钢剪折加工中心,购物,家居建材,江苏省,无锡市,新吴区,江苏省无锡市新吴区薛典北路82号c区28号,4f8be05df72f7a83f8dc859a,1,0,120.469464,31.502755,,shopping,http://api.map.baidu.com/place/detail?uid=4f8be05df72f7a83f8dc859a&output=html&source=placeapi_v2,,07:30-20:00,,,,,,,,,,,,,,,,,,0
10622bf557bb93320c0a70bc,童年的衣柜,购物,家居建材,江苏省,无锡市,新吴区,江苏省无锡市新吴区盈发路通祥三村20-3号,10622bf557bb93320c0a70bc,1,0,120.45481,31.483771,13812532723,shopping,http://api.map.baidu.com/place/detail?uid=10622bf557bb93320c0a70bc&output=html&source=placeapi_v2,,08:00-20:35,,,,,,,,,,,,,,,,,,0
0ab52108608d292a8936eecd,文涛木业,购物,家居建材,江苏省,无锡市,新吴区,江苏省无锡市新吴区南星二路92号,0ab52108608d292a8936eecd,1,0,120.447191,31.478901,13585079148,shopping,http://api.map.baidu.com/place/detail?uid=0ab52108608d292a8936eecd&output=html&source=placeapi_v2,,,0,,,,,,,,1,,,,,,,120.44707164149,31.478730392167,0
2e41df8267fb278ada2f287a,苏晨不锈钢,购物,家居建材,江苏省,无锡市,新吴区,江苏省无锡市新吴区薛典路82号E11无锡硕放不锈钢物流园E11号,2e41df8267fb278ada2f287a,1,0,120.467226,31.505807,"(0510)81006621,(0510)88217451",shopping,http://api.map.baidu.com/place/detail?uid=2e41df8267fb278ada2f287a&output=html&source=placeapi_v2,,,3.4,,,,,,,,0,,,,,,,,,0
fe6a8ddb2e83598a3904b107,红豆居家(硕放店),购物,家居建材,江苏省,无锡市,新吴区,江苏省无锡市新吴区通祥路61号,fe6a8ddb2e83598a3904b107,1,0,120.453789,31.484298,(0510)85301945,shopping,http://api.map.baidu.com/place/detail?uid=fe6a8ddb2e83598a3904b107&output=html&source=placeapi_v2,0.0,08:30-21:30,3.5,,,,,,,,1,,,,,,,,,0
004cde8b63d1b02938221ca4,德国柏丽橱柜总仓,购物,家居建材,江苏省,无锡市,新吴区,江苏省无锡市新吴区欣鸿路1088号,,1,0,120.475434,31.503934,,shopping,http://api.map.baidu.com/place/detail?uid=004cde8b63d1b02938221ca4&output=html&source=placeapi_v2,,,,,,,,,,,,,,,,,,,,0
4579868fda1dde3b82288aa1,金源剪折弯,购物,家居建材,江苏省,无锡市,新吴区,无锡市新吴区硕放不锈钢物流园C19-C20号,4579868fda1dde3b82288aa1,1,0,120.469261,31.503078,(0510)85301566,shopping,http://api.map.baidu.com/place/detail?uid=4579868fda1dde3b82288aa1&output=html&source=placeapi_v2,,08:00-20:00,,,,,,,,,,,,,,,,,,0
241f597725ffa4aa41d63e07,钢坚钢带(精密分条),购物,家居建材,江苏省,无锡市,新吴区,无锡市新吴区经一路无锡硕放不锈钢物流园西南门北侧约100米,241f597725ffa4aa41d63e07,1,0,120.470788,31.500059,,shopping,http://api.map.baidu.com/place/detail?uid=241f597725ffa4aa41d63e07&output=html&source=placeapi_v2,,,,,,,,,,,,,,,,,,,,0
d4572232d76590bb21026221,敏惠不锈钢,购物,家居建材,江苏省,无锡市,新吴区,江苏省无锡市新吴区薛典北路硕放不锈钢物流园d39号,d4572232d76590bb21026221,1,0,120.468301,31.505478,18914113591,shopping,http://api.map.baidu.com/place/detail?uid=d4572232d76590bb21026221&output=html&source=placeapi_v2,,,,,,,,,,,,,,,,,,,,0
62316fc48c4964cb82288a21,乐顺门业,购物,家居建材,江苏省,无锡市,新吴区,江苏省无锡市新吴区南星二路49号,62316fc48c4964cb82288a21,1,0,120.448656,31.477656,"18914168183,18914169655",shopping,http://api.map.baidu.com/place/detail?uid=62316fc48c4964cb82288a21&output=html&source=placeapi_v2,,,,,,,,,,,,,,,,,,120.44878957801,31.477844460063,0
8c15376272417f4604fef506,云杰装饰(南星一路),购物,家居建材,江苏省,无锡市,新吴区,江苏无锡市新吴区南星路296号,8c15376272417f4604fef506,1,0,120.447956,31.48099,(0510)81007662,shopping,http://api.map.baidu.com/place/detail?uid=8c15376272417f4604fef506&output=html&source=placeapi_v2,,08:00-18:30,,,,,,,,,,,,,,,,120.44792666574,31.480931681018,0
ed64b3ea1d7b5bd014948e9a,光芒厨卫电器(硕放专卖店),购物,家居建材,江苏省,无锡市,新吴区,江苏省无锡市新吴区南星苑二路80号,ed64b3ea1d7b5bd014948e9a,1,0,120.447605,31.47875,13665109895,shopping,http://api.map.baidu.com/place/detail?uid=ed64b3ea1d7b5bd014948e9a&output=html&source=placeapi_v2,,08:00-20:00,0,,,,,,,,2,,,,,,,120.44745445977,31.478533899286,0
bdef85fad273cd328c1a8918,阿国钛合金移门,购物,家居建材,江苏省,无锡市,新吴区,江苏省无锡市新吴区南星苑二路10号,bdef85fad273cd328c1a8918,1,0,120.448768,31.477665,13405770083,shopping,http://api.map.baidu.com/place/detail?uid=bdef85fad273cd328c1a8918&output=html&source=placeapi_v2,,,0,,,,,,,,1,,,,,,,,,0
37b8b9edc859338a7f29bd16,新世纪移门(南星苑二路店),购物,家居建材,江苏省,无锡市,新吴区,江苏省无锡市新吴区南星二路86号,37b8b9edc859338a7f29bd16,1,0,120.447363,31.478808,13814267160,shopping,http://api.map.baidu.com/place/detail?uid=37b8b9edc859338a7f29bd16&output=html&source=placeapi_v2,,,0,,,,,,,,0,,,,,,,,,0
8b1330cfe23531b325e0a0fe,宏鑫移门,购物,家居建材,江苏省,无锡市,新吴区,江苏省无锡市新吴区南星苑二路94号,8b1330cfe23531b325e0a0fe,1,0,120.44713,31.478965,13771052715,shopping,http://api.map.baidu.com/place/detail?uid=8b1330cfe23531b325e0a0fe&output=html&source=placeapi_v2,,09:30-23:30,0.0,,,,,,,,,,,,,,,120.44701026387,31.478761234084,0
b4b1abad049e6b6309b93aae,亿鑫彩钢,购物,家居建材,江苏省,无锡市,新吴区,江苏省无锡市新吴区后宅中路94号,b4b1abad049e6b6309b93aae,1,0,120.502044,31.489125,15052137256,shopping,http://api.map.baidu.com/place/detail?uid=b4b1abad049e6b6309b93aae&output=html&source=placeapi_v2,,,,,,,,,,,,,,,,,,,,0
19d69ba70e555ae2babd63a6,时尚家具广场,购物,家居建材,江苏省,无锡市,新吴区,江苏省无锡市新吴区鸿福苑37-77号,19d69ba70e555ae2babd63a6,1,0,120.49735,31.496197,13921162229,shopping,http://api.map.baidu.com/place/detail?uid=19d69ba70e555ae2babd63a6&output=html&source=placeapi_v2,,,0,,,,,,,,1,,,,,,,120.49735264043,31.496246391698,0
8debbfc36b0cadc00bccdd43,晓黄不锈钢铝合金装潢部,购物,家居建材,江苏省,无锡市,新吴区,无锡市新吴区锦鸿路25号,8debbfc36b0cadc00bccdd43,1,0,120.500974,31.494793,13665151759,shopping,http://api.map.baidu.com/place/detail?uid=8debbfc36b0cadc00bccdd43&output=html&source=placeapi_v2,,,,,,,,,,,,,,,,,,120.50095084087,31.494624288669,0
6d187f97e9a022b096ca0736,宝磊石材,购物,家居建材,江苏省,无锡市,新吴区,无锡市新吴区鸿昌路明园・星都西南侧约270米,6d187f97e9a022b096ca0736,1,0,120.496347,31.489185,13861463481,shopping,http://api.map.baidu.com/place/detail?uid=6d187f97e9a022b096ca0736&output=html&source=placeapi_v2,,,,,,,,,,,,,,,,,,,,0
a356f6dd214aafffc9fa5fd6,无锡凯华塑业建材,购物,家居建材,江苏省,无锡市,新吴区,江苏省无锡市新吴区鸿山路207号,a356f6dd214aafffc9fa5fd6,1,0,120.503872,31.493545,(0510)88998980,shopping,http://api.map.baidu.com/place/detail?uid=a356f6dd214aafffc9fa5fd6&output=html&source=placeapi_v2,,09:00-21:00,,,,,,,,,,,,,,,,,,0
511382b85e7f3d2659bbbc45,天蚕窗帘墙布(鸿昌路店),购物,家居建材,江苏省,无锡市,新吴区,江苏省无锡市新吴区鸿昌路1223号,511382b85e7f3d2659bbbc45,1,0,120.496384,31.495771,13665106217,shopping,http://api.map.baidu.com/place/detail?uid=511382b85e7f3d2659bbbc45&output=html&source=placeapi_v2,0.0,,,,,,,,,,,,,,,,,120.49645846892,31.495745363201,0
f161725cf885c48f230220c3,胡氏装璜,购物,家居建材,江苏省,无锡市,新吴区,江苏省无锡市新吴区鸿山路唐明园11号,f161725cf885c48f230220c3,1,0,120.503225,31.495979,15852799589,shopping,http://api.map.baidu.com/place/detail?uid=f161725cf885c48f230220c3&output=html&source=placeapi_v2,,,,,,,,,,,,,,,,,,,,0
5f9f86c23569f3b9f942b2d8,大卫地板(锦鸿东路店),购物,家居建材,江苏省,无锡市,新吴区,江苏省无锡市新吴区区锦鸿东路5号,5f9f86c23569f3b9f942b2d8,1,0,120.504323,31.494143,13814285001,shopping,http://api.map.baidu.com/place/detail?uid=5f9f86c23569f3b9f942b2d8&output=html&source=placeapi_v2,,09:00-17:30,0,,,,,,,,1,,,,,,,120.50432223445,31.494173413454,0
b15be4158bc9919616c905c6,华鑫家俱(鸿昌路店),购物,家居建材,江苏省,无锡市,新吴区,江苏省无锡市新吴区鸿福苑37-69号,b15be4158bc9919616c905c6,1,0,120.497064,31.495944,"13584193783,13771413984",shopping,http://api.map.baidu.com/place/detail?uid=b15be4158bc9919616c905c6&output=html&source=placeapi_v2,,,,,,,,,,,,,,,,,,,,0
4cad91d8cd564cc34107c1d3,舜杰五金(鸿运路店),购物,家居建材,江苏省,无锡市,新吴区,江苏省无锡市新吴区鸿运路133号,4cad91d8cd564cc34107c1d3,1,0,120.492202,31.501964,(0510)88520701,shopping,http://api.map.baidu.com/place/detail?uid=4cad91d8cd564cc34107c1d3&output=html&source=placeapi_v2,,00:00-24:00,0.0,,,,,,,,1,,,,,,,120.49240293574,31.501965275286,0
64ff3be1f25928a290114c03,东林家具,购物,家居建材,江苏省,无锡市,新吴区,江苏省无锡市新吴区建鸿路2号,64ff3be1f25928a290114c03,1,0,120.513765,31.477826,,shopping,http://api.map.baidu.com/place/detail?uid=64ff3be1f25928a290114c03&output=html&source=placeapi_v2,,,0.0,,,,,,,,,,,,,,,120.51358934184,31.47775761146,0
d6438add8f0baeb1246e984b,宜然之家家具工厂直销店,购物,家居建材,江苏省,无锡市,新吴区,江苏省无锡市新吴区锡协路212号1楼,d6438add8f0baeb1246e984b,1,0,120.499465,31.50697,,shopping,http://api.map.baidu.com/place/detail?uid=d6438add8f0baeb1246e984b&output=html&source=placeapi_v2,,10:00-22:00,,,,,,,,,,,,,,,,120.49946508383,31.50707031401,0
411edfe152e595251fe999fe,大墙门窗帘,购物,家居建材,江苏省,无锡市,新吴区,江苏省无锡市新吴区欣鸿路497号,411edfe152e595251fe999fe,1,0,120.492121,31.499494,15251668298,shopping,http://api.map.baidu.com/place/detail?uid=411edfe152e595251fe999fe&output=html&source=placeapi_v2,,,0.0,,,,,,,,1,,,,,,,120.49218387766,31.499495217951,0
ed7e53713d05c6e0c356ac48,凤雅窗帘,购物,家居建材,江苏省,无锡市,新吴区,江苏省无锡市新吴区鸿运街48号,ed7e53713d05c6e0c356ac48,1,0,120.489452,31.500577,13771066102,shopping,http://api.map.baidu.com/place/detail?uid=ed7e53713d05c6e0c356ac48&output=html&source=placeapi_v2,,08:00-21:00,0,,,,,,,,1,,,,,,,120.48944989921,31.500374820774,0
2fe51a243a5109489e9d68c0,绅威木地板批发,购物,家居建材,江苏省,无锡市,新吴区,后坊路与坊中路交叉口西50米,2fe51a243a5109489e9d68c0,1,0,120.538492,31.481241,"13584898022,13656242697",shopping,http://api.map.baidu.com/place/detail?uid=2fe51a243a5109489e9d68c0&output=html&source=placeapi_v2,,09:00-17:30,,,,,,,,,,,,,,,,,,0
6a4a41fb6c535d3707fef5d9,中国无锡东方工艺品经营部,购物,家居建材,江苏省,无锡市,滨湖区,江苏省无锡市滨湖区山水东路9号淡水渔业研究中心中间大门2楼,6a4a41fb6c535d3707fef5d9,1,0,120.249508,31.517188,,shopping,http://api.map.baidu.com/place/detail?uid=6a4a41fb6c535d3707fef5d9&output=html&source=placeapi_v2,,,3.5,,,,,,,,0,,,,,,,,,0
f48e67497ff2840382a12e73,窗帘城,购物,家居建材,江苏省,无锡市,滨湖区,江苏省无锡市滨湖区周新中路114号,f48e67497ff2840382a12e73,1,0,120.30435,31.513702,13906189646,shopping,http://api.map.baidu.com/place/detail?uid=f48e67497ff2840382a12e73&output=html&source=placeapi_v2,,07:00-19:30,,,,,,,,,,,,,,,,120.30438857615,31.513564665123,0
c1265214dd3b2b8e40e1926c,金泉防水,购物,家居建材,江苏省,无锡市,梁溪区,江苏省无锡市梁溪区新联家园1-1号,c1265214dd3b2b8e40e1926c,1,0,120.307069,31.533144,13338772510,shopping,http://api.map.baidu.com/place/detail?uid=c1265214dd3b2b8e40e1926c&output=html&source=placeapi_v2,,07:00-17:00,,,,,,,,,,,,,,,,120.30697244595,31.533242149852,0
551e398e21830829f33cba5c,俊锋五金交电,购物,家居建材,江苏省,无锡市,滨湖区,江苏省无锡市滨湖区锡南路143~145号,551e398e21830829f33cba5c,1,0,120.301279,31.515708,13951589366,shopping,http://api.map.baidu.com/place/detail?uid=551e398e21830829f33cba5c&output=html&source=placeapi_v2,,06:30-19:00,5.0,,,,,,,,4,,,,,,,120.30119050343,31.515707527358,0
5468826417460b9eb45f1e8b,芦庄家具大卖场,购物,家居建材,江苏省,无锡市,梁溪区,江苏省无锡市梁溪区金城西路803-5号803-5,5468826417460b9eb45f1e8b,1,0,120.312046,31.536764,13961874109,shopping,http://api.map.baidu.com/place/detail?uid=5468826417460b9eb45f1e8b&output=html&source=placeapi_v2,,10:00-18:00,3.7,,,,,,,,3,,,,,,,120.31209561522,31.536861560003,0
fba28badaeebb5eb1b94c692,召明布艺,购物,家居建材,江苏省,无锡市,滨湖区,江苏省无锡市滨湖区周新中路159号,fba28badaeebb5eb1b94c692,1,0,120.304765,31.51338,15806191525,shopping,http://api.map.baidu.com/place/detail?uid=fba28badaeebb5eb1b94c692&output=html&source=placeapi_v2,,07:00-21:00,3.4,,,,,,,,,,,,,,,120.30466488774,31.513529143231,0
ca36aa9bc1891ddf31f71dd9,裕华门业,购物,家居建材,江苏省,无锡市,梁溪区,江苏省无锡市梁溪区中南路53号,ca36aa9bc1891ddf31f71dd9,1,0,120.311225,31.53813,13915260536,shopping,http://api.map.baidu.com/place/detail?uid=ca36aa9bc1891ddf31f71dd9&output=html&source=placeapi_v2,,10:00-18:00,3.4,,,,,,,,3,,,,,,,120.31138511305,31.53823852246,0
2b44c198cb80897726d2bb6b,慕尚布艺,购物,家居建材,江苏省,无锡市,滨湖区,江苏省无锡市滨湖区周新中路139号,2b44c198cb80897726d2bb6b,1,0,120.305218,31.513597,"15861495065,18762635598",shopping,http://api.map.baidu.com/place/detail?uid=2b44c198cb80897726d2bb6b&output=html&source=placeapi_v2,,08:00-21:00,,,,,,,,,,,,,,,,,,0
38dddf5a8d02cb1bac080fe8,长荣石材,购物,家居建材,江苏省,无锡市,滨湖区,江苏省无锡市滨湖区金石东路149号芦庄六区,38dddf5a8d02cb1bac080fe8,1,0,120.316408,31.528951,"15061889463,18626058881",shopping,http://api.map.baidu.com/place/detail?uid=38dddf5a8d02cb1bac080fe8&output=html&source=placeapi_v2,,,,,,,,,,,,,,,,,,,,0
18a544d7152c13d6f8f0cbdd,百利斯洁具卫浴,购物,家居建材,江苏省,无锡市,滨湖区,无锡市滨湖区芦庄路芦庄六区小区-东区西南侧约30米,18a544d7152c13d6f8f0cbdd,1,0,120.313031,31.528284,"13646172699,15312226213",shopping,http://api.map.baidu.com/place/detail?uid=18a544d7152c13d6f8f0cbdd&output=html&source=placeapi_v2,,10:00-18:00,,,,,,,,,,,,,,,,120.31307443136,31.528313512852,0
fe8969c92d2a3bf92b06ce27,老胡精品凉席床上用品,购物,家居建材,江苏省,无锡市,梁溪区,无锡市梁溪区芦庄路新联苑-东区西侧,fe8969c92d2a3bf92b06ce27,1,0,120.309056,31.534135,13812263864,shopping,http://api.map.baidu.com/place/detail?uid=fe8969c92d2a3bf92b06ce27&output=html&source=placeapi_v2,,08:00-20:00,3.5,,,,,,,,0,,,,,,,,,0
947c7ed992b2b54ff03cba2b,家保装饰防水堵漏,购物,家居建材,江苏省,无锡市,滨湖区,江苏省无锡市滨湖区周新中路52号,947c7ed992b2b54ff03cba2b,1,0,120.309759,31.514582,"(0510)82260065,13812262586",shopping,http://api.map.baidu.com/place/detail?uid=947c7ed992b2b54ff03cba2b&output=html&source=placeapi_v2,,,,,,,,,,,,,,,,,,120.30974633701,31.514626264706,0
9ce2651ecbc53a0b3617dc5f,永光灯具五金商行,购物,家居建材,江苏省,无锡市,梁溪区,无锡市梁溪区金城路920号,9ce2651ecbc53a0b3617dc5f,1,0,120.309721,31.535721,(0510)85409754,shopping,http://api.map.baidu.com/place/detail?uid=9ce2651ecbc53a0b3617dc5f&output=html&source=placeapi_v2,,,3.3,,,,,,,,2,,,,,,,,,0
1522647a1a1130ada2a9341b,旦升钢材脚手架出租,购物,家居建材,江苏省,无锡市,梁溪区,江苏省无锡市梁溪区中南路89号,1522647a1a1130ada2a9341b,1,0,120.31057,31.538848,"13771015156,13921392100",shopping,http://api.map.baidu.com/place/detail?uid=1522647a1a1130ada2a9341b&output=html&source=placeapi_v2,,,3.3,,,,,,,,2,,,,,,,120.31073368256,31.538956088861,0
d42607833de765490782c2f4,创星家具厂直营店(芦庄家具店),购物,家居建材,江苏省,无锡市,梁溪区,江苏省无锡市梁溪区金城路825号,d42607833de765490782c2f4,1,0,120.309215,31.534787,13338775811,shopping,http://api.map.baidu.com/place/detail?uid=d42607833de765490782c2f4&output=html&source=placeapi_v2,,08:00-20:30,3.7,,,,,,,,,,,,,,,120.3091553993,31.534851442815,0
38fdc69923d3c51c72210bdf,名家新多防盗门保险箱总经销,购物,家居建材,江苏省,无锡市,梁溪区,无锡市梁溪区兴锡巷中联新村,38fdc69923d3c51c72210bdf,1,0,120.306135,31.538836,"13616179788,13616199965",shopping,http://api.map.baidu.com/place/detail?uid=38fdc69923d3c51c72210bdf&output=html&source=placeapi_v2,,08:00-17:00,,,,,,,,,,,,,,,,120.30621549959,31.538794081664,0
bdedaef02b722a2a7adbd2bb,水星家纺(万象城金石路店),购物,家居建材,江苏省,无锡市,滨湖区,江苏省无锡市滨湖区金石路88号万象城F3,bdedaef02b722a2a7adbd2bb,1,0,120.289849,31.519339,18051504959,shopping,http://api.map.baidu.com/place/detail?uid=bdedaef02b722a2a7adbd2bb&output=html&source=placeapi_v2,,10:00-22:00,4.7,,,,,,,,0,,,,,,,120.29090849767,31.519910063567,0
75053aab15964ba5c61b754d,阿宝家纺,购物,家居建材,江苏省,无锡市,梁溪区,无锡市梁溪区芦庄路新联苑-东区西侧,75053aab15964ba5c61b754d,1,0,120.309071,31.534164,,shopping,http://api.map.baidu.com/place/detail?uid=75053aab15964ba5c61b754d&output=html&source=placeapi_v2,,,,,,,,,,,1,,,,,,,,,0
054df55302257a2d09a8d420,国晓石材,购物,家居建材,江苏省,无锡市,滨湖区,江苏省无锡市滨湖区周新东路31号,054df55302257a2d09a8d420,1,0,120.31411,31.515489,"13906179782,13961890695",shopping,http://api.map.baidu.com/place/detail?uid=054df55302257a2d09a8d420&output=html&source=placeapi_v2,,10:00-23:00,,,,,,,,,,,,,,,,120.31405470096,31.515653309191,0
baee3e5ff5c27a0e9122e050,兴华玻璃移门家居(华盛苑南),购物,家居建材,江苏省,无锡市,滨湖区,江苏省无锡市滨湖区锡南路153号,baee3e5ff5c27a0e9122e050,1,0,120.301294,31.515501,15312211101,shopping,http://api.map.baidu.com/place/detail?uid=baee3e5ff5c27a0e9122e050&output=html&source=placeapi_v2,,,0,,,,,,,,1,,,,,,,120.30119260547,31.515499919139,0
194510ff165b9739ca09f025,鑫达钢材(锡南路店),购物,家居建材,江苏省,无锡市,滨湖区,江苏省无锡市滨湖区锡南路94号,194510ff165b9739ca09f025,1,0,120.30077,31.516478,"15106173848,15261548038",shopping,http://api.map.baidu.com/place/detail?uid=194510ff165b9739ca09f025&output=html&source=placeapi_v2,,,0.0,,,,,,,,1,,,,,,,120.30092314615,31.516338056592,0
5d7200810d49ddb18c1a89e0,优格门窗(金石东路店),购物,家居建材,江苏省,无锡市,滨湖区,江苏省无锡市滨湖区金石路芦庄六区145号,5d7200810d49ddb18c1a89e0,1,0,120.31583,31.528599,13771025097,shopping,http://api.map.baidu.com/place/detail?uid=5d7200810d49ddb18c1a89e0&output=html&source=placeapi_v2,,10:00-17:00,,,,,,,,,,,,,,,,,,0
98e8d4a0a2714e85f82d613e,金石门业,购物,家居建材,江苏省,无锡市,滨湖区,江苏省无锡市滨湖区金石东路149~150号,98e8d4a0a2714e85f82d613e,1,0,120.316411,31.528924,13961888496,shopping,http://api.map.baidu.com/place/detail?uid=98e8d4a0a2714e85f82d613e&output=html&source=placeapi_v2,,10:00-18:00,,,,,,,,,,,,,,,,,,0
2681b325735869f7102935b4,吉利门业(南湖大道店),购物,家居建材,江苏省,无锡市,梁溪区,江苏省无锡市梁溪区吴巷50号,2681b325735869f7102935b4,1,0,120.317244,31.531992,"13616177098,13771065968",shopping,http://api.map.baidu.com/place/detail?uid=2681b325735869f7102935b4&output=html&source=placeapi_v2,,10:00-18:00,,,,,,,,,,,,,,,,120.317318447,31.53205556593,0
f452ccbad64066549868b44c,欢喜布艺,购物,家居建材,江苏省,无锡市,滨湖区,江苏省无锡市滨湖区经贸路89号蠡湖苑北门对面,f452ccbad64066549868b44c,1,0,120.281676,31.531135,13861731971,shopping,http://api.map.baidu.com/place/detail?uid=f452ccbad64066549868b44c&output=html&source=placeapi_v2,,,0,,,,,,,,1,,,,,,,120.28176457581,31.531128167999,0
73a550960594e7535e0d02e0,嘉诗曼窗帘墙布,购物,家居建材,江苏省,无锡市,梁溪区,江苏省无锡市梁溪区吴巷56号,73a550960594e7535e0d02e0,1,0,120.317122,31.532124,"(0510)85188566,15052294921",shopping,http://api.map.baidu.com/place/detail?uid=73a550960594e7535e0d02e0&output=html&source=placeapi_v2,,08:00-18:00,,,,,,,,,,,,,,,,,,0
e8a506dd113b802af33cbad2,胜意玻璃移门(中南店),购物,家居建材,江苏省,无锡市,梁溪区,江苏省无锡市梁溪区中南路51号,e8a506dd113b802af33cbad2,1,0,120.311247,31.5381,"13093085665,13961888535",shopping,http://api.map.baidu.com/place/detail?uid=e8a506dd113b802af33cbad2&output=html&source=placeapi_v2,,07:00-18:00,5,,,,,,,,1,,,,,,,120.31142639828,31.538276607608,0
f143001d9c175f52d2f49e38,中桥彩钢板(金城新村东南),购物,家居建材,江苏省,无锡市,滨湖区,江苏省无锡市滨湖区贡湖大道240号,f143001d9c175f52d2f49e38,1,0,120.29969,31.5384,"13961853687,15949236203",shopping,http://api.map.baidu.com/place/detail?uid=f143001d9c175f52d2f49e38&output=html&source=placeapi_v2,,,3.4,,,,,,,,1,,,,,,,,,0
39cfa453a14c1eae626858e5,观山水暖,购物,家居建材,江苏省,无锡市,滨湖区,江苏无锡市滨湖区大通路周新苑三期386-47号,39cfa453a14c1eae626858e5,1,0,120.305682,31.509098,13861703030,shopping,http://api.map.baidu.com/place/detail?uid=39cfa453a14c1eae626858e5&output=html&source=placeapi_v2,,,0.0,,,,,,,,1,,,,,,,120.30565703204,31.509231618451,0
f4e3ae02d6adca6cc9c3db50,乐厨橱柜,购物,家居建材,江苏省,无锡市,梁溪区,江苏省无锡市梁溪区梁东路56号,f4e3ae02d6adca6cc9c3db50,1,0,120.32888,31.525621,(0510)81018619,shopping,http://api.map.baidu.com/place/detail?uid=f4e3ae02d6adca6cc9c3db50&output=html&source=placeapi_v2,,09:00-18:00,,,,,,,,,,,,,,,,120.32897672508,31.525530278246,0
7835db8cf1965f0d744ff116,索迪亚橱柜衣柜,购物,家居建材,江苏省,无锡市,梁溪区,江苏省无锡市梁溪区飞宏路88号2楼,7835db8cf1965f0d744ff116,1,0,120.32432,31.52815,15895321881,shopping,http://api.map.baidu.com/place/detail?uid=7835db8cf1965f0d744ff116&output=html&source=placeapi_v2,,08:00-18:00,,,,,,,,,,,,,,,,120.32442179962,31.527941506277,0
44fd50a1ac1e620a1288241e,曜紫轩红木,购物,家居建材,江苏省,无锡市,滨湖区,江苏省无锡市滨湖区大通路522号,44fd50a1ac1e620a1288241e,1,0,120.357165,31.525046,15251693667,shopping,http://api.map.baidu.com/place/detail?uid=44fd50a1ac1e620a1288241e&output=html&source=placeapi_v2,0.0,07:30-19:00,,,,,,,,,,,,,,,,120.35770278808,31.525403997726,0
ff9faea0a5d4154b17b54b90,优佳全屋定制,购物,家居建材,江苏省,无锡市,滨湖区,江苏省无锡市滨湖区金泰装饰城10-119号,ff9faea0a5d4154b17b54b90,1,0,120.360847,31.51933,13382888897,shopping,http://api.map.baidu.com/place/detail?uid=ff9faea0a5d4154b17b54b90&output=html&source=placeapi_v2,,09:00-19:00,,,,,,,,,,,,,,,,,,0
386001b503b6bc92d518b703,顺发彩钢板经营部,购物,家居建材,江苏省,无锡市,滨湖区,江苏省无锡市滨湖区华清大道200号,386001b503b6bc92d518b703,1,0,120.342148,31.519927,13400039129,shopping,http://api.map.baidu.com/place/detail?uid=386001b503b6bc92d518b703&output=html&source=placeapi_v2,,,0,,,,,,,,1,,,,,,,120.34232891719,31.519970916465,0
5bdaf2ba1266c9ab441a32c4,三好墙纸总汇,购物,家居建材,江苏省,无锡市,滨湖区,江苏省无锡市滨湖区108~110号金泰国际装饰城11栋,5bdaf2ba1266c9ab441a32c4,1,0,120.360674,31.519718,13861758049,shopping,http://api.map.baidu.com/place/detail?uid=5bdaf2ba1266c9ab441a32c4&output=html&source=placeapi_v2,,09:00-18:00,0,,,,,,,,2,,,,,,,120.36061570449,31.519781744964,0
6894c6851c1d3d474d2fdf7d,厂家地板辅料批发中心(无锡分店),购物,家居建材,江苏省,无锡市,滨湖区,江苏省无锡市滨湖区高浪路金泰国际装饰城9-108号,6894c6851c1d3d474d2fdf7d,1,0,120.36113,31.519387,"13328101261,13338107083",shopping,http://api.map.baidu.com/place/detail?uid=6894c6851c1d3d474d2fdf7d&output=html&source=placeapi_v2,,,,,,,,,,,,,,,,,,120.36106584808,31.519451600474,0
58e3a4a845b73c8a0189729c,信祥不锈钢,购物,家居建材,江苏省,无锡市,滨湖区,江苏无锡市滨湖区大通路5号,58e3a4a845b73c8a0189729c,1,0,120.325354,31.514922,,shopping,http://api.map.baidu.com/place/detail?uid=58e3a4a845b73c8a0189729c&output=html&source=placeapi_v2,,,,,,,,,,,,,,,,,,,,0
8700ba5b9a926b66b11e36a2,名扬门窗体验馆,购物,家居建材,江苏省,无锡市,滨湖区,江苏省无锡市滨湖区高浪路133~135号金泰国际装饰城11栋133号,8700ba5b9a926b66b11e36a2,1,0,120.360388,31.519406,15006199134,shopping,http://api.map.baidu.com/place/detail?uid=8700ba5b9a926b66b11e36a2&output=html&source=placeapi_v2,0.0,09:00-17:00,,,,,,,,,,,,,,,,120.36050540515,31.519289092441,0
db03d860975b567a3ce23136,沃斯卡高端系统门窗,购物,家居建材,江苏省,无锡市,滨湖区,无锡市滨湖区菱湖大道金泰国际装饰城,db03d860975b567a3ce23136,1,0,120.3608,31.518908,15052437009,shopping,http://api.map.baidu.com/place/detail?uid=db03d860975b567a3ce23136&output=html&source=placeapi_v2,,08:00-18:00,,,,,,,,,,,,,,,,120.36038295354,31.5188086773,0
68263735ace62cffc72ba16d,亮点移门,购物,家居建材,江苏省,无锡市,滨湖区,无锡市滨湖区金泰国际装饰城11幢123-125号,68263735ace62cffc72ba16d,1,0,120.360472,31.519491,15106185333,shopping,http://api.map.baidu.com/place/detail?uid=68263735ace62cffc72ba16d&output=html&source=placeapi_v2,,,,,,,,,,,,,,,,,,120.36066615782,31.519407319503,0
21cf43d28069cd2c49fc8d03,美晨名门,购物,家居建材,江苏省,无锡市,滨湖区,江苏无锡市滨湖区高运路金泰国际装饰9栋1层138室,21cf43d28069cd2c49fc8d03,1,0,120.360794,31.519123,,shopping,http://api.map.baidu.com/place/detail?uid=21cf43d28069cd2c49fc8d03&output=html&source=placeapi_v2,,,,,,,,,,,,,,,,,,120.36073151943,31.519210043625,0
17c050cf5d2e31c052e5c599,凯胜地毯法格石膏线,购物,家居建材,江苏省,无锡市,滨湖区,立业路金泰国际装饰城北150米,17c050cf5d2e31c052e5c599,1,0,120.360524,31.519253,"13812085902,15852771763",shopping,http://api.map.baidu.com/place/detail?uid=17c050cf5d2e31c052e5c599&output=html&source=placeapi_v2,,,,,,,,,,,,,,,,,,120.36057539303,31.519340608382,0
92def0b377d145a2d2f49e5d,秀华复合地板批发,购物,家居建材,江苏省,无锡市,滨湖区,江苏省无锡市滨湖区大通路2号,92def0b377d145a2d2f49e5d,1,0,120.325999,31.515038,15951584098,shopping,http://api.map.baidu.com/place/detail?uid=92def0b377d145a2d2f49e5d&output=html&source=placeapi_v2,,08:00-18:00,,,,,,,,,,,,,,,,,,0
6b08e97d30fce65c2e473387,海顺五金,购物,家居建材,江苏省,无锡市,滨湖区,江苏省无锡市滨湖区浪新路金泰国际装饰城12幢105号,6b08e97d30fce65c2e473387,1,0,120.363172,31.519021,"(0510)85621195,13771104655",shopping,http://api.map.baidu.com/place/detail?uid=6b08e97d30fce65c2e473387&output=html&source=placeapi_v2,,06:30-18:30,0.0,,,,,,,,,,,,,,,120.36326489458,31.51892304836,0
d1030994241b16418e7727af,千年舟建材家居(高运路店),购物,家居建材,江苏省,无锡市,滨湖区,江苏省无锡市滨湖区高浪路金泰国际装饰城9栋101室,d1030994241b16418e7727af,1,0,120.361669,31.519673,"(0510)85621386,13338786189",shopping,http://api.map.baidu.com/place/detail?uid=d1030994241b16418e7727af&output=html&source=placeapi_v2,,07:00-19:00,,,,,,,,,,,,,,,,,,0
c8d637b728a662fb774ff1e8,怡发地毯,购物,家居建材,江苏省,无锡市,滨湖区,江苏省无锡市滨湖区晶金油漆涂料批发(金泰国际装饰城东北),c8d637b728a662fb774ff1e8,1,0,120.362042,31.519501,13815108335,shopping,http://api.map.baidu.com/place/detail?uid=c8d637b728a662fb774ff1e8&output=html&source=placeapi_v2,,07:00-19:00,,,,,,,,,,,,,,,,,,0
f173895f66e107963010afa1,中储金属市场(新港二路店),购物,家居建材,江苏省,无锡市,新吴区,江苏省无锡市新吴区城南路32-1号,f173895f66e107963010afa1,1,0,120.378431,31.516185,,shopping,http://api.map.baidu.com/place/detail?uid=f173895f66e107963010afa1&output=html&source=placeapi_v2,,10:00-21:00,3.5,,,,,,,,1,,,,,,,120.37862406021,31.514512619922,0
58ba7c68499e7f2b770269d7,菲时特水暖卫浴(金泰店),购物,家居建材,江苏省,无锡市,滨湖区,江苏省无锡市滨湖区高浪东路518号,58ba7c68499e7f2b770269d7,1,0,120.362389,31.518959,"(0510)85621568,18261597235",shopping,http://api.map.baidu.com/place/detail?uid=58ba7c68499e7f2b770269d7&output=html&source=placeapi_v2,,07:00-19:00,0,,,,,,,,1,,,,,,,,,0
61895363de73884b14948eb4,思元油漆辅料批发部,购物,家居建材,江苏省,无锡市,滨湖区,无锡市滨湖区浪新路金泰国际装饰城,61895363de73884b14948eb4,1,0,120.362159,31.519307,15895318237,shopping,http://api.map.baidu.com/place/detail?uid=61895363de73884b14948eb4&output=html&source=placeapi_v2,,,,,,,,,,,,,,,,,,,,0
06776b6cd2c4b6a440e19277,过江龙防漏卫浴,购物,家居建材,江苏省,无锡市,滨湖区,无锡市滨湖区菱湖大道金泰国际装饰城,06776b6cd2c4b6a440e19277,1,0,120.361891,31.518571,13914142768,shopping,http://api.map.baidu.com/place/detail?uid=06776b6cd2c4b6a440e19277&output=html&source=placeapi_v2,,,,,,,,,,,,,,,,,,,,0
482e8ef080cd56ee1811d5cb,三和自喷漆墙面漆(无锡服务中心),购物,家居建材,江苏省,无锡市,滨湖区,江苏无锡市滨湖区新嘉路9号,482e8ef080cd56ee1811d5cb,1,0,120.361915,31.519578,(0510)88212575,shopping,http://api.map.baidu.com/place/detail?uid=482e8ef080cd56ee1811d5cb&output=html&source=placeapi_v2,,,,,,,,,,,,,,,,,,,,0
0c76d0f5d04e8880a7c7561b,金源精品石材,购物,家居建材,江苏省,无锡市,滨湖区,江苏省无锡市滨湖区浪新路金泰国际装饰城JGF-15号,0c76d0f5d04e8880a7c7561b,1,0,120.361832,31.520359,13861470333,shopping,http://api.map.baidu.com/place/detail?uid=0c76d0f5d04e8880a7c7561b&output=html&source=placeapi_v2,,07:30-19:00,,,,,,,,,,,,,,,,120.36189134054,31.520303531382,0
5ffe1216200e8673b05c6a00,福增五金,购物,家居建材,江苏省,无锡市,滨湖区,江苏省无锡市滨湖区高浪路518号金泰装饰城12幢141号,5ffe1216200e8673b05c6a00,1,0,120.362607,31.518595,15961713516,shopping,http://api.map.baidu.com/place/detail?uid=5ffe1216200e8673b05c6a00&output=html&source=placeapi_v2,,06:00-19:30,0,,,,,,,,2,,,,,,,120.36263565133,31.518460775608,0
b84298ce12c1f702d8d891b5,山北油漆辅料批发,购物,家居建材,江苏省,无锡市,滨湖区,无锡市滨湖区高运路金泰国际装饰城,b84298ce12c1f702d8d891b5,1,0,120.361979,31.519461,15961860006,shopping,http://api.map.baidu.com/place/detail?uid=b84298ce12c1f702d8d891b5&output=html&source=placeapi_v2,,,,,,,,,,,,,,,,,,,,0
55ea982d22d76ce5a0acc482,霞光生态家,购物,家居建材,江苏省,无锡市,滨湖区,江苏无锡市滨湖区金泰国际装饰城19栋,55ea982d22d76ce5a0acc482,1,0,120.361942,31.5198,15861663716,shopping,http://api.map.baidu.com/place/detail?uid=55ea982d22d76ce5a0acc482&output=html&source=placeapi_v2,,10:00-22:00,,,,,,,,,,,,,,,,,,0
7b1c38b1498e45d7246e9854,龙骨材料总汇,购物,家居建材,江苏省,无锡市,滨湖区,无锡市滨湖区高运路金泰国际装饰城,7b1c38b1498e45d7246e9854,1,0,120.361933,31.519593,"(0510)85621108,13771500193,13914158536",shopping,http://api.map.baidu.com/place/detail?uid=7b1c38b1498e45d7246e9854&output=html&source=placeapi_v2,,,,,,,,,,,,,,,,,,120.36197270187,31.519618821101,0
65221ae3b02a661654bfffb7,大荣建筑五金,购物,家居建材,江苏省,无锡市,滨湖区,江苏省无锡市滨湖区高浪东路金泰国际装饰城12栋12-9室,65221ae3b02a661654bfffb7,1,0,120.362838,31.518734,"(0510)85621365,13585095708",shopping,http://api.map.baidu.com/place/detail?uid=65221ae3b02a661654bfffb7&output=html&source=placeapi_v2,,08:00-17:00,0.0,,,,,,,,,,,,,,,120.3629187047,31.518658776634,0
ea46ec12357eb2ea78f79688,尚上布艺,购物,家居建材,江苏省,无锡市,滨湖区,江苏省无锡市滨湖区菱湖大道金泰装饰城5栋230室,ea46ec12357eb2ea78f79688,1,0,120.36176,31.518271,,shopping,http://api.map.baidu.com/place/detail?uid=ea46ec12357eb2ea78f79688&output=html&source=placeapi_v2,,08:00-17:30,,,,,,,,,,,,,,,,120.36181281965,31.518218865786,0
6717b9b76f6e3e08f6c59c6e,美国哈斯数控机床(无锡)专卖店,购物,家居建材,江苏省,无锡市,新吴区,江苏省无锡市新吴区新洲路15号,6717b9b76f6e3e08f6c59c6e,1,0,120.40615,31.521602,,shopping,http://api.map.baidu.com/place/detail?uid=6717b9b76f6e3e08f6c59c6e&output=html&source=placeapi_v2,,,,,,,,,,,,,,,,,,120.40619223923,31.521562736098,0
926b7cec5745d9d425d2bb09,鸿立达建材管道批发,购物,家居建材,江苏省,无锡市,新吴区,江苏省无锡市新吴区鸿山路553号,926b7cec5745d9d425d2bb09,1,0,120.503752,31.524162,,shopping,http://api.map.baidu.com/place/detail?uid=926b7cec5745d9d425d2bb09&output=html&source=placeapi_v2,,,,,,,,,,,,,,,,,,120.5039135324,31.524130598153,0
a0ca3bb935da0144ebe582c6,家居装饰,购物,家居建材,江苏省,无锡市,新吴区,无锡市新吴区鸿南路鸿南新村,,1,0,120.508351,31.524428,13814258586,shopping,http://api.map.baidu.com/place/detail?uid=a0ca3bb935da0144ebe582c6&output=html&source=placeapi_v2,,,,,,,,,,,,,,,,,,,,0
ef5442780e0be1399868b471,女人衣柜(鸿南路店),购物,家居建材,江苏省,无锡市,新吴区,新吴区区鸿南路85号,f51756775c6755fcc92915f7,1,0,120.506782,31.524625,15895335218,shopping,http://api.map.baidu.com/place/detail?uid=ef5442780e0be1399868b471&output=html&source=placeapi_v2,,10:00-21:00,,,,,,,,,,,,,,,,120.50679568993,31.524697715984,0
272d80dda391558af119372e,鸿马家具城,购物,家居建材,江苏省,无锡市,新吴区,江苏省无锡市新吴区鸿声鸿山北路664-3号,272d80dda391558af119372e,1,0,120.505823,31.530891,15995235330,shopping,http://api.map.baidu.com/place/detail?uid=272d80dda391558af119372e&output=html&source=placeapi_v2,0.0,00:00-24:00,0,,,,,,,,2,,,,,,,,,0
e731e740da88697bc16c14f1,鸿达板材剪折加工中心,购物,家居建材,江苏省,无锡市,新吴区,无锡市新吴区泰伯大道泰伯实验学校西南侧,e731e740da88697bc16c14f1,1,0,120.50204,31.529668,15852518396,shopping,http://api.map.baidu.com/place/detail?uid=e731e740da88697bc16c14f1&output=html&source=placeapi_v2,,,,,,,,,,,,,,,,,,120.50197757622,31.529431154973,0
2b50b5a7c66530520a5cb3c7,华盛五交化商行,购物,家居建材,江苏省,无锡市,新吴区,江苏省无锡市新吴区振兴路36号,2b50b5a7c66530520a5cb3c7,1,0,120.507904,31.527404,"(0510)88582197,13814230580",shopping,http://api.map.baidu.com/place/detail?uid=2b50b5a7c66530520a5cb3c7&output=html&source=placeapi_v2,,07:00-17:30,0.0,,,,,,,,1,,,,,,,,,0
71244fdb17c82cdd601c67e0,皇明水电,购物,家居建材,江苏省,无锡市,新吴区,江苏省无锡市新吴区鸿山路二区727号,71244fdb17c82cdd601c67e0,1,0,120.504742,31.534062,13771474521,shopping,http://api.map.baidu.com/place/detail?uid=71244fdb17c82cdd601c67e0&output=html&source=placeapi_v2,,,,,,,,,,,,,,,,,,120.50482075179,31.534087047766,0
4c9fe43601d153e2ca291593,嘉宝莉漆(鸿山北路店),购物,家居建材,江苏省,无锡市,新吴区,江苏省无锡市新吴区鸿山北路一期664-28号,4c9fe43601d153e2ca291593,1,0,120.505901,31.532284,13861770537,shopping,http://api.map.baidu.com/place/detail?uid=4c9fe43601d153e2ca291593&output=html&source=placeapi_v2,,07:00-20:00,0,,,,,,,,1,,,,,,,120.50581414114,31.532254719435,0
b64f86a7ba569ab08505bfbf,绿苹果瓷砖(鸿山北路店),购物,家居建材,江苏省,无锡市,新吴区,江苏省无锡市新吴区鸿山北路664-22号,b64f86a7ba569ab08505bfbf,1,0,120.505885,31.531994,15061474777,shopping,http://api.map.baidu.com/place/detail?uid=b64f86a7ba569ab08505bfbf&output=html&source=placeapi_v2,,,,,,,,,,,,,,,,,,,,0
ffec98171703e1d8210262ce,亮星灯饰装潢,购物,家居建材,江苏省,无锡市,新吴区,江苏省无锡市新吴区鸿泰路138号,ffec98171703e1d8210262ce,1,0,120.508225,31.534001,"(0510)88580791,13806185150",shopping,http://api.map.baidu.com/place/detail?uid=ffec98171703e1d8210262ce&output=html&source=placeapi_v2,,,,,,,,,,,,,,,,,,,,0
6e3d769d326331350869d9dd,祥发五金水暖建材,购物,家居建材,江苏省,无锡市,锡山区,江苏省无锡市锡山区青虹路国际包装城b1区1005号,6e3d769d326331350869d9dd,1,0,120.550019,31.535604,18951518751,shopping,http://api.map.baidu.com/place/detail?uid=6e3d769d326331350869d9dd&output=html&source=placeapi_v2,,,,,,,,,,,,,,,,,,120.55009443771,31.535593653652,0
b746fad9897c4003d6b74e78,无锡腾飞彩板钢构建材,购物,家居建材,江苏省,无锡市,锡山区,无锡市锡山区锡甘路无锡新洲君濠酒店南侧约270米,b746fad9897c4003d6b74e78,1,0,120.550074,31.522611,13506176926,shopping,http://api.map.baidu.com/place/detail?uid=b746fad9897c4003d6b74e78&output=html&source=placeapi_v2,,,,,,,,,,,,,,,,,,,,0
ae1e9e0e2cb73a094d55475f,雪雅家具,购物,家居建材,江苏省,无锡市,锡山区,无锡市锡山区鹅湖镇六步桥加油站,ae1e9e0e2cb73a094d55475f,1,0,120.547932,31.508119,,shopping,http://api.map.baidu.com/place/detail?uid=ae1e9e0e2cb73a094d55475f&output=html&source=placeapi_v2,,,4.0,,,,,,,,1,,,,,,,120.54823582205,31.507949016197,0
46498d2f922d99730b5cb36c,和也健康睡眠(鹅湖店),购物,家居建材,江苏省,无锡市,锡山区,江苏省无锡市锡山区新杨路31号,46498d2f922d99730b5cb36c,1,0,120.553355,31.527942,13961817480,shopping,http://api.map.baidu.com/place/detail?uid=46498d2f922d99730b5cb36c&output=html&source=placeapi_v2,0.0,,,,,,,,,,,,,,,,,120.55344832332,31.52791450451,0
ffc716eb8fc73bccd4851f67,徐家地板(新杨路店),购物,家居建材,江苏省,无锡市,锡山区,无锡市锡山区新杨路建设街小区北侧约120米,ffc716eb8fc73bccd4851f67,1,0,120.555463,31.532772,,shopping,http://api.map.baidu.com/place/detail?uid=ffc716eb8fc73bccd4851f67&output=html&source=placeapi_v2,,10:00-22:00,0,,,,,,,,0,,,,,,,,,0
adc886e502ae6aee5d0d02f9,柏琳家纺(学海路店),购物,家居建材,江苏省,无锡市,锡山区,江苏省无锡市锡山区学海路161号,,1,0,120.550019,31.532479,13961733521,shopping,http://api.map.baidu.com/place/detail?uid=adc886e502ae6aee5d0d02f9&output=html&source=placeapi_v2,,09:00-18:30,,,,,,,,,,,,,,,,,,0
0e0c0f72e5a7836fa0acc419,浙江窗帘(新杨路店),购物,家居建材,江苏省,无锡市,锡山区,江苏省无锡市锡山区新杨路65号,0e0c0f72e5a7836fa0acc419,1,0,120.554636,31.530871,13606197143,shopping,http://api.map.baidu.com/place/detail?uid=0e0c0f72e5a7836fa0acc419&output=html&source=placeapi_v2,,00:00-24:00,0,,,,,,,,2,,,,,,,120.55474788843,31.530870442315,0
bcf62c59d5a2e3822b02e1b1,卓欧五金,购物,家居建材,江苏省,无锡市,锡山区,江苏省无锡市锡山区青虹路47号,bcf62c59d5a2e3822b02e1b1,1,0,120.549214,31.531902,18260487999,shopping,http://api.map.baidu.com/place/detail?uid=bcf62c59d5a2e3822b02e1b1&output=html&source=placeapi_v2,,07:08-16:48,0.0,,,,,,,,,,,,,,,120.5491008678,31.53192328291,0
13726ae11c811bcd455726b7,怡美灯饰(青虹路店),购物,家居建材,江苏省,无锡市,锡山区,江苏省无锡市锡山区衡芳路太湖国际包装城1011号,13726ae11c811bcd455726b7,1,0,120.549663,31.535742,13951518124,shopping,http://api.map.baidu.com/place/detail?uid=13726ae11c811bcd455726b7&output=html&source=placeapi_v2,,,,,,,,,,,,,,,,,,,,0
9f4efaaf659f84c200ff2d9f,牛元防水振达漆业,购物,家居建材,江苏省,无锡市,滨湖区,江苏省无锡市滨湖区振胡路88-2号,9f4efaaf659f84c200ff2d9f,1,0,120.130843,31.558556,"(0510)85599927,13665110399",shopping,http://api.map.baidu.com/place/detail?uid=9f4efaaf659f84c200ff2d9f&output=html&source=placeapi_v2,,07:30-18:00,,,,,,,,,,,,,,,,120.13104693304,31.558527677689,0
1f949b4dd0f777aab4265502,杭州窗帘(振胡路店),购物,家居建材,江苏省,无锡市,滨湖区,江苏省无锡市滨湖区振胡路54号,1f949b4dd0f777aab4265502,1,0,120.130109,31.5558,15896064881,shopping,http://api.map.baidu.com/place/detail?uid=1f949b4dd0f777aab4265502&output=html&source=placeapi_v2,,00:00-24:00,,,,,,,,,,,,,,,,120.13023979656,31.555774486975,0
98a1a62b7c1bc9695fd4fe15,华源家俱城,购物,家居建材,江苏省,无锡市,滨湖区,江苏省无锡市滨湖区南新街42号,98a1a62b7c1bc9695fd4fe15,1,0,120.128586,31.549794,13812010437,shopping,http://api.map.baidu.com/place/detail?uid=98a1a62b7c1bc9695fd4fe15&output=html&source=placeapi_v2,,,0.0,,,,,,,,,,,,,,,120.12885699985,31.549836920606,0
d0cb7fa4c3a613f5cafa5fef,舒雅漫窗帘布艺,购物,家居建材,江苏省,无锡市,滨湖区,无锡市滨湖区花汇苑三区商铺35-4号,d0cb7fa4c3a613f5cafa5fef,1,0,120.129052,31.55933,15852748082,shopping,http://api.map.baidu.com/place/detail?uid=d0cb7fa4c3a613f5cafa5fef&output=html&source=placeapi_v2,,,0,,,,,,,,2,,,,,,,120.12921691404,31.559632933456,0
8d696bdc46e5b92db05c6a07,晨浩漆业,购物,家居建材,江苏省,无锡市,滨湖区,江苏省无锡市滨湖区花汇苑商铺34-6号,8d696bdc46e5b92db05c6a07,1,0,120.129864,31.559375,13812002143,shopping,http://api.map.baidu.com/place/detail?uid=8d696bdc46e5b92db05c6a07&output=html&source=placeapi_v2,,,,,,,,,,,,,,,,,,120.12988478173,31.559583429425,0
b5cd030e6e45b0ccf7eafcea,鑫广聚钢铁建材管道,购物,家居建材,江苏省,无锡市,滨湖区,江苏省无锡市滨湖区鸿翔中心路69号,b5cd030e6e45b0ccf7eafcea,1,0,120.121611,31.557412,(0510)85591637,shopping,http://api.map.baidu.com/place/detail?uid=b5cd030e6e45b0ccf7eafcea&output=html&source=placeapi_v2,,07:00-19:00,5,,,,,,,,1,,,,,,,120.12191019404,31.55734140605,0
c4e5a612f89d5abc471a3216,云清装潢店,购物,家居建材,江苏省,无锡市,滨湖区,江苏省无锡市滨湖区花汇苑三区商铺37-3号,c4e5a612f89d5abc471a3216,1,0,120.12744,31.559385,13912365827,shopping,http://api.map.baidu.com/place/detail?uid=c4e5a612f89d5abc471a3216&output=html&source=placeapi_v2,,,,,,,,,,,,,,,,,,120.12737116661,31.559674427475,0
47926bb6f62fc966734b8701,欧普照明(水光电建材超市),购物,家居建材,江苏省,无锡市,滨湖区,江苏省无锡市滨湖区花汇苑二期商铺37-5正西方向30米,,1,0,120.127742,31.560029,18012363786,shopping,http://api.map.baidu.com/place/detail?uid=47926bb6f62fc966734b8701&output=html&source=placeapi_v2,,09:00-18:00,,,,,,,,,,,,,,,,120.12776632312,31.559802998329,0
73d1e71c52bf7a0dc9291550,海兴彩钢瓦,购物,家居建材,江苏省,无锡市,滨湖区,江苏省无锡市滨湖区张舍新街36号,73d1e71c52bf7a0dc9291550,1,0,120.146743,31.567412,15261559499,shopping,http://api.map.baidu.com/place/detail?uid=73d1e71c52bf7a0dc9291550&output=html&source=placeapi_v2,,07:00-19:00,,,,,,,,,,,,,,,,120.14681799959,31.56738392405,0
3f3c26bd7c857e51d72ce29b,冠发轴承,购物,家居建材,江苏省,无锡市,滨湖区,江苏省无锡市滨湖区张舍新街42号,3f3c26bd7c857e51d72ce29b,1,0,120.146615,31.567366,,shopping,http://api.map.baidu.com/place/detail?uid=3f3c26bd7c857e51d72ce29b&output=html&source=placeapi_v2,,,,,,,,,,,,,,,,,,,,0
d0ea9f005c061a0c8bfc0628,大洋窗帘(环镇北路店),购物,家居建材,江苏省,无锡市,滨湖区,无锡市滨湖区花汇苑二区79号,d0ea9f005c061a0c8bfc0628,1,0,120.127159,31.559918,13861759029,shopping,http://api.map.baidu.com/place/detail?uid=d0ea9f005c061a0c8bfc0628&output=html&source=placeapi_v2,,08:00-22:00,0.0,,,,,,,,,,,,,,,120.1272024271,31.559727573988,0
08fa6b4fa8a5ed71c7f025ec,发达家具店,购物,家居建材,江苏省,无锡市,滨湖区,无锡市滨湖区南新街新立基公寓南侧约210米,08fa6b4fa8a5ed71c7f025ec,1,0,120.129023,31.548072,,shopping,http://api.map.baidu.com/place/detail?uid=08fa6b4fa8a5ed71c7f025ec&output=html&source=placeapi_v2,,,,,,,,,,,,,,,,,,,,0
19e66505cfcb44bab04c494e,老梁二手家具家电,购物,家居建材,江苏省,无锡市,滨湖区,无锡市滨湖区新西街新立基公寓南侧约240米,,1,0,120.129367,31.547621,15251618686,shopping,http://api.map.baidu.com/place/detail?uid=19e66505cfcb44bab04c494e&output=html&source=placeapi_v2,,07:00-19:00,,,,,,,,,,,,,,,,120.12936221406,31.547735531708,0
6d75933bf86a468dab0dd859,志清五金油漆商行,购物,家居建材,江苏省,无锡市,滨湖区,江苏省无锡市滨湖区人民西路汇景苑7-1号,6d75933bf86a468dab0dd859,1,0,120.124369,31.552506,(0510)85592458,shopping,http://api.map.baidu.com/place/detail?uid=6d75933bf86a468dab0dd859&output=html&source=placeapi_v2,,08:00-17:00,0.0,,,,,,,,,,,,,,,120.1242941208,31.552262116664,0
7e6e65d2f6fc85208bb98897,星晨液压密封件,购物,家居建材,江苏省,无锡市,滨湖区,江苏省无锡市滨湖区人民西路79-8号,7e6e65d2f6fc85208bb98897,1,0,120.122427,31.552803,(0510)85590065,shopping,http://api.map.baidu.com/place/detail?uid=7e6e65d2f6fc85208bb98897&output=html&source=placeapi_v2,,09:00-17:00,,,,,,,,,,,,,,,,120.12239107315,31.552685294649,0
5959b640996c8f65f11937ca,地板灯具装饰,购物,家居建材,江苏省,无锡市,滨湖区,江苏省无锡市滨湖区振胡路29号,5959b640996c8f65f11937ca,1,0,120.129841,31.553478,,shopping,http://api.map.baidu.com/place/detail?uid=5959b640996c8f65f11937ca&output=html&source=placeapi_v2,,,,,,,,,,,,,,,,,,120.129629645,31.553518737273,0
fa7d0218dce1c47f59bbbc02,苏达五金工量具,购物,家居建材,江苏省,无锡市,滨湖区,无锡市滨湖区汇景苑15-3号,fa7d0218dce1c47f59bbbc02,1,0,120.123956,31.553037,(0510)85586155,shopping,http://api.map.baidu.com/place/detail?uid=fa7d0218dce1c47f59bbbc02&output=html&source=placeapi_v2,,,0.0,,,,,,,,,,,,,,,,,0
298a1846b2af1124e1110369,妞妞绒线,购物,家居建材,江苏省,无锡市,滨湖区,江苏省无锡市滨湖区公园路51号,298a1846b2af1124e1110369,1,0,120.127758,31.553172,,shopping,http://api.map.baidu.com/place/detail?uid=298a1846b2af1124e1110369&output=html&source=placeapi_v2,,10:00-21:30,0,,,,,,,,0,,,,,,,,,0
84969a3625db098a8605bf7f,无锡市大昌五金机电公司,购物,家居建材,江苏省,无锡市,滨湖区,无锡市滨湖区人民西路73号-3号,84969a3625db098a8605bf7f,1,0,120.125892,31.552154,(0510)85591989,shopping,http://api.map.baidu.com/place/detail?uid=84969a3625db098a8605bf7f&output=html&source=placeapi_v2,,,,,,,,,,,,,,,,,,120.1259073661,31.551898338432,0
46f3baf879ad6abec07da25f,锡梅家具(恒大发展大厦店),购物,家居建材,江苏省,无锡市,滨湖区,无锡市滨湖区十八弯17号(梅园开原寺地铁站2号口步行290米),46f3baf879ad6abec07da25f,1,0,120.224487,31.556316,15852532280,shopping,http://api.map.baidu.com/place/detail?uid=46f3baf879ad6abec07da25f&output=html&source=placeapi_v2,,08:00-19:00,3.5,,,,,,,,0,,,,,,,120.22449906738,31.556121668644,0
a7985cd437d786f1fbf0cbec,滨湖区逸琪建材商行,购物,家居建材,江苏省,无锡市,滨湖区,江苏省无锡市滨湖区梁溪路188号986号,a7985cd437d786f1fbf0cbec,1,0,120.240897,31.563351,(0510)85512840,shopping,http://api.map.baidu.com/place/detail?uid=a7985cd437d786f1fbf0cbec&output=html&source=placeapi_v2,,07:00-19:30,0.0,,,,,,,,,,,,,,,,,0
2b8f5259f9fe695021026262,振之宏油漆辅料,购物,家居建材,江苏省,无锡市,滨湖区,江苏省无锡市滨湖区梁溪路986-19号,2b8f5259f9fe695021026262,1,0,120.240165,31.563465,18762643948,shopping,http://api.map.baidu.com/place/detail?uid=2b8f5259f9fe695021026262&output=html&source=placeapi_v2,,,0.0,,,,,,,,,,,,,,,120.24012175452,31.563520040759,0
5583c1ce5913bbe039e4a660,友东玻璃移门总汇,购物,家居建材,江苏省,无锡市,滨湖区,无锡市滨湖区梁溪路尉承油漆店旁,5583c1ce5913bbe039e4a660,1,0,120.240586,31.563309,13616141285,shopping,http://api.map.baidu.com/place/detail?uid=5583c1ce5913bbe039e4a660&output=html&source=placeapi_v2,,,,,,,,,,,,,,,,,,,,0
1a0920d2cd6054f88c55ec09,如意铝合金加工店,购物,家居建材,江苏省,无锡市,滨湖区,无锡市滨湖区鸿桥路桃源居西北侧约50米,1a0920d2cd6054f88c55ec09,1,0,120.255929,31.564855,13961808607,shopping,http://api.map.baidu.com/place/detail?uid=1a0920d2cd6054f88c55ec09&output=html&source=placeapi_v2,,09:00-18:00,3.2,,,,,,,,0,,,,,,,120.25616206479,31.564874177779,0
d4fc9a516fd502979222e0eb,万鸿窗帘墙纸墙布,购物,家居建材,江苏省,无锡市,滨湖区,江苏省无锡市滨湖区鸿桥路孙巷大楼3号103室,d4fc9a516fd502979222e0eb,1,0,120.255562,31.565216,15206193099,shopping,http://api.map.baidu.com/place/detail?uid=d4fc9a516fd502979222e0eb&output=html&source=placeapi_v2,0.0,07:30-20:00,3.4,,,,,,,,4,,,,,,,,,0
6d600e61b68c47b694ec84f0,小徐电动工具(青祁路店),购物,家居建材,江苏省,无锡市,滨湖区,江苏省无锡市滨湖区润钟路西郊市场a区4号,6d600e61b68c47b694ec84f0,1,0,120.275694,31.562033,13771092835,shopping,http://api.map.baidu.com/place/detail?uid=6d600e61b68c47b694ec84f0&output=html&source=placeapi_v2,,06:30-18:30,5,,,,,,,,1,,,,,,,120.27570605401,31.561984705044,0
b98e603304dc0451cafa5f13,江南一号地暖大世界(无锡运营中心),购物,家居建材,江苏省,无锡市,滨湖区,江苏省无锡市滨湖区梁清路289号江南1号,ad5ee25e2b1fbb7b83a00c35,1,0,120.270763,31.563771,(0510)82100727,shopping,http://api.map.baidu.com/place/detail?uid=b98e603304dc0451cafa5f13&output=html&source=placeapi_v2,,09:00-18:00,3.6,,,,,,,,2,,,,,,,,,0
e3a7fd132e75b12f28b97c14,小夏家具店,购物,家居建材,江苏省,无锡市,滨湖区,无锡市滨湖区梁溪路781号,e3a7fd132e75b12f28b97c14,1,0,120.251127,31.564705,15050682365,shopping,http://api.map.baidu.com/place/detail?uid=e3a7fd132e75b12f28b97c14&output=html&source=placeapi_v2,,10:00-21:00,3.5,,,,,,,,0,,,,,,,120.25105952062,31.564907062484,0
7b2a535e51207a6d902ca309,无锡西郊建材商行,购物,家居建材,江苏省,无锡市,滨湖区,无锡市滨湖区溪北新村83-11号,7b2a535e51207a6d902ca309,1,0,120.273788,31.562499,"13961878956,15251625683",shopping,http://api.map.baidu.com/place/detail?uid=7b2a535e51207a6d902ca309&output=html&source=placeapi_v2,,,,,,,,,,,,,,,,,,120.27390225026,31.562479898753,0
87de87ce2aefaf594bcc4ada,金弘建材(红山花园北),购物,家居建材,江苏省,无锡市,滨湖区,无锡市滨湖区溪北新村265-11号,87de87ce2aefaf594bcc4ada,1,0,120.274223,31.561895,13912383059,shopping,http://api.map.baidu.com/place/detail?uid=87de87ce2aefaf594bcc4ada&output=html&source=placeapi_v2,,,0,,,,,,,,1,,,,,,,,,0
52c2fc875cdfd2fbd1f49e26,萍萍布艺,购物,家居建材,江苏省,无锡市,滨湖区,江苏省无锡市滨湖区桃园新村101室,52c2fc875cdfd2fbd1f49e26,1,0,120.261318,31.567067,,shopping,http://api.map.baidu.com/place/detail?uid=52c2fc875cdfd2fbd1f49e26&output=html&source=placeapi_v2,,,,,,,,,,,,,,,,,,120.26141798296,31.567077622919,0
2d023b1175f507f82a02e10d,保温材料,购物,家居建材,江苏省,无锡市,滨湖区,江苏省无锡市滨湖区青祁路86-10号,2d023b1175f507f82a02e10d,1,0,120.275402,31.563284,,shopping,http://api.map.baidu.com/place/detail?uid=2d023b1175f507f82a02e10d&output=html&source=placeapi_v2,,,,,,,,,,,,,,,,,,,,0
2c1fee62440b6658f503b8e9,无锡市爱华电动工具经营部,购物,家居建材,江苏省,无锡市,滨湖区,江苏省无锡市滨湖区青祁路92号,2c1fee62440b6658f503b8e9,1,0,120.274969,31.563876,13812091203,shopping,http://api.map.baidu.com/place/detail?uid=2c1fee62440b6658f503b8e9&output=html&source=placeapi_v2,,,0,,,,,,,,0,,,,,,,120.27498286238,31.563749415242,0
6203df41bae1ed3632f71d5f,乔乔布艺,购物,家居建材,江苏省,无锡市,滨湖区,无锡市滨湖区大张巷15-1号,6203df41bae1ed3632f71d5f,1,0,120.252184,31.564383,13812039972,shopping,http://api.map.baidu.com/place/detail?uid=6203df41bae1ed3632f71d5f&output=html&source=placeapi_v2,,,,,,,,,,,,,,,,,,,,0
8fe36b23251c94d04bcc4a78,云朵窗帘灯具(西郊店),购物,家居建材,江苏省,无锡市,滨湖区,江苏省无锡市滨湖区青祁路88-6号,8fe36b23251c94d04bcc4a78,1,0,120.274053,31.562408,"(0510)82471100,13382212918",shopping,http://api.map.baidu.com/place/detail?uid=8fe36b23251c94d04bcc4a78&output=html&source=placeapi_v2,,,0,,,,,,,,1,,,,,,,,,0
a3ff732d22d6d7e56240a944,宽勤五金电器,购物,家居建材,江苏省,无锡市,滨湖区,江苏省无锡市滨湖区建筑西路636号,a3ff732d22d6d7e56240a944,1,0,120.249598,31.554985,13961783167,shopping,http://api.map.baidu.com/place/detail?uid=a3ff732d22d6d7e56240a944&output=html&source=placeapi_v2,,07:00-20:30,0.0,,,,,,,,2,,,,,,,,,0
94c118ed343142e3283a9fc0,科大橱柜,购物,家居建材,江苏省,无锡市,滨湖区,无锡市滨湖区快速内环西红山花园-北区东北侧约70米,,1,0,120.275912,31.560962,(0510)85817956,shopping,http://api.map.baidu.com/place/detail?uid=94c118ed343142e3283a9fc0&output=html&source=placeapi_v2,,08:00-18:00,,,,,,,,,,,,,,,,120.27591849967,31.5610272189,0
e240468816d46e8e42d63eeb,小邱木业板材店,购物,家居建材,江苏省,无锡市,滨湖区,无锡市滨湖区西郊装饰市场233号,e240468816d46e8e42d63eeb,1,0,120.275243,31.561809,,shopping,http://api.map.baidu.com/place/detail?uid=e240468816d46e8e42d63eeb&output=html&source=placeapi_v2,,,,,,,,,,,,,,,,,,120.27524173517,31.561994481091,0
cde9e2c7a11eb9ade81e97c2,星红家具,购物,家居建材,江苏省,无锡市,滨湖区,江苏省无锡市滨湖区蠡溪路28号,cde9e2c7a11eb9ade81e97c2,1,0,120.269189,31.564605,15895328640,shopping,http://api.map.baidu.com/place/detail?uid=cde9e2c7a11eb9ade81e97c2&output=html&source=placeapi_v2,,09:00-19:00,4.0,,,,,,,,2,,,,,,,,,0
b80963acfd72ba9efbf0cb9f,意大利米兰壁纸,购物,家居建材,江苏省,无锡市,滨湖区,无锡市滨湖区润钟路名爵大厦西南侧约30米,b80963acfd72ba9efbf0cb9f,1,0,120.274999,31.562337,,shopping,http://api.map.baidu.com/place/detail?uid=b80963acfd72ba9efbf0cb9f&output=html&source=placeapi_v2,,,,,,,,,,,,,,,,,,,,0
621a7ecf0d1da03751e5c53d,无锡建材所,购物,家居建材,江苏省,无锡市,滨湖区,江苏省无锡市滨湖区景宜路68号,621a7ecf0d1da03751e5c53d,1,0,120.248787,31.555222,,shopping,http://api.map.baidu.com/place/detail?uid=621a7ecf0d1da03751e5c53d&output=html&source=placeapi_v2,,,,,,,,,,,,,,,,,,120.24874951273,31.55522358759,0
749e61314d38739e420245a7,谷香移门淋浴房,购物,家居建材,江苏省,无锡市,滨湖区,无锡市滨湖区润钟路名爵大厦西南侧约100米,749e61314d38739e420245a7,1,0,120.274139,31.562213,,shopping,http://api.map.baidu.com/place/detail?uid=749e61314d38739e420245a7&output=html&source=placeapi_v2,,,,,,,,,,,,,,,,,,,,0
de00f976d5fe18d8b45f1e9f,阜浩五金商行,购物,家居建材,江苏省,无锡市,滨湖区,无锡市滨湖区梁溪路789-4号,de00f976d5fe18d8b45f1e9f,1,0,120.249958,31.564305,,shopping,http://api.map.baidu.com/place/detail?uid=de00f976d5fe18d8b45f1e9f&output=html&source=placeapi_v2,,,3.4,,,,,,,,0,,,,,,,,,0
269aa34a4e81fe5257bfffd3,老赵门窗店,购物,家居建材,江苏省,无锡市,滨湖区,滨湖区政法路314号101室,269aa34a4e81fe5257bfffd3,1,0,120.27572,31.55768,13861842771,shopping,http://api.map.baidu.com/place/detail?uid=269aa34a4e81fe5257bfffd3&output=html&source=placeapi_v2,,,,,,,,,,,,,,,,,,,,0
2d69f82d0c7d255b42d63e9d,坚美铝材(江安门窗),购物,家居建材,江苏省,无锡市,滨湖区,无锡市滨湖区梁溪路张巷新村西北侧约90米,2d69f82d0c7d255b42d63e9d,1,0,120.24925,31.564217,13915284236,shopping,http://api.map.baidu.com/place/detail?uid=2d69f82d0c7d255b42d63e9d&output=html&source=placeapi_v2,,,,,,,,,,,,,,,,,,120.24926521824,31.564389529891,0
8fc3110f0f2688d4a8f0cdcc,盛为黑白铁店,购物,家居建材,江苏省,无锡市,滨湖区,江苏省无锡市滨湖区龙山路江大新村门面房,8fc3110f0f2688d4a8f0cdcc,1,0,120.248839,31.566638,13961879719,shopping,http://api.map.baidu.com/place/detail?uid=8fc3110f0f2688d4a8f0cdcc&output=html&source=placeapi_v2,,,0,,,,,,,,1,,,,,,,,,0
ee19ed9bae855d5e1676438e,亨德莱橱柜,购物,家居建材,江苏省,无锡市,滨湖区,江苏省无锡市滨湖区青祁路西郊市场d块d块15号,ee19ed9bae855d5e1676438e,1,0,120.274946,31.561847,"(0510)82471651,13771167133",shopping,http://api.map.baidu.com/place/detail?uid=ee19ed9bae855d5e1676438e&output=html&source=placeapi_v2,,09:00-18:00,,,,,,,,,,,,,,,,120.27507594839,31.561993529116,0
93df0dc3db15962b892fb5a9,李荣家具,购物,家居建材,江苏省,无锡市,滨湖区,江苏省无锡市滨湖区梁溪路988-1号,93df0dc3db15962b892fb5a9,1,0,120.242431,31.563596,13357908285,shopping,http://api.map.baidu.com/place/detail?uid=93df0dc3db15962b892fb5a9&output=html&source=placeapi_v2,,10:00-22:00,3.4,,,,,,,,4,,,,,,,,,0
81c3fabe695c75c30b1cc7f4,王力防盗门(红山花园北),购物,家居建材,江苏省,无锡市,滨湖区,无锡市滨湖区润钟路名爵大厦西南侧约80米,81c3fabe695c75c30b1cc7f4,1,0,120.274842,31.561913,13013618129,shopping,http://api.map.baidu.com/place/detail?uid=81c3fabe695c75c30b1cc7f4&output=html&source=placeapi_v2,,08:00-17:00,,,,,,,,,,,,,,,,120.27484370498,31.562003128859,0
ecca2afc7e667cee21f0178e,特百惠(梁溪专卖店),购物,家居建材,江苏省,无锡市,滨湖区,江苏省无锡市滨湖区青祁路350号,ecca2afc7e667cee21f0178e,1,0,120.276154,31.555863,15365230783,shopping,http://api.map.baidu.com/place/detail?uid=ecca2afc7e667cee21f0178e&output=html&source=placeapi_v2,,08:30-20:00,3.7,,,,,,,,2,,,,,,,,,0
c674012174be1ea47369d3db,广东美思佳卫浴,购物,家居建材,江苏省,无锡市,滨湖区,无锡市滨湖区润钟路名爵大厦南侧约50米,c674012174be1ea47369d3db,1,0,120.275386,31.56205,,shopping,http://api.map.baidu.com/place/detail?uid=c674012174be1ea47369d3db&output=html&source=placeapi_v2,,07:30-17:30,,,,,,,,,,,,,,,,,,0
7f715829c6b34f189fec2bd9,一品家具定制厂,购物,家居建材,江苏省,无锡市,滨湖区,无锡市滨湖区青祁路名爵大厦南侧约80米,7f715829c6b34f189fec2bd9,1,0,120.275829,31.561797,18601588110,shopping,http://api.map.baidu.com/place/detail?uid=7f715829c6b34f189fec2bd9&output=html&source=placeapi_v2,,,,,,,,,,,,,,,,,,120.27584499043,31.56198709498,0
72bd306b616531ef82a12e2a,兴来家具大卖场,购物,家居建材,江苏省,无锡市,滨湖区,江苏省无锡市滨湖区梁清路241号,72bd306b616531ef82a12e2a,1,0,120.272583,31.564477,13382888018,shopping,http://api.map.baidu.com/place/detail?uid=72bd306b616531ef82a12e2a&output=html&source=placeapi_v2,,08:00-20:00,4.1,,,,,,,,2,,,,,,,120.27259939915,31.564518587617,0
a98203df1bcdcf2bcd04ef37,小徐金属装潢部,购物,家居建材,江苏省,无锡市,滨湖区,无锡市滨湖区大池路贾湾西南侧约140米,a98203df1bcdcf2bcd04ef37,1,0,120.250487,31.571195,13093048879,shopping,http://api.map.baidu.com/place/detail?uid=a98203df1bcdcf2bcd04ef37&output=html&source=placeapi_v2,,,,,,,,,,,,,,,,,,,,0
871b0b2d72f1b714fea778af,西郊豪胜水暖,购物,家居建材,江苏省,无锡市,滨湖区,无锡市滨湖区润钟路名爵大厦西南侧,871b0b2d72f1b714fea778af,1,0,120.275361,31.562436,13961887819,shopping,http://api.map.baidu.com/place/detail?uid=871b0b2d72f1b714fea778af&output=html&source=placeapi_v2,,07:00-19:00,,,,,,,,,,,,,,,,120.27536783121,31.56250626829,0
5583c1ce5913bbe039e4a660,友东玻璃移门总汇,购物,家居建材,江苏省,无锡市,滨湖区,无锡市滨湖区梁溪路尉承油漆店旁,5583c1ce5913bbe039e4a660,1,0,120.240586,31.563309,13616141285,shopping,http://api.map.baidu.com/place/detail?uid=5583c1ce5913bbe039e4a660&output=html&source=placeapi_v2,,,,,,,,,,,,,,,,,,,,0
a7985cd437d786f1fbf0cbec,滨湖区逸琪建材商行,购物,家居建材,江苏省,无锡市,滨湖区,江苏省无锡市滨湖区梁溪路188号986号,a7985cd437d786f1fbf0cbec,1,0,120.240897,31.563351,(0510)85512840,shopping,http://api.map.baidu.com/place/detail?uid=a7985cd437d786f1fbf0cbec&output=html&source=placeapi_v2,,07:00-19:30,0.0,,,,,,,,,,,,,,,,,0
bf58b10910b179594151c0e9,阿里斯顿服务中心(红星桥南匝道店),购物,家居建材,江苏省,无锡市,梁溪区,江苏省无锡市梁溪区红星苑8号之四,bf58b10910b179594151c0e9,1,0,120.297944,31.558929,(0510)82740377,shopping,http://api.map.baidu.com/place/detail?uid=bf58b10910b179594151c0e9&output=html&source=placeapi_v2,,,5.0,,,,,,,,1,,,,,,,120.2978603277,31.558983255786,0
803708f18e88650401897262,七彩布艺(建筑路店),购物,家居建材,江苏省,无锡市,梁溪区,江苏省无锡市梁溪区建筑东路56号,803708f18e88650401897262,1,0,120.299587,31.556428,15951587892,shopping,http://api.map.baidu.com/place/detail?uid=803708f18e88650401897262&output=html&source=placeapi_v2,,09:00-17:00,0,,,,,,,,2,,,,,,,120.29956118564,31.556352972642,0
7eeb3a07c3c9072af6e73b1f,宏意五金管道,购物,家居建材,江苏省,无锡市,梁溪区,江苏省无锡市梁溪区建筑东路50号,7eeb3a07c3c9072af6e73b1f,1,0,120.299739,31.556451,15995266083,shopping,http://api.map.baidu.com/place/detail?uid=7eeb3a07c3c9072af6e73b1f&output=html&source=placeapi_v2,,07:00-19:00,0,,,,,,,,2,,,,,,,120.29974307724,31.556378863066,0
ecef80ad1e905637d2f49e3e,常青树电气家居馆,购物,家居建材,江苏省,无锡市,梁溪区,江苏省无锡市梁溪区健康路253号,ecef80ad1e905637d2f49e3e,1,0,120.292667,31.570823,(0510)82851203,shopping,http://api.map.baidu.com/place/detail?uid=ecef80ad1e905637d2f49e3e&output=html&source=placeapi_v2,,08:00-19:00,2.9,,,,,,,,2,,,,,,,120.29268988331,31.570861665407,0
0d0add0e8f69d9f5213bf246,COLLECTlON衣柜,购物,家居建材,江苏省,无锡市,梁溪区,江苏省无锡市梁溪区红星路45号,0d0add0e8f69d9f5213bf246,1,0,120.295893,31.551325,,shopping,http://api.map.baidu.com/place/detail?uid=0d0add0e8f69d9f5213bf246&output=html&source=placeapi_v2,,10:30-21:30,3.5,,,,,,,,,,,,,,,120.29583910078,31.551488269523,0
a8290248114d54dff942b29f,九福门窗装璜,购物,家居建材,江苏省,无锡市,梁溪区,江苏省无锡市梁溪区健康路187号,a8290248114d54dff942b29f,1,0,120.299439,31.569192,13914241248,shopping,http://api.map.baidu.com/place/detail?uid=a8290248114d54dff942b29f&output=html&source=placeapi_v2,,,3.4,,,,,,,,1,,,,,,,120.29941019666,31.569353869142,0
543aab2109c92ab9eaf8537d,宜家画廊,购物,家居建材,江苏省,无锡市,梁溪区,江苏省无锡市梁溪区永丰路129号,543aab2109c92ab9eaf8537d,1,0,120.313238,31.567898,(0510)85057055,shopping,http://api.map.baidu.com/place/detail?uid=543aab2109c92ab9eaf8537d&output=html&source=placeapi_v2,,08:30-18:00,3.9,,,,,,,,5,,,,,,,120.31329702849,31.56775858107,0
8adde2c452cacb9728d7ab75,金鹏门窗装璜,购物,家居建材,江苏省,无锡市,梁溪区,无锡市梁溪区永丰路曹婆桥86号,8adde2c452cacb9728d7ab75,1,0,120.303475,31.563747,15852718432,shopping,http://api.map.baidu.com/place/detail?uid=8adde2c452cacb9728d7ab75&output=html&source=placeapi_v2,,,,,,,,,,,,,,,,,,,,0
8f7dd4c2b1d4fd85cafa5fde,中南家具城(中南路店),购物,家居建材,江苏省,无锡市,梁溪区,江苏省无锡市梁溪区中南路175号,8f7dd4c2b1d4fd85cafa5fde,1,0,120.307483,31.542015,15251533539,shopping,http://api.map.baidu.com/place/detail?uid=8f7dd4c2b1d4fd85cafa5fde&output=html&source=placeapi_v2,,08:30-20:00,3.6,,,,,,,,4,,,,,,,,,0
dc6565ea9f0f532c72455b30,小黄门窗装璜,购物,家居建材,江苏省,无锡市,梁溪区,江苏省无锡市梁溪区清名东路严巷120号曹张新村,dc6565ea9f0f532c72455b30,1,0,120.307366,31.561128,"13179697819,13771171475",shopping,http://api.map.baidu.com/place/detail?uid=dc6565ea9f0f532c72455b30&output=html&source=placeapi_v2,,,,,,,,,,,,,,,,,,120.30741871874,31.561145252057,0
f53b6be9a88ac5701d38947d,百木源家俱城(通杨店),购物,家居建材,江苏省,无锡市,梁溪区,江苏省无锡市梁溪区通扬路45~47号,f53b6be9a88ac5701d38947d,1,0,120.316326,31.563102,"(0510)88709200,13812026712",shopping,http://api.map.baidu.com/place/detail?uid=f53b6be9a88ac5701d38947d&output=html&source=placeapi_v2,,08:30-19:00,5,,,,,,,,3,,,,,,,120.31627545861,31.563060105899,0
045dba2b064a0a818a36eef4,天香窗帘,购物,家居建材,江苏省,无锡市,滨湖区,江苏省无锡市滨湖区稻香路18-8号,045dba2b064a0a818a36eef4,1,0,120.286404,31.550433,"13395131191,13906195320",shopping,http://api.map.baidu.com/place/detail?uid=045dba2b064a0a818a36eef4&output=html&source=placeapi_v2,,07:35-19:35,0.0,,,,,,,,,,,,,,,120.28642892027,31.550436546835,0
03032bf822bba12ce81e97f0,开创门窗(湖滨路店),购物,家居建材,江苏省,无锡市,滨湖区,滨湖区湖滨路22-2号,03032bf822bba12ce81e97f0,1,0,120.291106,31.563986,15949205386,shopping,http://api.map.baidu.com/place/detail?uid=03032bf822bba12ce81e97f0&output=html&source=placeapi_v2,0.0,08:00-19:00,,,,,,,,,,,,,,,,,,0
93c1d4e834bc77bda80dd815,美鑫定制,购物,家居建材,江苏省,无锡市,梁溪区,江苏省无锡市梁溪区南长街297号,93c1d4e834bc77bda80dd815,1,0,120.319513,31.56619,18951577585,shopping,http://api.map.baidu.com/place/detail?uid=93c1d4e834bc77bda80dd815&output=html&source=placeapi_v2,,11:00-23:00,0,,,,,,,,0,,,,,,,,,0
b08a60ea9003bd2ff33cbadf,梁盛五金,购物,家居建材,江苏省,无锡市,梁溪区,江苏省无锡市梁溪区五爱路171-2号,b08a60ea9003bd2ff33cbadf,1,0,120.293094,31.572309,(0510)82850527,shopping,http://api.map.baidu.com/place/detail?uid=b08a60ea9003bd2ff33cbadf&output=html&source=placeapi_v2,,08:00-16:00,3.7,,,,,,,,3,,,,,,,120.2929726088,31.572318146094,0
93a94fbdf1c34105d2f49ecf,美雅居布艺(湖滨路店),购物,家居建材,江苏省,无锡市,滨湖区,江苏省无锡市滨湖区湖滨路625号苏豪国际大厦,93a94fbdf1c34105d2f49ecf,1,0,120.290916,31.55315,13921391460,shopping,http://api.map.baidu.com/place/detail?uid=93a94fbdf1c34105d2f49ecf&output=html&source=placeapi_v2,,10:00-22:00,0,,,,,,,,1,,,,,,,120.29086635312,31.553153114662,0
09884a33b7f40e63c92915db,银光灯具五金,购物,家居建材,江苏省,无锡市,梁溪区,江苏省无锡市梁溪区永乐路153号,09884a33b7f40e63c92915db,1,0,120.313152,31.564541,18932432926,shopping,http://api.map.baidu.com/place/detail?uid=09884a33b7f40e63c92915db&output=html&source=placeapi_v2,,06:00-22:00,0.0,,,,,,,,,,,,,,,120.31323023976,31.564481330394,0
d146b388ce9890de7402697f,大自然棕床垫(永丰路店),购物,家居建材,江苏省,无锡市,梁溪区,江苏省无锡市梁溪区永丰路120号,d146b388ce9890de7402697f,1,0,120.312692,31.567188,18286030405,shopping,http://api.map.baidu.com/place/detail?uid=d146b388ce9890de7402697f&output=html&source=placeapi_v2,,09:00-18:30,4.5,,,,,,,,2,,,,,,,120.31281011305,31.567242434368,0
8a0a5bdd636165563586f49a,棉怡家,购物,家居建材,江苏省,无锡市,梁溪区,江苏省无锡市梁溪区南长街115号,8a0a5bdd636165563586f49a,1,0,120.316599,31.56914,18661081851,shopping,http://api.map.baidu.com/place/detail?uid=8a0a5bdd636165563586f49a&output=html&source=placeapi_v2,,,3.7,,,,,,,,2,,,,,,,,,0
1bb0786e3ce18d02b1077dc9,进凤布店床上用品,购物,家居建材,江苏省,无锡市,梁溪区,江苏省无锡市梁溪区老通扬南路71号,1bb0786e3ce18d02b1077dc9,1,0,120.318051,31.55881,,shopping,http://api.map.baidu.com/place/detail?uid=1bb0786e3ce18d02b1077dc9&output=html&source=placeapi_v2,,07:30-22:00,0,,,,,,,,0,,,,,,,120.31797853087,31.558802410551,0
f9b1a910d7a6cb0bc6effb21,润妃家纺(勤学路店),购物,家居建材,江苏省,无锡市,梁溪区,江苏省无锡市梁溪区勤学路27-5号,f9b1a910d7a6cb0bc6effb21,1,0,120.308661,31.57404,,shopping,http://api.map.baidu.com/place/detail?uid=f9b1a910d7a6cb0bc6effb21&output=html&source=placeapi_v2,,,,,,,,,,,,,,,,,,120.30875432835,31.574024013821,0
99c28c9370dc97639fec2b4d,华祥布艺,购物,家居建材,江苏省,无锡市,滨湖区,无锡市滨湖区梁荷路荷叶新村,99c28c9370dc97639fec2b4d,1,0,120.285776,31.562731,13083515856,shopping,http://api.map.baidu.com/place/detail?uid=99c28c9370dc97639fec2b4d&output=html&source=placeapi_v2,,08:00-20:00,,,,,,,,,,,,,,,,120.28584495881,31.562694112803,0
137d2753236b10abe6e96501,有机玻璃经营部,购物,家居建材,江苏省,无锡市,滨湖区,江苏无锡市滨湖区太湖西大道819号,137d2753236b10abe6e96501,1,0,120.289221,31.546864,(0510)85106545,shopping,http://api.map.baidu.com/place/detail?uid=137d2753236b10abe6e96501&output=html&source=placeapi_v2,,,5,,,,,,,,1,,,,,,,,,0
224aacf4dfe0fe25a4da396c,秋林建筑机械吊机配件超市,购物,家居建材,江苏省,无锡市,滨湖区,江苏无锡市滨湖区梁清路28号,224aacf4dfe0fe25a4da396c,1,0,120.284869,31.567063,(0510)85803883,shopping,http://api.map.baidu.com/place/detail?uid=224aacf4dfe0fe25a4da396c&output=html&source=placeapi_v2,,09:00-18:00,0,,,,,,,,1,,,,,,,,,0
649849d9d5dabd89d12dd669,同加乐厨具店,购物,家居建材,江苏省,无锡市,滨湖区,江苏省无锡市滨湖区小袁里5号,649849d9d5dabd89d12dd669,1,0,120.285009,31.55093,13812020277,shopping,http://api.map.baidu.com/place/detail?uid=649849d9d5dabd89d12dd669&output=html&source=placeapi_v2,,08:00-19:00,0.0,,,,,,,,,,,,,,,120.28503091705,31.550994504952,0
b096ced277779403aeb22a08,金凤床上布艺,购物,家居建材,江苏省,无锡市,梁溪区,江苏省无锡市梁溪区通扬路扬名一村19-101室,b096ced277779403aeb22a08,1,0,120.316318,31.562838,13961829156,shopping,http://api.map.baidu.com/place/detail?uid=b096ced277779403aeb22a08&output=html&source=placeapi_v2,,08:00-20:00,0,,,,,,,,1,,,,,,,120.31636888058,31.562880103462,0
4563211639a9fa884e776ea0,时尚布艺(沁园C区东),购物,家居建材,江苏省,无锡市,梁溪区,无锡市梁溪区清扬路156号(沁园C区东),4563211639a9fa884e776ea0,1,0,120.318741,31.552133,,shopping,http://api.map.baidu.com/place/detail?uid=4563211639a9fa884e776ea0&output=html&source=placeapi_v2,,,0.0,,,,,,,,1,,,,,,,120.31880601577,31.55198454443,0
ed37152368da54c109b93a1b,无锡顺发装潢店,购物,家居建材,江苏省,无锡市,滨湖区,江苏省无锡市滨湖区大孙巷156号,ed37152368da54c109b93a1b,1,0,120.281834,31.564323,13023381547,shopping,http://api.map.baidu.com/place/detail?uid=ed37152368da54c109b93a1b&output=html&source=placeapi_v2,,,0,,,,,,,,1,,,,,,,120.28189569608,31.564324669824,0
3bad13071de52509cc06a439,百安居门窗装潢公司,购物,家居建材,江苏省,无锡市,梁溪区,江苏省无锡市梁溪区老通扬路85号,3bad13071de52509cc06a439,1,0,120.31774,31.559543,13771000041,shopping,http://api.map.baidu.com/place/detail?uid=3bad13071de52509cc06a439&output=html&source=placeapi_v2,,10:00-21:30,,,,,,,,,,,,,,,,120.31787612943,31.559556276207,0
f55d62ac9f2db6b008ccdd3b,宜美家布艺,购物,家居建材,江苏省,无锡市,滨湖区,无锡市滨湖区稻香路稻香市场,f55d62ac9f2db6b008ccdd3b,1,0,120.283315,31.551693,"13656190637,13771459556",shopping,http://api.map.baidu.com/place/detail?uid=f55d62ac9f2db6b008ccdd3b&output=html&source=placeapi_v2,,,,,,,,,,,,,,,,,,120.28363045966,31.551651157316,0
4778099525af23c916764302,小裁缝布店,购物,家居建材,江苏省,无锡市,滨湖区,无锡市滨湖区稻香路463号,4778099525af23c916764302,1,0,120.28414,31.551147,15061898728,shopping,http://api.map.baidu.com/place/detail?uid=4778099525af23c916764302&output=html&source=placeapi_v2,,08:00-21:00,2.9,,,,,,,,3,,,,,,,,,0
7cd7563bdb0584f6774ff18a,嘉莹衣柜,购物,家居建材,江苏省,无锡市,梁溪区,无锡市梁溪区勤学路无锡市东林幼儿园(二勤分部)西南侧,7cd7563bdb0584f6774ff18a,1,0,120.308751,31.573518,,shopping,http://api.map.baidu.com/place/detail?uid=7cd7563bdb0584f6774ff18a&output=html&source=placeapi_v2,,,,,,,,,,,,,,,,,,,,0
a98e4e67a406966fd4851f7a,Qipa(茂业天地清扬店),购物,家居建材,江苏省,无锡市,梁溪区,无锡市梁溪区清扬路128号茂业天地购物中心(清扬店)F1茂业23广场F1茂业天地F3,a98e4e67a406966fd4851f7a,1,0,120.31639,31.555286,,shopping,http://api.map.baidu.com/place/detail?uid=a98e4e67a406966fd4851f7a&output=html&source=placeapi_v2,,10:00-21:00,0,,,,,,,,0,,,,,,,120.31630948103,31.555166624921,0
5955f07ff4bb6287a5da3947,勤学玻璃仪器商店,购物,家居建材,江苏省,无锡市,梁溪区,无锡市梁溪区南市桥巷梁溪区人民政府西北侧,5955f07ff4bb6287a5da3947,1,0,120.309172,31.572531,,shopping,http://api.map.baidu.com/place/detail?uid=5955f07ff4bb6287a5da3947&output=html&source=placeapi_v2,,,,,,,,,,,,,,,,,,,,0
1d0e3a15dafbb4b9b020a86c,百安居(无锡新区店),购物,家居建材,江苏省,无锡市,新吴区,无锡市新吴区长江北路259号,1d0e3a15dafbb4b9b020a86c,1,0,120.34761,31.566764,(0510)82136611,shopping,http://api.map.baidu.com/place/detail?uid=1d0e3a15dafbb4b9b020a86c&output=html&source=placeapi_v2,0.0,09:00-21:00,3.7,,,,,,,,7,,,,,,,120.34802785628,31.567516396834,0
69f360962745779949fc8dc0,德诺商场(招商城总店),购物,家居建材,江苏省,无锡市,新吴区,江苏省无锡市新吴区兴源路1号,69f360962745779949fc8dc0,1,0,120.337529,31.565405,(0510)85019989,shopping,http://api.map.baidu.com/place/detail?uid=69f360962745779949fc8dc0&output=html&source=placeapi_v2,,08:30-17:00,3.3,,,,,,,,1,,,,,,,120.33749466992,31.565648718276,0
03a17b06681fcb409122e051,长江玻璃店(前进北路店),购物,家居建材,江苏省,无锡市,新吴区,江苏省无锡市新吴区前进路前进花园25-6号门市,03a17b06681fcb409122e051,1,0,120.347555,31.559214,13861877093,shopping,http://api.map.baidu.com/place/detail?uid=03a17b06681fcb409122e051&output=html&source=placeapi_v2,,08:00-17:00,4.1,,,,,,,,1,,,,,,,120.34767803186,31.559336858024,0
4b90e5cdec926205bea24067,远东电缆专卖店(兴源中路店),购物,家居建材,江苏省,无锡市,新吴区,江苏省无锡市新吴区招商城路121~123号,4b90e5cdec926205bea24067,1,0,120.338206,31.564997,"(0510)85023593,(0510)85958885",shopping,http://api.map.baidu.com/place/detail?uid=4b90e5cdec926205bea24067&output=html&source=placeapi_v2,,08:00-19:00,0.0,,,,,,,,,,,,,,,120.33825480437,31.565001729379,0
00f1c7fbb413c806c056ac0e,灯具市场,购物,家居建材,江苏省,无锡市,新吴区,江苏省无锡市新吴区塘南路w区2楼,00f1c7fbb413c806c056ac0e,1,0,120.335646,31.566208,,shopping,http://api.map.baidu.com/place/detail?uid=00f1c7fbb413c806c056ac0e&output=html&source=placeapi_v2,,09:00-18:00,3.7,,,,,,,,2,,,,,,,120.33525679596,31.56559023029,0
1aa3ee016450fda7e812e483,塘南招商城窗帘市场,购物,家居建材,江苏省,无锡市,新吴区,江苏省无锡市新吴区塘南路塘南招商城w区3楼,1aa3ee016450fda7e812e483,1,0,120.335147,31.565783,,shopping,http://api.map.baidu.com/place/detail?uid=1aa3ee016450fda7e812e483&output=html&source=placeapi_v2,,08:30-17:00,3.4,,,,,,,,1,,,,,,,120.33516922555,31.565582569255,0
3f05ba9376435e0dd12dd632,辰玉建筑机械批发,购物,家居建材,江苏省,无锡市,新吴区,江苏省无锡市新吴区兴源路172号,3f05ba9376435e0dd12dd632,1,0,120.337326,31.564891,"(0510)85055689,15949217011",shopping,http://api.map.baidu.com/place/detail?uid=3f05ba9376435e0dd12dd632&output=html&source=placeapi_v2,,08:00-17:00,,,,,,,,,,,,,,,,120.33726128476,31.564882636135,0
d24e48eb463d91b4afee7a7f,无锡招商城家居广场,购物,家居建材,江苏省,无锡市,新吴区,江苏省无锡市新吴区兴源中路z区2楼,d24e48eb463d91b4afee7a7f,1,0,120.336568,31.567048,,shopping,http://api.map.baidu.com/place/detail?uid=d24e48eb463d91b4afee7a7f&output=html&source=placeapi_v2,,,4.0,,,,,,,,3,,,,,,,120.33666424128,31.5670443001,0
bbb5eeb625950765d13ce3b5,李杰家具商行,购物,家居建材,江苏省,无锡市,新吴区,江苏省无锡市新吴区塘南招商城三期162栋138号,bbb5eeb625950765d13ce3b5,1,0,120.337285,31.563971,,shopping,http://api.map.baidu.com/place/detail?uid=bbb5eeb625950765d13ce3b5&output=html&source=placeapi_v2,,,,,,,,,,,,,,,,,,120.33744579222,31.563992372499,0
e7b8d58cafa297fbf7e73b29,嘉禾地毯,购物,家居建材,江苏省,无锡市,新吴区,江苏省无锡市新吴区塘南路88号无锡招商城F1,e7b8d58cafa297fbf7e73b29,1,0,120.333189,31.563924,(0510)85023569,shopping,http://api.map.baidu.com/place/detail?uid=e7b8d58cafa297fbf7e73b29&output=html&source=placeapi_v2,,08:30-23:30,0,,,,,,,,1,,,,,,,120.33314778034,31.563918038297,0
d1796fd9a59fde5f87154155,吉斯家具专卖店(家具广场店),购物,家居建材,江苏省,无锡市,新吴区,无锡市新吴区人和无锡国际招商城无锡国际招商城-F区F3,d1796fd9a59fde5f87154155,1,0,120.336372,31.567271,15852813177,shopping,http://api.map.baidu.com/place/detail?uid=d1796fd9a59fde5f87154155&output=html&source=placeapi_v2,0.0,09:00-18:00,5,,,,,,,,2,,,,,,,,,0
959ab73af9253470d3ff2366,强宏防水,购物,家居建材,江苏省,无锡市,梁溪区,无锡市梁溪区塘南路古韵坊东北侧约200米,959ab73af9253470d3ff2366,1,0,120.333386,31.555539,,shopping,http://api.map.baidu.com/place/detail?uid=959ab73af9253470d3ff2366&output=html&source=placeapi_v2,,,,,,,,,,,,,,,,,,,,0
8f229c31b88917776318093b,火麒麟货架(塘南路店),购物,家居建材,江苏省,无锡市,新吴区,江苏省无锡市新吴区塘南路86号,8f229c31b88917776318093b,1,0,120.329687,31.56864,"13013609680,13915349961",shopping,http://api.map.baidu.com/place/detail?uid=8f229c31b88917776318093b&output=html&source=placeapi_v2,,08:00-17:00,3.3,,,,,,,,1,,,,,,,120.32952321193,31.568677135236,0
2762b3b5993449892ce67b11,荣悦达商用厨具,购物,家居建材,江苏省,无锡市,新吴区,江苏无锡市新吴区塘南路118号无锡国际招商城9号楼f2层,2762b3b5993449892ce67b11,1,0,120.334651,31.563912,13665154066,shopping,http://api.map.baidu.com/place/detail?uid=2762b3b5993449892ce67b11&output=html&source=placeapi_v2,,,,,,,,,,,,,,,,,,,,0
36b0106bf27a3afb3a04b124,无锡招商城新美厨具商行(无锡国际招商城店),购物,家居建材,江苏省,无锡市,新吴区,江苏省无锡市新吴区塘南路塘南招商城1号楼2楼a2-125号,36b0106bf27a3afb3a04b124,1,0,120.331896,31.563308,13606190646,shopping,http://api.map.baidu.com/place/detail?uid=36b0106bf27a3afb3a04b124&output=html&source=placeapi_v2,0.0,08:00-17:00,0.0,,,,,,,,,,,,,,,120.33190187192,31.563270466221,0
984ace3d67f01331ad0457ed,神将门业(无锡招商城店),购物,家居建材,江苏省,无锡市,新吴区,无锡市新吴区人和无锡国际招商城无锡国际招商城F区F2,984ace3d67f01331ad0457ed,1,0,120.335318,31.566555,13511653787,shopping,http://api.map.baidu.com/place/detail?uid=984ace3d67f01331ad0457ed&output=html&source=placeapi_v2,,,0.0,,,,,,,,,,,,,,,,,0
fdb430129f4de44b2a02e1a4,光元螺丝,购物,家居建材,江苏省,无锡市,新吴区,无锡市新吴区招商城路无锡国际招商城,fdb430129f4de44b2a02e1a4,1,0,120.335087,31.566152,"(0510)85027055,15861471575",shopping,http://api.map.baidu.com/place/detail?uid=fdb430129f4de44b2a02e1a4&output=html&source=placeapi_v2,,,,,,,,,,,,,,,,,,,,0
d752698ce2b7ec805a3ac833,PE管材管件,购物,家居建材,江苏省,无锡市,新吴区,江苏省无锡市新吴区塘南招商城W562号,d752698ce2b7ec805a3ac833,1,0,120.337049,31.565911,13023332023,shopping,http://api.map.baidu.com/place/detail?uid=d752698ce2b7ec805a3ac833&output=html&source=placeapi_v2,,06:30-18:28,,,,,,,,,,,,,,,,120.33705691756,31.565874421032,0
be55d5284b1b3f0f9122e08f,KBG穿线管电缆桥架,购物,家居建材,江苏省,无锡市,新吴区,江苏省无锡市新吴区招商城路无锡国际招商城,be55d5284b1b3f0f9122e08f,1,0,120.336771,31.565863,13771013598,shopping,http://api.map.baidu.com/place/detail?uid=be55d5284b1b3f0f9122e08f&output=html&source=placeapi_v2,,,,,,,,,,,,,,,,,,,,0
b67cce6db18697a21e1d1183,云泉电动工具电动机,购物,家居建材,江苏省,无锡市,新吴区,江苏省无锡市新吴区叙康路叙丰家园9-1号,b67cce6db18697a21e1d1183,1,0,120.343531,31.567937,,shopping,http://api.map.baidu.com/place/detail?uid=b67cce6db18697a21e1d1183&output=html&source=placeapi_v2,,,,,,,,,,,,,,,,,,,,0
