uid,name,cat_L1,cat_L2,province,city,area,address,street_id,detail,child_num,loc_lng,loc_lat,telephone,type,detail_url,price,shop_hours,overall_rating,taste_rating,service_rating,environment_rating,facility_rating,hygiene_rating,technology_rating,image_num,comment_num,groupon_num,discount_num,favorite_num,checkin_num,brand,content_tag,naviloc_lng,naviloc_lat,child_num
2238e725454410946f476082,售楼中心,生活服务,房产中介机构,宁夏回族自治区,银川市,永宁县,银川市永宁县G110永宁县闽宁镇中心幼儿园东南侧约130米,,1,0,105.977029,38.249441,,life,http://api.map.baidu.com/place/detail?uid=2238e725454410946f476082&output=html&source=placeapi_v2,,,,,,,,,,2,,,,,,,,,,0
f9c6318806d8ff98da2f28c1,房产中介,生活服务,房产中介机构,宁夏回族自治区,银川市,永宁县,银川市永宁县靖吊公路永宁县增岗幼儿园西北侧约240米,,1,0,106.176554,38.265482,,life,http://api.map.baidu.com/place/detail?uid=f9c6318806d8ff98da2f28c1&output=html&source=placeapi_v2,,,,,,,,,,2,,,,,,,,,,0
02a8b7448bce03221e5800e1,美居乐房产,生活服务,房产中介机构,宁夏回族自治区,银川市,永宁县,银川市永宁县杨和镇宁和北街阳光花园C区西门口,02a8b7448bce03221e5800e1,1,0,106.268698,38.300435,,life,http://api.map.baidu.com/place/detail?uid=02a8b7448bce03221e5800e1&output=html&source=placeapi_v2,,,,,,,,,,9,,,,,,,,106.26849706599,38.300459618099,0
c7cfc4a43560f06626e0a088,荣禾房产,生活服务,房产中介机构,宁夏回族自治区,银川市,永宁县,银川市永宁县利民路幸福小镇,,1,0,106.265872,38.287865,,life,http://api.map.baidu.com/place/detail?uid=c7cfc4a43560f06626e0a088&output=html&source=placeapi_v2,,,,,,,,,,1,,,,,,,,,,0
e7f12e0436a28b5fab0dd8f5,永宁新天地售楼中心,生活服务,房产中介机构,宁夏回族自治区,银川市,永宁县,银川市永宁县宁和北街永宁新天地,e7f12e0436a28b5fab0dd8f5,1,0,106.264199,38.295384,,life,http://api.map.baidu.com/place/detail?uid=e7f12e0436a28b5fab0dd8f5&output=html&source=placeapi_v2,,,,,,,,,,4,,,,,,,,,,0
7543cff335c8cb8a095cb34f,耀玖房产,生活服务,房产中介机构,宁夏回族自治区,银川市,永宁县,银川市永宁县兴居街三沙源3区,7543cff335c8cb8a095cb34f,1,0,106.221191,38.396131,17129613333,life,http://api.map.baidu.com/place/detail?uid=7543cff335c8cb8a095cb34f&output=html&source=placeapi_v2,,,,,,,,,,,,,,,,,,106.22118366332,38.395917427082,0
10cfb490e2bed1940a1cc77a,名屋房产,生活服务,房产中介机构,宁夏回族自治区,银川市,永宁县,银川市永宁县银子湖・水都-一区,10cfb490e2bed1940a1cc77a,1,0,106.264457,38.393163,13309594446,life,http://api.map.baidu.com/place/detail?uid=10cfb490e2bed1940a1cc77a&output=html&source=placeapi_v2,,08:30-19:30,,,,,,,,2,,,,,,,,106.26426954055,38.393267394967,0
646ee3a5592d95960c0a7065,耀玖房产,生活服务,房产中介机构,宁夏回族自治区,银川市,永宁县,宁夏回族自治区银川市永宁县望通西路196号,646ee3a5592d95960c0a7065,1,0,106.267059,38.389116,13409596612,life,http://api.map.baidu.com/place/detail?uid=646ee3a5592d95960c0a7065&output=html&source=placeapi_v2,,,,,,,,,,6,,,,,,,,106.26698046578,38.388935538643,0
9092bf4f08c6ee9128d7abb7,众房乐房产,生活服务,房产中介机构,宁夏回族自治区,银川市,永宁县,银川市永宁县双庆路银子湖水都6区西南角,,1,0,106.270433,38.403776,18395218773,life,http://api.map.baidu.com/place/detail?uid=9092bf4f08c6ee9128d7abb7&output=html&source=placeapi_v2,,08:30-20:00,,,,,,,,2,,,,,,,,106.27046298245,38.403570277361,0
fa207e3d310f52f5f90cad39,柒月房产,生活服务,房产中介机构,宁夏回族自治区,银川市,永宁县,银川市永宁县庆丰商业街庆丰苑-A区,fa207e3d310f52f5f90cad39,1,0,106.273593,38.385362,"15909682285,18795312244",life,http://api.map.baidu.com/place/detail?uid=fa207e3d310f52f5f90cad39&output=html&source=placeapi_v2,,,,,,,,,,3,,,,,,,,,,0
2ba7071dde35d5798f1a892d,宁夏喜来屋房地产经纪有限公司,生活服务,房产中介机构,宁夏回族自治区,银川市,永宁县,银川市永宁县李银路逸兰汐,2ba7071dde35d5798f1a892d,1,0,106.254311,38.397674,13389538080,life,http://api.map.baidu.com/place/detail?uid=2ba7071dde35d5798f1a892d&output=html&source=placeapi_v2,,,,,,,,,,5,,,,,,,,,,0
5b85cec142c26c0a31870abc,庆丰地产,生活服务,房产中介机构,宁夏回族自治区,银川市,永宁县,宁夏回族自治区银川市永宁县李银路庆丰御锦湾3楼,5b85cec142c26c0a31870abc,1,0,106.261619,38.409051,,life,http://api.map.baidu.com/place/detail?uid=5b85cec142c26c0a31870abc&output=html&source=placeapi_v2,,,,,,,,,,3,,,,,,,,,,0
5edb0c3e2a0d0f83d23ce30a,桃香名邸售楼中心,生活服务,房产中介机构,宁夏回族自治区,银川市,永宁县,109国道西100米,5edb0c3e2a0d0f83d23ce30a,1,0,106.282362,38.392321,,life,http://api.map.baidu.com/place/detail?uid=5edb0c3e2a0d0f83d23ce30a&output=html&source=placeapi_v2,,00:00-24:00,,,,,,,,6,,,,,,,,,,0
60f44c72ab544b27b8bd6319,添居房产,生活服务,房产中介机构,宁夏回族自治区,银川市,永宁县,银川市永宁县蓝山巷望舒幼儿园东侧约160米,60f44c72ab544b27b8bd6319,1,0,106.288206,38.386652,"15008670624,18309577837",life,http://api.map.baidu.com/place/detail?uid=60f44c72ab544b27b8bd6319&output=html&source=placeapi_v2,,08:30-19:30,,,,,,,,3,,,,,,,,106.28818871568,38.386569026815,0
dcc84b4e14793d70ae045704,路丰售楼部招商部,生活服务,房产中介机构,宁夏回族自治区,银川市,永宁县,银川市永宁县白鸽公路三里屯花园东侧约210米,dcc84b4e14793d70ae045704,1,0,106.290941,38.405888,,life,http://api.map.baidu.com/place/detail?uid=dcc84b4e14793d70ae045704&output=html&source=placeapi_v2,,,,,,,,,,2,,,,,,,,106.29101124129,38.405980731917,0
5edb0c3e2a0d0f83d23ce30a,桃香名邸售楼中心,生活服务,房产中介机构,宁夏回族自治区,银川市,永宁县,109国道西100米,5edb0c3e2a0d0f83d23ce30a,1,0,106.282362,38.392321,,life,http://api.map.baidu.com/place/detail?uid=5edb0c3e2a0d0f83d23ce30a&output=html&source=placeapi_v2,,00:00-24:00,,,,,,,,6,,,,,,,,,,0
7af93c75d864c5f12cb96d62,金盛物流园售楼部,生活服务,房产中介机构,宁夏回族自治区,银川市,永宁县,银川市永宁县鲜果路金盛恒达物流园,,1,0,106.295876,38.402834,,life,http://api.map.baidu.com/place/detail?uid=7af93c75d864c5f12cb96d62&output=html&source=placeapi_v2,,,,,,,,,,1,,,,,,,,,,0
a31981bf8a160c33ad0457d3,博越雅居房产,生活服务,房产中介机构,宁夏回族自治区,银川市,金凤区,宁夏回族自治区银川市金凤区彩云街(中海国际社区东区),a31981bf8a160c33ad0457d3,1,0,106.26388,38.426255,18795192377,life,http://api.map.baidu.com/place/detail?uid=a31981bf8a160c33ad0457d3&output=html&source=placeapi_v2,,,,,,,,,,6,,,,,,,,,,0
5b85cec142c26c0a31870abc,庆丰地产,生活服务,房产中介机构,宁夏回族自治区,银川市,永宁县,宁夏回族自治区银川市永宁县李银路庆丰御锦湾3楼,5b85cec142c26c0a31870abc,1,0,106.261619,38.409051,,life,http://api.map.baidu.com/place/detail?uid=5b85cec142c26c0a31870abc&output=html&source=placeapi_v2,,,,,,,,,,3,,,,,,,,,,0
a2c016c4de9300debb17e782,置家房屋(塔渠街店),生活服务,房产中介机构,宁夏回族自治区,银川市,金凤区,宁夏回族自治区银川市金凤区塔渠街480号二区,a2c016c4de9300debb17e782,1,0,106.251013,38.44172,"(0951)8589393,18095580088",life,http://api.map.baidu.com/place/detail?uid=a2c016c4de9300debb17e782&output=html&source=placeapi_v2,,09:00-19:00,,,,,,,,8,,,,,,,,106.2512423356,38.441607533524,0
7ede31181d9cf7b033169b49,房产中介,生活服务,房产中介机构,宁夏回族自治区,银川市,兴庆区,银川市兴庆区京拉线颐园小区-北区,7ede31181d9cf7b033169b49,1,0,106.306082,38.443299,13369578132,life,http://api.map.baidu.com/place/detail?uid=7ede31181d9cf7b033169b49&output=html&source=placeapi_v2,,08:30-20:00,,,,,,,,6,,,,,,,,106.3060027188,38.443089585578,0
730ec175ebde3151343a715c,房屋中介,生活服务,房产中介机构,宁夏回族自治区,银川市,兴庆区,银川市兴庆区章子湖家园F7-7号,730ec175ebde3151343a715c,1,0,106.317236,38.440071,18709674666,life,http://api.map.baidu.com/place/detail?uid=730ec175ebde3151343a715c&output=html&source=placeapi_v2,,08:30-20:00,,,,,,,,3,,,,,,,,106.31716474965,38.439936445164,0
0596437730ee7285deee8b19,隆昌房产,生活服务,房产中介机构,宁夏回族自治区,银川市,兴庆区,宁夏回族自治区银川市兴庆区喵喵1224嘉木花园南门口,0596437730ee7285deee8b19,1,0,106.284996,38.434791,"13995116983,18295173339",life,http://api.map.baidu.com/place/detail?uid=0596437730ee7285deee8b19&output=html&source=placeapi_v2,,09:00-19:00,0.0,,,,,,,7,,,,,,,,106.28498585529,38.434556197461,0
0a9e4f9569fffea79ee321fd,建宇地产新东环营销中心,生活服务,房产中介机构,宁夏回族自治区,银川市,兴庆区,银川市兴庆区京拉线友爱木材市场西北侧约180米,0a9e4f9569fffea79ee321fd,1,0,106.297362,38.420566,(0951)8828888,life,http://api.map.baidu.com/place/detail?uid=0a9e4f9569fffea79ee321fd&output=html&source=placeapi_v2,,,,,,,,,,4,,,,,,,,106.29742381135,38.420729017286,0
376b1723f213976a4bcc4a5e,舜天嘉园售楼中心,生活服务,房产中介机构,宁夏回族自治区,银川市,西夏区,银川市西夏区文萃南街舜天・嘉园西门东北侧约70米,376b1723f213976a4bcc4a5e,1,0,106.144348,38.476406,,life,http://api.map.baidu.com/place/detail?uid=376b1723f213976a4bcc4a5e&output=html&source=placeapi_v2,,,,,,,,,,4,,,,,,,,106.14406216621,38.476618590365,0
ebd5019fa25d7fe75e17c3fa,中合置业,生活服务,房产中介机构,宁夏回族自治区,银川市,金凤区,宁夏回族自治区银川市金凤区良田渠街恒大名都6号楼114室,ebd5019fa25d7fe75e17c3fa,1,0,106.182766,38.47202,18161510086,life,http://api.map.baidu.com/place/detail?uid=ebd5019fa25d7fe75e17c3fa&output=html&source=placeapi_v2,,08:30-20:00,,,,,,,,4,,,,,,,,106.18300586241,38.472019936724,0
ef730c7a3fe2cacd4254d7f7,京城广厦,生活服务,房产中介机构,宁夏回族自治区,银川市,金凤区,银川市金凤区良田渠街恒大名都-东区,ef730c7a3fe2cacd4254d7f7,1,0,106.183246,38.471552,,life,http://api.map.baidu.com/place/detail?uid=ef730c7a3fe2cacd4254d7f7&output=html&source=placeapi_v2,,,,,,,,,,2,,,,,,,,,,0
e67b6b650cd338bff02d8314,房源德房产,生活服务,房产中介机构,宁夏回族自治区,银川市,金凤区,宁夏回族自治区银川市金凤区长城中路红宝锦绣河畔2楼,e67b6b650cd338bff02d8314,1,0,106.224079,38.47279,,life,http://api.map.baidu.com/place/detail?uid=e67b6b650cd338bff02d8314&output=html&source=placeapi_v2,,,,,,,,,,2,,,,,,,,,,0
8c33ecbacd8b5eb507026f45,栖居家庭管家,生活服务,房产中介机构,宁夏回族自治区,银川市,金凤区,宁夏回族自治区银川市金凤区澳海熙园18号101,8c33ecbacd8b5eb507026f45,1,0,106.238764,38.451767,18209571770,life,http://api.map.baidu.com/place/detail?uid=8c33ecbacd8b5eb507026f45&output=html&source=placeapi_v2,,08:30-22:00,,,,,,,,4,,,,,,,,106.2388094388,38.451762198401,0
a9d0e431dade33ec59bbbc65,乐巢地产,生活服务,房产中介机构,宁夏回族自治区,银川市,金凤区,宁夏回族自治区银川市金凤区庆丰街489号,a9d0e431dade33ec59bbbc65,1,0,106.241541,38.45819,18795276345,life,http://api.map.baidu.com/place/detail?uid=a9d0e431dade33ec59bbbc65&output=html&source=placeapi_v2,,08:00-20:00,5.0,,,,,,,3,1,,,,,,,106.24155952567,38.458351624091,0
162fa09c0b812b7638e4a62a,林湖左岸售楼部,生活服务,房产中介机构,宁夏回族自治区,银川市,金凤区,宁夏回族自治区银川市金凤区长城中路405号,162fa09c0b812b7638e4a62a,1,0,106.230419,38.474025,(0951)5059299,life,http://api.map.baidu.com/place/detail?uid=162fa09c0b812b7638e4a62a&output=html&source=placeapi_v2,,,,,,,,,,6,,,,,,,,106.23041862934,38.473921447127,0
7770cc59784b4fadf7e73b33,阳光城售楼部,生活服务,房产中介机构,宁夏回族自治区,银川市,金凤区,宁夏银川市金凤区长城中路街道龙马中央商务广场阳光城售楼部,,1,0,106.233661,38.468721,,life,http://api.map.baidu.com/place/detail?uid=7770cc59784b4fadf7e73b33&output=html&source=placeapi_v2,,,,,,,,,,,,,,,,,,106.23367058602,38.468763209659,0
7100f1874db1fd9a71210bac,佳运房产(南苑康晨店),生活服务,房产中介机构,宁夏回族自治区,银川市,兴庆区,宁夏回族自治区银川市兴庆区利民街538号,7100f1874db1fd9a71210bac,1,0,106.26979,38.456305,18152305082,life,http://api.map.baidu.com/place/detail?uid=7100f1874db1fd9a71210bac&output=html&source=placeapi_v2,,09:00-19:00,0.0,,,,,,,3,,,,,,,,106.26989800038,38.456160080693,0
336c0423a26881b9bfa822f6,佳宜地产,生活服务,房产中介机构,宁夏回族自治区,银川市,金凤区,宁夏回族自治区银川市金凤区正源南街1-6号,336c0423a26881b9bfa822f6,1,0,106.252163,38.462337,(0951)5664999,life,http://api.map.baidu.com/place/detail?uid=336c0423a26881b9bfa822f6&output=html&source=placeapi_v2,,09:00-19:00,,,,,,,,6,,,,,,,,106.25194766712,38.461925656596,0
26e91a4b0556fa4da21de9aa,房多多房产,生活服务,房产中介机构,宁夏回族自治区,银川市,兴庆区,宁夏回族自治区银川市兴庆区富宁街196号,26e91a4b0556fa4da21de9aa,1,0,106.269078,38.469759,15009613866,life,http://api.map.baidu.com/place/detail?uid=26e91a4b0556fa4da21de9aa&output=html&source=placeapi_v2,,09:00-19:00,,,,,,,,2,,,,,,,,106.26900861056,38.46960472218,0
39a02116409f9db232870a70,原动力房产,生活服务,房产中介机构,宁夏回族自治区,银川市,兴庆区,宁夏回族自治区银川市兴庆区前进街185号,39a02116409f9db232870a70,1,0,106.273053,38.471804,(0951)5051440,life,http://api.map.baidu.com/place/detail?uid=39a02116409f9db232870a70&output=html&source=placeapi_v2,,09:00-19:00,0.0,,,,,,,7,,,,,,,,106.27309045779,38.471797371182,0
0ec852b3c7e237a633f71d4a,恒信房屋代理,生活服务,房产中介机构,宁夏回族自治区,银川市,兴庆区,宁夏回族自治区银川市兴庆区大庙北巷61号,0ec852b3c7e237a633f71d4a,1,0,106.269487,38.472982,"(0951)5066212,13995001913",life,http://api.map.baidu.com/place/detail?uid=0ec852b3c7e237a633f71d4a&output=html&source=placeapi_v2,,09:00-19:00,,,,,,,,2,,,,,,,,106.26943715079,38.472856723575,0
7bfa7a5b22cfe1bc3c9a5e04,房易地产,生活服务,房产中介机构,宁夏回族自治区,银川市,金凤区,银川市金凤区凤台路宝湖花园,7bfa7a5b22cfe1bc3c9a5e04,1,0,106.246423,38.464052,,life,http://api.map.baidu.com/place/detail?uid=7bfa7a5b22cfe1bc3c9a5e04&output=html&source=placeapi_v2,,08:00-20:00,,,,,,,,1,,,,,,,,106.2464498045,38.46412591053,0
09ae5eafa21f4777455726dd,安家房产代理(大庙北巷店),生活服务,房产中介机构,宁夏回族自治区,银川市,兴庆区,银川市大庙北巷8号,09ae5eafa21f4777455726dd,1,0,106.267707,38.473449,,life,http://api.map.baidu.com/place/detail?uid=09ae5eafa21f4777455726dd&output=html&source=placeapi_v2,,,,,,,,,,2,,,,,,,,,,0
b5c3d75451d45d51dc1e52da,盛晖地产,生活服务,房产中介机构,宁夏回族自治区,银川市,兴庆区,宁夏回族自治区银川市兴庆区富宁南街227号,b5c3d75451d45d51dc1e52da,1,0,106.26882,38.468586,(0951)4116879,life,http://api.map.baidu.com/place/detail?uid=b5c3d75451d45d51dc1e52da&output=html&source=placeapi_v2,,09:00-19:00,,,,,,,,12,,,,,,,,106.26869408056,38.468618383692,0
d8e9297dcb6ea050901fc93c,商城房产,生活服务,房产中介机构,宁夏回族自治区,银川市,兴庆区,宁夏回族自治区银川市兴庆区新华西街282号,d8e9297dcb6ea050901fc93c,1,0,106.271108,38.470797,13909593879,life,http://api.map.baidu.com/place/detail?uid=d8e9297dcb6ea050901fc93c&output=html&source=placeapi_v2,,09:00-19:00,,,,,,,,1,,,,,,,,106.27115919976,38.470934825579,0
ddd4dcba88e6d12f2fb17eae,鑫奥鑫房产代理,生活服务,房产中介机构,宁夏回族自治区,银川市,兴庆区,宁夏回族自治区银川市兴庆区西桥南巷117号水云轩4-10号,ddd4dcba88e6d12f2fb17eae,1,0,106.265118,38.47402,"(0951)5017722,(0951)5051277",life,http://api.map.baidu.com/place/detail?uid=ddd4dcba88e6d12f2fb17eae&output=html&source=placeapi_v2,,07:00-19:00,0.0,,,,,,,9,1,,,,,,,,,0
5ff7f726bad65ceaf4231096,星族房产,生活服务,房产中介机构,宁夏回族自治区,银川市,兴庆区,宁夏回族自治区银川市兴庆区进宁南街31-5号,5ff7f726bad65ceaf4231096,1,0,106.278075,38.470207,15378983228,life,http://api.map.baidu.com/place/detail?uid=5ff7f726bad65ceaf4231096&output=html&source=placeapi_v2,,,,,,,,,,,,,,,,,,,,0
154a5583f1b3d02813293502,天城房产第一中店,生活服务,房产中介机构,宁夏回族自治区,银川市,兴庆区,宁夏回族自治区银川市兴庆区修业路63号,154a5583f1b3d02813293502,1,0,106.271436,38.459163,,life,http://api.map.baidu.com/place/detail?uid=154a5583f1b3d02813293502&output=html&source=placeapi_v2,,08:30-20:00,,,,,,,,6,,,,,,,,,,0
a9f14b3cd7546d2716764356,大山房产(一中店),生活服务,房产中介机构,宁夏回族自治区,银川市,兴庆区,宁夏回族自治区银川市兴庆区文苑西巷54号,a9f14b3cd7546d2716764356,1,0,106.271471,38.453353,15209680141,life,http://api.map.baidu.com/place/detail?uid=a9f14b3cd7546d2716764356&output=html&source=placeapi_v2,,08:30-20:00,,,,,,,,4,,,,,,,,106.27151879595,38.453515503869,0
33d4ee2af25008203362125a,玛雅房屋(新一中店),生活服务,房产中介机构,宁夏回族自治区,银川市,兴庆区,宁夏回族自治区银川市兴庆区民族南街新世纪花园四组团9-1号,33d4ee2af25008203362125a,1,0,106.277458,38.454255,(0951)7882606,life,http://api.map.baidu.com/place/detail?uid=33d4ee2af25008203362125a&output=html&source=placeapi_v2,,09:00-20:00,0,,,,,,,13,1,,,,,,,,,0
901e6df604f2db43ad0457cc,21世纪不动产(东方尚都店),生活服务,房产中介机构,宁夏回族自治区,银川市,金凤区,宁夏回族自治区银川市金凤区正源南街长城花园西区21号楼708-7室,,1,0,106.251186,38.463417,,life,http://api.map.baidu.com/place/detail?uid=901e6df604f2db43ad0457cc&output=html&source=placeapi_v2,,08:00-20:00,,,,,,,,1,,,,,,,,,,0
aa38372c7b1140a44d554726,圣居房产(一中店),生活服务,房产中介机构,宁夏回族自治区,银川市,兴庆区,宁夏回族自治区银川市兴庆区民族南街新世纪花园二组团12-1号,aa38372c7b1140a44d554726,1,0,106.278497,38.452576,15226278755,life,http://api.map.baidu.com/place/detail?uid=aa38372c7b1140a44d554726&output=html&source=placeapi_v2,,08:30-19:30,,,,,,,,5,,,,,,,,106.27860894886,38.452548326034,0
175b6083c2cb128dc91b95cf,安佳房产(十六小店),生活服务,房产中介机构,宁夏回族自治区,银川市,兴庆区,宁夏回族自治区银川市兴庆区凤凰南街115号如意苑5号楼,175b6083c2cb128dc91b95cf,1,0,106.266057,38.471234,13995210677,life,http://api.map.baidu.com/place/detail?uid=175b6083c2cb128dc91b95cf&output=html&source=placeapi_v2,,09:00-19:00,,,,,,,,9,,,,,,,,106.26600055461,38.471246627802,0
d65b543137fcc25a90114cad,森跃房产(一中店),生活服务,房产中介机构,宁夏回族自治区,银川市,兴庆区,宁夏回族自治区银川市兴庆区书苑东巷154号,d65b543137fcc25a90114cad,1,0,106.281107,38.453313,13629521111,life,http://api.map.baidu.com/place/detail?uid=d65b543137fcc25a90114cad&output=html&source=placeapi_v2,,09:00-19:00,,,,,,,,11,,,,,,,,106.28114035762,38.453415351078,0
ac20cd1cf8f5e03c46e274ca,中桥房产代理,生活服务,房产中介机构,宁夏回族自治区,银川市,兴庆区,银川市兴庆区新华西路新材小区,ac20cd1cf8f5e03c46e274ca,1,0,106.274385,38.470408,(0951)5016884,life,http://api.map.baidu.com/place/detail?uid=ac20cd1cf8f5e03c46e274ca&output=html&source=placeapi_v2,,,,,,,,,,,,,,,,,,106.2744041802,38.47040614277,0
9f8793a81116e55cc6effb81,银帝置业,生活服务,房产中介机构,宁夏回族自治区,银川市,金凤区,宁夏回族自治区银川市金凤区正源南街银帝・宝湖天下,9f8793a81116e55cc6effb81,1,0,106.254468,38.460945,(0951)5122222,life,http://api.map.baidu.com/place/detail?uid=9f8793a81116e55cc6effb81&output=html&source=placeapi_v2,,,,,,,,,,3,,,,,,,,,,0
7d9cc22dbf6e00a5373a71de,宝湖经典售楼中心,生活服务,房产中介机构,宁夏回族自治区,银川市,金凤区,银川市金凤区保伏桥巷宝湖经典西南侧,7d9cc22dbf6e00a5373a71de,1,0,106.251534,38.452129,,life,http://api.map.baidu.com/place/detail?uid=7d9cc22dbf6e00a5373a71de&output=html&source=placeapi_v2,,,,,,,,,,7,,,,,,,,,,0
15d06afe68506537260bd0ea,麦吉屋地产(康银巷店),生活服务,房产中介机构,宁夏回族自治区,银川市,金凤区,银川市金凤区鲁银城市公元132-8号,15d06afe68506537260bd0ea,1,0,106.262073,38.449151,,life,http://api.map.baidu.com/place/detail?uid=15d06afe68506537260bd0ea&output=html&source=placeapi_v2,,09:00-19:00,,,,,,,,12,,,,,,,,,,0
ad7f9b7863903087f03cbae0,德佑地产(康银巷店),生活服务,房产中介机构,宁夏回族自治区,银川市,金凤区,银川市金凤区康银巷鲁银・城市公元北门西侧,ad7f9b7863903087f03cbae0,1,0,106.262903,38.451162,4006899188,life,http://api.map.baidu.com/place/detail?uid=ad7f9b7863903087f03cbae0&output=html&source=placeapi_v2,,08:50-19:00,,,,,,,,9,,,,,,,,106.26293144443,38.451194768486,0
11ca9815d29b50d73686f467,华庭地产(新一中店),生活服务,房产中介机构,宁夏回族自治区,银川市,兴庆区,宁夏回族自治区银川市兴庆区民族南街825号,11ca9815d29b50d73686f467,1,0,106.275308,38.447696,,life,http://api.map.baidu.com/place/detail?uid=11ca9815d29b50d73686f467&output=html&source=placeapi_v2,,,,,,,,,,3,,,,,,,,,,0
c8e6ff0a3e47044bc9fa5f00,德佑众合房产,生活服务,房产中介机构,宁夏回族自治区,银川市,金凤区,宁夏回族自治区银川市金凤区良田路280号,c8e6ff0a3e47044bc9fa5f00,1,0,106.256788,38.474935,,life,http://api.map.baidu.com/place/detail?uid=c8e6ff0a3e47044bc9fa5f00&output=html&source=placeapi_v2,,,0.0,,,,,,,3,1,,,,,,,,,0
f2c0e065e930303be60738b6,德佑地产(中海国际店),生活服务,房产中介机构,宁夏回族自治区,银川市,金凤区,宁夏回族自治区银川市金凤区正源南街919号,f2c0e065e930303be60738b6,1,0,106.252995,38.444662,13519595072,life,http://api.map.baidu.com/place/detail?uid=f2c0e065e930303be60738b6&output=html&source=placeapi_v2,,09:00-19:00,,,,,,,,7,,,,,,,,106.25341633824,38.444463002448,0
0ab1eb56357d277b8bfc060c,德佑地产(宝湖店),生活服务,房产中介机构,宁夏回族自治区,银川市,金凤区,宁夏回族自治区银川市金凤区凤台路17号,0ab1eb56357d277b8bfc060c,1,0,106.245235,38.465347,(0951)8738820,life,http://api.map.baidu.com/place/detail?uid=0ab1eb56357d277b8bfc060c&output=html&source=placeapi_v2,,08:30-20:30,,,,,,,,3,,,,,,,,106.2452788186,38.465285388697,0
c326cb2408aac73410293527,德佑(长兴店),生活服务,房产中介机构,宁夏回族自治区,银川市,金凤区,宁夏回族自治区银川市金凤区庆丰街363号b区,c326cb2408aac73410293527,1,0,106.248116,38.468884,4006899188,life,http://api.map.baidu.com/place/detail?uid=c326cb2408aac73410293527&output=html&source=placeapi_v2,,08:30-21:00,,,,,,,,7,,,,,,,,,,0
f206649150202c79a80dd8d9,房产中介,生活服务,房产中介机构,宁夏回族自治区,银川市,兴庆区,银川市兴庆区业成街神五丽景雅居小区,f206649150202c79a80dd8d9,1,0,106.314302,38.465864,,life,http://api.map.baidu.com/place/detail?uid=f206649150202c79a80dd8d9&output=html&source=placeapi_v2,,,,,,,,,,2,,,,,,,,106.31424410951,38.465878429066,0
7ede31181d9cf7b033169b49,房产中介,生活服务,房产中介机构,宁夏回族自治区,银川市,兴庆区,银川市兴庆区京拉线颐园小区-北区,7ede31181d9cf7b033169b49,1,0,106.306082,38.443299,13369578132,life,http://api.map.baidu.com/place/detail?uid=7ede31181d9cf7b033169b49&output=html&source=placeapi_v2,,08:30-20:00,,,,,,,,6,,,,,,,,106.3060027188,38.443089585578,0
fef7b04f7d76ffbfbbbd63af,鑫升房产,生活服务,房产中介机构,宁夏回族自治区,银川市,兴庆区,宁夏回族自治区银川市兴庆区胜利街312-2号,fef7b04f7d76ffbfbbbd63af,1,0,106.28844,38.454745,15909580839,life,http://api.map.baidu.com/place/detail?uid=fef7b04f7d76ffbfbbbd63af&output=html&source=placeapi_v2,,09:00-19:00,,,,,,,,11,,,,,,,,106.28852769605,38.454726645509,0
18d96701a365f493dc1e52b4,盛佰庆房产,生活服务,房产中介机构,宁夏回族自治区,银川市,兴庆区,宁夏回族自治区银川市兴庆区胜利南街310号,18d96701a365f493dc1e52b4,1,0,106.28857,38.4551,13099502788,life,http://api.map.baidu.com/place/detail?uid=18d96701a365f493dc1e52b4&output=html&source=placeapi_v2,,09:00-19:00,,,,,,,,13,,,,,,,,106.28864548546,38.455073976396,0
da3e9838d4b6bb96c91b9519,瑞源祥房产中介,生活服务,房产中介机构,宁夏回族自治区,银川市,兴庆区,宁夏回族自治区银川市兴庆区胜利南街343-2号,da3e9838d4b6bb96c91b9519,1,0,106.288527,38.453845,,life,http://api.map.baidu.com/place/detail?uid=da3e9838d4b6bb96c91b9519&output=html&source=placeapi_v2,,09:00-19:00,,,,,,,,10,,,,,,,,106.28842731131,38.453871629451,0
5e24e6111286bdbf04026f0b,通达房产(立志巷),生活服务,房产中介机构,宁夏回族自治区,银川市,兴庆区,宁夏回族自治区银川市兴庆区立志巷12号,8e9d786e713d9ff695f08c14,1,0,106.293562,38.473954,"(0951)6036637,13995403724",life,http://api.map.baidu.com/place/detail?uid=5e24e6111286bdbf04026f0b&output=html&source=placeapi_v2,,09:00-19:00,0,,,,,,,3,1,,,,,,,,,0
980761e47ab91e6a715e80ee,房产代理,生活服务,房产中介机构,宁夏回族自治区,银川市,兴庆区,宁夏银川市兴庆区修业路169号,980761e47ab91e6a715e80ee,1,0,106.289992,38.455885,13639515711,life,http://api.map.baidu.com/place/detail?uid=980761e47ab91e6a715e80ee&output=html&source=placeapi_v2,,09:00-19:00,,,,,,,,1,,,,,,,,,,0
7fed1793ef023279a3acc468,房产代理,生活服务,房产中介机构,宁夏回族自治区,银川市,兴庆区,银川市兴庆区业兴巷安泰花园,7fed1793ef023279a3acc468,1,0,106.299956,38.475102,,life,http://api.map.baidu.com/place/detail?uid=7fed1793ef023279a3acc468&output=html&source=placeapi_v2,,,,,,,,,,,,,,,,,,106.3000704727,38.475196527212,0
6e3cdd923c16a6b0ebe58292,佳阳房产,生活服务,房产中介机构,宁夏回族自治区,银川市,兴庆区,银川市兴庆区宝湖东路银帝丽锦苑,6e3cdd923c16a6b0ebe58292,1,0,106.29058,38.449329,"13629597502,18709503425",life,http://api.map.baidu.com/place/detail?uid=6e3cdd923c16a6b0ebe58292&output=html&source=placeapi_v2,,,,,,,,,,6,,,,,,,,106.29040727871,38.449366631869,0
c69282805ee0897a80a00c8b,泰福房产,生活服务,房产中介机构,宁夏回族自治区,银川市,兴庆区,宁夏回族自治区银川市兴庆区新华东路977号,,1,0,106.320709,38.458958,15729579882,life,http://api.map.baidu.com/place/detail?uid=c69282805ee0897a80a00c8b&output=html&source=placeapi_v2,,,,,,,,,,3,,,,,,,,,,0
e936b20cc4fd046a3686f42e,豪丽房产,生活服务,房产中介机构,宁夏回族自治区,银川市,兴庆区,宁夏回族自治区银川市兴庆区新华东街丽水家园797号,e936b20cc4fd046a3686f42e,1,0,106.31674,38.459885,13995479047,life,http://api.map.baidu.com/place/detail?uid=e936b20cc4fd046a3686f42e&output=html&source=placeapi_v2,,,,,,,,,,6,,,,,,,,106.31667381032,38.459753014572,0
d65b543137fcc25a90114cad,森跃房产(一中店),生活服务,房产中介机构,宁夏回族自治区,银川市,兴庆区,宁夏回族自治区银川市兴庆区书苑东巷154号,d65b543137fcc25a90114cad,1,0,106.281107,38.453313,13629521111,life,http://api.map.baidu.com/place/detail?uid=d65b543137fcc25a90114cad&output=html&source=placeapi_v2,,09:00-19:00,,,,,,,,11,,,,,,,,106.28114035762,38.453415351078,0
daa4e3b70f3043dd6fa3cc54,悠远房屋,生活服务,房产中介机构,宁夏回族自治区,银川市,兴庆区,宁夏回族自治区银川市兴庆区民族南街170号,daa4e3b70f3043dd6fa3cc54,1,0,106.280282,38.465179,,life,http://api.map.baidu.com/place/detail?uid=daa4e3b70f3043dd6fa3cc54&output=html&source=placeapi_v2,,09:00-19:00,,,,,,,,5,,,,,,,,106.28040692531,38.465153398628,0
b01fad0430723decb45f1ebf,丽景雅居接待中心,生活服务,房产中介机构,宁夏回族自治区,银川市,兴庆区,宁夏回族自治区银川市兴庆区解放东街596-12-5号神五丽景雅居小区19号楼,b01fad0430723decb45f1ebf,1,0,106.313478,38.464078,,life,http://api.map.baidu.com/place/detail?uid=b01fad0430723decb45f1ebf&output=html&source=placeapi_v2,,08:30-18:30,,,,,,,,5,,,,,,,,106.31339450384,38.464102936235,0
45d60e2143feab7f52e5c508,酷家乐房管家,生活服务,房产中介机构,宁夏回族自治区,银川市,兴庆区,宁夏回族自治区银川市兴庆区银通路1276号,,1,0,106.33661,38.466344,(0951)8569856,life,http://api.map.baidu.com/place/detail?uid=45d60e2143feab7f52e5c508&output=html&source=placeapi_v2,,08:00-22:00,,,,,,,,2,,,,,,,,,,0
c69282805ee0897a80a00c8b,泰福房产,生活服务,房产中介机构,宁夏回族自治区,银川市,兴庆区,宁夏回族自治区银川市兴庆区新华东路977号,,1,0,106.320709,38.458958,15729579882,life,http://api.map.baidu.com/place/detail?uid=c69282805ee0897a80a00c8b&output=html&source=placeapi_v2,,,,,,,,,,3,,,,,,,,,,0
3de303dc090a85fb077ce881,远航房产(共享店),生活服务,房产中介机构,宁夏回族自治区,银川市,西夏区,宁夏回族自治区银川市西夏区北京西路547号共享家园433号,3de303dc090a85fb077ce881,1,0,106.117857,38.491839,13309591620,life,http://api.map.baidu.com/place/detail?uid=3de303dc090a85fb077ce881&output=html&source=placeapi_v2,,09:00-19:00,,,,,,,,5,,,,,,,,,,0
97f91d97d328ab4e76e5b60e,红运来房产中介,生活服务,房产中介机构,宁夏回族自治区,银川市,西夏区,宁夏回族自治区银川市西夏区健美巷91号,97f91d97d328ab4e76e5b60e,1,0,106.133058,38.493924,13895084520,life,http://api.map.baidu.com/place/detail?uid=97f91d97d328ab4e76e5b60e&output=html&source=placeapi_v2,,08:00-20:00,0.0,,,,,,,9,,,,,,,,106.13305684574,38.493802541064,0
63a8188fc79b870630169b36,满意家房产,生活服务,房产中介机构,宁夏回族自治区,银川市,西夏区,宁夏回族自治区银川市西夏区同心北路362号,63a8188fc79b870630169b36,1,0,106.130493,38.505133,13469588543,life,http://api.map.baidu.com/place/detail?uid=63a8188fc79b870630169b36&output=html&source=placeapi_v2,,,0.0,,,,,,,11,2,,,,,,,106.13064294253,38.505103200965,0
0e3c55b16d13e75607026f16,佳运房产(同心店),生活服务,房产中介机构,宁夏回族自治区,银川市,西夏区,宁夏回族自治区银川市西夏区丰安巷88号,0e3c55b16d13e75607026f16,1,0,106.127368,38.500238,18152305082,life,http://api.map.baidu.com/place/detail?uid=0e3c55b16d13e75607026f16&output=html&source=placeapi_v2,,09:00-19:00,0.0,,,,,,,10,,,,,,,,,,0
6252fad5a2a80b7e6cc02c06,广宁房产,生活服务,房产中介机构,宁夏回族自治区,银川市,西夏区,宁夏回族自治区银川市西夏区丰安巷180号38号楼,6252fad5a2a80b7e6cc02c06,1,0,106.12689,38.50024,13323572050,life,http://api.map.baidu.com/place/detail?uid=6252fad5a2a80b7e6cc02c06&output=html&source=placeapi_v2,,09:00-19:00,,,,,,,,5,,,,,,,,,,0
0c98882783753f6fbe48421b,韵佳(宁夏)房产中介有限公司,生活服务,房产中介机构,宁夏回族自治区,银川市,西夏区,宁夏回族自治区银川市西夏区怀远路西夏万达广场a座公寓楼1401室,,1,0,106.156996,38.497259,13079590162,life,http://api.map.baidu.com/place/detail?uid=0c98882783753f6fbe48421b&output=html&source=placeapi_v2,,,,,,,,,,,,,,,,,,,,0
4b0ab271135179997e29bd00,远航房产,生活服务,房产中介机构,宁夏回族自治区,银川市,西夏区,宁夏回族自治区银川市西夏区怀远西路433号,4b0ab271135179997e29bd00,1,0,106.125732,38.497018,13309591620,life,http://api.map.baidu.com/place/detail?uid=4b0ab271135179997e29bd00&output=html&source=placeapi_v2,,,,,,,,,,3,,,,,,,,106.12573267077,38.496962992158,0
62928777707b6f2840ab9a29,利弘房产,生活服务,房产中介机构,宁夏回族自治区,银川市,西夏区,宁夏回族自治区银川市西夏区金波南街居乐苑3-3号,62928777707b6f2840ab9a29,1,0,106.154144,38.49205,17811116787,life,http://api.map.baidu.com/place/detail?uid=62928777707b6f2840ab9a29&output=html&source=placeapi_v2,,00:00-24:00,,,,,,,,5,,,,,,,,106.15443630847,38.492052416098,0
5d64cdd7ed90693c343a71d1,民生悦兰园销售招商中心,生活服务,房产中介机构,宁夏回族自治区,银川市,西夏区,银川市西夏区怀远西路宁军园西南侧约40米,5d64cdd7ed90693c343a71d1,1,0,106.138531,38.497062,,life,http://api.map.baidu.com/place/detail?uid=5d64cdd7ed90693c343a71d1&output=html&source=placeapi_v2,,,,,,,,,,3,,,,,,,,,,0
1a5b9a5d42247860047ce895,锦辰房产,生活服务,房产中介机构,宁夏回族自治区,银川市,西夏区,银川市西夏区争先巷万达华宅,1a5b9a5d42247860047ce895,1,0,106.158228,38.49989,,life,http://api.map.baidu.com/place/detail?uid=1a5b9a5d42247860047ce895&output=html&source=placeapi_v2,,08:30-20:00,,,,,,,,4,,,,,,,,,,0
3de303dc090a85fb077ce881,远航房产(共享店),生活服务,房产中介机构,宁夏回族自治区,银川市,西夏区,宁夏回族自治区银川市西夏区北京西路547号共享家园433号,3de303dc090a85fb077ce881,1,0,106.117857,38.491839,13309591620,life,http://api.map.baidu.com/place/detail?uid=3de303dc090a85fb077ce881&output=html&source=placeapi_v2,,09:00-19:00,,,,,,,,5,,,,,,,,,,0
8f66a303eaa7db006ca3ccc4,隆光西萃芳庭售楼中心,生活服务,房产中介机构,宁夏回族自治区,银川市,西夏区,银川市西夏区文萃南街隆光.西萃芳庭,8f66a303eaa7db006ca3ccc4,1,0,106.144132,38.486023,(0951)2016777,life,http://api.map.baidu.com/place/detail?uid=8f66a303eaa7db006ca3ccc4&output=html&source=placeapi_v2,,,,,,,,,,4,,,,,,,,106.14401549811,38.486019015465,0
403cc24de1e88598b45f1e23,尚克地产,生活服务,房产中介机构,宁夏回族自治区,银川市,西夏区,宁夏回族自治区银川市西夏区同心路梧桐花园110号,403cc24de1e88598b45f1e23,1,0,106.13277,38.502075,18295289551,life,http://api.map.baidu.com/place/detail?uid=403cc24de1e88598b45f1e23&output=html&source=placeapi_v2,,08:30-20:00,,,,,,,,5,,,,,,,,,,0
7e653b1eedb37cc0bfa822d3,21世纪不动产(怡林园店),生活服务,房产中介机构,宁夏回族自治区,银川市,西夏区,宁夏回族自治区银川市西夏区北京西路148号怡林园二期31号楼116商业房一楼,,1,0,106.138565,38.485675,15769503033,life,http://api.map.baidu.com/place/detail?uid=7e653b1eedb37cc0bfa822d3&output=html&source=placeapi_v2,,08:30-19:30,,,,,,,,5,1,,,,,,,106.13836709433,38.485673962491,0
5f93a125f4753250c7effb46,嘉屋文宸府售楼部,生活服务,房产中介机构,宁夏回族自治区,银川市,西夏区,宁夏回族自治区银川市西夏区同心南街中国石油工程建设公司宁夏分公司,5f93a125f4753250c7effb46,1,0,106.130017,38.488691,,life,http://api.map.baidu.com/place/detail?uid=5f93a125f4753250c7effb46&output=html&source=placeapi_v2,,,,,,,,,,,,,,,,,,106.1304241719,38.488684908204,0
cc42a06600a0d6f2b54f5454,银东铭城地产(同心路店),生活服务,房产中介机构,宁夏回族自治区,银川市,西夏区,银川市西夏区同心北街瑞祥苑(同心北街),,1,0,106.131077,38.49871,,life,http://api.map.baidu.com/place/detail?uid=cc42a06600a0d6f2b54f5454&output=html&source=placeapi_v2,,09:00-19:00,,,,,,,,1,,,,,,,,106.13096002192,38.498709751651,0
f7432de967db840b33169b76,21世纪不动产(万达华宅店),生活服务,房产中介机构,宁夏回族自治区,银川市,西夏区,宁夏回族自治区银川市西夏区金街4-117号,,1,0,106.158897,38.497751,"(0951)8892220,15226210289",life,http://api.map.baidu.com/place/detail?uid=f7432de967db840b33169b76&output=html&source=placeapi_v2,,,,,,,,,,6,,,,,,,,106.15902611783,38.49784766186,0
376b1723f213976a4bcc4a5e,舜天嘉园售楼中心,生活服务,房产中介机构,宁夏回族自治区,银川市,西夏区,银川市西夏区文萃南街舜天・嘉园西门东北侧约70米,376b1723f213976a4bcc4a5e,1,0,106.144348,38.476406,,life,http://api.map.baidu.com/place/detail?uid=376b1723f213976a4bcc4a5e&output=html&source=placeapi_v2,,,,,,,,,,4,,,,,,,,106.14406216621,38.476618590365,0
03ebd9610d35253e8936ee8e,爱家房产(北京中路店),生活服务,房产中介机构,宁夏回族自治区,银川市,金凤区,宁夏回族自治区银川市金凤区北京中路731号,03ebd9610d35253e8936ee8e,1,0,106.18874,38.491756,(0951)3060581,life,http://api.map.baidu.com/place/detail?uid=03ebd9610d35253e8936ee8e&output=html&source=placeapi_v2,,09:00-18:30,0.0,,,,,,,4,1,,,,,,,,,0
0c98882783753f6fbe48421b,韵佳(宁夏)房产中介有限公司,生活服务,房产中介机构,宁夏回族自治区,银川市,西夏区,宁夏回族自治区银川市西夏区怀远路西夏万达广场a座公寓楼1401室,,1,0,106.156996,38.497259,13079590162,life,http://api.map.baidu.com/place/detail?uid=0c98882783753f6fbe48421b&output=html&source=placeapi_v2,,,,,,,,,,,,,,,,,,,,0
91a288318eba71c6593ac815,丰澜房产,生活服务,房产中介机构,宁夏回族自治区,银川市,西夏区,宁夏回族自治区银川市西夏区丽子园街丽子家园a区西20号营业房,91a288318eba71c6593ac815,1,0,106.164448,38.489076,18695465281,life,http://api.map.baidu.com/place/detail?uid=91a288318eba71c6593ac815&output=html&source=placeapi_v2,,,,,,,,,,5,,,,,,,,106.16445286766,38.488816616547,0
6d9bd963e0b6463826e0a098,人人居地产,生活服务,房产中介机构,宁夏回族自治区,银川市,金凤区,宁夏回族自治区银川市金凤区通达南街20-1-14号颐和城府20号楼114室,6d9bd963e0b6463826e0a098,1,0,106.185876,38.481108,13209515588,life,http://api.map.baidu.com/place/detail?uid=6d9bd963e0b6463826e0a098&output=html&source=placeapi_v2,,09:00-19:00,0,,,,,,,7,1,,,,,,,106.18588478098,38.480834903824,0
c1d7c28f0663ccba99005006,家世界房产代理,生活服务,房产中介机构,宁夏回族自治区,银川市,金凤区,银川市金凤区团结巷青青花园,c1d7c28f0663ccba99005006,1,0,106.192086,38.498891,18909519667,life,http://api.map.baidu.com/place/detail?uid=c1d7c28f0663ccba99005006&output=html&source=placeapi_v2,,09:00-19:00,0.0,,,,,,,6,1,,,,,,,,,0
1a5b9a5d42247860047ce895,锦辰房产,生活服务,房产中介机构,宁夏回族自治区,银川市,西夏区,银川市西夏区争先巷万达华宅,1a5b9a5d42247860047ce895,1,0,106.158228,38.49989,,life,http://api.map.baidu.com/place/detail?uid=1a5b9a5d42247860047ce895&output=html&source=placeapi_v2,,08:30-20:00,,,,,,,,4,,,,,,,,,,0
f4516903193e3ac98adb730e,宁轩置业,生活服务,房产中介机构,宁夏回族自治区,银川市,金凤区,宁夏回族自治区银川市金凤区凤翔街c08-119号,f4516903193e3ac98adb730e,1,0,106.180098,38.477957,15595319843,life,http://api.map.baidu.com/place/detail?uid=f4516903193e3ac98adb730e&output=html&source=placeapi_v2,,,,,,,,,,1,,,,,,,,,,0
010933236d217b3e3904b1f5,银川阿拉善广场售楼中心,生活服务,房产中介机构,宁夏回族自治区,银川市,金凤区,宁夏回族自治区银川市金凤区北京中路阿拉善广场5号楼北侧,010933236d217b3e3904b1f5,1,0,106.183408,38.493049,,life,http://api.map.baidu.com/place/detail?uid=010933236d217b3e3904b1f5&output=html&source=placeapi_v2,,,,,,,,,,1,,,,,,,,,,0
e6317a8cd23d96f9c9e33c38,德佑地产(新苑店),生活服务,房产中介机构,宁夏回族自治区,银川市,金凤区,宁夏回族自治区银川市金凤区黄河东路10号颐和金凤花园二期b14,e6317a8cd23d96f9c9e33c38,1,0,106.186726,38.483587,4006899188,life,http://api.map.baidu.com/place/detail?uid=e6317a8cd23d96f9c9e33c38&output=html&source=placeapi_v2,,,,,,,,,,5,,,,,,,,106.18672529906,38.483440291054,0
14de4499d41cf3b2d22dd634,未来城-售楼部,生活服务,房产中介机构,宁夏回族自治区,银川市,金凤区,宁夏回族自治区银川市金凤区上海西路475号,14de4499d41cf3b2d22dd634,1,0,106.1996,38.496945,,enterprise,http://api.map.baidu.com/place/detail?uid=14de4499d41cf3b2d22dd634&output=html&source=placeapi_v2,,,,,,,,,,,,,,,,,,,,0
904279c84fbb981721f017c0,绿地・凤凰城售楼处,生活服务,房产中介机构,宁夏回族自治区,银川市,金凤区,银川市金凤区惠北巷91-93号,904279c84fbb981721f017c0,1,0,106.195466,38.503519,,life,http://api.map.baidu.com/place/detail?uid=904279c84fbb981721f017c0&output=html&source=placeapi_v2,,,,,,,,,,,,,,,,,,106.19546873386,38.503286181094,0
74aa36ee8d504f1937b06cb2,佳运房产(亲水店),生活服务,房产中介机构,宁夏回族自治区,银川市,金凤区,宁夏回族自治区银川市金凤区上海西路283号,74aa36ee8d504f1937b06cb2,1,0,106.221766,38.496269,,life,http://api.map.baidu.com/place/detail?uid=74aa36ee8d504f1937b06cb2&output=html&source=placeapi_v2,,09:00-19:00,1.0,,,,,,,6,,,,,,,,106.22176069077,38.496236833311,0
deb55924963049890a5cb37a,福人居地产(第八分部湖畔店),生活服务,房产中介机构,宁夏回族自治区,银川市,金凤区,宁夏回族自治区银川市金凤区湖畔嘉苑47-10号,deb55924963049890a5cb37a,1,0,106.207833,38.480074,19995128008,life,http://api.map.baidu.com/place/detail?uid=deb55924963049890a5cb37a&output=html&source=placeapi_v2,,08:00-20:00,5,,,,,,,5,1,,,,,,,,,0
da385cc260ddd699bea240e8,德佑,生活服务,房产中介机构,宁夏回族自治区,银川市,金凤区,宁夏回族自治区银川市金凤区清水湾幸福枫景21-4号营业房,,1,0,106.217831,38.504179,18295106598,life,http://api.map.baidu.com/place/detail?uid=da385cc260ddd699bea240e8&output=html&source=placeapi_v2,,08:00-20:00,,,,,,,,3,,,,,,,,,,0
14de4499d41cf3b2d22dd634,未来城-售楼部,生活服务,房产中介机构,宁夏回族自治区,银川市,金凤区,宁夏回族自治区银川市金凤区上海西路475号,14de4499d41cf3b2d22dd634,1,0,106.1996,38.496945,,enterprise,http://api.map.baidu.com/place/detail?uid=14de4499d41cf3b2d22dd634&output=html&source=placeapi_v2,,,,,,,,,,,,,,,,,,,,0
846edfde68cd811bcc06a4d8,天嘉人和里售楼部,生活服务,房产中介机构,宁夏回族自治区,银川市,金凤区,银川市金凤区长宁巷天嘉.人和里,846edfde68cd811bcc06a4d8,1,0,106.202357,38.493606,,life,http://api.map.baidu.com/place/detail?uid=846edfde68cd811bcc06a4d8&output=html&source=placeapi_v2,,,,,,,,,,2,,,,,,,,,,0
bae176d05942d0a4a8059dea,易卖屋地产(安怡家园店),生活服务,房产中介机构,宁夏回族自治区,银川市,金凤区,银川市金凤区银啤巷安怡家园-A区,bae176d05942d0a4a8059dea,1,0,106.198365,38.48716,,life,http://api.map.baidu.com/place/detail?uid=bae176d05942d0a4a8059dea&output=html&source=placeapi_v2,,,,,,,,,,3,,,,,,,,106.19837646346,38.487312019539,0
2aab3b7c9ff84e6a4f6d46c4,开源房产代理,生活服务,房产中介机构,宁夏回族自治区,银川市,兴庆区,银川市兴庆区上海西路云开苑北大门18号1号营业房,2aab3b7c9ff84e6a4f6d46c4,1,0,106.264613,38.493594,,life,http://api.map.baidu.com/place/detail?uid=2aab3b7c9ff84e6a4f6d46c4&output=html&source=placeapi_v2,,09:00-19:00,0,,,,,,,8,1,,,,,,,106.26462348101,38.493668911092,0
2c511536e537ad0eadb22a66,宏利房产,生活服务,房产中介机构,宁夏回族自治区,银川市,兴庆区,宁夏回族自治区银川市兴庆区上海东路云开苑18号楼18-2号,2c511536e537ad0eadb22a66,1,0,106.264456,38.493589,18795092708,life,http://api.map.baidu.com/place/detail?uid=2c511536e537ad0eadb22a66&output=html&source=placeapi_v2,,09:00-19:00,0,,,,,,,6,1,,,,,,,106.26445745708,38.49384708478,0
f7d39f1fbfb804f37dc876d8,喜客来房产,生活服务,房产中介机构,宁夏回族自治区,银川市,兴庆区,宁夏回族自治区银川市兴庆区唐徕小区117号楼,f7d39f1fbfb804f37dc876d8,1,0,106.26569,38.485372,"15209576016,18295178281",life,http://api.map.baidu.com/place/detail?uid=f7d39f1fbfb804f37dc876d8&output=html&source=placeapi_v2,,09:00-19:00,0.0,,,,,,,6,,,,,,,,106.26583951538,38.485367315297,0
02023d51fd51e6dd100daa3a,新家园房产代理(祥安巷),生活服务,房产中介机构,宁夏回族自治区,银川市,金凤区,宁夏回族自治区银川市金凤区祥安巷98号,02023d51fd51e6dd100daa3a,1,0,106.247821,38.481934,(0951)6087071,life,http://api.map.baidu.com/place/detail?uid=02023d51fd51e6dd100daa3a&output=html&source=placeapi_v2,,09:00-19:00,0,,,,,,,6,1,,,,,,,106.24775192104,38.482168938648,0
163a665f9696f88afbdc85d5,君正房产,生活服务,房产中介机构,宁夏回族自治区,银川市,兴庆区,宁夏回族自治区银川市兴庆区大地世纪小区内,,1,0,106.262984,38.488898,15769509772,life,http://api.map.baidu.com/place/detail?uid=163a665f9696f88afbdc85d5&output=html&source=placeapi_v2,,,,,,,,,,1,,,,,,,,,,0
8b01da7324169fa08f772765,阳光之家房产代理,生活服务,房产中介机构,宁夏回族自治区,银川市,兴庆区,宁夏回族自治区银川市兴庆区天平街88号,8b01da7324169fa08f772765,1,0,106.276788,38.488931,"(0951)5028961,13895096408",life,http://api.map.baidu.com/place/detail?uid=8b01da7324169fa08f772765&output=html&source=placeapi_v2,,09:00-19:00,0.0,,,,,,,10,,,,,,,,106.27691438355,38.488884417991,0
2795212d93d005d716948e5f,福兆隆房产代理,生活服务,房产中介机构,宁夏回族自治区,银川市,兴庆区,宁夏回族自治区银川市兴庆区西桥巷59号,2795212d93d005d716948e5f,1,0,106.263787,38.478931,18995080706,life,http://api.map.baidu.com/place/detail?uid=2795212d93d005d716948e5f&output=html&source=placeapi_v2,,09:00-19:00,0.0,,,,,,,11,1,,,,,,,106.26359032816,38.47902173851,0
fe0cc211741f96724d5547bf,房博房产,生活服务,房产中介机构,宁夏回族自治区,银川市,金凤区,银川市金凤区新昌东路与唐槐巷交叉路口西南侧锦绣苑,,1,0,106.256718,38.483,(0951)5072276,life,http://api.map.baidu.com/place/detail?uid=fe0cc211741f96724d5547bf&output=html&source=placeapi_v2,,09:00-19:00,,,,,,,,1,,,,,,,,,,0
485f6d15828380a49122e0f0,聚世家晨房产中介部,生活服务,房产中介机构,宁夏回族自治区,银川市,金凤区,宁夏回族自治区银川市金凤区悦海新天地6-2110,485f6d15828380a49122e0f0,1,0,106.252932,38.500653,,life,http://api.map.baidu.com/place/detail?uid=485f6d15828380a49122e0f0&output=html&source=placeapi_v2,,07:00-20:00,,,,,,,,,,,,,,,,,,0
688be8650b7cad4c88f15d6b,宜家房屋(新昌东路店),生活服务,房产中介机构,宁夏回族自治区,银川市,金凤区,宁夏回族自治区银川市金凤区新昌东路348号,688be8650b7cad4c88f15d6b,1,0,106.256952,38.48253,"(0951)5075550,13895199957",life,http://api.map.baidu.com/place/detail?uid=688be8650b7cad4c88f15d6b&output=html&source=placeapi_v2,,09:00-19:00,0,,,,,,,8,0,,,,,,,106.25695870451,38.482625836692,0
c6cee02b920babfa08f5eb12,宜博房产,生活服务,房产中介机构,宁夏回族自治区,银川市,金凤区,宁夏回族自治区银川市金凤区黄河东路紫园小区北区12号楼10号,c6cee02b920babfa08f5eb12,1,0,106.251571,38.476508,17398466090,life,http://api.map.baidu.com/place/detail?uid=c6cee02b920babfa08f5eb12&output=html&source=placeapi_v2,,09:00-19:00,,,,,,,,2,,,,,,,,,,0
0686116eae18a636e60738f2,21世纪不动产(北安店),生活服务,房产中介机构,宁夏回族自治区,银川市,兴庆区,宁夏回族自治区银川市兴庆区上海东路122号,,1,0,106.270259,38.493586,18209606789,life,http://api.map.baidu.com/place/detail?uid=0686116eae18a636e60738f2&output=html&source=placeapi_v2,,08:30-20:00,,,,,,,,4,,,,,,,,,,0
289af4419cd33705102935b8,中银地产,生活服务,房产中介机构,宁夏回族自治区,银川市,兴庆区,宁夏回族自治区银川市兴庆区兴仁巷唐徕小区63号楼,289af4419cd33705102935b8,1,0,106.263947,38.48498,,life,http://api.map.baidu.com/place/detail?uid=289af4419cd33705102935b8&output=html&source=placeapi_v2,,,,,,,,,,1,,,,,,,,,,0
445bacab7662f3f21b94c664,盛达轩房产中介服务部,生活服务,房产中介机构,宁夏回族自治区,银川市,金凤区,银川市金凤区祥安巷高新区和信商务中心-住宅楼,,1,0,106.243101,38.48274,,life,http://api.map.baidu.com/place/detail?uid=445bacab7662f3f21b94c664&output=html&source=placeapi_v2,,,,,,,,,,,,,,,,,,,,0
d6c8e9a82ebb1f7b06fef58f,民生健身中心(兴庆府大院店),生活服务,房产中介机构,宁夏回族自治区,银川市,兴庆区,宁夏回族自治区银川市兴庆区凤凰北街627号,d6c8e9a82ebb1f7b06fef58f,1,0,106.273774,38.500508,(0951)5179313,life,http://api.map.baidu.com/place/detail?uid=d6c8e9a82ebb1f7b06fef58f&output=html&source=placeapi_v2,,09:00-21:00,1,,,,,,,16,1,,,,,,,106.27369780045,38.500514976688,0
e211ea955b50b89cc4f50d11,锦诚居地产(一分店),生活服务,房产中介机构,宁夏回族自治区,银川市,兴庆区,宁夏回族自治区银川市兴庆区凤凰北街北安小区6号楼,e211ea955b50b89cc4f50d11,1,0,106.270663,38.4926,18169503225,life,http://api.map.baidu.com/place/detail?uid=e211ea955b50b89cc4f50d11&output=html&source=placeapi_v2,,08:00-20:00,,,,,,,,4,,,,,,,,106.27068708362,38.492417215569,0
ca15f002362137abd22dd68f,德佑地产(北安小区店),生活服务,房产中介机构,宁夏回族自治区,银川市,兴庆区,宁夏回族自治区银川市兴庆区西桥北巷545号,ca15f002362137abd22dd68f,1,0,106.266039,38.492871,4006899188,life,http://api.map.baidu.com/place/detail?uid=ca15f002362137abd22dd68f&output=html&source=placeapi_v2,,09:00-21:00,,,,,,,,7,,,,,,,,106.26586904448,38.492860128021,0
8ede4a89dab382d5f60e77cb,玛雅房屋(海宝店),生活服务,房产中介机构,宁夏回族自治区,银川市,兴庆区,宁夏回族自治区银川市兴庆区天平街90-1号海宝福川苑21号楼101室,8ede4a89dab382d5f60e77cb,1,0,106.276854,38.489003,(0951)6026987,life,http://api.map.baidu.com/place/detail?uid=8ede4a89dab382d5f60e77cb&output=html&source=placeapi_v2,,09:00-20:00,,,,,,,,5,,,,,,,,106.27696666404,38.488964307693,0
0562e4fec87f5df3f423100d,佳顺房产,生活服务,房产中介机构,宁夏回族自治区,银川市,兴庆区,宁夏回族自治区银川市兴庆区新民巷13号,,1,0,106.267655,38.485182,15202687877,life,http://api.map.baidu.com/place/detail?uid=0562e4fec87f5df3f423100d&output=html&source=placeapi_v2,,,0.0,,,,,,,2,1,,,,,,,,,0
6bcb8bb08fe782a9e81e9763,顺天地产,生活服务,房产中介机构,宁夏回族自治区,银川市,金凤区,宁夏回族自治区银川市金凤区宁安东巷156号,6bcb8bb08fe782a9e81e9763,1,0,106.241844,38.486978,,life,http://api.map.baidu.com/place/detail?uid=6bcb8bb08fe782a9e81e9763&output=html&source=placeapi_v2,,,,,,,,,,,,,,,,,,106.24200788252,38.48696060721,0
78bfe3767b3c61c0fd0eb041,京城广厦(十二分店),生活服务,房产中介机构,宁夏回族自治区,银川市,金凤区,宁夏回族自治区银川市金凤区康平路301号,78bfe3767b3c61c0fd0eb041,1,0,106.263139,38.499389,,life,http://api.map.baidu.com/place/detail?uid=78bfe3767b3c61c0fd0eb041&output=html&source=placeapi_v2,,,,,,,,,,5,,,,,,,,,,0
22d43f5f461a86712db96de5,润锦地产,生活服务,房产中介机构,宁夏回族自治区,银川市,兴庆区,银川市兴庆区济慈巷海宝小区-福星苑,22d43f5f461a86712db96de5,1,0,106.274501,38.489362,13323501377,life,http://api.map.baidu.com/place/detail?uid=22d43f5f461a86712db96de5&output=html&source=placeapi_v2,,,,,,,,,,5,,,,,,,,106.27450374389,38.48924628032,0
04a506dc3fe36936bbbd63f5,易麦屋地产(康平路店),生活服务,房产中介机构,宁夏回族自治区,银川市,兴庆区,宁夏回族自治区银川市兴庆区康平路21-3号,04a506dc3fe36936bbbd63f5,1,0,106.275965,38.498766,,life,http://api.map.baidu.com/place/detail?uid=04a506dc3fe36936bbbd63f5&output=html&source=placeapi_v2,,08:00-19:00,,,,,,,,7,,,,,,,,,,0
63fb2055421496e05810930a,华远地产(中国银行大厦店),生活服务,房产中介机构,宁夏回族自治区,银川市,金凤区,宁夏回族自治区银川市金凤区新昌东路圣雪绒大厦13层,63fb2055421496e05810930a,1,0,106.242126,38.48485,,life,http://api.map.baidu.com/place/detail?uid=63fb2055421496e05810930a&output=html&source=placeapi_v2,,09:00-19:00,,,,,,,,,,,,,,,,106.24213223765,38.484890473477,0
664af3167417a4402cb96d6f,德佑地产(天下川店),生活服务,房产中介机构,宁夏回族自治区,银川市,兴庆区,宁夏回族自治区银川市兴庆区泰和路67号,664af3167417a4402cb96d6f,1,0,106.276805,38.502533,4006899188,life,http://api.map.baidu.com/place/detail?uid=664af3167417a4402cb96d6f&output=html&source=placeapi_v2,,09:00-20:00,,,,,,,,2,,,,,,,,106.27681836637,38.502413403309,0
55290b6282fae580d92f28f7,麦田中心售楼部,生活服务,房产中介机构,宁夏回族自治区,银川市,金凤区,银川市金凤区人民广场东街建材大厦南侧,55290b6282fae580d92f28f7,1,0,106.242082,38.502594,(0951)6899555,life,http://api.map.baidu.com/place/detail?uid=55290b6282fae580d92f28f7&output=html&source=placeapi_v2,,,,,,,,,,1,,,,,,,,106.24167118235,38.502689664138,0
369b9ef4fa9c62108d772705,德佑地产(泰康街店),生活服务,房产中介机构,宁夏回族自治区,银川市,金凤区,宁夏回族自治区银川市金凤区泰康街149号,369b9ef4fa9c62108d772705,1,0,106.246192,38.498128,4006899188,life,http://api.map.baidu.com/place/detail?uid=369b9ef4fa9c62108d772705&output=html&source=placeapi_v2,,09:00-18:00,,,,,,,,5,,,,,,,,,,0
527fb05a31467fa404fef5e1,嘉海房产代理,生活服务,房产中介机构,宁夏回族自治区,银川市,兴庆区,宁夏回族自治区银川市兴庆区8-4号景墨家园118-4营业房,527fb05a31467fa404fef5e1,1,0,106.301882,38.49533,(0951)3988299,life,http://api.map.baidu.com/place/detail?uid=527fb05a31467fa404fef5e1&output=html&source=placeapi_v2,,09:00-19:00,5,,,,,,,4,2,,,,,,,106.30194350167,38.495490278793,0
02b7472043ea7bca1df74d74,景墨房产,生活服务,房产中介机构,宁夏回族自治区,银川市,兴庆区,宁夏回族自治区银川市兴庆区清河北街景墨家园a区7-3号,02b7472043ea7bca1df74d74,1,0,106.297829,38.495286,13469588018,life,http://api.map.baidu.com/place/detail?uid=02b7472043ea7bca1df74d74&output=html&source=placeapi_v2,,09:00-19:00,0.0,,,,,,,10,,,,,,,,106.29791292052,38.495430707346,0
07efd328e7d0dd0b8936ee00,房居美房产,生活服务,房产中介机构,宁夏回族自治区,银川市,兴庆区,宁夏回族自治区银川市兴庆区水产巷19-1号,07efd328e7d0dd0b8936ee00,1,0,106.284669,38.484916,(0951)5690125,life,http://api.map.baidu.com/place/detail?uid=07efd328e7d0dd0b8936ee00&output=html&source=placeapi_v2,,09:00-19:00,,,,,,,,2,,,,,,,,,,0
4051fd468a3de1fecd04ef67,佳运房产(景墨店),生活服务,房产中介机构,宁夏回族自治区,银川市,兴庆区,宁夏回族自治区银川市兴庆区海宝路双福巷162-4号,4051fd468a3de1fecd04ef67,1,0,106.299185,38.497526,(0951)5066201,life,http://api.map.baidu.com/place/detail?uid=4051fd468a3de1fecd04ef67&output=html&source=placeapi_v2,,09:00-19:00,0.0,,,,,,,8,,,,,,,,106.29922955005,38.497724200878,0
4f6bf7c9a8362948f90cad26,鑫吉泰房产,生活服务,房产中介机构,宁夏回族自治区,银川市,兴庆区,宁夏回族自治区银川市兴庆区北桥巷72号秀水园4号营业房,4f6bf7c9a8362948f90cad26,1,0,106.298814,38.482159,"13895622830,18909563630",life,http://api.map.baidu.com/place/detail?uid=4f6bf7c9a8362948f90cad26&output=html&source=placeapi_v2,,08:00-19:00,0.0,,,,,,,11,,,,,,,,106.29886298301,38.482296567891,0
b312a393a0cd596f4e2fdf0d,儒房地产(海宝路店),生活服务,房产中介机构,宁夏回族自治区,银川市,兴庆区,宁夏回族自治区银川市兴庆区海宝路81号,b312a393a0cd596f4e2fdf0d,1,0,106.299337,38.493306,(0951)8579911,life,http://api.map.baidu.com/place/detail?uid=b312a393a0cd596f4e2fdf0d&output=html&source=placeapi_v2,,09:00-19:00,,,,,,,,6,,,,,,,,,,0
57b1f33b69dab0d56fc02c32,佳运房产(择安店),生活服务,房产中介机构,宁夏回族自治区,银川市,兴庆区,宁夏回族自治区银川市兴庆区北门金三角骏景茗居(清净巷南),,1,0,106.306033,38.501508,(0951)8760317,life,http://api.map.baidu.com/place/detail?uid=57b1f33b69dab0d56fc02c32&output=html&source=placeapi_v2,,09:00-19:00,,,,,,,,3,,,,,,,,,,0
56d4806d583d5b2c2bd7ab12,欣佳琪房产,生活服务,房产中介机构,宁夏回族自治区,银川市,兴庆区,宁夏回族自治区银川市兴庆区回春巷73号,56d4806d583d5b2c2bd7ab12,1,0,106.2912,38.478598,18995006035,life,http://api.map.baidu.com/place/detail?uid=56d4806d583d5b2c2bd7ab12&output=html&source=placeapi_v2,,,,,,,,,,10,,,,,,,,,,0
1033d5c4f6d94d4c471a3266,鑫居房产,生活服务,房产中介机构,宁夏回族自治区,银川市,兴庆区,宁夏回族自治区银川市兴庆区北桥巷金桥雅居,1033d5c4f6d94d4c471a3266,1,0,106.297454,38.482656,,life,http://api.map.baidu.com/place/detail?uid=1033d5c4f6d94d4c471a3266&output=html&source=placeapi_v2,,,,,,,,,,5,,,,,,,,,,0
c5792472e8a45f389c09f777,灵耀房产,生活服务,房产中介机构,宁夏回族自治区,银川市,兴庆区,银川市兴庆区双福巷文定天下,c5792472e8a45f389c09f777,1,0,106.300758,38.497503,13519573577,life,http://api.map.baidu.com/place/detail?uid=c5792472e8a45f389c09f777&output=html&source=placeapi_v2,,,,,,,,,,3,,,,,,,,106.30067256287,38.497262169084,0
b1b764bb741d295815a190c3,万又家园房产,生活服务,房产中介机构,宁夏回族自治区,银川市,兴庆区,宁夏回族自治区银川市兴庆区景墨家园C区内,b1b764bb741d295815a190c3,1,0,106.300511,38.497426,13709506078,life,http://api.map.baidu.com/place/detail?uid=b1b764bb741d295815a190c3&output=html&source=placeapi_v2,,,,,,,,,,2,,,,,,,,106.30051830087,38.497258169883,0
19b921c6d4d974aab5147f83,蓝琴房屋中介,生活服务,房产中介机构,宁夏回族自治区,银川市,兴庆区,银川市兴庆区北桥巷金桥雅居,19b921c6d4d974aab5147f83,1,0,106.298103,38.482525,15809668974,life,http://api.map.baidu.com/place/detail?uid=19b921c6d4d974aab5147f83&output=html&source=placeapi_v2,,,,,,,,,,5,,,,,,,,106.29808243457,38.482467303399,0
ff0ca62bea9bd3368605bfdd,宁港营销中心,生活服务,房产中介机构,宁夏回族自治区,银川市,兴庆区,银川市兴庆区宁港中心巷宁港城,ff0ca62bea9bd3368605bfdd,1,0,106.318304,38.496579,,life,http://api.map.baidu.com/place/detail?uid=ff0ca62bea9bd3368605bfdd&output=html&source=placeapi_v2,,,,,,,,,,1,,,,,,,,,,0
7c04bd208f3498bc8505bfd5,银桥房产中心,生活服务,房产中介机构,宁夏回族自治区,银川市,兴庆区,宁夏回族自治区银川市兴庆区玉皇阁北街川口巷3号,7c04bd208f3498bc8505bfd5,1,0,106.293129,38.479156,"(0951)6724899,18909573980",life,http://api.map.baidu.com/place/detail?uid=7c04bd208f3498bc8505bfd5&output=html&source=placeapi_v2,,09:00-19:00,,,,,,,,2,,,,,,,,106.2932791474,38.479028529184,0
891b432b3769a00272455b2e,名屋房产,生活服务,房产中介机构,宁夏回族自治区,银川市,兴庆区,宁夏回族自治区银川市兴庆区双庄巷澳海清河坊2528号,891b432b3769a00272455b2e,1,0,106.303959,38.504743,"13639599677,15769597889",life,http://api.map.baidu.com/place/detail?uid=891b432b3769a00272455b2e&output=html&source=placeapi_v2,,,,,,,,,,2,,,,,,,,106.30405158845,38.504910284387,0
16ca689e705a9c4c74026927,吉安鑫房产,生活服务,房产中介机构,宁夏回族自治区,银川市,兴庆区,宁夏回族自治区银川市兴庆区北安巷16-5-101号,16ca689e705a9c4c74026927,1,0,106.291803,38.485644,18909583550,life,http://api.map.baidu.com/place/detail?uid=16ca689e705a9c4c74026927&output=html&source=placeapi_v2,,09:00-19:00,,,,,,,,3,,,,,,,,106.29176686445,38.485600102294,0
3fc795a4e5a6d7f9373a7147,21世纪不动产(众源店),生活服务,房产中介机构,宁夏回族自治区,银川市,兴庆区,宁夏回族自治区银川市兴庆区北安街173号,,1,0,106.292895,38.489069,17395002819,life,http://api.map.baidu.com/place/detail?uid=3fc795a4e5a6d7f9373a7147&output=html&source=placeapi_v2,,,,,,,,,,4,,,,,,,,,,0
9314636af34137cf2ce67b07,21世纪不动产(天源店),生活服务,房产中介机构,宁夏回族自治区,银川市,兴庆区,宁夏回族自治区银川市兴庆区上海东路北安街125号,,1,0,106.292241,38.488043,15509608696,life,http://api.map.baidu.com/place/detail?uid=9314636af34137cf2ce67b07&output=html&source=placeapi_v2,,08:00-20:00,,,,,,,,4,,,,,,,,106.29216075974,38.488060621824,0
f1da84581af26b8b75e5b612,恒大御景接待中心,生活服务,房产中介机构,宁夏回族自治区,银川市,兴庆区,银川市兴庆区海宝路银川恒大御景,f1da84581af26b8b75e5b612,1,0,106.310628,38.490745,,life,http://api.map.baidu.com/place/detail?uid=f1da84581af26b8b75e5b612&output=html&source=placeapi_v2,,,0,,,,,,,5,0,,,,,,,,,0
ac40759e1b4ce3ccd22dd63f,德佑(海宝路店),生活服务,房产中介机构,宁夏回族自治区,银川市,兴庆区,宁夏回族自治区银川市兴庆区海宝路88号,ac40759e1b4ce3ccd22dd63f,1,0,106.310198,38.490732,,life,http://api.map.baidu.com/place/detail?uid=ac40759e1b4ce3ccd22dd63f&output=html&source=placeapi_v2,,08:30-20:00,,,,,,,,6,,,,,,,,106.31023785199,38.490952287757,0
3e9ec0c78fb86c26990050f6,德佑地产(上海东路店),生活服务,房产中介机构,宁夏回族自治区,银川市,兴庆区,宁夏回族自治区银川市兴庆区上海东路6号,3e9ec0c78fb86c26990050f6,1,0,106.292109,38.48767,4006899188,life,http://api.map.baidu.com/place/detail?uid=3e9ec0c78fb86c26990050f6&output=html&source=placeapi_v2,,09:00-20:30,,,,,,,,4,,,,,,,,106.29196312264,38.487726397676,0
d2cb783edd7caa3ea8f0cdd1,清水苑售楼部,生活服务,房产中介机构,宁夏回族自治区,银川市,贺兰县,银川市贺兰县团结路清水苑西北侧,d2cb783edd7caa3ea8f0cdd1,1,0,106.416603,38.499306,,life,http://api.map.baidu.com/place/detail?uid=d2cb783edd7caa3ea8f0cdd1&output=html&source=placeapi_v2,,,,,,,,,,2,,,,,,,,106.41654030145,38.499495898599,0
94d8beca3754753203ec01f2,售楼部,生活服务,房产中介机构,宁夏回族自治区,银川市,西夏区,宁夏回族自治区银川市西夏区学院东路701号,94d8beca3754753203ec01f2,1,0,106.176307,38.515111,(0951)2151888,life,http://api.map.baidu.com/place/detail?uid=94d8beca3754753203ec01f2&output=html&source=placeapi_v2,,,,,,,,,,1,,,,,,,,106.17630451318,38.515308353503,0
4cc94b4e5301d5f158f6beef,鸿曦悦海湾售楼部,生活服务,房产中介机构,宁夏回族自治区,银川市,金凤区,银川市金凤区亲水北大街鸿曦・悦海湾西南侧约70米,4cc94b4e5301d5f158f6beef,1,0,106.223092,38.524477,,life,http://api.map.baidu.com/place/detail?uid=4cc94b4e5301d5f158f6beef&output=html&source=placeapi_v2,,,,,,,,,,,,,,,,,,,,0
f7af4b5c1f37c8b87f29bdb6,银川贝壳房地产经纪有限公司,生活服务,房产中介机构,宁夏回族自治区,银川市,金凤区,宁夏回族自治区银川市金凤区阅海湾中央商务区29层04-09号,,1,0,106.234054,38.527571,,life,http://api.map.baidu.com/place/detail?uid=f7af4b5c1f37c8b87f29bdb6&output=html&source=placeapi_v2,,,,,,,,,,,,,,,,,,,,0
fb4b34656e4f3cf4dbd8912b,时代新居房产(阅海店),生活服务,房产中介机构,宁夏回族自治区,银川市,金凤区,宁夏回族自治区银川市金凤区阅海壹号院北门6-108号,fb4b34656e4f3cf4dbd8912b,1,0,106.257722,38.53198,13323516520,life,http://api.map.baidu.com/place/detail?uid=fb4b34656e4f3cf4dbd8912b&output=html&source=placeapi_v2,,08:00-21:00,,,,,,,,4,,,,,,,,,,0
9779aa955cc0f781f50e779e,时代新居房产(阅海店),生活服务,房产中介机构,宁夏回族自治区,银川市,金凤区,宁夏回族自治区银川市金凤区正源北街32阅海万家f2区2楼,,1,0,106.26814,38.521248,"13323516520,15349675779",life,http://api.map.baidu.com/place/detail?uid=9779aa955cc0f781f50e779e&output=html&source=placeapi_v2,,08:30-20:30,,,,,,,,3,,,,,,,,106.2682881354,38.520951533072,0
c6203015841eaf230f0a7077,21世纪不动产(阅海万家店),生活服务,房产中介机构,宁夏回族自治区,银川市,金凤区,宁夏回族自治区银川市金凤区万安巷55f3区2楼,,1,0,106.272388,38.521941,18465180441,life,http://api.map.baidu.com/place/detail?uid=c6203015841eaf230f0a7077&output=html&source=placeapi_v2,,,,,,,,,,4,,,,,,,,,,0
c92948c8f62ee41ae81e97f1,21世纪不动产(世悦府馨安店),生活服务,房产中介机构,宁夏回族自治区,银川市,金凤区,宁夏回族自治区银川市金凤区沈阳路世悦府2-104号商业房,,1,0,106.261335,38.532378,,life,http://api.map.baidu.com/place/detail?uid=c92948c8f62ee41ae81e97f1&output=html&source=placeapi_v2,,,,,,,,,,6,,,,,,,,,,0
cd9f8a236941b280593ac86a,书香地产,生活服务,房产中介机构,宁夏回族自治区,银川市,金凤区,宁夏回族自治区银川市金凤区大连中路世茂・茂悦府,,1,0,106.253325,38.52837,15809505671,life,http://api.map.baidu.com/place/detail?uid=cd9f8a236941b280593ac86a&output=html&source=placeapi_v2,,08:00-20:00,,,,,,,,5,,,,,,,,106.25333332314,38.528556668014,0
ab856cdc4199146459bbbc77,易麦屋地产(尹家渠街店),生活服务,房产中介机构,宁夏回族自治区,银川市,金凤区,宁夏回族自治区银川市金凤区正源北街世悦府店南东门口,ab856cdc4199146459bbbc77,1,0,106.256363,38.531929,,life,http://api.map.baidu.com/place/detail?uid=ab856cdc4199146459bbbc77&output=html&source=placeapi_v2,,,,,,,,,,3,,,,,,,,106.25620418448,38.531938633291,0
ac04968e403850dcb6f42f75,鑫金诺房产,生活服务,房产中介机构,宁夏回族自治区,银川市,金凤区,宁夏回族自治区银川市金凤区大连路以北规划路以东茂悦府1号商住楼底商商业1层12室,,1,0,106.250575,38.528481,18109596145,life,http://api.map.baidu.com/place/detail?uid=ac04968e403850dcb6f42f75&output=html&source=placeapi_v2,,08:00-18:00,,,,,,,,,,,,,,,,,,0
2b212ab03e1920f1a6da39e0,易麦屋地产(世茂悦府店),生活服务,房产中介机构,宁夏回族自治区,银川市,金凤区,宁夏回族自治区银川市金凤区正源北街(阅海壹号院东北侧约50米),2b212ab03e1920f1a6da39e0,1,0,106.26182,38.532344,,life,http://api.map.baidu.com/place/detail?uid=2b212ab03e1920f1a6da39e0&output=html&source=placeapi_v2,,,,,,,,,,5,,,,,,,,106.26181716202,38.532238323682,0
aa5c4bbfab01b20ff82d6132,佳运房产(中房悦然居店),生活服务,房产中介机构,宁夏回族自治区,银川市,贺兰县,银川市贺兰县虹桥南街尚客优酒店(银川贺兰县交通技术学校店)东北侧约110米,,1,0,106.311328,38.528949,,life,http://api.map.baidu.com/place/detail?uid=aa5c4bbfab01b20ff82d6132&output=html&source=placeapi_v2,,09:00-19:00,,,,,,,,2,,,,,,,,,,0
41180ececefe806ee5e965a5,中房物业二手房专营店,生活服务,房产中介机构,宁夏回族自治区,银川市,贺兰县,宁夏回族自治区银川市贺兰县虹桥南街天源财汇中心东北侧约30米,41180ececefe806ee5e965a5,1,0,106.301312,38.513695,(0951)5010988,life,http://api.map.baidu.com/place/detail?uid=41180ececefe806ee5e965a5&output=html&source=placeapi_v2,,08:30-20:00,,,,,,,,1,,,,,,,,,,0
cca6d7722ea29bc07adbd28e,金盛阅景-售楼中心,生活服务,房产中介机构,宁夏回族自治区,银川市,贺兰县,宁夏回族自治区银川市贺兰县德胜西路8号,cca6d7722ea29bc07adbd28e,1,0,106.318881,38.530126,(0951)8868555,life,http://api.map.baidu.com/place/detail?uid=cca6d7722ea29bc07adbd28e&output=html&source=placeapi_v2,,,,,,,,,,2,,,,,,,,106.3193458524,38.530018859139,0
5282c78c0be24aeab21e3617,盛发地产,生活服务,房产中介机构,宁夏回族自治区,银川市,贺兰县,银川市贺兰县虹桥南街陕西大厦东北侧约50米,5282c78c0be24aeab21e3617,1,0,106.303762,38.517796,,life,http://api.map.baidu.com/place/detail?uid=5282c78c0be24aeab21e3617&output=html&source=placeapi_v2,,,,,,,,,,2,,,,,,,,106.304000562,38.517862463288,0
3a8a7c93063ddb8ff02d8358,易麦屋地产(花园南街店),生活服务,房产中介机构,宁夏回族自治区,银川市,贺兰县,宁夏回族自治区银川市贺兰县虹桥路海亮国际社区6号地,3a8a7c93063ddb8ff02d8358,1,0,106.297871,38.521385,,life,http://api.map.baidu.com/place/detail?uid=3a8a7c93063ddb8ff02d8358&output=html&source=placeapi_v2,,08:00-20:00,,,,,,,,2,,,,,,,,106.29806260538,38.521275855796,0
afa09fa8dd043104c4f02547,21世纪不动产(天山熙湖北店),生活服务,房产中介机构,宁夏回族自治区,银川市,兴庆区,宁夏回族自治区银川市兴庆区天山熙湖1区10号楼107号商业,,1,0,106.311981,38.518604,15121874642,life,http://api.map.baidu.com/place/detail?uid=afa09fa8dd043104c4f02547&output=html&source=placeapi_v2,,00:00-24:00,,,,,,,,4,1,,,,,,,106.3117040905,38.518480402034,0
acce4e197d3d1185f423106e,盛阳房产,生活服务,房产中介机构,宁夏回族自治区,银川市,贺兰县,宁夏回族自治区银川市贺兰县水岸国际A-1号,acce4e197d3d1185f423106e,1,0,106.302852,38.517004,,life,http://api.map.baidu.com/place/detail?uid=acce4e197d3d1185f423106e&output=html&source=placeapi_v2,,,,,,,,,,5,,,,,,,,,,0
5f6759a27f92369d1d580024,翔云中介服务部,生活服务,房产中介机构,宁夏回族自治区,银川市,贺兰县,银川市贺兰县德鑫路宁夏林平二手车交易市场,5f6759a27f92369d1d580024,1,0,106.331612,38.541596,18795099898,life,http://api.map.baidu.com/place/detail?uid=5f6759a27f92369d1d580024&output=html&source=placeapi_v2,,,0.0,,,,,,,5,1,,,,,,,106.33179985848,38.541724248921,0
585c8931d6b82afe9ff77940,绿地21城售楼中心,生活服务,房产中介机构,宁夏回族自治区,银川市,兴庆区,宁夏回族自治区银川市兴庆区兴水路1号,585c8931d6b82afe9ff77940,1,0,106.325847,38.515608,,life,http://api.map.baidu.com/place/detail?uid=585c8931d6b82afe9ff77940&output=html&source=placeapi_v2,,00:00-24:00,,,,,,,,2,,,,,,,,,,0
fb8e3d74bc6f77780869d979,汽车置换房产中心,生活服务,房产中介机构,宁夏回族自治区,银川市,贺兰县,宁夏回族自治区银川市贺兰县虹桥北街(德胜工贸城),fb8e3d74bc6f77780869d979,1,0,106.32285,38.552301,,life,http://api.map.baidu.com/place/detail?uid=fb8e3d74bc6f77780869d979&output=html&source=placeapi_v2,,08:00-19:30,,,,,,,,5,,,,,,,,106.32289385554,38.552288337003,0
0777a9e10488900611882431,紫居坊房产,生活服务,房产中介机构,宁夏回族自治区,银川市,贺兰县,宁夏回族自治区银川市贺兰县居安西街新区惠兰园1号楼营业房,0777a9e10488900611882431,1,0,106.344415,38.559777,18909577017,life,http://api.map.baidu.com/place/detail?uid=0777a9e10488900611882431&output=html&source=placeapi_v2,,,,,,,,,,10,,,,,,,,106.34443428563,38.559833252485,0
3dd88eca6cf3c150d1f49eba,阳光房产代理(总店),生活服务,房产中介机构,宁夏回族自治区,银川市,贺兰县,宁夏回族自治区银川市贺兰县朝阳南街32号,3dd88eca6cf3c150d1f49eba,1,0,106.363467,38.556469,"(0951)8060462,18909506508",life,http://api.map.baidu.com/place/detail?uid=3dd88eca6cf3c150d1f49eba&output=html&source=placeapi_v2,,08:00-19:30,0,,,,,,,14,1,,,,,,,106.36359942798,38.556360922185,0
32bce15bfd106a9e4207c1a7,馨园房产(光明东路),生活服务,房产中介机构,宁夏回族自治区,银川市,贺兰县,宁夏回族自治区银川市贺兰县朔方北街114号,32bce15bfd106a9e4207c1a7,1,0,106.361551,38.562097,13995412858,life,http://api.map.baidu.com/place/detail?uid=32bce15bfd106a9e4207c1a7&output=html&source=placeapi_v2,,,0.0,,,,,,,13,,,,,,,,106.36163672386,38.562060949761,0
9d09ffa74b175f9b8e77276a,房佰佳房产,生活服务,房产中介机构,宁夏回族自治区,银川市,贺兰县,银川市贺兰县居安西路惠泽园小区西南侧约80米,9d09ffa74b175f9b8e77276a,1,0,106.344048,38.55988,18995144490,life,http://api.map.baidu.com/place/detail?uid=9d09ffa74b175f9b8e77276a&output=html&source=placeapi_v2,,,,,,,,,,5,,,,,,,,,,0
46318bb7e1fff8e0fb2d617d,翱翔房产(贺兰总店),生活服务,房产中介机构,宁夏回族自治区,银川市,贺兰县,宁夏回族自治区银川市贺兰县欣兰街58号,46318bb7e1fff8e0fb2d617d,1,0,106.342944,38.559812,"13895378063,17398482727",life,http://api.map.baidu.com/place/detail?uid=46318bb7e1fff8e0fb2d617d&output=html&source=placeapi_v2,,,,,,,,,,5,,,,,,,,106.34307020153,38.559789558282,0
37f5f8efd297c58f085cb392,美房汇房产,生活服务,房产中介机构,宁夏回族自治区,银川市,贺兰县,宁夏回族自治区银川市贺兰县富兴北街(月湖名邸B西B区东侧约100米),37f5f8efd297c58f085cb392,1,0,106.353621,38.572312,13995212300,life,http://api.map.baidu.com/place/detail?uid=37f5f8efd297c58f085cb392&output=html&source=placeapi_v2,,,,,,,,,,4,,,,,,,,,,0
ff1b236034b084d688b98817,金诚房产(贺兰总店),生活服务,房产中介机构,宁夏回族自治区,银川市,贺兰县,宁夏回族自治区银川市贺兰县银河西路95号,ff1b236034b084d688b98817,1,0,106.341479,38.564236,15209679222,life,http://api.map.baidu.com/place/detail?uid=ff1b236034b084d688b98817&output=html&source=placeapi_v2,,08:00-20:00,0.0,,,,,,,11,1,,,,,,,106.34145058724,38.564153256324,0
0e94b20ea318173eb8bd63e1,宏胜地产(阳光店),生活服务,房产中介机构,宁夏回族自治区,银川市,贺兰县,银川市贺兰县利民西路颐和苑,0e94b20ea318173eb8bd63e1,1,0,106.343748,38.556865,,life,http://api.map.baidu.com/place/detail?uid=0e94b20ea318173eb8bd63e1&output=html&source=placeapi_v2,,,,,,,,,,8,,,,,,,,106.343698957,38.556717721884,0
f55b7c308c7b6382fb2d6178,锦尚房产,生活服务,房产中介机构,宁夏回族自治区,银川市,贺兰县,宁夏回族自治区银川市贺兰县光明巷140号,f55b7c308c7b6382fb2d6178,1,0,106.364625,38.560935,18709517175,life,http://api.map.baidu.com/place/detail?uid=f55b7c308c7b6382fb2d6178&output=html&source=placeapi_v2,,,,,,,,,,8,,,,,,,,106.36467700023,38.561126121846,0
4865e03fafde3249c61e51fd,仁恒房产,生活服务,房产中介机构,宁夏回族自治区,银川市,贺兰县,宁夏回族自治区银川市贺兰县光明巷114号,4865e03fafde3249c61e51fd,1,0,106.364165,38.561013,15809604026,life,http://api.map.baidu.com/place/detail?uid=4865e03fafde3249c61e51fd&output=html&source=placeapi_v2,,,,,,,,,,8,,,,,,,,106.36421741995,38.561204009987,0
fb8e3d74bc6f77780869d979,汽车置换房产中心,生活服务,房产中介机构,宁夏回族自治区,银川市,贺兰县,宁夏回族自治区银川市贺兰县虹桥北街(德胜工贸城),fb8e3d74bc6f77780869d979,1,0,106.32285,38.552301,,life,http://api.map.baidu.com/place/detail?uid=fb8e3d74bc6f77780869d979&output=html&source=placeapi_v2,,08:00-19:30,,,,,,,,5,,,,,,,,106.32289385554,38.552288337003,0
f8f68c60b9b0f592354aaed7,德尚(居安东路店),生活服务,房产中介机构,宁夏回族自治区,银川市,贺兰县,银川市贺兰县居安东路贺兰县第一小学西南侧约30米,f8f68c60b9b0f592354aaed7,1,0,106.349133,38.558978,,life,http://api.map.baidu.com/place/detail?uid=f8f68c60b9b0f592354aaed7&output=html&source=placeapi_v2,,,,,,,,,,7,,,,,,,,,,0
3dd88eca6cf3c150d1f49eba,阳光房产代理(总店),生活服务,房产中介机构,宁夏回族自治区,银川市,贺兰县,宁夏回族自治区银川市贺兰县朝阳南街32号,3dd88eca6cf3c150d1f49eba,1,0,106.363467,38.556469,"(0951)8060462,18909506508",life,http://api.map.baidu.com/place/detail?uid=3dd88eca6cf3c150d1f49eba&output=html&source=placeapi_v2,,08:00-19:30,0,,,,,,,14,1,,,,,,,106.36359942798,38.556360922185,0
7adf41db54ec0dd572210b22,尚杰房产,生活服务,房产中介机构,宁夏回族自治区,银川市,贺兰县,宁夏回族自治区银川市贺兰县朝阳北街典雅居a区26-7号,7adf41db54ec0dd572210b22,1,0,106.369388,38.567185,17795000944,life,http://api.map.baidu.com/place/detail?uid=7adf41db54ec0dd572210b22&output=html&source=placeapi_v2,,,,,,,,,,5,,,,,,,,,,0
f55b7c308c7b6382fb2d6178,锦尚房产,生活服务,房产中介机构,宁夏回族自治区,银川市,贺兰县,宁夏回族自治区银川市贺兰县光明巷140号,f55b7c308c7b6382fb2d6178,1,0,106.364625,38.560935,18709517175,life,http://api.map.baidu.com/place/detail?uid=f55b7c308c7b6382fb2d6178&output=html&source=placeapi_v2,,,,,,,,,,8,,,,,,,,106.36467700023,38.561126121846,0
4865e03fafde3249c61e51fd,仁恒房产,生活服务,房产中介机构,宁夏回族自治区,银川市,贺兰县,宁夏回族自治区银川市贺兰县光明巷114号,4865e03fafde3249c61e51fd,1,0,106.364165,38.561013,15809604026,life,http://api.map.baidu.com/place/detail?uid=4865e03fafde3249c61e51fd&output=html&source=placeapi_v2,,,,,,,,,,8,,,,,,,,106.36421741995,38.561204009987,0
f8882775273972269de321af,人和地产,生活服务,房产中介机构,宁夏回族自治区,银川市,贺兰县,银川市贺兰县和平北街祥和家苑,f8882775273972269de321af,1,0,106.376015,38.555431,,life,http://api.map.baidu.com/place/detail?uid=f8882775273972269de321af&output=html&source=placeapi_v2,,08:00-19:30,,,,,,,,4,,,,,,,,,,0
d81da53f54f5eb98ae045759,融创房产,生活服务,房产中介机构,宁夏回族自治区,银川市,贺兰县,宁夏回族自治区银川市贺兰县朝阳北街典雅居A区,,1,0,106.36711,38.563566,18809585522,life,http://api.map.baidu.com/place/detail?uid=d81da53f54f5eb98ae045759&output=html&source=placeapi_v2,,,,,,,,,,4,,,,,,,,,,0
