uid,name,cat_L1,cat_L2,province,city,area,address,street_id,detail,child_num,loc_lng,loc_lat,telephone,type,detail_url,price,shop_hours,overall_rating,taste_rating,service_rating,environment_rating,facility_rating,hygiene_rating,technology_rating,image_num,comment_num,groupon_num,discount_num,favorite_num,checkin_num,brand,content_tag,naviloc_lng,naviloc_lat,child_num
118f677256aefdf94bcc4a39,成安平安医院,医疗,综合医院,河北省,邯郸市,成安县,漳河店镇邯大公路大寨路口南,118f677256aefdf94bcc4a39,1,1,114.787212,36.423091,,hospital,http://api.map.baidu.com/place/detail?uid=118f677256aefdf94bcc4a39&output=html&source=placeapi_v2,,,,,,,,,,,,,,,,,,,,1
565fe2a40152711b9d95de8a,棘针寨镇卫生院,医疗,综合医院,河北省,邯郸市,魏县,邯郸市魏县昌盛路与福庆巷交叉路口往南约250米,,1,0,114.943791,36.41431,,hospital,http://api.map.baidu.com/place/detail?uid=565fe2a40152711b9d95de8a&output=html&source=placeapi_v2,,,0,,,,,,,2,0,,,,,,,,,0
e56f8e65abc785526fc02c9a,邯郸冀南新区新城医院,医疗,综合医院,河北省,邯郸市,邯山区,河北省邯郸市邯山区宝龙门业装饰东南方向90米,e56f8e65abc785526fc02c9a,1,1,114.433129,36.451771,(0310)6016120,hospital,http://api.map.baidu.com/place/detail?uid=e56f8e65abc785526fc02c9a&output=html&source=placeapi_v2,,,0,,,,,,,0,0,,,,,,,114.43276780091,36.451917322996,1
41572e0047a114b4b45f1e64,邯郸仁和医院,医疗,综合医院,河北省,邯郸市,成安县,成安县有所为路,41572e0047a114b4b45f1e64,1,1,114.670992,36.450952,(0310)7263355,hospital,http://api.map.baidu.com/place/detail?uid=41572e0047a114b4b45f1e64&output=html&source=placeapi_v2,,09:00-17:00,0.0,,,,,,,1,,,,,,,,114.67075743251,36.450062942593,1
49a02a7a5b90b1402b201a64,成安新兴医院,医疗,综合医院,河北省,邯郸市,成安县,富康大街,49a02a7a5b90b1402b201a64,1,0,114.697989,36.450083,(0310)7211911,hospital,http://api.map.baidu.com/place/detail?uid=49a02a7a5b90b1402b201a64&output=html&source=placeapi_v2,,,0,,,,,,,4,0,,,,,,,114.69795352346,36.449981550685,0
2a7a25ec14800e636c3e1b64,成安县中医院,医疗,综合医院,河北省,邯郸市,成安县,河北省邯郸市成安县青云南大街55号,2a7a25ec14800e636c3e1b64,1,3,114.694829,36.44133,,hospital,http://api.map.baidu.com/place/detail?uid=2a7a25ec14800e636c3e1b64&output=html&source=placeapi_v2,,08:30-18:00,0,,,,,,,4,0,,,,,,,114.69427919342,36.440962714237,3
9cff4998aae76e237c29bd47,万民医院,医疗,综合医院,河北省,邯郸市,成安县,乾侯北街与新兴西路交叉口东50米,9cff4998aae76e237c29bd47,1,0,114.686989,36.45305,,hospital,http://api.map.baidu.com/place/detail?uid=9cff4998aae76e237c29bd47&output=html&source=placeapi_v2,,,,,,,,,,1,,,,,,,,,,0
69fcd6dfeabde72fca291564,成安县第三医院,医疗,综合医院,河北省,邯郸市,成安县,成安县富康南大街10号,69fcd6dfeabde72fca291564,1,1,114.681862,36.445513,,hospital,http://api.map.baidu.com/place/detail?uid=69fcd6dfeabde72fca291564&output=html&source=placeapi_v2,,,0.0,,,,,,,8,0,,,,,,,114.68238257782,36.445378185762,1
f41837f19b0ffa77921fc989,中康博爱医院,医疗,综合医院,河北省,邯郸市,成安县,邯郸市成安县富康北大街20号,,1,0,114.683378,36.452017,,hospital,http://api.map.baidu.com/place/detail?uid=f41837f19b0ffa77921fc989&output=html&source=placeapi_v2,,08:00-17:00,0,,,,,,,9,0,,,,,,,114.68362279727,36.451986480614,0
25ec69fcaaa3497dc26c1464,成安县人民医院,医疗,综合医院,河北省,邯郸市,成安县,河北省邯郸市成安县柏寺营乡成安镇路号成安县人民,25ec69fcaaa3497dc26c1464,1,6,114.686195,36.458773,"(0310)7211341,(0310)7262234",hospital,http://api.map.baidu.com/place/detail?uid=25ec69fcaaa3497dc26c1464&output=html&source=placeapi_v2,0.0,08:30-18:00,0,,,,,,,2,0,,,,,,,114.68538039861,36.458978196635,6
633b90fd15c5718f6fa3cc83,道东堡乡卫生院(化店分院),医疗,综合医院,河北省,邯郸市,成安县,化店大街北段路东,,1,0,114.756833,36.457813,,hospital,http://api.map.baidu.com/place/detail?uid=633b90fd15c5718f6fa3cc83&output=html&source=placeapi_v2,,,,,,,,,,5,,,,,,,,,,0
d5464cf8b2309057fda77866,邯郸市马头镇医院,医疗,综合医院,河北省,邯郸市,邯山区,河北省邯郸市邯山区马头镇中大街35号,,1,1,114.438721,36.47908,(0310)6012120,hospital,http://api.map.baidu.com/place/detail?uid=d5464cf8b2309057fda77866&output=html&source=placeapi_v2,,"08:00-11:45,14:30-18:00",0,,,,,,,3,0,,,,,,,114.43863528098,36.479514814624,1
73275bb242a554d4fbdc85ff,广平华夏医院,医疗,综合医院,河北省,邯郸市,广平县,东城南街335,73275bb242a554d4fbdc85ff,1,0,114.95402,36.477984,,hospital,http://api.map.baidu.com/place/detail?uid=73275bb242a554d4fbdc85ff&output=html&source=placeapi_v2,,,0,,,,,,,3,0,,,,,,,114.9536567591,36.477651086703,0
fd13a3f27d610dfab1077d11,广平县中医院,医疗,综合医院,河北省,邯郸市,广平县,金广源路北50米,fd13a3f27d610dfab1077d11,1,1,114.94453,36.47305,"(0310)2517552,(0310)2521976",hospital,http://api.map.baidu.com/place/detail?uid=fd13a3f27d610dfab1077d11&output=html&source=placeapi_v2,0.0,09:00-17:00,0,,,,,,,5,0,,,,,,,114.94434373392,36.472746563159,1
3757aa2d9bfaff5a38221cb8,广平县人民医院,医疗,综合医院,河北省,邯郸市,广平县,河北省邯郸市广平县人民路与青莲街交叉口西北角,3757aa2d9bfaff5a38221cb8,1,5,114.938797,36.492107,(0310)2522267,hospital,http://api.map.baidu.com/place/detail?uid=3757aa2d9bfaff5a38221cb8&output=html&source=placeapi_v2,,"08:00-12:00,13:30-17:00",0.0,,,,,,,0,,,,,,,,114.93871099906,36.490868791525,5
4c13bc64e7997423c16c149c,肥乡济仁中医院,医疗,综合医院,河北省,邯郸市,肥乡区,河北省邯郸市肥乡区大寺上镇西张庄村,,1,0,114.67926,36.516819,,hospital,http://api.map.baidu.com/place/detail?uid=4c13bc64e7997423c16c149c&output=html&source=placeapi_v2,,,,,,,,,,,,,,,,,,,,0
4afd15533f6bf05176e5b667,邯郸和中医院,医疗,综合医院,河北省,邯郸市,邯山区,河北省邯郸市邯山区南环路金碧苑7号,,1,0,114.482395,36.57611,,hospital,http://api.map.baidu.com/place/detail?uid=4afd15533f6bf05176e5b667&output=html&source=placeapi_v2,,,,,,,,,,,,,,,,,,114.48199411193,36.576128257345,0
0ce65c2d576361592d473366,电力医院,医疗,综合医院,河北省,邯郸市,邯山区,河北省邯郸市罗城头矿院西街13号,0ce65c2d576361592d473366,1,2,114.502522,36.579549,,hospital,http://api.map.baidu.com/place/detail?uid=0ce65c2d576361592d473366&output=html&source=placeapi_v2,,,0,,,,,,,4,0,,,,,,,114.50314014578,36.579404425647,2
4ce10ce6ca531aa1441a3266,邯郸天康中医院,医疗,综合医院,河北省,邯郸市,邯山区,河北省邯郸市邯山区光明南大街153号,4ce10ce6ca531aa1441a3266,1,1,114.505198,36.584179,(0310)6033795,hospital,http://api.map.baidu.com/place/detail?uid=4ce10ce6ca531aa1441a3266&output=html&source=placeapi_v2,,,0,,,,,,,6,0,,,,,,,114.50530125923,36.584210255257,1
3f5670f94af0d88279f796ec,邯郸平安康复中医医院,医疗,综合医院,河北省,邯郸市,邯山区,河北省邯郸市邯山区学院北路109号附近,3f5670f94af0d88279f796ec,1,0,114.502986,36.582202,,hospital,http://api.map.baidu.com/place/detail?uid=3f5670f94af0d88279f796ec&output=html&source=placeapi_v2,,,,,,,,,,1,,,,,,,,114.50301816457,36.582463757299,0
e83eae6b4965f202abf0cd2c,电力医院-警卫室,医疗,综合医院,河北省,邯郸市,邯山区,邯郸市邯山区明怡街,e83eae6b4965f202abf0cd2c,1,0,114.503122,36.579233,,hospital,http://api.map.baidu.com/place/detail?uid=e83eae6b4965f202abf0cd2c&output=html&source=placeapi_v2,,,,,,,,,,,,,,,,,,114.50327659719,36.579228525019,0
a5097bfa893ce660f03cba22,马庄乡卫生院,医疗,综合医院,河北省,邯郸市,邯山区,河北省邯郸市邯山区通济路67号,,1,0,114.485115,36.567422,,hospital,http://api.map.baidu.com/place/detail?uid=a5097bfa893ce660f03cba22&output=html&source=placeapi_v2,,,0,,,,,,,3,0,,,,,,,,,0
a56a30aa3615e176f8dc852b,中国人民解放军980医院(邯郸院区),医疗,综合医院,河北省,邯郸市,邯山区,邯郸市邯山区南环路3号,a56a30aa3615e176f8dc852b,1,2,114.528102,36.592738,(0310)4459074,hospital,http://api.map.baidu.com/place/detail?uid=a56a30aa3615e176f8dc852b&output=html&source=placeapi_v2,,"08:00-11:40,14:00-17:00",0,,,,,,,1,0,,,,,,,114.52774801333,36.591369108103,2
8eb48fa1359a55bff22d83a3,邯郸明仁医院,医疗,综合医院,河北省,邯郸市,邯山区,邯郸市邯山区滏河南大街361号,8eb48fa1359a55bff22d83a3,1,4,114.512633,36.587752,(0310)6030120,hospital,http://api.map.baidu.com/place/detail?uid=8eb48fa1359a55bff22d83a3&output=html&source=placeapi_v2,0.0,"08:00-12:00,14:30-18:00",0,,,,,,,7,0,,,,,,,114.51284212412,36.587172247655,4
e4c800f2c3e0b088fb0cadbb,邯郸华仁中医院,医疗,综合医院,河北省,邯郸市,邯山区,河北省邯郸市邯山区滏东南大街204号,e4c800f2c3e0b088fb0cadbb,1,1,114.525255,36.593107,(0310)5306120,hospital,http://api.map.baidu.com/place/detail?uid=e4c800f2c3e0b088fb0cadbb&output=html&source=placeapi_v2,,,0,,,,,,,10,0,,,,,,,114.52486343374,36.592908952725,1
7a571f12b8865e2c276e9891,邯郸华康医院,医疗,综合医院,河北省,邯郸市,复兴区,邯郸市复兴区建设大街5号,7a571f12b8865e2c276e9891,1,2,114.467807,36.615371,(0310)4085058,hospital,http://api.map.baidu.com/place/detail?uid=7a571f12b8865e2c276e9891&output=html&source=placeapi_v2,,08:00-20:00,0,,,,,,,5,0,,,,,,,114.46776197566,36.61522253014,2
01c71f32cb4b9a472bd7abe2,邯郸泽爱医院,医疗,综合医院,河北省,邯郸市,复兴区,光华大街30号,01c71f32cb4b9a472bd7abe2,1,0,114.459207,36.62054,,hospital,http://api.map.baidu.com/place/detail?uid=01c71f32cb4b9a472bd7abe2&output=html&source=placeapi_v2,,,,,,,,,,4,,,,,,,,114.45888147022,36.620548839671,0
e96b44209839aa5982288a61,邯山区中医院,医疗,综合医院,河北省,邯郸市,邯山区,和平路181号,e96b44209839aa5982288a61,1,1,114.493684,36.61013,(0310)2112998,hospital,http://api.map.baidu.com/place/detail?uid=e96b44209839aa5982288a61&output=html&source=placeapi_v2,,08:00-17:00,0,,,,,,,6,0,,,,,,,114.49395544325,36.610249246236,1
e93761f6e289520c223bf261,邯郸市丛台区中医院,医疗,综合医院,河北省,邯郸市,丛台区,河北省邯郸市丛台区中医院浴新北大街84号,e93761f6e289520c223bf261,1,2,114.483589,36.617241,"(0310)5513666,(0310)5622120,(0310)5703120",hospital,http://api.map.baidu.com/place/detail?uid=e93761f6e289520c223bf261&output=html&source=placeapi_v2,0.0,08:00-19:00,0,,,,,,,11,0,,,,,,,114.48380010575,36.617262728996,2
9fdfdecb7cc347bbfbf0cbc3,北京大学第一医院合作医院,医疗,综合医院,河北省,邯郸市,邯山区,河北省邯郸市邯山区陵园路67号东北50米,9fdfdecb7cc347bbfbf0cbc3,1,0,114.498546,36.60605,,hospital,http://api.map.baidu.com/place/detail?uid=9fdfdecb7cc347bbfbf0cbc3&output=html&source=placeapi_v2,,,5,,,,,,,0,,,,,,,,114.49849955401,36.605812514724,0
25c9362888d81a874d776e78,邯郸安济医院,医疗,综合医院,河北省,邯郸市,邯山区,邯郸市中华大街与贸易路交叉口东北角金宇大厦20层,25c9362888d81a874d776e78,1,0,114.499511,36.601463,,hospital,http://api.map.baidu.com/place/detail?uid=25c9362888d81a874d776e78&output=html&source=placeapi_v2,,,,,,,,,,3,,,,,,,,,,0
7fd72311164a46865dbe86a3,邯郸市第一医院,医疗,综合医院,河北省,邯郸市,丛台区,邯郸市丛台区丛台路25号,7fd72311164a46865dbe86a3,1,6,114.497261,36.625659,"(0310)3023547,(0310)8635116",hospital,http://api.map.baidu.com/place/detail?uid=7fd72311164a46865dbe86a3&output=html&source=placeapi_v2,0.0,"08:00-11:40,14:00-17:30",5,,,,,,,0,4,,,,,,,114.49846045167,36.624793823769,6
c041b592cc21f1af15a19029,邯郸市中心医院(西区),医疗,综合医院,河北省,邯郸市,邯山区,邯郸市邯山区中华南大街15号,c041b592cc21f1af15a19029,1,7,114.497989,36.606624,(0310)3022736,hospital,http://api.map.baidu.com/place/detail?uid=c041b592cc21f1af15a19029&output=html&source=placeapi_v2,,08:30-18:00,0,,,,,,,5,0,,,,,,,114.49779570559,36.606109552502,7
67a566ba837c25dc2fb96d47,邯郸市第一医院(骨科院区),医疗,综合医院,河北省,邯郸市,丛台区,中华北大街中华桥头262号,67a566ba837c25dc2fb96d47,1,0,114.501531,36.62687,,hospital,http://api.map.baidu.com/place/detail?uid=67a566ba837c25dc2fb96d47&output=html&source=placeapi_v2,,,0,,,,,,,5,0,,,,,,,114.501207,36.626835911306,0
69130523dc18cd11735e80a3,邯郸市第二医院,医疗,综合医院,河北省,邯郸市,邯山区,河北省邯郸市贸易路100号,69130523dc18cd11735e80a3,1,3,114.492335,36.602141,"(0310)3132237,(0310)3132888",hospital,http://api.map.baidu.com/place/detail?uid=69130523dc18cd11735e80a3&output=html&source=placeapi_v2,0.0,"08:00-11:30,14:00-17:30",0.0,,,,,,,8,0,,,,,,,114.49234434669,36.601683562949,3
7f13307b0f72959cadb22aa9,红石医院,医疗,综合医院,河北省,邯郸市,丛台区,河北省邯郸市丛台区铁西北大街36-1号附近,7f13307b0f72959cadb22aa9,1,1,114.479323,36.61691,,hospital,http://api.map.baidu.com/place/detail?uid=7f13307b0f72959cadb22aa9&output=html&source=placeapi_v2,,,,,,,,,,5,,,,,,,,114.47910812312,36.61691175406,1
e2c734e47d77cd5d15a19061,邯郸市人民医院,医疗,综合医院,河北省,邯郸市,邯山区,河北省邯郸市邯山区劳动路49号,e2c734e47d77cd5d15a19061,1,5,114.492501,36.603385,(0310)3023369,hospital,http://api.map.baidu.com/place/detail?uid=e2c734e47d77cd5d15a19061&output=html&source=placeapi_v2,,"08:00-12:00,14:00-17:30",0,,,,,,,8,0,,,,,,,114.4925851007,36.603709982464,5
7d802d4f11ba548f4bcc4a05,邯郸燕赵中医院,医疗,综合医院,河北省,邯郸市,邯山区,河北省邯郸市邯山区浴新南大街160号,7d802d4f11ba548f4bcc4a05,1,1,114.484776,36.601981,(0310)8601616,hospital,http://api.map.baidu.com/place/detail?uid=7d802d4f11ba548f4bcc4a05&output=html&source=placeapi_v2,,08:00-18:00,0,,,,,,,1,0,,,,,,,114.48449856164,36.602108328774,1
3d6d702bf0517de1bbbd639e,邯郸市人民医院(西院区),医疗,综合医院,河北省,邯郸市,复兴区,铁路大院红领路与铁小东街交汇处,3d6d702bf0517de1bbbd639e,1,2,114.478033,36.605983,,hospital,http://api.map.baidu.com/place/detail?uid=3d6d702bf0517de1bbbd639e&output=html&source=placeapi_v2,,,0,,,,,,,3,0,,,,,,,114.47789748397,36.605888713248,2
43f139eba903b16281a12e5a,邯郸仁和中医院,医疗,综合医院,河北省,邯郸市,邯山区,向阳路30号,43f139eba903b16281a12e5a,1,0,114.502602,36.611661,,hospital,http://api.map.baidu.com/place/detail?uid=43f139eba903b16281a12e5a&output=html&source=placeapi_v2,,,0.0,,,,,,,2,,,,,,,,114.50238666209,36.611673034638,0
f37cdb5924b7a237471a327f,邯郸市商业职工医院,医疗,综合医院,河北省,邯郸市,邯山区,陵东街23号,f37cdb5924b7a237471a327f,1,1,114.496738,36.608271,(0310)3026299,hospital,http://api.map.baidu.com/place/detail?uid=f37cdb5924b7a237471a327f&output=html&source=placeapi_v2,,10:00-22:00,0,,,,,,,1,0,,,,,,,114.49694545943,36.608242035294,1
530a561130117c8b1e5800e3,邯郸市第一医院,医疗,综合医院,河北省,邯郸市,丛台区,邯郸市丛台区曙光街45号,530a561130117c8b1e5800e3,1,0,114.507067,36.62292,(0310)3023547,hospital,http://api.map.baidu.com/place/detail?uid=530a561130117c8b1e5800e3&output=html&source=placeapi_v2,,,,,,,,,,3,,,,,,,,114.50682199973,36.622969226244,0
c3ca7899a970b6382e473376,邯郸市中医院,医疗,综合医院,河北省,邯郸市,邯山区,河北省邯郸市邯山区和平路366号,c3ca7899a970b6382e473376,1,4,114.505989,36.60819,(0310)2115966,hospital,http://api.map.baidu.com/place/detail?uid=c3ca7899a970b6382e473376&output=html&source=placeapi_v2,0.0,"08:00-12:00,14:00-17:30",0.0,,,,,,,10,0,,,,,,,114.50508380372,36.607905641334,4
67c3e9d97f7c7fc3b75f1e86,邯郸都市医院,医疗,综合医院,河北省,邯郸市,丛台区,河北省邯郸市丛台区光明北大街131号,67c3e9d97f7c7fc3b75f1e86,1,3,114.509148,36.618233,(0310)5300291,hospital,http://api.map.baidu.com/place/detail?uid=67c3e9d97f7c7fc3b75f1e86&output=html&source=placeapi_v2,,08:00-18:00,0,,,,,,,2,0,,,,,,,114.5093389314,36.618240364945,3
8bd74cd01f7d7323da2f2859,邯郸针灸医院,医疗,综合医院,河北省,邯郸市,丛台区,邯郸市丛台区光明北大街49号,8bd74cd01f7d7323da2f2859,1,0,114.510134,36.612935,,hospital,http://api.map.baidu.com/place/detail?uid=8bd74cd01f7d7323da2f2859&output=html&source=placeapi_v2,,,0,,,,,,,2,0,,,,,,,114.51011619653,36.612816908084,0
a2a05fad36cc597e2fb17efb,邯郸复康医院,医疗,综合医院,河北省,邯郸市,复兴区,河北省邯郸市复兴区铁西北大街159,a2a05fad36cc597e2fb17efb,1,0,114.478974,36.623626,(0310)5603666,hospital,http://api.map.baidu.com/place/detail?uid=a2a05fad36cc597e2fb17efb&output=html&source=placeapi_v2,,,0,,,,,,,6,0,,,,,,,114.47895814922,36.623273254152,0
eecf655ebeef4b852cb17e49,邯郸得仁堂医院,医疗,综合医院,河北省,邯郸市,邯山区,河北省邯郸市邯山区中华南大街77号,,1,0,114.497625,36.598205,,hospital,http://api.map.baidu.com/place/detail?uid=eecf655ebeef4b852cb17e49&output=html&source=placeapi_v2,,,,,,,,,,,,,,,,,,114.49761166076,36.598073348933,0
30752ad2c08c385b3913fd76,邯郸市中医院(北区),医疗,综合医院,河北省,邯郸市,丛台区,邯郸市丛台区和平路与曙光街交叉路口往东约100米(邯郸市中医院东北侧),30752ad2c08c385b3913fd76,1,0,114.506374,36.608979,,hospital,http://api.map.baidu.com/place/detail?uid=30752ad2c08c385b3913fd76&output=html&source=placeapi_v2,,,,,,,,,,4,,,,,,,,,,0
6e645b69c9e1530ac3364408,邯郸赵都中医院,医疗,综合医院,河北省,邯郸市,邯山区,光明北大街25号,6e645b69c9e1530ac3364408,1,1,114.509093,36.611429,,hospital,http://api.map.baidu.com/place/detail?uid=6e645b69c9e1530ac3364408&output=html&source=placeapi_v2,,07:00-19:00,0.0,,,,,,,3,,,,,,,,114.50876589782,36.61144610746,1
86701e405df472a08f55ece3,邯郸市中医院-南区,医疗,综合医院,河北省,邯郸市,邯山区,邯郸市邯山区和平路与曙光街交叉路口往东南约50米(邯郸市中医院),86701e405df472a08f55ece3,1,1,114.506041,36.608245,,hospital,http://api.map.baidu.com/place/detail?uid=86701e405df472a08f55ece3&output=html&source=placeapi_v2,,,,,,,,,,,,,,,,,,114.50610561905,36.608648138073,1
0ca6eb9cc17353aae507385d,MPAAAKE,医疗,综合医院,河北省,邯郸市,邯山区,河北省邯郸市邯山区农林路31号附近,0ca6eb9cc17353aae507385d,1,0,114.491331,36.598666,,hospital,http://api.map.baidu.com/place/detail?uid=0ca6eb9cc17353aae507385d&output=html&source=placeapi_v2,,,,,,,,,,3,,,,,,,,,,0
aca35886835cf72a3a13fd96,和平医院,医疗,综合医院,河北省,邯郸市,邯山区,河北省邯郸市邯山区滏西大街2号,aca35886835cf72a3a13fd96,1,0,114.514847,36.606893,(0310)3013995,hospital,http://api.map.baidu.com/place/detail?uid=aca35886835cf72a3a13fd96&output=html&source=placeapi_v2,,,,,,,,,,,,,,,,,,114.51460550436,36.606932361915,0
0d08503d833538578bf15d6d,华冶总医院,医疗,综合医院,河北省,邯郸市,丛台区,朝阳路甲22号,0d08503d833538578bf15d6d,1,0,114.514162,36.61124,(0310)4185120,hospital,http://api.map.baidu.com/place/detail?uid=0d08503d833538578bf15d6d&output=html&source=placeapi_v2,,,0.0,,,,,,,1,0,,,,,,,114.51443420738,36.611222082276,0
7388dffde68f99ebd3ff230d,邯郸县中医院,医疗,综合医院,河北省,邯郸市,丛台区,"丛台北路与东柳大街东北角,中心医院东区院内东侧体检楼(丛台北路59号)",7388dffde68f99ebd3ff230d,1,1,114.543801,36.619535,,hospital,http://api.map.baidu.com/place/detail?uid=7388dffde68f99ebd3ff230d&output=html&source=placeapi_v2,,09:00-17:00,0,,,,,,,1,0,,,,,,,114.54430789161,36.619577920338,1
74b75fffc70c3da42efaa720,邯郸市丛台区人民医院,医疗,综合医院,河北省,邯郸市,丛台区,邯郸市丛台区东环路春晖小区东侧约230米,74b75fffc70c3da42efaa720,1,0,114.544085,36.619404,(0310)8026309,hospital,http://api.map.baidu.com/place/detail?uid=74b75fffc70c3da42efaa720&output=html&source=placeapi_v2,,,0,,,,,,,3,0,,,,,,,114.54446232794,36.619568425185,0
457a334f4090e103c8213d13,邯郸市第七医院,医疗,综合医院,河北省,邯郸市,邯山区,河北省邯郸市邯山区雪驰路33号,457a334f4090e103c8213d13,1,4,114.530415,36.600984,(0310)8012351,hospital,http://api.map.baidu.com/place/detail?uid=457a334f4090e103c8213d13&output=html&source=placeapi_v2,,09:00-17:00,0,,,,,,,8,0,,,,,,,114.53059939739,36.601596109324,4
a785ac7ec1549594246e98a8,荣安中医院,医疗,综合医院,河北省,邯郸市,邯山区,邯郸东柳西街2号,a785ac7ec1549594246e98a8,1,0,114.533063,36.600651,(0310)8505120,hospital,http://api.map.baidu.com/place/detail?uid=a785ac7ec1549594246e98a8&output=html&source=placeapi_v2,,,,,,,,,,6,,,,,,,,114.53281951544,36.600674092542,0
7a769781c76b4983a1d2303a,友爱康复中医医院,医疗,综合医院,河北省,邯郸市,邯山区,邯郸市邯山区东柳西街与华信路交叉口东150米,7a769781c76b4983a1d2303a,1,0,114.534514,36.603048,,hospital,http://api.map.baidu.com/place/detail?uid=7a769781c76b4983a1d2303a&output=html&source=placeapi_v2,,,0,,,,,,,3,0,,,,,,,114.53448891023,36.602895128736,0
7388dffd794102f2d3ff235f,五矿邯邢职工总医院,医疗,综合医院,河北省,邯郸市,邯山区,邯郸市邯山区和平路389号,7388dffd794102f2d3ff235f,1,4,114.544199,36.604113,(0310)6285210,hospital,http://api.map.baidu.com/place/detail?uid=7388dffd794102f2d3ff235f&output=html&source=placeapi_v2,,"08:00-12:00,13:30-17:00",0.0,,,,,,,4,0,,,,,,,114.54425606657,36.604784099338,4
7161c7c8eb546c5104026fe5,邯郸市中心医院(东区),医疗,综合医院,河北省,邯郸市,丛台区,河北省邯郸市丛台区丛台北路59号,7161c7c8eb546c5104026fe5,1,7,114.541218,36.626799,(0310)2118000,hospital,http://api.map.baidu.com/place/detail?uid=7161c7c8eb546c5104026fe5&output=html&source=placeapi_v2,,"08:00-12:00,14:00-17:30",0,,,,,,,1,0,,,,,,,114.54107606506,36.626039279459,7
8bd74cd01f7d7323da2f2859,邯郸针灸医院,医疗,综合医院,河北省,邯郸市,丛台区,邯郸市丛台区光明北大街49号,8bd74cd01f7d7323da2f2859,1,0,114.510134,36.612935,,hospital,http://api.map.baidu.com/place/detail?uid=8bd74cd01f7d7323da2f2859&output=html&source=placeapi_v2,,,0,,,,,,,2,0,,,,,,,114.51011619653,36.612816908084,0
3058493ddc151806ca1b952b,邯郸济仁医院,医疗,综合医院,河北省,邯郸市,丛台区,人民东路1889号,3058493ddc151806ca1b952b,1,0,114.581794,36.610265,(0310)5307120,hospital,http://api.map.baidu.com/place/detail?uid=3058493ddc151806ca1b952b&output=html&source=placeapi_v2,,08:00-18:00,0,,,,,,,2,0,,,,,,,114.58195303958,36.610259504236,0
08fa1a480fc16c4e2fb90840,华北医疗健康集团邯矿总医院,医疗,综合医院,河北省,邯郸市,复兴区,邯郸市复兴区户村镇林村西路73号,,1,1,114.375902,36.638444,(0310)7757569,hospital,http://api.map.baidu.com/place/detail?uid=08fa1a480fc16c4e2fb90840&output=html&source=placeapi_v2,,10:00-19:00,0,,,,,,,1,0,,,,,,,114.37608773256,36.639004056348,1
02359dc3be876380db13188b,邯郸矿务局总院,医疗,综合医院,河北省,邯郸市,复兴区,河北省邯郸市复兴区林村西路73号,,1,0,114.375588,36.638761,,hospital,http://api.map.baidu.com/place/detail?uid=02359dc3be876380db13188b&output=html&source=placeapi_v2,,,,,,,,,,,,,,,,,,114.37582605796,36.638676314352,0
946f32d9bef73e7ab6f42f84,康庄乡卫生院,医疗,综合医院,河北省,邯郸市,复兴区,邯郸市复兴区邯武快速路,,1,0,114.35058,36.651642,,hospital,http://api.map.baidu.com/place/detail?uid=946f32d9bef73e7ab6f42f84&output=html&source=placeapi_v2,,,,,,,,,,,,,,,,,,,,0
dc6a8f62ba7f5e819d82eac1,邯郸新兴医院,医疗,综合医院,河北省,邯郸市,丛台区,邯郸市丛台区新兴大街361号,dc6a8f62ba7f5e819d82eac1,1,0,114.505353,36.644902,,hospital,http://api.map.baidu.com/place/detail?uid=dc6a8f62ba7f5e819d82eac1&output=html&source=placeapi_v2,,,,,,,,,,3,,,,,,,,114.5058382483,36.644502768224,0
ca35c6c0674988f8a1d2301d,邯郸绿植综合医院,医疗,综合医院,河北省,邯郸市,丛台区,河北省邯郸市丛台区人和街228号瑞德苑商业楼3~4层,,1,0,114.527181,36.652756,(0310)3019898,hospital,http://api.map.baidu.com/place/detail?uid=ca35c6c0674988f8a1d2301d&output=html&source=placeapi_v2,,08:00-17:30,,,,,,,,1,,,,,,,,,,0
d6bb435eb65d3fbd095cb3ef,博康医院,医疗,综合医院,河北省,邯郸市,丛台区,河北省邯郸市丛台区东柳北大街280号春光小区门口南侧附近,d6bb435eb65d3fbd095cb3ef,1,0,114.540055,36.633136,,hospital,http://api.map.baidu.com/place/detail?uid=d6bb435eb65d3fbd095cb3ef&output=html&source=placeapi_v2,,,,,,,,,,2,,,,,,,,114.5400627468,36.633237534111,0
3b4e59566b61aaee734b87c8,梦城医院,医疗,综合医院,河北省,邯郸市,丛台区,河北省邯郸市丛台区黄粱梦镇菜市场北头,,1,1,114.494932,36.691904,,hospital,http://api.map.baidu.com/place/detail?uid=3b4e59566b61aaee734b87c8&output=html&source=placeapi_v2,,,0,,,,,,,2,0,,,,,,,114.49460791855,36.691843700836,1
7bfa08fc21bf4e6625d2bb58,邯郸经济开发区医院,医疗,综合医院,河北省,邯郸市,丛台区,丛台区常庄派出所斜对面,,1,1,114.585441,36.68826,(0310)8191018,hospital,http://api.map.baidu.com/place/detail?uid=7bfa08fc21bf4e6625d2bb58&output=html&source=placeapi_v2,,09:00-17:00,0,,,,,,,1,0,,,,,,,114.58576919164,36.688843140116,1
17ee6ece767e959777026934,永年廷民医院,医疗,综合医院,河北省,邯郸市,永年区,河北省邯郸市永年区界河店乡北郑村,17ee6ece767e959777026934,1,0,114.488957,36.728615,(0310)6905789,hospital,http://api.map.baidu.com/place/detail?uid=17ee6ece767e959777026934&output=html&source=placeapi_v2,,,0,,,,,,,0,0,,,,,,,114.48898332854,36.728856819996,0
a7c56ee0bc80deb3a3acc400,永年区中医院,医疗,综合医院,河北省,邯郸市,永年区,河北省邯郸市永年区新陈60号附近,a7c56ee0bc80deb3a3acc400,1,0,114.500831,36.78005,(0310)6822055,hospital,http://api.map.baidu.com/place/detail?uid=a7c56ee0bc80deb3a3acc400&output=html&source=placeapi_v2,,"08:00-12:00,14:00-16:00",0,,,,,,,5,0,,,,,,,114.50152377048,36.779707643771,0
744354a02e9b7486931fc923,邯郸市永年区第一医院(西院区),医疗,综合医院,河北省,邯郸市,永年区,河北省邯郸市永年区健康东路109号,744354a02e9b7486931fc923,1,1,114.496313,36.789196,(0310)6816995,hospital,http://api.map.baidu.com/place/detail?uid=744354a02e9b7486931fc923&output=html&source=placeapi_v2,,,0,,,,,,,2,0,,,,,,,114.49639614381,36.788584698899,1
6cf6b125ad7637a93062128c,世济堂医院,医疗,综合医院,河北省,邯郸市,永年区,河北省邯郸市永年区建安路198号,6cf6b125ad7637a93062128c,1,1,114.508904,36.779145,,hospital,http://api.map.baidu.com/place/detail?uid=6cf6b125ad7637a93062128c&output=html&source=placeapi_v2,,,0,,,,,,,9,0,,,,,,,114.50889010473,36.779249762146,1
a77a6f6f93a44c45c51e5148,名关镇卫生院,医疗,综合医院,河北省,邯郸市,永年区,邯郸市永年区新陈匪孤灞苯70号,a77a6f6f93a44c45c51e5148,1,1,114.50118,36.778533,(0310)6881311,hospital,http://api.map.baidu.com/place/detail?uid=a77a6f6f93a44c45c51e5148&output=html&source=placeapi_v2,,,0,,,,,,,10,0,,,,,,,114.50140770222,36.778472389398,1
0f12eac77f7aaefbdeee8b22,永年县圣和堂医院,医疗,综合医院,河北省,邯郸市,永年区,新陈酚牍阍街交叉口处东行,0f12eac77f7aaefbdeee8b22,1,0,114.502814,36.774102,,hospital,http://api.map.baidu.com/place/detail?uid=0f12eac77f7aaefbdeee8b22&output=html&source=placeapi_v2,,,0.0,,,,,,,1,,,,,,,,114.50280117439,36.773951546737,0
3d274c346fbc5390d7851fa8,永年县仁德堂医院,医疗,综合医院,河北省,邯郸市,永年区,河北省邯郸市永年区健康东大街与富强北路交叉口,3d274c346fbc5390d7851fa8,1,1,114.509013,36.788848,,hospital,http://api.map.baidu.com/place/detail?uid=3d274c346fbc5390d7851fa8&output=html&source=placeapi_v2,,,0.0,,,,,,,5,,,,,,,,114.50908740585,36.788938879802,1
b5c9b61ae1fd1069f603b8bd,邯郸市中心医院(永年分院),医疗,综合医院,河北省,邯郸市,永年区,中华北大街12号(临彻卣蛘府南侧),b5c9b61ae1fd1069f603b8bd,1,2,114.516328,36.772798,(0310)6611827,hospital,http://api.map.baidu.com/place/detail?uid=b5c9b61ae1fd1069f603b8bd&output=html&source=placeapi_v2,,,0,,,,,,,6,0,,,,,,,114.51703740962,36.77280986116,2
3c0ea7c5c340c89cfbf0cb00,邯郸市永年区第一医院,医疗,综合医院,河北省,邯郸市,永年区,邯郸市永年区政府街327号,3c0ea7c5c340c89cfbf0cb00,1,3,114.519112,36.783088,(0310)6822276,hospital,http://api.map.baidu.com/place/detail?uid=3c0ea7c5c340c89cfbf0cb00&output=html&source=placeapi_v2,,"08:10-11:50,15:10-17:50",0,,,,,,,2,0,,,,,,,114.51914842756,36.783129359015,3
50fb64ff0e4efa5de9f85331,曹庄镇卫生院,医疗,综合医院,河北省,邯郸市,鸡泽县,河北省邯郸市鸡泽县人民路158号,50fb64ff0e4efa5de9f85331,1,1,114.893127,36.76951,,hospital,http://api.map.baidu.com/place/detail?uid=50fb64ff0e4efa5de9f85331&output=html&source=placeapi_v2,,,0,,,,,,,9,0,,,,,,,114.89306809609,36.769702174815,1
cd9d05dd0fc8e2b685420e09,曲周县医院,医疗,综合医院,河北省,邯郸市,曲周县,河北省邯郸市曲周县凤城西路558号,cd9d05dd0fc8e2b685420e09,1,3,114.956326,36.783997,(0310)8892251,hospital,http://api.map.baidu.com/place/detail?uid=cd9d05dd0fc8e2b685420e09&output=html&source=placeapi_v2,,"07:30-11:30,14:00-17:00",0,,,,,,,2,0,,,,,,,114.95687408103,36.78331336802,3
af6b33c9d1390c03aeee7ae8,河北省曲周县中医院,医疗,综合医院,河北省,邯郸市,曲周县,河北省邯郸市曲周县人民西路50号,af6b33c9d1390c03aeee7ae8,1,4,114.954365,36.766473,(0310)8855298,hospital,http://api.map.baidu.com/place/detail?uid=af6b33c9d1390c03aeee7ae8&output=html&source=placeapi_v2,0.0,"08:00-12:00,14:00-17:30",5.0,,,,,,,4,1,,,,,,,114.95522178516,36.768517628073,4
4adb209ac291da755cbe862d,永年继尧中医医院,医疗,综合医院,河北省,邯郸市,永年区,河北省邯郸市永年区刘营乡魏庄村,,1,1,114.535391,36.80128,(0310)6708009,hospital,http://api.map.baidu.com/place/detail?uid=4adb209ac291da755cbe862d&output=html&source=placeapi_v2,0.0,"08:00-12:00,13:00-18:00",0,,,,,,,1,0,,,,,,,114.53429538828,36.800996053953,1
b388f9fd2ecd5141b35c6a31,小寨中心卫生院,医疗,综合医院,河北省,邯郸市,鸡泽县,邯郸市鸡泽县G515与群山路交叉路口往东南约70米,b388f9fd2ecd5141b35c6a31,1,1,114.894357,36.842202,(0310)7662502,hospital,http://api.map.baidu.com/place/detail?uid=b388f9fd2ecd5141b35c6a31&output=html&source=placeapi_v2,,,0,,,,,,,2,0,,,,,,,114.89403944642,36.842165482242,1
56e88cba711f9165a4c75631,浮图店中心卫生院,医疗,综合医院,河北省,邯郸市,鸡泽县,邯郸市鸡泽县酒厂街与新华路交叉路口往西约80米,56e88cba711f9165a4c75631,1,1,114.786394,36.891842,(0310)7527120,hospital,http://api.map.baidu.com/place/detail?uid=56e88cba711f9165a4c75631&output=html&source=placeapi_v2,,,0,,,,,,,5,0,,,,,,,114.78638536318,36.891695703662,1
