uid,name,cat_L1,cat_L2,province,city,area,address,street_id,detail,child_num,loc_lng,loc_lat,telephone,type,detail_url,price,shop_hours,overall_rating,taste_rating,service_rating,environment_rating,facility_rating,hygiene_rating,technology_rating,image_num,comment_num,groupon_num,discount_num,favorite_num,checkin_num,brand,content_tag,naviloc_lng,naviloc_lat,child_num
9b36de9467a09039cc06a425,元氏县鑫城面粉厂,公司企业,厂矿,河北省,石家庄市,元氏县,石家庄市元氏县装院路山水龙庭小区西南侧约240米,,1,0,114.418655,37.900342,,enterprise,http://api.map.baidu.com/place/detail?uid=9b36de9467a09039cc06a425&output=html&source=placeapi_v2,,,0.0,,,,,,,,1,,,,,,,,,0
7aea43b76d30d1fb7c29bd25,鹿泉区恒源面粉厂,公司企业,厂矿,河北省,石家庄市,鹿泉区,望山路与装院路交叉口东南100米,,1,1,114.420038,37.907575,,enterprise,http://api.map.baidu.com/place/detail?uid=7aea43b76d30d1fb7c29bd25&output=html&source=placeapi_v2,,,,,,,,,,,,,,,,,,114.41956227873,37.907523927524,1
44dccca590801076ce04ef90,石家庄龙之泰包装制品有限公司,公司企业,厂矿,河北省,石家庄市,鹿泉区,河北省石家庄市鹿泉区青山路1号,,1,0,114.415019,37.912322,13313011722,enterprise,http://api.map.baidu.com/place/detail?uid=44dccca590801076ce04ef90&output=html&source=placeapi_v2,0.0,,,,,,,,,,,,,,,,,114.41501984421,37.912255038519,0
8dc56bce1da8326a9f82eaab,石家庄元氏县万瑞水泥管制品厂,公司企业,厂矿,河北省,石家庄市,元氏县,河北省石家庄市元氏县闫堡村(石家庄铁道大学四方学院西),8dc56bce1da8326a9f82eaab,1,0,114.406591,37.89207,18348807777,enterprise,http://api.map.baidu.com/place/detail?uid=8dc56bce1da8326a9f82eaab&output=html&source=placeapi_v2,,,,,,,,,,,2,,,,,,,,,0
2d289c4235794ba2a11de937,石家庄希蒙服饰有限责任公司,公司企业,厂矿,河北省,石家庄市,元氏县,河北省石家庄市元氏县红旗北大街1237号,,1,1,114.479622,37.9086,(0311)84668816,enterprise,http://api.map.baidu.com/place/detail?uid=2d289c4235794ba2a11de937&output=html&source=placeapi_v2,,,,,,,,,,,,,,,,,,114.47950620541,37.90844922653,1
9e6581a83e15940a52e5c5df,泉村第一棉油厂,公司企业,厂矿,河北省,石家庄市,元氏县,石家庄市元氏县泉村培诺幼儿园西北侧约80米,,1,0,114.519322,37.883698,,enterprise,http://api.map.baidu.com/place/detail?uid=9e6581a83e15940a52e5c5df&output=html&source=placeapi_v2,,,,,,,,,,,,,,,,,,,,0
208919e30c64f8edb42655c9,元氏县红聚电气焊加工厂,公司企业,厂矿,河北省,石家庄市,元氏县,河北省石家庄市元氏县泉村,,1,0,114.503654,37.882903,15383003007,enterprise,http://api.map.baidu.com/place/detail?uid=208919e30c64f8edb42655c9&output=html&source=placeapi_v2,,,,,,,,,,,1,,,,,,,,,0
33a5f17a27e04ad73586f492,栾城区公路站材料厂,公司企业,厂矿,河北省,石家庄市,栾城区,栾城区窦妪镇灵达路东100米,33a5f17a27e04ad73586f492,1,0,114.536369,37.898279,,enterprise,http://api.map.baidu.com/place/detail?uid=33a5f17a27e04ad73586f492&output=html&source=placeapi_v2,,,,,,,,,,,,,,,,,,114.53636672987,37.8985256888,0
9f7ba07743f2dfa7abf0cd15,石家庄昌达饲料厂,公司企业,厂矿,河北省,石家庄市,栾城区,河北省石家庄市栾城区S392(衡井线),,1,0,114.550428,37.905629,,enterprise,http://api.map.baidu.com/place/detail?uid=9f7ba07743f2dfa7abf0cd15&output=html&source=placeapi_v2,,,0,,,,,,,,1,,,,,,,114.55056731135,37.905558455917,0
f57b2374bbb5b89e54bfff44,东昌养殖厂,公司企业,厂矿,河北省,石家庄市,栾城区,石家庄市栾城区392省道附近,,1,0,114.553243,37.910163,,enterprise,http://api.map.baidu.com/place/detail?uid=f57b2374bbb5b89e54bfff44&output=html&source=placeapi_v2,,,,,,,,,,,,,,,,,,,,0
985941668b8bb2acb33c81b3,红星机械厂,公司企业,厂矿,河北省,石家庄市,栾城区,栾城区S392(衡井线),985941668b8bb2acb33c81b3,1,0,114.554514,37.907629,13032655450,enterprise,http://api.map.baidu.com/place/detail?uid=985941668b8bb2acb33c81b3&output=html&source=placeapi_v2,,,,,,,,,,,,,,,,,,,,0
6691727962fb168b7adbd2d6,栾城区中资字画装裱机厂,公司企业,厂矿,河北省,石家庄市,栾城区,石家庄市栾城区S392(亿发快捷宾馆东侧20米),6691727962fb168b7adbd2d6,1,0,114.554779,37.907661,,enterprise,http://api.map.baidu.com/place/detail?uid=6691727962fb168b7adbd2d6&output=html&source=placeapi_v2,,,,,,,,,,,,,,,,,,,,0
89e7aacf6241aa5507026f74,石家庄众泰不锈钢设备制造厂,公司企业,厂矿,河北省,石家庄市,栾城区,石家庄市栾城区经济路,,1,0,114.55273,37.913222,18031854396,enterprise,http://api.map.baidu.com/place/detail?uid=89e7aacf6241aa5507026f74&output=html&source=placeapi_v2,,,,,,,,,,,,,,,,,,,,0
10c3abfb7514a77517c8f66a,鑫盛彩钢厂,公司企业,厂矿,河北省,石家庄市,栾城区,石家庄市栾城区方西大街,,1,0,114.576923,37.902093,"13292837126,13400118109",enterprise,http://api.map.baidu.com/place/detail?uid=10c3abfb7514a77517c8f66a&output=html&source=placeapi_v2,,,,,,,,,,,,,,,,,,114.57706990203,37.902138256324,0
6b888bc5159744eb2b06cef2,钣金钳焊分厂,公司企业,厂矿,河北省,石家庄市,栾城区,河北省石家庄市栾城区衡井路99号,,1,0,114.609563,37.91228,,enterprise,http://api.map.baidu.com/place/detail?uid=6b888bc5159744eb2b06cef2&output=html&source=placeapi_v2,,,,,,,,,,,,,,,,,,,,0
79ff8b509d9ebf12373a7184,水泥砖厂,公司企业,厂矿,河北省,石家庄市,栾城区,石家庄市衡井路与X017交叉路口往南约90米,,1,0,114.576581,37.908463,,enterprise,http://api.map.baidu.com/place/detail?uid=79ff8b509d9ebf12373a7184&output=html&source=placeapi_v2,,,0.0,,,,,,,,,,,,,,,,,0
70a7b5cc2db4ecc2f60e7788,北赵台诚信水泥构件厂,公司企业,厂矿,河北省,石家庄市,栾城区,河北省石家庄市栾城区S392(衡井路),,1,0,114.595284,37.910593,,enterprise,http://api.map.baidu.com/place/detail?uid=70a7b5cc2db4ecc2f60e7788&output=html&source=placeapi_v2,,,0.0,,,,,,,,1,,,,,,,,,0
ad734e1d41e5fd41a1a9349c,福利铸造辅料厂,公司企业,厂矿,河北省,石家庄市,栾城区,石家庄市栾城区栾窦路小金苗幼儿园东侧约90米,,1,0,114.58247,37.888435,,enterprise,http://api.map.baidu.com/place/detail?uid=ad734e1d41e5fd41a1a9349c&output=html&source=placeapi_v2,,,,,,,,,,,,,,,,,,,,0
b0371da7c4f2bd8ebe48429a,银青电动卷闸厂,公司企业,厂矿,河北省,石家庄市,栾城区,河北省石家庄市栾城区X017,,1,0,114.57726,37.90188,"15131124333,18732185444",enterprise,http://api.map.baidu.com/place/detail?uid=b0371da7c4f2bd8ebe48429a&output=html&source=placeapi_v2,,,,,,,,,,,,,,,,,,,,0
9938a72fb0ef44c3cd04ef47,栾城区云峰塑料厂,公司企业,厂矿,河北省,石家庄市,栾城区,河北省石家庄市栾城区X017(商品街),,1,0,114.579289,37.889685,15732522986,enterprise,http://api.map.baidu.com/place/detail?uid=9938a72fb0ef44c3cd04ef47&output=html&source=placeapi_v2,,,,,,,,,,,,,,,,,,,,0
09bd34549e89962a102935e4,纯源油脂公司豆粉厂,公司企业,厂矿,河北省,石家庄市,栾城区,石家庄市栾城区石栾大街王家庄新村南侧约120米,09bd34549e89962a102935e4,1,0,114.643915,37.901635,,enterprise,http://api.map.baidu.com/place/detail?uid=09bd34549e89962a102935e4&output=html&source=placeapi_v2,,,,,,,,,,,,,,,,,,,,0
97ac6881d4fc1a5cf7b916f3,栾城双星鞋厂,公司企业,厂矿,河北省,石家庄市,栾城区,石家庄市栾城区张举路河北省农村信用社东侧约220米,97ac6881d4fc1a5cf7b916f3,1,0,114.645866,37.885557,,enterprise,http://api.map.baidu.com/place/detail?uid=97ac6881d4fc1a5cf7b916f3&output=html&source=placeapi_v2,,,,,,,,,,,,,,,,,,114.64587826976,37.885414835134,0
1b9edbe27a350af89ee321c3,栾城区双恒无纺布厂,公司企业,厂矿,河北省,石家庄市,栾城区,河北省石家庄市栾城区西城大街,,1,0,114.635107,37.885248,,enterprise,http://api.map.baidu.com/place/detail?uid=1b9edbe27a350af89ee321c3&output=html&source=placeapi_v2,,,,,,,,,,,,,,,,,,,,0
6e196179fbfb7c21eedfca0a,金正制鞋厂,公司企业,厂矿,河北省,石家庄市,栾城区,河北省石家庄市栾城区焦家庄村金正制鞋厂自然居饭店南邻,,1,0,114.643357,37.889058,,enterprise,http://api.map.baidu.com/place/detail?uid=6e196179fbfb7c21eedfca0a&output=html&source=placeapi_v2,,,,,,,,,,,,,,,,,,,,0
5358aa0e37f3b44deddfcadb,北泽杨机械厂,公司企业,厂矿,河北省,石家庄市,栾城区,石家庄市栾城区张举路栾城职教中心西南侧约230米,5358aa0e37f3b44deddfcadb,1,0,114.683983,37.888198,18931150995,enterprise,http://api.map.baidu.com/place/detail?uid=5358aa0e37f3b44deddfcadb&output=html&source=placeapi_v2,,,,,,,,,,,,,,,,,,,,0
8f86f3ef36fe34489cec2b94,百事宝岛电动三轮车厂,公司企业,厂矿,河北省,石家庄市,栾城区,石家庄市栾城区富强街与迎宾路交叉路口往东南约230米,,1,0,114.736123,37.909826,13393238760,enterprise,http://api.map.baidu.com/place/detail?uid=8f86f3ef36fe34489cec2b94&output=html&source=placeapi_v2,,,5.0,,,,,,,,3,,,,,,,114.73647411417,37.909877454398,0
3485c855a572c8aa774ff195,石家庄米尼熊电动车厂,公司企业,厂矿,河北省,石家庄市,栾城区,河北省石家庄市栾城区南三路14号,,1,0,114.736736,37.909432,13393238760,enterprise,http://api.map.baidu.com/place/detail?uid=3485c855a572c8aa774ff195&output=html&source=placeapi_v2,,,,,,,,,,,,,,,,,,,,0
6883d0be96b62fb3acee7a90,石家庄东顺小米加工厂,公司企业,厂矿,河北省,石家庄市,栾城区,柳林屯乡故意村石家庄东顺,,1,0,114.784207,37.892006,13832397578,enterprise,http://api.map.baidu.com/place/detail?uid=6883d0be96b62fb3acee7a90&output=html&source=placeapi_v2,,,,,,,,,,,,,,,,,,,,0
3654d2d972fdf7ba5bf6be04,永盛羊皮灯笼厂,公司企业,厂矿,河北省,石家庄市,藁城区,藁城区S392(衡井线),3654d2d972fdf7ba5bf6be04,1,0,114.832794,37.901708,15033117815,enterprise,http://api.map.baidu.com/place/detail?uid=3654d2d972fdf7ba5bf6be04&output=html&source=placeapi_v2,,,,,,,,,,,,,,,,,,,,0
d8ef2d9b7261c437c7f50d64,河北振泰电力设备有限公司南厂区,公司企业,厂矿,河北省,石家庄市,藁城区,石家庄市藁城区公安局梅花派出所治安管理办公室,,1,0,114.832827,37.895128,,enterprise,http://api.map.baidu.com/place/detail?uid=d8ef2d9b7261c437c7f50d64&output=html&source=placeapi_v2,,,,,,,,,,,,,,,,,,,,0
27e1e63925f9d4e8be4842f3,藁城汇丰编织厂,公司企业,厂矿,河北省,石家庄市,藁城区,河北省石家庄市藁城区中华东路,,1,0,114.853596,37.897993,,enterprise,http://api.map.baidu.com/place/detail?uid=27e1e63925f9d4e8be4842f3&output=html&source=placeapi_v2,,,,,,,,,,,,,,,,,,114.85358813037,37.898162056395,0
8c60859c65e735960b69d9bb,联谊编织厂,公司企业,厂矿,河北省,石家庄市,藁城区,石家庄市藁城区392省道附近,8c60859c65e735960b69d9bb,1,0,114.865257,37.902604,,enterprise,http://api.map.baidu.com/place/detail?uid=8c60859c65e735960b69d9bb&output=html&source=placeapi_v2,,,,,,,,,,,,,,,,,,114.86527778267,37.902743699638,0
4a91e6ed7b26295cc929150b,藁城区良东旧木头厂,公司企业,厂矿,河北省,石家庄市,藁城区,河北省石家庄市藁城区S392(衡井线),4a91e6ed7b26295cc929150b,1,0,114.856572,37.902815,,enterprise,http://api.map.baidu.com/place/detail?uid=4a91e6ed7b26295cc929150b&output=html&source=placeapi_v2,,,,,,,,,,,,,,,,,,,,0
824fbcd2a46729e4774ff18a,藁城区华飞塑料制品厂,公司企业,厂矿,河北省,石家庄市,藁城区,河北省石家庄市藁城区S392(衡井线),,1,0,114.85392,37.902335,,enterprise,http://api.map.baidu.com/place/detail?uid=824fbcd2a46729e4774ff18a&output=html&source=placeapi_v2,,,0.0,,,,,,,,1,,,,,,,,,0
ae0d5deec22cf0885d0d024d,藁城区为民编织厂,公司企业,厂矿,河北省,石家庄市,藁城区,河北省石家庄市藁城区梅花镇南高庄村前进路14号,,1,0,114.860136,37.89876,13931187885,enterprise,http://api.map.baidu.com/place/detail?uid=ae0d5deec22cf0885d0d024d&output=html&source=placeapi_v2,,,,,,,,,,,,,,,,,,,,0
17e9ad8e460cadb1cafa5f1b,轩宇宫灯厂,公司企业,厂矿,河北省,石家庄市,藁城区,392省道与809乡道交叉口西100米,17e9ad8e460cadb1cafa5f1b,1,0,114.859348,37.90314,13472124830,enterprise,http://api.map.baidu.com/place/detail?uid=17e9ad8e460cadb1cafa5f1b&output=html&source=placeapi_v2,,,,,,,,,,,,,,,,,,,,0
1edc50bbeeed5e010bccddff,中伟宫灯厂,公司企业,厂矿,河北省,石家庄市,藁城区,藁城区392省道北50米,,1,0,114.86018,37.904554,,enterprise,http://api.map.baidu.com/place/detail?uid=1edc50bbeeed5e010bccddff&output=html&source=placeapi_v2,,,,,,,,,,,,,,,,,,114.8600295513,37.904608834658,0
6bfc0cf45978b7cffa0cadcf,康康宫灯厂,公司企业,厂矿,河北省,石家庄市,藁城区,石家庄市藁城区,,1,0,114.858968,37.907442,13803215605,enterprise,http://api.map.baidu.com/place/detail?uid=6bfc0cf45978b7cffa0cadcf&output=html&source=placeapi_v2,,,,,,,,,,,,,,,,,,,,0
8efd963ba1158142ab0dd872,力明宫灯厂,公司企业,厂矿,河北省,石家庄市,藁城区,河北省石家庄市藁城区梅花镇崔家庄小学东南,,1,0,114.859907,37.90484,,enterprise,http://api.map.baidu.com/place/detail?uid=8efd963ba1158142ab0dd872&output=html&source=placeapi_v2,,,5.0,,,,,,,,1,,,,,,,,,0
8f167950bee8dcfabfa822cf,藁城区大华宫灯厂,公司企业,厂矿,河北省,石家庄市,藁城区,石家庄市藁城区南高庄工业区,,1,0,114.864143,37.898942,,enterprise,http://api.map.baidu.com/place/detail?uid=8f167950bee8dcfabfa822cf&output=html&source=placeapi_v2,,,,,,,,,,,,,,,,,,,,0
8238d714954168c9b2077d0c,昊乾灯笼厂,公司企业,厂矿,河北省,石家庄市,藁城区,石家庄市藁城区衡井线,,1,0,114.859952,37.904934,13731108911,enterprise,http://api.map.baidu.com/place/detail?uid=8238d714954168c9b2077d0c&output=html&source=placeapi_v2,,,,,,,,,,,,,,,,,,,,0
075b1037f181d05e63180937,翠波宫灯旗帜厂,公司企业,厂矿,河北省,石家庄市,藁城区,河北省石家庄市藁城区崔家庄小学东南侧约90米,,1,0,114.859688,37.906012,"13513310113,15227883566",enterprise,http://api.map.baidu.com/place/detail?uid=075b1037f181d05e63180937&output=html&source=placeapi_v2,,,,,,,,,,,,,,,,,,,,0
8b366d8f64c076d817948e6e,喜迎春工艺品厂,公司企业,厂矿,河北省,石家庄市,藁城区,石家庄市藁城区,,1,0,114.859914,37.905306,"(0311)88395933,13832131833",enterprise,http://api.map.baidu.com/place/detail?uid=8b366d8f64c076d817948e6e&output=html&source=placeapi_v2,,,,,,,,,,,,,,,,,,114.8600162986,37.9053119717,0
c7f4d793c083d1a4a2a93418,新计门窗厂,公司企业,厂矿,河北省,石家庄市,藁城区,石家庄市藁城区衡井线,,1,0,114.863196,37.903071,13513378119,enterprise,http://api.map.baidu.com/place/detail?uid=c7f4d793c083d1a4a2a93418&output=html&source=placeapi_v2,,,5.0,,,,,,,,2,,,,,,,,,0
64c1f9fcaf3da6f20d3dda56,藁城市灿烂星光旗帜厂,公司企业,厂矿,河北省,石家庄市,藁城区,石家庄市藁城区村南公路与迎宾大道交叉路口往东南约50米,,1,0,114.85824,37.919134,13931991082,enterprise,http://api.map.baidu.com/place/detail?uid=64c1f9fcaf3da6f20d3dda56&output=html&source=placeapi_v2,,,,,,,,,,,,,,,,,,,,0
160bdf881eb363f5fbf0cb26,城区翔宇塑料制品厂,公司企业,厂矿,河北省,石家庄市,藁城区,河北省石家庄市藁城区392省道北100米,,1,0,114.865133,37.903219,,enterprise,http://api.map.baidu.com/place/detail?uid=160bdf881eb363f5fbf0cb26&output=html&source=placeapi_v2,,,,,,,,,,,,,,,,,,,,0
cbef3275757188ce1288248a,藁城区永进宫灯厂,公司企业,厂矿,河北省,石家庄市,藁城区,石家庄市藁城区,,1,0,114.858913,37.908318,,enterprise,http://api.map.baidu.com/place/detail?uid=cbef3275757188ce1288248a&output=html&source=placeapi_v2,,,,,,,,,,,,,,,,,,,,0
1227a0da9ade950e2906ce8e,藁城区喜随缘宫灯厂,公司企业,厂矿,河北省,石家庄市,藁城区,梅花镇崔家庄,,1,0,114.858927,37.908311,13731197622,enterprise,http://api.map.baidu.com/place/detail?uid=1227a0da9ade950e2906ce8e&output=html&source=placeapi_v2,,,5.0,,,,,,,,2,,,,,,,,,0
0898e7a6fa36e8fb7369d360,耀东宫灯厂,公司企业,厂矿,河北省,石家庄市,藁城区,河北省石家庄市藁城区崔家庄胜利路9号,,1,0,114.858409,37.908287,18942631991,enterprise,http://api.map.baidu.com/place/detail?uid=0898e7a6fa36e8fb7369d360&output=html&source=placeapi_v2,,,,,,,,,,,,,,,,,,,,0
11841920451a41b3d6b74e61,友谊宫灯旗帜厂,公司企业,厂矿,河北省,石家庄市,藁城区,石家庄市藁城区,,1,0,114.858667,37.910527,,enterprise,http://api.map.baidu.com/place/detail?uid=11841920451a41b3d6b74e61&output=html&source=placeapi_v2,,,,,,,,,,,,,,,,,,,,0
955a65009878d577a6da39e5,鑫东宫灯厂,公司企业,厂矿,河北省,石家庄市,藁城区,河北省石家庄市藁城区区村南公路,,1,0,114.858347,37.911517,,enterprise,http://api.map.baidu.com/place/detail?uid=955a65009878d577a6da39e5&output=html&source=placeapi_v2,,,,,,,,,,,,,,,,,,,,0
73299514b975e347cae33c76,藁城区金鑫宫灯彩旗厂,公司企业,厂矿,河北省,石家庄市,藁城区,河北省石家庄市藁城区正东路a区106号,,1,0,114.858286,37.914164,,enterprise,http://api.map.baidu.com/place/detail?uid=73299514b975e347cae33c76&output=html&source=placeapi_v2,,,,,,,,,,,,,,,,,,,,0
46613e26dab85311c42ba1de,万家红宫灯厂,公司企业,厂矿,河北省,石家庄市,藁城区,河北省石家庄市藁城区崔家庄北口公交站,,1,0,114.85843,37.910489,,enterprise,http://api.map.baidu.com/place/detail?uid=46613e26dab85311c42ba1de&output=html&source=placeapi_v2,,,,,,,,,,,,,,,,,,,,0
55b19533414a52ec94031923,藁城市家乐宫灯厂,公司企业,厂矿,河北省,石家庄市,藁城区,河北省石家庄市藁城区区村南公路,,1,0,114.857171,37.916483,,enterprise,http://api.map.baidu.com/place/detail?uid=55b19533414a52ec94031923&output=html&source=placeapi_v2,,,,,,,,,,,,,,,,,,,,0
0401340826108153adcb6690,藁城区屯头喜庆灯笼厂,公司企业,厂矿,河北省,石家庄市,藁城区,石家庄市藁城区村南公路,,1,0,114.85785,37.915465,13930103127,enterprise,http://api.map.baidu.com/place/detail?uid=0401340826108153adcb6690&output=html&source=placeapi_v2,,,5.0,,,,,,,,1,,,,,,,,,0
f2db8c95ebb2b7e1d618b70b,藁城市盛鑫灯笼厂,公司企业,厂矿,河北省,石家庄市,藁城区,石家庄市藁城区村南公路,,1,0,114.857756,37.915871,13803392264,enterprise,http://api.map.baidu.com/place/detail?uid=f2db8c95ebb2b7e1d618b70b&output=html&source=placeapi_v2,,,,,,,,,,,,,,,,,,,,0
2a31aa4c7d4f4ae55b10931b,辉力羊皮灯笼厂,公司企业,厂矿,河北省,石家庄市,藁城区,石家庄市藁城区村南公路,,1,0,114.858222,37.912269,,enterprise,http://api.map.baidu.com/place/detail?uid=2a31aa4c7d4f4ae55b10931b&output=html&source=placeapi_v2,,,,,,,,,,,,,,,,,,,,0
baafacaf574458a3a3acc497,河北冀雪面业有限公司,公司企业,厂矿,河北省,石家庄市,藁城区,河北省石家庄市藁城区贾市庄镇衡井线藁城市耿家庄田氏门业,baafacaf574458a3a3acc497,1,0,114.893245,37.895104,,enterprise,http://api.map.baidu.com/place/detail?uid=baafacaf574458a3a3acc497&output=html&source=placeapi_v2,,,,,,,,,,,,,,,,,,,,0
17d1af2d5faee5b7601809eb,新兴编织厂,公司企业,厂矿,河北省,石家庄市,藁城区,石家庄市藁城区392省道北50米,17d1af2d5faee5b7601809eb,1,0,114.892901,37.895688,,enterprise,http://api.map.baidu.com/place/detail?uid=17d1af2d5faee5b7601809eb&output=html&source=placeapi_v2,,,,,,,,,,,,,,,,,,,,0
4124f0b5d7ec3f51a0acc43f,兴涛宫面厂,公司企业,厂矿,河北省,石家庄市,藁城区,河北省石家庄市藁城区贾市庄镇耿家庄村衡井线520公交站牌西南角,4124f0b5d7ec3f51a0acc43f,1,0,114.891684,37.895613,(0311)88077003,enterprise,http://api.map.baidu.com/place/detail?uid=4124f0b5d7ec3f51a0acc43f&output=html&source=placeapi_v2,,,,,,,,,,,,,,,,,,,,0
f8cf94a403825f0714948ef3,鸿泰农副产品加工厂(鸿泰粗粮),公司企业,厂矿,河北省,石家庄市,藁城区,河北省石家庄市藁城区贾市庄镇耿家庄村北衡井线77公里处路北鸿泰粗粮田文栋,f8cf94a403825f0714948ef3,1,0,114.893535,37.895473,13930134552,enterprise,http://api.map.baidu.com/place/detail?uid=f8cf94a403825f0714948ef3&output=html&source=placeapi_v2,,,5.0,,,,,,,,1,,,,,,,,,0
ea6b4932b6a462254bcc4a1b,粮如意宫面厂,公司企业,厂矿,河北省,石家庄市,藁城区,河北省石家庄市藁城区S392(衡井线),,1,0,114.895556,37.893536,13832102020,enterprise,http://api.map.baidu.com/place/detail?uid=ea6b4932b6a462254bcc4a1b&output=html&source=placeapi_v2,,,5,,,,,,,,4,,,,,,,114.89587028198,37.89398791248,0
890e7482d8b4f398ce04ef84,博越纸箱厂,公司企业,厂矿,河北省,石家庄市,藁城区,河北省石家庄市藁城区S392(衡井线),,1,0,114.909336,37.895565,13784357260,enterprise,http://api.map.baidu.com/place/detail?uid=890e7482d8b4f398ce04ef84&output=html&source=placeapi_v2,,,0.0,,,,,,,,1,,,,,,,114.90931804572,37.895736789618,0
bb4d964b44214a6ad42ce209,藁城区金鑫编织厂,公司企业,厂矿,河北省,石家庄市,藁城区,河北省石家庄市藁城区衡井线,,1,0,114.881259,37.897786,"(0311)88396830,13780412548",enterprise,http://api.map.baidu.com/place/detail?uid=bb4d964b44214a6ad42ce209&output=html&source=placeapi_v2,,,,,,,,,,,,,,,,,,,,0
44dccca590801076ce04ef90,石家庄龙之泰包装制品有限公司,公司企业,厂矿,河北省,石家庄市,鹿泉区,河北省石家庄市鹿泉区青山路1号,,1,0,114.415019,37.912322,13313011722,enterprise,http://api.map.baidu.com/place/detail?uid=44dccca590801076ce04ef90&output=html&source=placeapi_v2,0.0,,,,,,,,,,,,,,,,,114.41501984421,37.912255038519,0
7aea43b76d30d1fb7c29bd25,鹿泉区恒源面粉厂,公司企业,厂矿,河北省,石家庄市,鹿泉区,望山路与装院路交叉口东南100米,,1,1,114.420038,37.907575,,enterprise,http://api.map.baidu.com/place/detail?uid=7aea43b76d30d1fb7c29bd25&output=html&source=placeapi_v2,,,,,,,,,,,,,,,,,,114.41956227873,37.907523927524,1
aad5f205a395cb85213bf233,元氏县路陆顺水泥制品厂,公司企业,厂矿,河北省,石家庄市,元氏县,河北省石家庄市元氏县石赞高速北400米,,1,0,114.450362,37.922951,,enterprise,http://api.map.baidu.com/place/detail?uid=aad5f205a395cb85213bf233&output=html&source=placeapi_v2,,,,,,,,,,,,,,,,,,114.45020337547,37.923298134421,0
4d4b5c3753262032b817e73b,栾城区广献焊网厂,公司企业,厂矿,河北省,石家庄市,栾城区,石家庄市栾城区环村路与水源路交叉路口往东南约70米,,1,0,114.525251,37.930692,13785111996,enterprise,http://api.map.baidu.com/place/detail?uid=4d4b5c3753262032b817e73b&output=html&source=placeapi_v2,,,,,,,,,,,,,,,,,,,,0
9f7ba07743f2dfa7abf0cd15,石家庄昌达饲料厂,公司企业,厂矿,河北省,石家庄市,栾城区,河北省石家庄市栾城区S392(衡井线),,1,0,114.550428,37.905629,,enterprise,http://api.map.baidu.com/place/detail?uid=9f7ba07743f2dfa7abf0cd15&output=html&source=placeapi_v2,,,0,,,,,,,,1,,,,,,,114.55056731135,37.905558455917,0
f57b2374bbb5b89e54bfff44,东昌养殖厂,公司企业,厂矿,河北省,石家庄市,栾城区,石家庄市栾城区392省道附近,,1,0,114.553243,37.910163,,enterprise,http://api.map.baidu.com/place/detail?uid=f57b2374bbb5b89e54bfff44&output=html&source=placeapi_v2,,,,,,,,,,,,,,,,,,,,0
ba383805c2743385b05c6a65,常青织布厂,公司企业,厂矿,河北省,石家庄市,栾城区,河北省石家庄市栾城区楼底镇段同村南车东路北350米,,1,0,114.559027,37.939412,,enterprise,http://api.map.baidu.com/place/detail?uid=ba383805c2743385b05c6a65&output=html&source=placeapi_v2,,,,,,,,,,,,,,,,,,,,0
89e7aacf6241aa5507026f74,石家庄众泰不锈钢设备制造厂,公司企业,厂矿,河北省,石家庄市,栾城区,石家庄市栾城区经济路,,1,0,114.55273,37.913222,18031854396,enterprise,http://api.map.baidu.com/place/detail?uid=89e7aacf6241aa5507026f74&output=html&source=placeapi_v2,,,,,,,,,,,,,,,,,,,,0
985941668b8bb2acb33c81b3,红星机械厂,公司企业,厂矿,河北省,石家庄市,栾城区,栾城区S392(衡井线),985941668b8bb2acb33c81b3,1,0,114.554514,37.907629,13032655450,enterprise,http://api.map.baidu.com/place/detail?uid=985941668b8bb2acb33c81b3&output=html&source=placeapi_v2,,,,,,,,,,,,,,,,,,,,0
6691727962fb168b7adbd2d6,栾城区中资字画装裱机厂,公司企业,厂矿,河北省,石家庄市,栾城区,石家庄市栾城区S392(亿发快捷宾馆东侧20米),6691727962fb168b7adbd2d6,1,0,114.554779,37.907661,,enterprise,http://api.map.baidu.com/place/detail?uid=6691727962fb168b7adbd2d6&output=html&source=placeapi_v2,,,,,,,,,,,,,,,,,,,,0
f6e5e8b546345800bea2409a,石家庄市旭日电器厂,公司企业,厂矿,河北省,石家庄市,栾城区,河北省石家庄市栾城区石栾大街,,1,0,114.611872,37.934728,13603216385,enterprise,http://api.map.baidu.com/place/detail?uid=f6e5e8b546345800bea2409a&output=html&source=placeapi_v2,,,,,,,,,,,,,,,,,,114.61163787933,37.93467109138,0
6b888bc5159744eb2b06cef2,钣金钳焊分厂,公司企业,厂矿,河北省,石家庄市,栾城区,河北省石家庄市栾城区衡井路99号,,1,0,114.609563,37.91228,,enterprise,http://api.map.baidu.com/place/detail?uid=6b888bc5159744eb2b06cef2&output=html&source=placeapi_v2,,,,,,,,,,,,,,,,,,,,0
0a46dc0fd261955d30621220,石家庄市佳鑫机械厂,公司企业,厂矿,河北省,石家庄市,栾城区,河北省石家庄市栾城区冶河镇油通村新元高速公路东300米,,1,0,114.602612,37.929579,(0311)85458388,enterprise,http://api.map.baidu.com/place/detail?uid=0a46dc0fd261955d30621220&output=html&source=placeapi_v2,,,0.0,,,,,,,,0,,,,,,,114.60259903227,37.929845213087,0
70a7b5cc2db4ecc2f60e7788,北赵台诚信水泥构件厂,公司企业,厂矿,河北省,石家庄市,栾城区,河北省石家庄市栾城区S392(衡井路),,1,0,114.595284,37.910593,,enterprise,http://api.map.baidu.com/place/detail?uid=70a7b5cc2db4ecc2f60e7788&output=html&source=placeapi_v2,,,0.0,,,,,,,,1,,,,,,,,,0
c01f358fe2073251fda77889,石家庄惠源塑编包装厂,公司企业,厂矿,河北省,石家庄市,栾城区,河北省石家庄市栾城区孟董庄环村南路,,1,0,114.673247,37.923356,(0311)85401650,enterprise,http://api.map.baidu.com/place/detail?uid=c01f358fe2073251fda77889&output=html&source=placeapi_v2,,,,,,,,,,,,,,,,,,,,0
78a5da8514266626a7c7567f,栾城区国龙塑料管厂,公司企业,厂矿,河北省,石家庄市,栾城区,石家庄市栾城区衡井路与富康街交叉路口往北约50米,,1,0,114.677268,37.917118,,enterprise,http://api.map.baidu.com/place/detail?uid=78a5da8514266626a7c7567f&output=html&source=placeapi_v2,,,,,,,,,,,3,,,,,,,,,0
bbc877c24e4815a485420e67,栾城区百寿工艺品厂,公司企业,厂矿,河北省,石家庄市,栾城区,河北省石家庄市栾城区富兴路58号,,1,0,114.693922,37.926812,,enterprise,http://api.map.baidu.com/place/detail?uid=bbc877c24e4815a485420e67&output=html&source=placeapi_v2,,,,,,,,,,,,,,,,,,,,0
d515bde61f546fdf2e473319,石家庄金丰菌体产品烘干厂,公司企业,厂矿,河北省,石家庄市,栾城区,石家庄市栾城区新赵线,,1,0,114.738732,37.929579,,enterprise,http://api.map.baidu.com/place/detail?uid=d515bde61f546fdf2e473319&output=html&source=placeapi_v2,,,,,,,,,,,,,,,,,,114.73913787387,37.929623724979,0
2f96a828d1bcce4fbd484253,石家庄市栾城区瑞安编织厂,公司企业,厂矿,河北省,石家庄市,栾城区,河北省石家庄市栾城区大任庄村西行500米衡井线路北,,1,0,114.70914,37.919915,(0311)88033321,enterprise,http://api.map.baidu.com/place/detail?uid=2f96a828d1bcce4fbd484253&output=html&source=placeapi_v2,,,0,,,,,,,,1,,,,,,,,,0
8f86f3ef36fe34489cec2b94,百事宝岛电动三轮车厂,公司企业,厂矿,河北省,石家庄市,栾城区,石家庄市栾城区富强街与迎宾路交叉路口往东南约230米,,1,0,114.736123,37.909826,13393238760,enterprise,http://api.map.baidu.com/place/detail?uid=8f86f3ef36fe34489cec2b94&output=html&source=placeapi_v2,,,5.0,,,,,,,,3,,,,,,,114.73647411417,37.909877454398,0
3485c855a572c8aa774ff195,石家庄米尼熊电动车厂,公司企业,厂矿,河北省,石家庄市,栾城区,河北省石家庄市栾城区南三路14号,,1,0,114.736736,37.909432,13393238760,enterprise,http://api.map.baidu.com/place/detail?uid=3485c855a572c8aa774ff195&output=html&source=placeapi_v2,,,,,,,,,,,,,,,,,,,,0
334729a32149061b8415414b,诚信米厂,公司企业,厂矿,河北省,石家庄市,藁城区,石家庄市藁城区金玉庄园东侧约60米,,1,0,114.785083,37.91572,,enterprise,http://api.map.baidu.com/place/detail?uid=334729a32149061b8415414b&output=html&source=placeapi_v2,,,,,,,,,,,,,,,,,,,,0
dfb5466026bbd298704b87d4,英辰米厂,公司企业,厂矿,河北省,石家庄市,藁城区,河北省石家庄市藁城区S392(衡井线),,1,0,114.785168,37.916897,"13582346228,13733312306",enterprise,http://api.map.baidu.com/place/detail?uid=dfb5466026bbd298704b87d4&output=html&source=placeapi_v2,,,,,,,,,,,,,,,,,,,,0
b7b0062a64a05742b45f1e87,石家庄藁城区晶源食品厂,公司企业,厂矿,河北省,石家庄市,藁城区,河北省石家庄市藁城区S392(衡井线),,1,0,114.791361,37.921436,,enterprise,http://api.map.baidu.com/place/detail?uid=b7b0062a64a05742b45f1e87&output=html&source=placeapi_v2,,,,,,,,,,,,,,,,,,,,0
e067715a5624bcd74e776ed1,雪忠米业,公司企业,厂矿,河北省,石家庄市,藁城区,石家庄市藁城区金玉庄园东北侧约270米,,1,0,114.785253,37.918905,"13930412838,13933019790",enterprise,http://api.map.baidu.com/place/detail?uid=e067715a5624bcd74e776ed1&output=html&source=placeapi_v2,0.0,,5,,,,,,,,4,,,,,,,,,0
a76a52e75f9ba50333169b57,藁城区军山农副产品加工厂,公司企业,厂矿,河北省,石家庄市,藁城区,石家庄市藁城区811乡道西50米,,1,0,114.785724,37.927813,15200003735,enterprise,http://api.map.baidu.com/place/detail?uid=a76a52e75f9ba50333169b57&output=html&source=placeapi_v2,,,,,,,,,,,,,,,,,,,,0
41c67d31aa01f12b30169b67,振华农副产品加工厂,公司企业,厂矿,河北省,石家庄市,藁城区,石家庄市藁城区南营镇马庄村张浩农副产品有限公司西北侧80米,,1,0,114.785707,37.927326,15200003735,enterprise,http://api.map.baidu.com/place/detail?uid=41c67d31aa01f12b30169b67&output=html&source=placeapi_v2,0.0,,,,,,,,,,,,,,,,,,,0
b7b0062a64a05742b45f1e87,石家庄藁城区晶源食品厂,公司企业,厂矿,河北省,石家庄市,藁城区,河北省石家庄市藁城区S392(衡井线),,1,0,114.791361,37.921436,,enterprise,http://api.map.baidu.com/place/detail?uid=b7b0062a64a05742b45f1e87&output=html&source=placeapi_v2,,,,,,,,,,,,,,,,,,,,0
da0f9bcdef57ef2c2ffaa782,恒意宫灯厂,公司企业,厂矿,河北省,石家庄市,藁城区,河北省石家庄市藁城区中华北大街,,1,0,114.858425,37.926194,15231172529,enterprise,http://api.map.baidu.com/place/detail?uid=da0f9bcdef57ef2c2ffaa782&output=html&source=placeapi_v2,,,,,,,,,,,,,,,,,,,,0
93a0b99dae9b80eb4f3a599f,日升宫灯彩旗厂,公司企业,厂矿,河北省,石家庄市,藁城区,河北省石家庄市藁城区胜利东路13号,,1,0,114.859287,37.925058,13931108596,enterprise,http://api.map.baidu.com/place/detail?uid=93a0b99dae9b80eb4f3a599f&output=html&source=placeapi_v2,,,,,,,,,,,,,,,,,,,,0
a9b8411260392fb514c8f654,藁城区和兴宫灯厂,公司企业,厂矿,河北省,石家庄市,藁城区,河北省石家庄市藁城区中华南大街27号,,1,0,114.858759,37.922221,18034521912,enterprise,http://api.map.baidu.com/place/detail?uid=a9b8411260392fb514c8f654&output=html&source=placeapi_v2,,,,,,,,,,,,,,,,,,,,0
3faa7c65a31813c8da2f2858,昌盛灯笼配件厂,公司企业,厂矿,河北省,石家庄市,藁城区,河北省石家庄市藁城区中华北大街,,1,0,114.858427,37.926157,"(0311)88095597,13180586656",enterprise,http://api.map.baidu.com/place/detail?uid=3faa7c65a31813c8da2f2858&output=html&source=placeapi_v2,,,0.0,,,,,,,,,,,,,,,,,0
f424cf104dd63ff4b72655d6,藁城区五星灯笼厂,公司企业,厂矿,河北省,石家庄市,藁城区,河北省石家庄市藁城区西昌街13号,,1,0,114.856309,37.920045,,enterprise,http://api.map.baidu.com/place/detail?uid=f424cf104dd63ff4b72655d6&output=html&source=placeapi_v2,0.0,,,,,,,,,,,,,,,,,,,0
84c309968306af6358f6bed6,紫岳宫灯厂,公司企业,厂矿,河北省,石家庄市,藁城区,河北省石家庄市藁城区村北公路南段,,1,0,114.858379,37.926642,"13582169221,13643219310",enterprise,http://api.map.baidu.com/place/detail?uid=84c309968306af6358f6bed6&output=html&source=placeapi_v2,,,,,,,,,,,,,,,,,,,,0
9dcecb65005ea5ecfb2213f4,藁城区苏朋宫灯厂,公司企业,厂矿,河北省,石家庄市,藁城区,石家庄市藁城区村南公路,,1,0,114.857065,37.921489,15032137862,enterprise,http://api.map.baidu.com/place/detail?uid=9dcecb65005ea5ecfb2213f4&output=html&source=placeapi_v2,,,,,,,,,,,,,,,,,,,,0
4d1fe91f6d6e1fe2843304f8,藁城区红米工艺品厂,公司企业,厂矿,河北省,石家庄市,藁城区,河北省石家庄市藁城区裕民西路36号,,1,0,114.856627,37.921293,15003314440,enterprise,http://api.map.baidu.com/place/detail?uid=4d1fe91f6d6e1fe2843304f8&output=html&source=placeapi_v2,,,5.0,,,,,,,,1,,,,,,,,,0
86b6fe3296e75301734b8793,藁城区屯头红旗灯笼厂,公司企业,厂矿,河北省,石家庄市,藁城区,河北省石家庄市藁城区屯头南44号,,1,0,114.856443,37.921421,13603311173,enterprise,http://api.map.baidu.com/place/detail?uid=86b6fe3296e75301734b8793&output=html&source=placeapi_v2,,,,,,,,,,,,,,,,,,,,0
7858f2d82a18be82cac3dbdf,梓晴宫灯厂,公司企业,厂矿,河北省,石家庄市,藁城区,石家庄市藁城区屯头村南北大街南头,,1,0,114.858566,37.921233,15075139755,enterprise,http://api.map.baidu.com/place/detail?uid=7858f2d82a18be82cac3dbdf&output=html&source=placeapi_v2,,,,,,,,,,,,,,,,,,,,0
e9d7cc8c85b90cd7a5c756d3,卓运宫灯厂,公司企业,厂矿,河北省,石家庄市,藁城区,石家庄市藁城区胜利西路,,1,0,114.85321,37.923864,13832196110,enterprise,http://api.map.baidu.com/place/detail?uid=e9d7cc8c85b90cd7a5c756d3&output=html&source=placeapi_v2,,,,,,,,,,,,,,,,,,114.85329130687,37.923867837773,0
418e89f8041a30b988b988da,藁城区百盛宫灯厂,公司企业,厂矿,河北省,石家庄市,藁城区,河北省石家庄市藁城区裕民西路21号,,1,0,114.857061,37.921211,13623317987,enterprise,http://api.map.baidu.com/place/detail?uid=418e89f8041a30b988b988da&output=html&source=placeapi_v2,0.0,,5,,,,,,,,1,,,,,,,,,0
eada6bc693f903a32dfaa791,天天向上宫灯彩旗厂,公司企业,厂矿,河北省,石家庄市,藁城区,藁城区梅花镇屯头村,,1,0,114.852792,37.925082,,enterprise,http://api.map.baidu.com/place/detail?uid=eada6bc693f903a32dfaa791&output=html&source=placeapi_v2,,,,,,,,,,,,,,,,,,,,0
b79dda9cb0e4d3d59fec2b34,荣达宫灯厂,公司企业,厂矿,河北省,石家庄市,藁城区,石家庄市藁城区胜利西路,,1,0,114.851206,37.924973,"13832323313,18633018078",enterprise,http://api.map.baidu.com/place/detail?uid=b79dda9cb0e4d3d59fec2b34&output=html&source=placeapi_v2,,,5.0,,,,,,,,1,,,,,,,,,0
afbec30016e2334707026f03,华子宫灯彩旗厂,公司企业,厂矿,河北省,石家庄市,藁城区,石家庄市藁城区中华北大街梅花学区屯头小学东南侧约100米,,1,0,114.858613,37.928027,,enterprise,http://api.map.baidu.com/place/detail?uid=afbec30016e2334707026f03&output=html&source=placeapi_v2,,,,,,,,,,,,,,,,,,,,0
6e5cda42b522e8c1accb6639,藁城市天意宫灯厂,公司企业,厂矿,河北省,石家庄市,藁城区,石家庄市藁城区中华北大街梅花学区屯头小学东南侧,,1,0,114.858328,37.928714,"13933130945,15931195568",enterprise,http://api.map.baidu.com/place/detail?uid=6e5cda42b522e8c1accb6639&output=html&source=placeapi_v2,,,,,,,,,,,,,,,,,,,,0
566f5e9e05c1de6a9222e0bb,藁城百荣喜庆宫灯厂,公司企业,厂矿,河北省,石家庄市,藁城区,河北省藁城区梅花镇屯头村,,1,0,114.857601,37.919219,,enterprise,http://api.map.baidu.com/place/detail?uid=566f5e9e05c1de6a9222e0bb&output=html&source=placeapi_v2,,,5.0,,,,,,,,2,,,,,,,114.8576032389,37.919350700647,0
64c1f9fcaf3da6f20d3dda56,藁城市灿烂星光旗帜厂,公司企业,厂矿,河北省,石家庄市,藁城区,石家庄市藁城区村南公路与迎宾大道交叉路口往东南约50米,,1,0,114.85824,37.919134,13931991082,enterprise,http://api.map.baidu.com/place/detail?uid=64c1f9fcaf3da6f20d3dda56&output=html&source=placeapi_v2,,,,,,,,,,,,,,,,,,,,0
8fd77a45bcdc3b2a373a71e9,信达宫灯厂,公司企业,厂矿,河北省,石家庄市,藁城区,河北省石家庄市藁城区梅花镇屯头工业区,8fd77a45bcdc3b2a373a71e9,1,0,114.858295,37.935586,15032089168,enterprise,http://api.map.baidu.com/place/detail?uid=8fd77a45bcdc3b2a373a71e9&output=html&source=placeapi_v2,,,,,,,,,,,,,,,,,,,,0
f7c6a5455266e3fed42ce25f,世宇宫灯厂,公司企业,厂矿,河北省,石家庄市,藁城区,河北省石家庄市藁城区,,1,0,114.848948,37.92512,,enterprise,http://api.map.baidu.com/place/detail?uid=f7c6a5455266e3fed42ce25f&output=html&source=placeapi_v2,,,,,,,,,,,,,,,,,,,,0
545a3d40f550dcd8eddfcae2,藁城区屯头艳伟宫灯厂,公司企业,厂矿,河北省,石家庄市,藁城区,河北石家庄市藁城区东平北大街44号,,1,0,114.861361,37.928724,"13703313597,13703396806",enterprise,http://api.map.baidu.com/place/detail?uid=545a3d40f550dcd8eddfcae2&output=html&source=placeapi_v2,,,5.0,,,,,,,,2,,,,,,,114.86135413961,37.928869148813,0
62d3c8fa88652f0e9cf77999,龙凤祥宫灯彩旗厂,公司企业,厂矿,河北省,石家庄市,藁城区,河北省石家庄市藁城区区村东公路,,1,0,114.866361,37.924142,,enterprise,http://api.map.baidu.com/place/detail?uid=62d3c8fa88652f0e9cf77999&output=html&source=placeapi_v2,,,5.0,,,,,,,,3,,,,,,,,,0
01619abeb7369f7e0782c2db,藁城区润祥宫灯彩旗厂,公司企业,厂矿,河北省,石家庄市,藁城区,河北省石家庄市藁城区胜利东路,,1,0,114.864664,37.92511,,enterprise,http://api.map.baidu.com/place/detail?uid=01619abeb7369f7e0782c2db&output=html&source=placeapi_v2,,,5.0,,,,,,,,1,,,,,,,,,0
55b19533414a52ec94031923,藁城市家乐宫灯厂,公司企业,厂矿,河北省,石家庄市,藁城区,河北省石家庄市藁城区区村南公路,,1,0,114.857171,37.916483,,enterprise,http://api.map.baidu.com/place/detail?uid=55b19533414a52ec94031923&output=html&source=placeapi_v2,,,,,,,,,,,,,,,,,,,,0
6c6c9f23255cfe55c2f1cf24,恒丰塑纸灯笼厂,公司企业,厂矿,河北省,石家庄市,藁城区,河北省石家庄市藁城区北大街,,1,0,114.861449,37.928962,,enterprise,http://api.map.baidu.com/place/detail?uid=6c6c9f23255cfe55c2f1cf24&output=html&source=placeapi_v2,,,5.0,,,,,,,,1,,,,,,,,,0
73299514b975e347cae33c76,藁城区金鑫宫灯彩旗厂,公司企业,厂矿,河北省,石家庄市,藁城区,河北省石家庄市藁城区正东路a区106号,,1,0,114.858286,37.914164,,enterprise,http://api.map.baidu.com/place/detail?uid=73299514b975e347cae33c76&output=html&source=placeapi_v2,,,,,,,,,,,,,,,,,,,,0
fd1a5d8e020781ac71455b1c,天圆宫灯厂,公司企业,厂矿,河北省,石家庄市,藁城区,石家庄市藁城区梅花镇屯头村屯头小学北行300米路西(天圆宫灯厂),,1,0,114.85797,37.931966,15032119609,enterprise,http://api.map.baidu.com/place/detail?uid=fd1a5d8e020781ac71455b1c&output=html&source=placeapi_v2,,,,,,,,,,,,,,,,,,,,0
f763a514c585a2cc2b11d1e7,盛元宫灯厂,公司企业,厂矿,河北省,石家庄市,藁城区,石家庄市藁城区创新家家红灯笼厂,,1,0,114.858419,37.933597,,enterprise,http://api.map.baidu.com/place/detail?uid=f763a514c585a2cc2b11d1e7&output=html&source=placeapi_v2,,,,,,,,,,,,,,,,,,,,0
01033ea0ef78bafb82a12e1f,藁城区帅帅宫灯厂,公司企业,厂矿,河北省,石家庄市,藁城区,河北省石家庄市藁城区屯头,,1,0,114.858673,37.933616,13832381421,enterprise,http://api.map.baidu.com/place/detail?uid=01033ea0ef78bafb82a12e1f&output=html&source=placeapi_v2,,,,,,,,,,,,,,,,,,,,0
647d2fe44bf00feb9cf779a3,屯头兴源宫灯厂,公司企业,厂矿,河北省,石家庄市,藁城区,石家庄市藁城区村北公路南段,,1,0,114.858309,37.934353,,enterprise,http://api.map.baidu.com/place/detail?uid=647d2fe44bf00feb9cf779a3&output=html&source=placeapi_v2,,,,,,,,,,,,,,,,,,,,0
f2db8c95ebb2b7e1d618b70b,藁城市盛鑫灯笼厂,公司企业,厂矿,河北省,石家庄市,藁城区,石家庄市藁城区村南公路,,1,0,114.857756,37.915871,13803392264,enterprise,http://api.map.baidu.com/place/detail?uid=f2db8c95ebb2b7e1d618b70b&output=html&source=placeapi_v2,,,,,,,,,,,,,,,,,,,,0
632d72a26af0dff86c476037,京辰宫灯厂,公司企业,厂矿,河北省,石家庄市,藁城区,石家庄市藁城区中华北大街,,1,0,114.861123,37.930392,,enterprise,http://api.map.baidu.com/place/detail?uid=632d72a26af0dff86c476037&output=html&source=placeapi_v2,,,,,,,,,,,,,,,,,,114.86112117575,37.930231753668,0
95103cdfefb81f172806ce27,国储宫灯厂,公司企业,厂矿,河北省,石家庄市,藁城区,石家庄市藁城区809乡道附近,,1,0,114.857235,37.932889,13400118369,enterprise,http://api.map.baidu.com/place/detail?uid=95103cdfefb81f172806ce27&output=html&source=placeapi_v2,,,5.0,,,,,,,,1,,,,,,,,,0
955a65009878d577a6da39e5,鑫东宫灯厂,公司企业,厂矿,河北省,石家庄市,藁城区,河北省石家庄市藁城区区村南公路,,1,0,114.858347,37.911517,,enterprise,http://api.map.baidu.com/place/detail?uid=955a65009878d577a6da39e5&output=html&source=placeapi_v2,,,,,,,,,,,,,,,,,,,,0
2eda78e04eb5b135f33cba7d,藁城市喜洋洋宫灯厂,公司企业,厂矿,河北省,石家庄市,藁城区,石家庄市藁城区村北公路南段,,1,0,114.857746,37.937788,,enterprise,http://api.map.baidu.com/place/detail?uid=2eda78e04eb5b135f33cba7d&output=html&source=placeapi_v2,,,,,,,,,,,,,,,,,,,,0
34f9563bff93aa3858109305,藁城市五宫灯厂,公司企业,厂矿,河北省,石家庄市,藁城区,河北省石家庄市藁城区建设大街,,1,0,114.858406,37.933298,,enterprise,http://api.map.baidu.com/place/detail?uid=34f9563bff93aa3858109305&output=html&source=placeapi_v2,,,,,,,,,,,,,,,,,,,,0
6bfc0cf45978b7cffa0cadcf,康康宫灯厂,公司企业,厂矿,河北省,石家庄市,藁城区,石家庄市藁城区,,1,0,114.858968,37.907442,13803215605,enterprise,http://api.map.baidu.com/place/detail?uid=6bfc0cf45978b7cffa0cadcf&output=html&source=placeapi_v2,,,,,,,,,,,,,,,,,,,,0
0401340826108153adcb6690,藁城区屯头喜庆灯笼厂,公司企业,厂矿,河北省,石家庄市,藁城区,石家庄市藁城区村南公路,,1,0,114.85785,37.915465,13930103127,enterprise,http://api.map.baidu.com/place/detail?uid=0401340826108153adcb6690&output=html&source=placeapi_v2,,,5.0,,,,,,,,1,,,,,,,,,0
5d0b12b5c32f4933a8175a93,屯头艺天宫灯厂,公司企业,厂矿,河北省,石家庄市,藁城区,藁城区梅花镇屯头村,,1,0,114.857993,37.935305,15031122554,enterprise,http://api.map.baidu.com/place/detail?uid=5d0b12b5c32f4933a8175a93&output=html&source=placeapi_v2,,,,,,,,,,,,,,,,,,,,0
11841920451a41b3d6b74e61,友谊宫灯旗帜厂,公司企业,厂矿,河北省,石家庄市,藁城区,石家庄市藁城区,,1,0,114.858667,37.910527,,enterprise,http://api.map.baidu.com/place/detail?uid=11841920451a41b3d6b74e61&output=html&source=placeapi_v2,,,,,,,,,,,,,,,,,,,,0
5d840e9cfd19992972455b76,鸿羽宫灯厂,公司企业,厂矿,河北省,石家庄市,藁城区,石家庄市藁城区村北公路南段,,1,0,114.857639,37.933034,,enterprise,http://api.map.baidu.com/place/detail?uid=5d840e9cfd19992972455b76&output=html&source=placeapi_v2,,,,,,,,,,,,,,,,,,,,0
3ff7706a20b43ebb40024552,藁城区凯乐彩旗宫灯厂,公司企业,厂矿,河北省,石家庄市,藁城区,石家庄市藁城区村北公路南段,,1,0,114.857717,37.939119,,enterprise,http://api.map.baidu.com/place/detail?uid=3ff7706a20b43ebb40024552&output=html&source=placeapi_v2,,,,,,,,,,,,,,,,,,,,0
46613e26dab85311c42ba1de,万家红宫灯厂,公司企业,厂矿,河北省,石家庄市,藁城区,河北省石家庄市藁城区崔家庄北口公交站,,1,0,114.85843,37.910489,,enterprise,http://api.map.baidu.com/place/detail?uid=46613e26dab85311c42ba1de&output=html&source=placeapi_v2,,,,,,,,,,,,,,,,,,,,0
22e9f6929f552f6d97ec8478,藁城区华翔宫灯厂,公司企业,厂矿,河北省,石家庄市,藁城区,河北省石家庄市藁城区梅花学区屯头小学西北,,1,0,114.84422,37.938145,13472121347,enterprise,http://api.map.baidu.com/place/detail?uid=22e9f6929f552f6d97ec8478&output=html&source=placeapi_v2,,,,,,,,,,,1,,,,,,,,,0
1227a0da9ade950e2906ce8e,藁城区喜随缘宫灯厂,公司企业,厂矿,河北省,石家庄市,藁城区,梅花镇崔家庄,,1,0,114.858927,37.908311,13731197622,enterprise,http://api.map.baidu.com/place/detail?uid=1227a0da9ade950e2906ce8e&output=html&source=placeapi_v2,,,5.0,,,,,,,,2,,,,,,,,,0
cbef3275757188ce1288248a,藁城区永进宫灯厂,公司企业,厂矿,河北省,石家庄市,藁城区,石家庄市藁城区,,1,0,114.858913,37.908318,,enterprise,http://api.map.baidu.com/place/detail?uid=cbef3275757188ce1288248a&output=html&source=placeapi_v2,,,,,,,,,,,,,,,,,,,,0
5e5e453975c0e1cfb05c6a2d,灯之梦鸿光灯笼厂,公司企业,厂矿,河北省,石家庄市,藁城区,河北省石家庄市藁城区村北公路南段,,1,0,114.858358,37.935057,18631176041,enterprise,http://api.map.baidu.com/place/detail?uid=5e5e453975c0e1cfb05c6a2d&output=html&source=placeapi_v2,,,,,,,,,,,,,,,,,,,,0
2a31aa4c7d4f4ae55b10931b,辉力羊皮灯笼厂,公司企业,厂矿,河北省,石家庄市,藁城区,石家庄市藁城区村南公路,,1,0,114.858222,37.912269,,enterprise,http://api.map.baidu.com/place/detail?uid=2a31aa4c7d4f4ae55b10931b&output=html&source=placeapi_v2,,,,,,,,,,,,,,,,,,,,0
0ca77c7fa30ff4fa6140a979,通达宫灯厂,公司企业,厂矿,河北省,石家庄市,藁城区,石家庄市藁城区村北公路南段,,1,0,114.857799,37.938259,,enterprise,http://api.map.baidu.com/place/detail?uid=0ca77c7fa30ff4fa6140a979&output=html&source=placeapi_v2,,,,,,,,,,,,,,,,,,,,0
0898e7a6fa36e8fb7369d360,耀东宫灯厂,公司企业,厂矿,河北省,石家庄市,藁城区,河北省石家庄市藁城区崔家庄胜利路9号,,1,0,114.858409,37.908287,18942631991,enterprise,http://api.map.baidu.com/place/detail?uid=0898e7a6fa36e8fb7369d360&output=html&source=placeapi_v2,,,,,,,,,,,,,,,,,,,,0
a2ad724032245d5e30169b2a,明阳宫灯厂,公司企业,厂矿,河北省,石家庄市,藁城区,石家庄市藁城区村北公路南段,,1,0,114.857899,37.937206,13803378951,enterprise,http://api.map.baidu.com/place/detail?uid=a2ad724032245d5e30169b2a&output=html&source=placeapi_v2,,,,,,,,,,,,,,,,,,,,0
3981e203a822873db8bd6392,圣家宫灯彩旗厂,公司企业,厂矿,河北省,石家庄市,藁城区,石家庄市藁城区梅花镇木连城,,1,0,114.852003,37.940855,18931111815,enterprise,http://api.map.baidu.com/place/detail?uid=3981e203a822873db8bd6392&output=html&source=placeapi_v2,,,,,,,,,,,,,,,,,,,,0
ef7a37a6b44364e243d63eac,藁城区建宏宫灯厂,公司企业,厂矿,河北省,石家庄市,藁城区,石家庄市藁城区屯头村,,1,0,114.857556,37.939908,(0311)86514568,enterprise,http://api.map.baidu.com/place/detail?uid=ef7a37a6b44364e243d63eac&output=html&source=placeapi_v2,,,0.0,,,,,,,,1,,,,,,,,,0
69982ab356737ff0b13c819a,藁城区冀鑫角线厂,公司企业,厂矿,河北省,石家庄市,藁城区,河北省石家庄市藁城区X005(藁贾线),,1,0,114.902155,37.933854,18803318361,enterprise,http://api.map.baidu.com/place/detail?uid=69982ab356737ff0b13c819a&output=html&source=placeapi_v2,,,,,,,,,,,,,,,,,,,,0
45cfd6a566406fdcd1f49e39,永久扣板厂,公司企业,厂矿,河北省,石家庄市,藁城区,石家庄市藁城区常安镇南周卦村,,1,0,114.913694,37.937532,(0311)88055555,enterprise,http://api.map.baidu.com/place/detail?uid=45cfd6a566406fdcd1f49e39&output=html&source=placeapi_v2,,,,,,,,,,,,,,,,,,114.91381594495,37.937653127209,0
98d68b858493292c88db7314,藁城区康洁扣板厂,公司企业,厂矿,河北省,石家庄市,藁城区,石家庄市藁城区南周卦幼儿园南侧约140米,,1,0,114.914049,37.93603,(0311)67090755,enterprise,http://api.map.baidu.com/place/detail?uid=98d68b858493292c88db7314&output=html&source=placeapi_v2,,,,,,,,,,,,,,,,,,,,0
43385410ae19bf83deee8be2,聚鑫装饰材料厂,公司企业,厂矿,河北省,石家庄市,藁城区,石家庄藁城区常安镇南周卦村文苑街,,1,0,114.914034,37.936899,13503119456,enterprise,http://api.map.baidu.com/place/detail?uid=43385410ae19bf83deee8be2&output=html&source=placeapi_v2,0.0,,5,,,,,,,,8,,,,,,,,,0
fb7f65322b4f1016b120a8d1,藁城区盛大装饰材料厂,公司企业,厂矿,河北省,石家庄市,藁城区,常安镇南周卦村,,1,0,114.911927,37.937424,(0311)88053789,enterprise,http://api.map.baidu.com/place/detail?uid=fb7f65322b4f1016b120a8d1&output=html&source=placeapi_v2,0.0,,5,,,,,,,,1,,,,,,,,,0
462bfa5aecda01008c55ecc1,鹿泉区诚信机械配件厂,公司企业,厂矿,河北省,石家庄市,鹿泉区,河北省石家庄市鹿泉区南故邑童欣幼儿园北500米,,1,0,114.368829,37.95254,18633896538,enterprise,http://api.map.baidu.com/place/detail?uid=462bfa5aecda01008c55ecc1&output=html&source=placeapi_v2,,,,,,,,,,,,,,,,,,114.36856846449,37.95237608808,0
31e9cfc8065b641794ec8432,河北旭冉涂料有限公司,公司企业,厂矿,河北省,石家庄市,鹿泉区,石家庄市鹿泉区绕城高速(南段)附近,,1,0,114.397166,37.947787,,enterprise,http://api.map.baidu.com/place/detail?uid=31e9cfc8065b641794ec8432&output=html&source=placeapi_v2,,,,,,,,,,,,,,,,,,,,0
7681d0fd982ac6e49e9d6818,石家庄自立橡塑制品厂,公司企业,厂矿,河北省,石家庄市,鹿泉区,富民大街与顺才街交叉口东南50米,,1,0,114.422356,37.965684,,enterprise,http://api.map.baidu.com/place/detail?uid=7681d0fd982ac6e49e9d6818&output=html&source=placeapi_v2,,,,,,,,,,,,,,,,,,,,0
25e2b4a60e50700ca8f0cdfb,企源机械厂,公司企业,厂矿,河北省,石家庄市,鹿泉区,石家庄市鹿泉区龙祥大街与天宁路交叉路口往西南约130米,,1,1,114.433804,37.946431,,enterprise,http://api.map.baidu.com/place/detail?uid=25e2b4a60e50700ca8f0cdfb&output=html&source=placeapi_v2,,,,,,,,,,,,,,,,,,114.43444417579,37.947335645877,1
959d14d0956477ca59f6be9c,石家庄市高中压阀门厂,公司企业,厂矿,河北省,石家庄市,鹿泉区,河北省石家庄市鹿泉区天宁路21号,,1,1,114.457871,37.948116,(0311)82267709,enterprise,http://api.map.baidu.com/place/detail?uid=959d14d0956477ca59f6be9c&output=html&source=placeapi_v2,,,0,,,,,,,,1,,,,,,,114.45810207431,37.948070687522,1
680fb70306369d9c8bb98847,石家庄市溶解乙炔气厂,公司企业,厂矿,河北省,石家庄市,鹿泉区,石家庄市鹿泉区,,1,0,114.486367,37.948516,,enterprise,http://api.map.baidu.com/place/detail?uid=680fb70306369d9c8bb98847&output=html&source=placeapi_v2,,,,,,,,,,,,,,,,,,114.48674083819,37.949144273598,0
0b606a64581dc6f592114c49,媛媛床垫面料间花厂,公司企业,厂矿,河北省,石家庄市,鹿泉区,石家庄市鹿泉区红旗大街石家庄蓝郡绿都东南侧约90米,,1,0,114.471473,37.959856,,enterprise,http://api.map.baidu.com/place/detail?uid=0b606a64581dc6f592114c49&output=html&source=placeapi_v2,,,5,,,,,,,,1,,,,,,,,,0
ef828452d960509a59bbbcde,龙腾门窗厂,公司企业,厂矿,河北省,石家庄市,鹿泉区,河北省石家庄市鹿泉区东方时尚路,,1,0,114.465614,37.96619,"13363880809,13603392390",enterprise,http://api.map.baidu.com/place/detail?uid=ef828452d960509a59bbbcde&output=html&source=placeapi_v2,,,,,,,,,,,,,,,,,,,,0
342de08640df1c5b9ee32113,索蓝喷绘工厂,公司企业,厂矿,河北省,石家庄市,鹿泉区,河北省石家庄市鹿泉区东方时尚路9号,,1,0,114.462999,37.965794,13930158831,enterprise,http://api.map.baidu.com/place/detail?uid=342de08640df1c5b9ee32113&output=html&source=placeapi_v2,,,,,,,,,,,,,,,,,,,,0
098b214c2128d3c20d3ddaf1,平北齿轮厂,公司企业,厂矿,河北省,石家庄市,鹿泉区,寺家庄镇南三环外107国道100米平北村,098b214c2128d3c20d3ddaf1,1,0,114.51119,37.952284,,enterprise,http://api.map.baidu.com/place/detail?uid=098b214c2128d3c20d3ddaf1&output=html&source=placeapi_v2,,,,,,,,,,,,,,,,,,114.51099581459,37.952243921236,0
dc07e18abd9e0db8e60738bf,石家庄市东达印刷厂,公司企业,厂矿,河北省,石家庄市,鹿泉区,寺家庄镇南三环与107国道大北边路口东行500米,,1,1,114.519391,37.947138,,enterprise,http://api.map.baidu.com/place/detail?uid=dc07e18abd9e0db8e60738bf&output=html&source=placeapi_v2,,,,,,,,,,,,,,,,,,,,1
b6ac56c64b7c3bdb59bbbc66,三环厢厂,公司企业,厂矿,河北省,石家庄市,栾城区,河北省石家庄市栾城区S101(南三环),,1,0,114.523779,37.961093,15028139668,enterprise,http://api.map.baidu.com/place/detail?uid=b6ac56c64b7c3bdb59bbbc66&output=html&source=placeapi_v2,,,5.0,,,,,,,,1,,,,,,,,,0
e704ecc85c0c646e88fc06f6,河北聚维达机电工程有限公司风机厂,公司企业,厂矿,河北省,石家庄市,鹿泉区,河北石家庄市鹿泉区高迁东街13号3楼,e704ecc85c0c646e88fc06f6,1,0,114.509029,37.962436,13932166967,enterprise,http://api.map.baidu.com/place/detail?uid=e704ecc85c0c646e88fc06f6&output=html&source=placeapi_v2,,,,,,,,,,,,,,,,,,,,0
680fb70306369d9c8bb98847,石家庄市溶解乙炔气厂,公司企业,厂矿,河北省,石家庄市,鹿泉区,石家庄市鹿泉区,,1,0,114.486367,37.948516,,enterprise,http://api.map.baidu.com/place/detail?uid=680fb70306369d9c8bb98847&output=html&source=placeapi_v2,,,,,,,,,,,,,,,,,,114.48674083819,37.949144273598,0
7a28d7f8fd0707fea0acc442,石家庄市衣典针织服装厂,公司企业,厂矿,河北省,石家庄市,鹿泉区,河北省石家庄市鹿泉区G107(京深线),,1,0,114.509815,37.961752,13703216575,enterprise,http://api.map.baidu.com/place/detail?uid=7a28d7f8fd0707fea0acc442&output=html&source=placeapi_v2,,,,,,,,,,,,,,,,,,,,0
27182f4addd4eaa10f0e6b67,石家庄五一七包装机械厂,公司企业,厂矿,河北省,石家庄市,鹿泉区,石家庄市鹿泉区寺家庄镇石家庄环城水系高迁公园,,1,1,114.509519,37.966484,,enterprise,http://api.map.baidu.com/place/detail?uid=27182f4addd4eaa10f0e6b67&output=html&source=placeapi_v2,,,,,,,,,,,,,,,,,,114.50969075904,37.966253969126,1
67bcb7fffe5a44e181a12eb5,老牛钢化玻璃厂,公司企业,厂矿,河北省,石家庄市,栾城区,河北省石家庄市栾城区楼底镇于底村,,1,0,114.556851,37.956751,,enterprise,http://api.map.baidu.com/place/detail?uid=67bcb7fffe5a44e181a12eb5&output=html&source=placeapi_v2,,,,,,,,,,,,,,,,,,114.55709999922,37.956772486578,0
a0a62191fe3c8b7e593ac893,石家庄市运航机械厂,公司企业,厂矿,河北省,石家庄市,栾城区,河北省石家庄市栾城区楼底镇于底村西道北,,1,0,114.551865,37.950936,,enterprise,http://api.map.baidu.com/place/detail?uid=a0a62191fe3c8b7e593ac893&output=html&source=placeapi_v2,,,4.0,,,,,,,,2,,,,,,,114.55190298834,37.950642524102,0
c40b22626071eedbb6147f74,雅新印刷厂,公司企业,厂矿,河北省,石家庄市,栾城区,河北省石家庄市栾城区栾城镇于底村西,,1,0,114.551589,37.951944,,enterprise,http://api.map.baidu.com/place/detail?uid=c40b22626071eedbb6147f74&output=html&source=placeapi_v2,,,,,,,,,,,,,,,,,,114.55227831655,37.950993183944,0
3884e4717fcada370f0a70a9,海达波特钢琴工厂,公司企业,厂矿,河北省,石家庄市,栾城区,河北省石家庄市栾城区裕翔街165号,,1,0,114.541523,37.940299,4008636836,enterprise,http://api.map.baidu.com/place/detail?uid=3884e4717fcada370f0a70a9&output=html&source=placeapi_v2,,,0,,,,,,,,1,,,,,,,,,0
f0a304727e01dbb3fd0eb01a,新阳复合布厂,公司企业,厂矿,河北省,石家庄市,栾城区,石家庄市栾城区于底小学西北侧约160米,,1,0,114.559098,37.956243,18931115172,enterprise,http://api.map.baidu.com/place/detail?uid=f0a304727e01dbb3fd0eb01a&output=html&source=placeapi_v2,,,,,,,,,,,,,,,,,,,,0
ba383805c2743385b05c6a65,常青织布厂,公司企业,厂矿,河北省,石家庄市,栾城区,河北省石家庄市栾城区楼底镇段同村南车东路北350米,,1,0,114.559027,37.939412,,enterprise,http://api.map.baidu.com/place/detail?uid=ba383805c2743385b05c6a65&output=html&source=placeapi_v2,,,,,,,,,,,,,,,,,,,,0
f4cf2a215f318e70eb56fac7,石家庄市耀森纺织制品厂,公司企业,厂矿,河北省,石家庄市,栾城区,石家庄市栾城区邵家庄村西南角,,1,1,114.557361,37.965522,,enterprise,http://api.map.baidu.com/place/detail?uid=f4cf2a215f318e70eb56fac7&output=html&source=placeapi_v2,,,,,,,,,,,,,,,,,,,,1
da63473679ed074ea1d23097,栾城区方跃无纺制品厂,公司企业,厂矿,河北省,石家庄市,栾城区,石家庄市栾城区冶河镇方西线蔚蓝贝贝幼儿园西北,,1,1,114.568542,37.944721,,enterprise,http://api.map.baidu.com/place/detail?uid=da63473679ed074ea1d23097&output=html&source=placeapi_v2,,,,,,,,,,,,,,,,,,114.56854624756,37.944818412158,1
14623206104df1b84e776e65,万恒保温材料厂,公司企业,厂矿,河北省,石家庄市,栾城区,石家庄市栾城区冶河镇东留营村北,,1,0,114.572894,37.947281,,enterprise,http://api.map.baidu.com/place/detail?uid=14623206104df1b84e776e65&output=html&source=placeapi_v2,,,,,,,,,,,,,,,,,,,,0
d0153955ee24755dce06a45d,石家庄正恒灯箱工艺厂,公司企业,厂矿,河北省,石家庄市,栾城区,石家庄市栾城区于底小学北侧约200米,,1,0,114.561597,37.956722,17734298882,enterprise,http://api.map.baidu.com/place/detail?uid=d0153955ee24755dce06a45d&output=html&source=placeapi_v2,,,5.0,,,,,,,,1,,,,,,,,,0
00cc2e131a92dff22b11d17e,栾城区爱森三轮车厂,公司企业,厂矿,河北省,石家庄市,栾城区,石家庄市栾城区X017昌盛加油站(于底村)西南侧约140米,,1,0,114.570146,37.950442,13290619255,enterprise,http://api.map.baidu.com/place/detail?uid=00cc2e131a92dff22b11d17e&output=html&source=placeapi_v2,,,,,,,,,,,,,,,,,,,,0
d043607361b21f6f16764315,栾城区诚信绣花厂,公司企业,厂矿,河北省,石家庄市,栾城区,石家庄市栾城区冶河镇卓达太阳城,,1,0,114.594068,37.953293,"13784411446,15030103012",enterprise,http://api.map.baidu.com/place/detail?uid=d043607361b21f6f16764315&output=html&source=placeapi_v2,,,,,,,,,,,,,,,,,,,,0
de834d7ffff7a128da2f2854,石家庄市绣花厂,公司企业,厂矿,河北省,石家庄市,栾城区,石家庄市栾城区新元高速,,1,0,114.594076,37.95352,,enterprise,http://api.map.baidu.com/place/detail?uid=de834d7ffff7a128da2f2854&output=html&source=placeapi_v2,,,,,,,,,,,,,,,,,,,,0
7be1a89e98393a176b49f381,中原货架厂,公司企业,厂矿,河北省,石家庄市,栾城区,石家庄市栾城区新元高速欣悦旅馆西侧约220米,,1,0,114.594657,37.955675,"17732309391,18348888926",enterprise,http://api.map.baidu.com/place/detail?uid=7be1a89e98393a176b49f381&output=html&source=placeapi_v2,,,,,,,,,,,,,,,,,,,,0
89c08c2e1aa65e41fe0eb0e4,雅顺拉链厂,公司企业,厂矿,河北省,石家庄市,栾城区,河北省石家庄市栾城区G308,,1,0,114.593799,37.954529,,enterprise,http://api.map.baidu.com/place/detail?uid=89c08c2e1aa65e41fe0eb0e4&output=html&source=placeapi_v2,,,,,,,,,,,,,,,,,,,,0
a7a2bdb01c8b32c6cc06a4a8,农药化肥种子,公司企业,厂矿,河北省,石家庄市,栾城区,石家庄市栾城区中心路石家庄市栾城区第二中学西南侧约80米,a7a2bdb01c8b32c6cc06a4a8,1,0,114.605669,37.948304,18942630340,enterprise,http://api.map.baidu.com/place/detail?uid=a7a2bdb01c8b32c6cc06a4a8&output=html&source=placeapi_v2,,,,,,,,,,,,,,,,,,,,0
14623206104df1b84e776e65,万恒保温材料厂,公司企业,厂矿,河北省,石家庄市,栾城区,石家庄市栾城区冶河镇东留营村北,,1,0,114.572894,37.947281,,enterprise,http://api.map.baidu.com/place/detail?uid=14623206104df1b84e776e65&output=html&source=placeapi_v2,,,,,,,,,,,,,,,,,,,,0
999c49e1166de3fa4d2fdf05,流畅电子厂房,公司企业,厂矿,河北省,石家庄市,栾城区,石家庄市栾城区,,1,0,114.577323,37.938009,,enterprise,http://api.map.baidu.com/place/detail?uid=999c49e1166de3fa4d2fdf05&output=html&source=placeapi_v2,,,,,,,,,,,,,,,,,,,,0
a6240695b9af7ecfc27da2c6,石家庄高新区鑫合盛纸碗厂,公司企业,厂矿,河北省,石家庄市,栾城区,河北省石家庄市栾城区宋北村河北中山日化物流配送信息园区,,1,0,114.666464,37.959881,,enterprise,http://api.map.baidu.com/place/detail?uid=a6240695b9af7ecfc27da2c6&output=html&source=placeapi_v2,,,,,,,,,,,,,,,,,,,,0
1ac0279b781b399eca291534,百顺旗帜厂,公司企业,厂矿,河北省,石家庄市,藁城区,石家庄市藁城区X006,,1,0,114.824572,37.941726,13643112286,enterprise,http://api.map.baidu.com/place/detail?uid=1ac0279b781b399eca291534&output=html&source=placeapi_v2,,,,,,,,,,,,,,,,,,,,0
17709ea8270378be931fc904,石家庄市藁城区伟亮宫灯彩旗厂,公司企业,厂矿,河北省,石家庄市,藁城区,石家庄市藁城区东平南街南营中心卫生院西250米处,,1,0,114.821671,37.954491,"(0311)86514079,13785428751",enterprise,http://api.map.baidu.com/place/detail?uid=17709ea8270378be931fc904&output=html&source=placeapi_v2,0.0,,0.0,,,,,,,,,,,,,,,,,0
cd415f3afee8da6600ff2db8,藁城市苏氏宫灯厂,公司企业,厂矿,河北省,石家庄市,藁城区,石家庄市藁城区,,1,0,114.857559,37.942671,15369158110,enterprise,http://api.map.baidu.com/place/detail?uid=cd415f3afee8da6600ff2db8&output=html&source=placeapi_v2,,,,,,,,,,,,,,,,,,,,0
8fd77a45bcdc3b2a373a71e9,信达宫灯厂,公司企业,厂矿,河北省,石家庄市,藁城区,河北省石家庄市藁城区梅花镇屯头工业区,8fd77a45bcdc3b2a373a71e9,1,0,114.858295,37.935586,15032089168,enterprise,http://api.map.baidu.com/place/detail?uid=8fd77a45bcdc3b2a373a71e9&output=html&source=placeapi_v2,,,,,,,,,,,,,,,,,,,,0
47ce5c830f422946a8175ad6,藁城区永久宫灯厂,公司企业,厂矿,河北省,石家庄市,藁城区,石家庄市藁城区村北公路南段,,1,0,114.857943,37.936585,,enterprise,http://api.map.baidu.com/place/detail?uid=47ce5c830f422946a8175ad6&output=html&source=placeapi_v2,,,0.0,,,,,,,,,,,,,,,,,0
3ff7706a20b43ebb40024552,藁城区凯乐彩旗宫灯厂,公司企业,厂矿,河北省,石家庄市,藁城区,石家庄市藁城区村北公路南段,,1,0,114.857717,37.939119,,enterprise,http://api.map.baidu.com/place/detail?uid=3ff7706a20b43ebb40024552&output=html&source=placeapi_v2,,,,,,,,,,,,,,,,,,,,0
2eda78e04eb5b135f33cba7d,藁城市喜洋洋宫灯厂,公司企业,厂矿,河北省,石家庄市,藁城区,石家庄市藁城区村北公路南段,,1,0,114.857746,37.937788,,enterprise,http://api.map.baidu.com/place/detail?uid=2eda78e04eb5b135f33cba7d&output=html&source=placeapi_v2,,,,,,,,,,,,,,,,,,,,0
647d2fe44bf00feb9cf779a3,屯头兴源宫灯厂,公司企业,厂矿,河北省,石家庄市,藁城区,石家庄市藁城区村北公路南段,,1,0,114.858309,37.934353,,enterprise,http://api.map.baidu.com/place/detail?uid=647d2fe44bf00feb9cf779a3&output=html&source=placeapi_v2,,,,,,,,,,,,,,,,,,,,0
3981e203a822873db8bd6392,圣家宫灯彩旗厂,公司企业,厂矿,河北省,石家庄市,藁城区,石家庄市藁城区梅花镇木连城,,1,0,114.852003,37.940855,18931111815,enterprise,http://api.map.baidu.com/place/detail?uid=3981e203a822873db8bd6392&output=html&source=placeapi_v2,,,,,,,,,,,,,,,,,,,,0
6d3ec43909e5c2408bf15d3f,广硕门窗厂,公司企业,厂矿,河北省,石家庄市,藁城区,石家庄市藁城区河北省农村信用社西侧约150米,,1,0,114.840867,37.942086,,enterprise,http://api.map.baidu.com/place/detail?uid=6d3ec43909e5c2408bf15d3f&output=html&source=placeapi_v2,,,,,,,,,,,,,,,,,,,,0
01033ea0ef78bafb82a12e1f,藁城区帅帅宫灯厂,公司企业,厂矿,河北省,石家庄市,藁城区,河北省石家庄市藁城区屯头,,1,0,114.858673,37.933616,13832381421,enterprise,http://api.map.baidu.com/place/detail?uid=01033ea0ef78bafb82a12e1f&output=html&source=placeapi_v2,,,,,,,,,,,,,,,,,,,,0
ef7a37a6b44364e243d63eac,藁城区建宏宫灯厂,公司企业,厂矿,河北省,石家庄市,藁城区,石家庄市藁城区屯头村,,1,0,114.857556,37.939908,(0311)86514568,enterprise,http://api.map.baidu.com/place/detail?uid=ef7a37a6b44364e243d63eac&output=html&source=placeapi_v2,,,0.0,,,,,,,,1,,,,,,,,,0
f763a514c585a2cc2b11d1e7,盛元宫灯厂,公司企业,厂矿,河北省,石家庄市,藁城区,石家庄市藁城区创新家家红灯笼厂,,1,0,114.858419,37.933597,,enterprise,http://api.map.baidu.com/place/detail?uid=f763a514c585a2cc2b11d1e7&output=html&source=placeapi_v2,,,,,,,,,,,,,,,,,,,,0
0ca77c7fa30ff4fa6140a979,通达宫灯厂,公司企业,厂矿,河北省,石家庄市,藁城区,石家庄市藁城区村北公路南段,,1,0,114.857799,37.938259,,enterprise,http://api.map.baidu.com/place/detail?uid=0ca77c7fa30ff4fa6140a979&output=html&source=placeapi_v2,,,,,,,,,,,,,,,,,,,,0
22e9f6929f552f6d97ec8478,藁城区华翔宫灯厂,公司企业,厂矿,河北省,石家庄市,藁城区,河北省石家庄市藁城区梅花学区屯头小学西北,,1,0,114.84422,37.938145,13472121347,enterprise,http://api.map.baidu.com/place/detail?uid=22e9f6929f552f6d97ec8478&output=html&source=placeapi_v2,,,,,,,,,,,1,,,,,,,,,0
5c97bc7e61fb32aeacee7ae4,藁城区召龙宫灯厂,公司企业,厂矿,河北省,石家庄市,藁城区,河北省石家庄市藁城区梅花镇木连城村和平路东45号,,1,0,114.844991,37.94346,15200030511,enterprise,http://api.map.baidu.com/place/detail?uid=5c97bc7e61fb32aeacee7ae4&output=html&source=placeapi_v2,,,,,,,,,,,,,,,,,,,,0
5d0b12b5c32f4933a8175a93,屯头艺天宫灯厂,公司企业,厂矿,河北省,石家庄市,藁城区,藁城区梅花镇屯头村,,1,0,114.857993,37.935305,15031122554,enterprise,http://api.map.baidu.com/place/detail?uid=5d0b12b5c32f4933a8175a93&output=html&source=placeapi_v2,,,,,,,,,,,,,,,,,,,,0
fd1a5d8e020781ac71455b1c,天圆宫灯厂,公司企业,厂矿,河北省,石家庄市,藁城区,石家庄市藁城区梅花镇屯头村屯头小学北行300米路西(天圆宫灯厂),,1,0,114.85797,37.931966,15032119609,enterprise,http://api.map.baidu.com/place/detail?uid=fd1a5d8e020781ac71455b1c&output=html&source=placeapi_v2,,,,,,,,,,,,,,,,,,,,0
a2ad724032245d5e30169b2a,明阳宫灯厂,公司企业,厂矿,河北省,石家庄市,藁城区,石家庄市藁城区村北公路南段,,1,0,114.857899,37.937206,13803378951,enterprise,http://api.map.baidu.com/place/detail?uid=a2ad724032245d5e30169b2a&output=html&source=placeapi_v2,,,,,,,,,,,,,,,,,,,,0
8fdefcbb7a94eafe5d0d02d0,秦氏宫灯厂,公司企业,厂矿,河北省,石家庄市,藁城区,石家庄市藁城区东大街与中华东路交叉路口往东约100米,,1,0,114.851579,37.961771,,enterprise,http://api.map.baidu.com/place/detail?uid=8fdefcbb7a94eafe5d0d02d0&output=html&source=placeapi_v2,,,0.0,,,,,,,,1,,,,,,,,,0
34f9563bff93aa3858109305,藁城市五宫灯厂,公司企业,厂矿,河北省,石家庄市,藁城区,河北省石家庄市藁城区建设大街,,1,0,114.858406,37.933298,,enterprise,http://api.map.baidu.com/place/detail?uid=34f9563bff93aa3858109305&output=html&source=placeapi_v2,,,,,,,,,,,,,,,,,,,,0
d5e4204e550ddb3b2db96daa,藁城区紫金宫灯厂,公司企业,厂矿,河北省,石家庄市,藁城区,石家庄市藁城区河北省农村信用社东南侧约50米,,1,0,114.842975,37.942164,15081448756,enterprise,http://api.map.baidu.com/place/detail?uid=d5e4204e550ddb3b2db96daa&output=html&source=placeapi_v2,,,5.0,,,,,,,,2,,,,,,,,,0
95103cdfefb81f172806ce27,国储宫灯厂,公司企业,厂矿,河北省,石家庄市,藁城区,石家庄市藁城区809乡道附近,,1,0,114.857235,37.932889,13400118369,enterprise,http://api.map.baidu.com/place/detail?uid=95103cdfefb81f172806ce27&output=html&source=placeapi_v2,,,5.0,,,,,,,,1,,,,,,,,,0
5e5e453975c0e1cfb05c6a2d,灯之梦鸿光灯笼厂,公司企业,厂矿,河北省,石家庄市,藁城区,河北省石家庄市藁城区村北公路南段,,1,0,114.858358,37.935057,18631176041,enterprise,http://api.map.baidu.com/place/detail?uid=5e5e453975c0e1cfb05c6a2d&output=html&source=placeapi_v2,,,,,,,,,,,,,,,,,,,,0
5d840e9cfd19992972455b76,鸿羽宫灯厂,公司企业,厂矿,河北省,石家庄市,藁城区,石家庄市藁城区村北公路南段,,1,0,114.857639,37.933034,,enterprise,http://api.map.baidu.com/place/detail?uid=5d840e9cfd19992972455b76&output=html&source=placeapi_v2,,,,,,,,,,,,,,,,,,,,0
83c5b4008d11959b32870a19,盛世之星旗帜厂,公司企业,厂矿,河北省,石家庄市,藁城区,河北省石家庄藁城区梅花镇木连城村,,1,0,114.83858,37.94216,13315118686,enterprise,http://api.map.baidu.com/place/detail?uid=83c5b4008d11959b32870a19&output=html&source=placeapi_v2,,,,,,,,,,,,,,,,,,114.83851145128,37.942254692631,0
6208143ea68de461100daa9d,木连城宏达制袋厂,公司企业,厂矿,河北省,石家庄市,藁城区,石家庄市藁城区梅花镇木连城村东宁南街122号,,1,0,114.843006,37.938485,15076310168,enterprise,http://api.map.baidu.com/place/detail?uid=6208143ea68de461100daa9d&output=html&source=placeapi_v2,,,,,,,,,,,,,,,,,,114.8428603396,37.938476340221,0
447c390e5d4acd0697031963,剧宗江宫灯厂,公司企业,厂矿,河北省,石家庄市,藁城区,河北省石家庄市藁城区和平路6号,,1,0,114.839266,37.943007,13933115894,enterprise,http://api.map.baidu.com/place/detail?uid=447c390e5d4acd0697031963&output=html&source=placeapi_v2,,,,,,,,,,,,,,,,,,,,0
313b58b570d473f7c5effb0b,江山门业厂,公司企业,厂矿,河北省,石家庄市,藁城区,石家庄市藁城区常安路与藁贾路交汇处,,1,0,114.897755,37.941495,13931177861,enterprise,http://api.map.baidu.com/place/detail?uid=313b58b570d473f7c5effb0b&output=html&source=placeapi_v2,,,,,,,,,,,,,,,,,,,,0
c03c3968621cad93471a3276,鑫兴扣板厂,公司企业,厂矿,河北省,石家庄市,藁城区,河北省石家庄市藁城区常安路,,1,0,114.906459,37.94267,(0311)88379991,enterprise,http://api.map.baidu.com/place/detail?uid=c03c3968621cad93471a3276&output=html&source=placeapi_v2,,,0.0,,,,,,,,1,,,,,,,,,0
45cfd6a566406fdcd1f49e39,永久扣板厂,公司企业,厂矿,河北省,石家庄市,藁城区,石家庄市藁城区常安镇南周卦村,,1,0,114.913694,37.937532,(0311)88055555,enterprise,http://api.map.baidu.com/place/detail?uid=45cfd6a566406fdcd1f49e39&output=html&source=placeapi_v2,,,,,,,,,,,,,,,,,,114.91381594495,37.937653127209,0
69982ab356737ff0b13c819a,藁城区冀鑫角线厂,公司企业,厂矿,河北省,石家庄市,藁城区,河北省石家庄市藁城区X005(藁贾线),,1,0,114.902155,37.933854,18803318361,enterprise,http://api.map.baidu.com/place/detail?uid=69982ab356737ff0b13c819a&output=html&source=placeapi_v2,,,,,,,,,,,,,,,,,,,,0
a98c03a5a2c933a8b426557f,藁城区白露东升拔丝笼具厂,公司企业,厂矿,河北省,石家庄市,藁城区,河北省石家庄市藁城区藁贾线永会灯饰城北260米路东,,1,0,114.890009,37.952818,,enterprise,http://api.map.baidu.com/place/detail?uid=a98c03a5a2c933a8b426557f&output=html&source=placeapi_v2,,,5.0,,,,,,,,2,,,,,,,,,0
cf4be721a273e61f213bf2d5,振兴扣板厂,公司企业,厂矿,河北省,石家庄市,藁城区,石家庄市藁城区南周卦幼儿园东侧约200米,,1,0,114.91626,37.937763,13703212736,enterprise,http://api.map.baidu.com/place/detail?uid=cf4be721a273e61f213bf2d5&output=html&source=placeapi_v2,,,,,,,,,,,,,,,,,,114.91624689081,37.937883371755,0
39d43f820b6d7e85a8059d20,宏牧饲料厂,公司企业,厂矿,河北省,石家庄市,藁城区,河北省石家庄市藁城区X005(藁贾线),,1,0,114.88943,37.955023,(0311)88372668,enterprise,http://api.map.baidu.com/place/detail?uid=39d43f820b6d7e85a8059d20&output=html&source=placeapi_v2,,,,,,,,,,,,,,,,,,,,0
2068b55716ee940d7ec876f8,富邦饲料厂,公司企业,厂矿,河北省,石家庄市,藁城区,石家庄市藁城区藁贾路弘艺幼儿园南侧约170米,,1,0,114.887026,37.958808,,enterprise,http://api.map.baidu.com/place/detail?uid=2068b55716ee940d7ec876f8&output=html&source=placeapi_v2,,,,,,,,,,,,,,,,,,114.8870281773,37.958732259739,0
98d68b858493292c88db7314,藁城区康洁扣板厂,公司企业,厂矿,河北省,石家庄市,藁城区,石家庄市藁城区南周卦幼儿园南侧约140米,,1,0,114.914049,37.93603,(0311)67090755,enterprise,http://api.map.baidu.com/place/detail?uid=98d68b858493292c88db7314&output=html&source=placeapi_v2,,,,,,,,,,,,,,,,,,,,0
002112fa1b3d8d37a8f729b9,石家庄东泰电气设备厂,公司企业,厂矿,河北省,石家庄市,藁城区,石家庄市藁城区向阳路与振兴大街交叉路口往西北约200米,,1,0,114.919802,37.95231,,enterprise,http://api.map.baidu.com/place/detail?uid=002112fa1b3d8d37a8f729b9&output=html&source=placeapi_v2,,,5.0,,,,,,,,1,,,,,,,,,0
c7f096b2fa744bfe2a02e1bd,石家庄昊星电力设备厂,公司企业,厂矿,河北省,石家庄市,藁城区,河北省石家庄市藁城区常安镇北周卦村,,1,0,114.921165,37.953955,,enterprise,http://api.map.baidu.com/place/detail?uid=c7f096b2fa744bfe2a02e1bd&output=html&source=placeapi_v2,,,0.0,,,,,,,,,,,,,,,,,0
43385410ae19bf83deee8be2,聚鑫装饰材料厂,公司企业,厂矿,河北省,石家庄市,藁城区,石家庄藁城区常安镇南周卦村文苑街,,1,0,114.914034,37.936899,13503119456,enterprise,http://api.map.baidu.com/place/detail?uid=43385410ae19bf83deee8be2&output=html&source=placeapi_v2,0.0,,5,,,,,,,,8,,,,,,,,,0
fb7f65322b4f1016b120a8d1,藁城区盛大装饰材料厂,公司企业,厂矿,河北省,石家庄市,藁城区,常安镇南周卦村,,1,0,114.911927,37.937424,(0311)88053789,enterprise,http://api.map.baidu.com/place/detail?uid=fb7f65322b4f1016b120a8d1&output=html&source=placeapi_v2,0.0,,5,,,,,,,,1,,,,,,,,,0
ea3576386030cc9b35b06c99,石家庄高桥电缆有限公司(厂区),公司企业,厂矿,河北省,石家庄市,鹿泉区,石家庄市鹿泉区裕华路奥华蓝郡西北侧约140米,,1,0,114.389325,37.977509,,enterprise,http://api.map.baidu.com/place/detail?uid=ea3576386030cc9b35b06c99&output=html&source=placeapi_v2,,,,,,,,,,,,,,,,,,,,0
3e5d8b32c038a7067702695d,太和建材加工厂,公司企业,厂矿,河北省,石家庄市,鹿泉区,岭底支线北50米,,1,0,114.358171,37.978523,,enterprise,http://api.map.baidu.com/place/detail?uid=3e5d8b32c038a7067702695d&output=html&source=placeapi_v2,,,,,,,,,,,,,,,,,,,,0
764672e5948afaad94ec8447,铜冶冷拔钢材厂,公司企业,厂矿,河北省,石家庄市,鹿泉区,河北省石家庄市鹿泉区红旗路6号,764672e5948afaad94ec8447,1,0,114.396868,37.968794,(0311)82237478,enterprise,http://api.map.baidu.com/place/detail?uid=764672e5948afaad94ec8447&output=html&source=placeapi_v2,,,,,,,,,,,,,,,,,,114.39756323942,37.968536312248,0
2b5b1d02533b7722b23c8192,明华建材加工厂,公司企业,厂矿,河北省,石家庄市,鹿泉区,石家庄市鹿泉区衡井线鹿泉区铜冶镇东西任村小学东侧约210米,,1,0,114.35733,37.978691,,enterprise,http://api.map.baidu.com/place/detail?uid=2b5b1d02533b7722b23c8192&output=html&source=placeapi_v2,,,,,,,,,,,,,,,,,,,,0
aab050a57f4bdf8e76e5b66b,鹿泉区铜冶模具场,公司企业,厂矿,河北省,石家庄市,鹿泉区,石家庄市鹿泉区衡井线鹿泉区铜冶镇东西任村小学东侧约230米,,1,0,114.357517,37.97866,,enterprise,http://api.map.baidu.com/place/detail?uid=aab050a57f4bdf8e76e5b66b&output=html&source=placeapi_v2,,,,,,,,,,,,,,,,,,,,0
7b57e5eed6df76a288db73ed,君乐宝乳业660工厂,公司企业,厂矿,河北省,石家庄市,鹿泉区,河北省石家庄市鹿泉区碧水街9号,,1,0,114.402963,37.970588,,enterprise,http://api.map.baidu.com/place/detail?uid=7b57e5eed6df76a288db73ed&output=html&source=placeapi_v2,,,,,,,,,,,,,,,,,,114.40313340192,37.970595525775,0
7681d0fd982ac6e49e9d6818,石家庄自立橡塑制品厂,公司企业,厂矿,河北省,石家庄市,鹿泉区,富民大街与顺才街交叉口东南50米,,1,0,114.422356,37.965684,,enterprise,http://api.map.baidu.com/place/detail?uid=7681d0fd982ac6e49e9d6818&output=html&source=placeapi_v2,,,,,,,,,,,,,,,,,,,,0
8612b80fecd79580d22dd6af,中国南车集团石家庄车辆厂铜冶厂区,公司企业,厂矿,河北省,石家庄市,鹿泉区,河北省石家庄市鹿泉区石铜路593号,8612b80fecd79580d22dd6af,1,0,114.402675,37.976655,,enterprise,http://api.map.baidu.com/place/detail?uid=8612b80fecd79580d22dd6af&output=html&source=placeapi_v2,,,,,,,,,,,,,,,,,,,,0
ae5ecde4d32cb8ae39e4a65e,石家庄市金地纸制品包装厂,公司企业,厂矿,河北省,石家庄市,鹿泉区,河北省石家庄市鹿泉区永壁南街1号,ae5ecde4d32cb8ae39e4a65e,1,0,114.440133,37.982769,,enterprise,http://api.map.baidu.com/place/detail?uid=ae5ecde4d32cb8ae39e4a65e&output=html&source=placeapi_v2,,,0.0,,,,,,,,,,,,,,,,,0
a8caa13c855b696efe0eb049,石家庄华朗路灯厂,公司企业,厂矿,河北省,石家庄市,鹿泉区,河北省石家庄市鹿泉区石铜路河北(福建)中小企业科技园1号楼,,1,0,114.423335,37.990459,,enterprise,http://api.map.baidu.com/place/detail?uid=a8caa13c855b696efe0eb049&output=html&source=placeapi_v2,,,5.0,,,,,,,,1,,,,,,,,,0
710a81258fd32634a0acc499,石家庄鹿泉区路灯厂太阳能路灯厂,公司企业,厂矿,河北省,石家庄市,鹿泉区,河北省石家庄市鹿泉区S392(石铜路),,1,0,114.423587,37.990512,(0311)80766006,enterprise,http://api.map.baidu.com/place/detail?uid=710a81258fd32634a0acc499&output=html&source=placeapi_v2,,,,,,,,,,,,,,,,,,114.42331675649,37.990776033327,0
9dddc1645b3c5e77f02d83c7,恒雪面粉厂,公司企业,厂矿,河北省,石家庄市,鹿泉区,石家庄市鹿泉区,,1,0,114.454749,37.977928,,enterprise,http://api.map.baidu.com/place/detail?uid=9dddc1645b3c5e77f02d83c7&output=html&source=placeapi_v2,,,5,,,,,,,,1,,,,,,,114.4547766614,37.977344514942,0
ef828452d960509a59bbbcde,龙腾门窗厂,公司企业,厂矿,河北省,石家庄市,鹿泉区,河北省石家庄市鹿泉区东方时尚路,,1,0,114.465614,37.96619,"13363880809,13603392390",enterprise,http://api.map.baidu.com/place/detail?uid=ef828452d960509a59bbbcde&output=html&source=placeapi_v2,,,,,,,,,,,,,,,,,,,,0
342de08640df1c5b9ee32113,索蓝喷绘工厂,公司企业,厂矿,河北省,石家庄市,鹿泉区,河北省石家庄市鹿泉区东方时尚路9号,,1,0,114.462999,37.965794,13930158831,enterprise,http://api.map.baidu.com/place/detail?uid=342de08640df1c5b9ee32113&output=html&source=placeapi_v2,,,,,,,,,,,,,,,,,,,,0
64861837729fc128f6c59cc8,鹿泉区福瑞达面粉厂,公司企业,厂矿,河北省,石家庄市,鹿泉区,石家庄市鹿泉区铜良路与永寺路交叉路口往北约60米,,1,0,114.451286,37.96651,13582313837,enterprise,http://api.map.baidu.com/place/detail?uid=64861837729fc128f6c59cc8&output=html&source=placeapi_v2,,,5.0,,,,,,,,4,,,,,,,114.45099784764,37.966977336474,0
ed2335533d34a9b18bb98833,岗上面粉厂,公司企业,厂矿,河北省,石家庄市,鹿泉区,河北石家庄市鹿泉区永寺路9号,ed2335533d34a9b18bb98833,1,0,114.451057,37.966982,13582313837,enterprise,http://api.map.baidu.com/place/detail?uid=ed2335533d34a9b18bb98833&output=html&source=placeapi_v2,,,0,,,,,,,,1,,,,,,,,,0
0b606a64581dc6f592114c49,媛媛床垫面料间花厂,公司企业,厂矿,河北省,石家庄市,鹿泉区,石家庄市鹿泉区红旗大街石家庄蓝郡绿都东南侧约90米,,1,0,114.471473,37.959856,,enterprise,http://api.map.baidu.com/place/detail?uid=0b606a64581dc6f592114c49&output=html&source=placeapi_v2,,,5,,,,,,,,1,,,,,,,,,0
760521d919534eb10ab93a1a,三力弹簧厂,公司企业,厂矿,河北省,石家庄市,鹿泉区,石家庄市鹿泉区一号干路107陶瓷(仓储)批发市场西侧约240米,760521d919534eb10ab93a1a,1,0,114.503848,37.972401,,enterprise,http://api.map.baidu.com/place/detail?uid=760521d919534eb10ab93a1a&output=html&source=placeapi_v2,,,,,,,,,,,,,,,,,,114.50385398934,37.972210901316,0
a4f3eacc422cf65872210b26,星科真石漆厂,公司企业,厂矿,河北省,石家庄市,鹿泉区,河北省石家庄市鹿泉区寺家庄镇胜利南大街107国道河盐集团创业展业园8号,a4f3eacc422cf65872210b26,1,0,114.505171,37.97197,,enterprise,http://api.map.baidu.com/place/detail?uid=a4f3eacc422cf65872210b26&output=html&source=placeapi_v2,,,4.0,,,,,,,,1,,,,,,,114.50510000556,37.971815089623,0
720ecceddbf80910130daac9,星科保温一体板厂,公司企业,厂矿,河北省,石家庄市,鹿泉区,石家庄市鹿泉区寺家庄镇G107国道旁陶瓷城对面,720ecceddbf80910130daac9,1,0,114.505171,37.97197,15831156628,enterprise,http://api.map.baidu.com/place/detail?uid=720ecceddbf80910130daac9&output=html&source=placeapi_v2,,,,,,,,,,,,,,,,,,114.50510000556,37.971815089623,0
a464aee249b8df9a5bbbbc39,石家庄市裕华区南位炒货加工厂,公司企业,厂矿,河北省,石家庄市,裕华区,石家庄市裕华区科大学苑街嘉华园东侧约140米,a464aee249b8df9a5bbbbc39,1,0,114.517438,37.978024,,enterprise,http://api.map.baidu.com/place/detail?uid=a464aee249b8df9a5bbbbc39&output=html&source=placeapi_v2,,,,,,,,,,,,,,,,,,114.51741088822,37.978253428492,0
339382f96fd42e839f09f7d0,老张彩钢围挡厂,公司企业,厂矿,河北省,石家庄市,裕华区,河北省石家庄市裕华区胜利南街369号,339382f96fd42e839f09f7d0,1,1,114.504632,37.98287,"13073108334,18348886288",enterprise,http://api.map.baidu.com/place/detail?uid=339382f96fd42e839f09f7d0&output=html&source=placeapi_v2,,,,,,,,,,,,,,,,,,114.50435886938,37.982826237345,1
77cb640ac54d7a0e3d9a5edb,河北太行机械厂劳动服务公司印刷厂,公司企业,厂矿,河北省,石家庄市,栾城区,石家庄市栾城区六加一幼儿园东北侧约250米,,1,1,114.52813,37.970821,,enterprise,http://api.map.baidu.com/place/detail?uid=77cb640ac54d7a0e3d9a5edb&output=html&source=placeapi_v2,,,,,,,,,,,,,,,,,,,,1
6fa0b63225019025ca09f04a,京鑫建设集团有限公司钢结构加工厂,公司企业,厂矿,河北省,石家庄市,桥西区,河北省石家庄市桥西区永庆路东100米,6fa0b63225019025ca09f04a,1,0,114.503424,37.978105,,enterprise,http://api.map.baidu.com/place/detail?uid=6fa0b63225019025ca09f04a&output=html&source=placeapi_v2,,,,,,,,,,,,,,,,,,114.50331574983,37.978103897581,0
83e1b8e2ed3cf139fd0eb0f3,广大卷闸厂,公司企业,厂矿,河北省,石家庄市,桥西区,天安路海洋石油石南站西南450米,83e1b8e2ed3cf139fd0eb0f3,1,0,114.502072,37.983075,15731178887,enterprise,http://api.map.baidu.com/place/detail?uid=83e1b8e2ed3cf139fd0eb0f3&output=html&source=placeapi_v2,,,,,,,,,,,,,,,,,,114.50207885411,37.98303641533,0
b533ea4a14a567414f6d4674,石家庄市晶雪冷冻冷藏厂,公司企业,厂矿,河北省,石家庄市,裕华区,河北省石家庄市裕华区胜利大街369号,b533ea4a14a567414f6d4674,1,1,114.505048,37.984541,(0311)88705699,enterprise,http://api.map.baidu.com/place/detail?uid=b533ea4a14a567414f6d4674&output=html&source=placeapi_v2,,,,,,,,,,,,,,,,,,114.50388418408,37.984426416457,1
b6ac56c64b7c3bdb59bbbc66,三环厢厂,公司企业,厂矿,河北省,石家庄市,栾城区,河北省石家庄市栾城区S101(南三环),,1,0,114.523779,37.961093,15028139668,enterprise,http://api.map.baidu.com/place/detail?uid=b6ac56c64b7c3bdb59bbbc66&output=html&source=placeapi_v2,,,5.0,,,,,,,,1,,,,,,,,,0
27182f4addd4eaa10f0e6b67,石家庄五一七包装机械厂,公司企业,厂矿,河北省,石家庄市,鹿泉区,石家庄市鹿泉区寺家庄镇石家庄环城水系高迁公园,,1,1,114.509519,37.966484,,enterprise,http://api.map.baidu.com/place/detail?uid=27182f4addd4eaa10f0e6b67&output=html&source=placeapi_v2,,,,,,,,,,,,,,,,,,114.50969075904,37.966253969126,1
e704ecc85c0c646e88fc06f6,河北聚维达机电工程有限公司风机厂,公司企业,厂矿,河北省,石家庄市,鹿泉区,河北石家庄市鹿泉区高迁东街13号3楼,e704ecc85c0c646e88fc06f6,1,0,114.509029,37.962436,13932166967,enterprise,http://api.map.baidu.com/place/detail?uid=e704ecc85c0c646e88fc06f6&output=html&source=placeapi_v2,,,,,,,,,,,,,,,,,,,,0
7a28d7f8fd0707fea0acc442,石家庄市衣典针织服装厂,公司企业,厂矿,河北省,石家庄市,鹿泉区,河北省石家庄市鹿泉区G107(京深线),,1,0,114.509815,37.961752,13703216575,enterprise,http://api.map.baidu.com/place/detail?uid=7a28d7f8fd0707fea0acc442&output=html&source=placeapi_v2,,,,,,,,,,,,,,,,,,,,0
9038d49d32a6a0444e5547a4,河北科技大学印刷厂,公司企业,厂矿,河北省,石家庄市,裕华区,河北省石家庄市裕华区裕翔街26号,,1,0,114.525315,37.979715,,enterprise,http://api.map.baidu.com/place/detail?uid=9038d49d32a6a0444e5547a4&output=html&source=placeapi_v2,,,,,,,,,,,,,,,,,,,,0
041396df5736cb98f72310cc,栾城染布厂,公司企业,厂矿,河北省,石家庄市,栾城区,石家庄市栾城区东大街与南环路交叉路口往西南约200米,,1,0,114.569312,37.979796,,enterprise,http://api.map.baidu.com/place/detail?uid=041396df5736cb98f72310cc&output=html&source=placeapi_v2,,,,,,,,,,,,,,,,,,,,0
f7dfb9a56cad10423be4a63a,纯缅世家制衣厂,公司企业,厂矿,河北省,石家庄市,栾城区,石家庄市栾城区X056育才幼儿园(工业二路)西侧约230米,f7dfb9a56cad10423be4a63a,1,0,114.558404,37.970674,,enterprise,http://api.map.baidu.com/place/detail?uid=f7dfb9a56cad10423be4a63a&output=html&source=placeapi_v2,,,0,,,,,,,,1,,,,,,,114.55841326026,37.970693444627,0
67bcb7fffe5a44e181a12eb5,老牛钢化玻璃厂,公司企业,厂矿,河北省,石家庄市,栾城区,河北省石家庄市栾城区楼底镇于底村,,1,0,114.556851,37.956751,,enterprise,http://api.map.baidu.com/place/detail?uid=67bcb7fffe5a44e181a12eb5&output=html&source=placeapi_v2,,,,,,,,,,,,,,,,,,114.55709999922,37.956772486578,0
b83e4d6925d17d4fc356ace7,石家庄市栾城区腾祥制衣厂,公司企业,厂矿,河北省,石家庄市,栾城区,河北省石家庄市栾城区X017,,1,0,114.569308,37.973825,,enterprise,http://api.map.baidu.com/place/detail?uid=b83e4d6925d17d4fc356ace7&output=html&source=placeapi_v2,,,5.0,,,,,,,,2,,,,,,,,,0
f4cf2a215f318e70eb56fac7,石家庄市耀森纺织制品厂,公司企业,厂矿,河北省,石家庄市,栾城区,石家庄市栾城区邵家庄村西南角,,1,1,114.557361,37.965522,,enterprise,http://api.map.baidu.com/place/detail?uid=f4cf2a215f318e70eb56fac7&output=html&source=placeapi_v2,,,,,,,,,,,,,,,,,,,,1
4d894a201463ccc4f02d8363,石家庄市旭格那家居制品厂,公司企业,厂矿,河北省,石家庄市,裕华区,河北省石家庄市裕华区308国道110号,,1,0,114.560936,37.978296,,enterprise,http://api.map.baidu.com/place/detail?uid=4d894a201463ccc4f02d8363&output=html&source=placeapi_v2,,,0.0,,,,,,,,1,,,,,,,,,0
65627e58c6ca5440e856fa13,栾城区源丰纸盒加工厂,公司企业,厂矿,河北省,石家庄市,栾城区,西许营村西,,1,1,114.564897,37.974257,,enterprise,http://api.map.baidu.com/place/detail?uid=65627e58c6ca5440e856fa13&output=html&source=placeapi_v2,,,,,,,,,,,,,,,,,,114.5650967544,37.974286126192,1
6406525468683ec1cd04ef6f,石家庄市宏泽卫生用品厂,公司企业,厂矿,河北省,石家庄市,栾城区,河北省石家庄市栾城区X056,,1,0,114.563199,37.969079,,enterprise,http://api.map.baidu.com/place/detail?uid=6406525468683ec1cd04ef6f&output=html&source=placeapi_v2,,,,,,,,,,,,,,,,,,,,0
f8f6cc6ada77d3a2a21de96a,双利帆布厂,公司企业,厂矿,河北省,石家庄市,栾城区,石家庄市栾城区景观路西许营加油站西南侧约190米,,1,0,114.567088,37.975772,,enterprise,http://api.map.baidu.com/place/detail?uid=f8f6cc6ada77d3a2a21de96a&output=html&source=placeapi_v2,,,,,,,,,,,,,,,,,,,,0
2c1f0f5fcef49c3e2bd7abd5,长虹帆布厂,公司企业,厂矿,河北省,石家庄市,栾城区,石家庄市栾城区石栾大街与繁荣路交叉路口往西约150米,2c1f0f5fcef49c3e2bd7abd5,1,1,114.570451,37.973351,,enterprise,http://api.map.baidu.com/place/detail?uid=2c1f0f5fcef49c3e2bd7abd5&output=html&source=placeapi_v2,,,,,,,,,,,,,,,,,,114.57062494717,37.973850896091,1
f0a304727e01dbb3fd0eb01a,新阳复合布厂,公司企业,厂矿,河北省,石家庄市,栾城区,石家庄市栾城区于底小学西北侧约160米,,1,0,114.559098,37.956243,18931115172,enterprise,http://api.map.baidu.com/place/detail?uid=f0a304727e01dbb3fd0eb01a&output=html&source=placeapi_v2,,,,,,,,,,,,,,,,,,,,0
9ec50c7a1c9f643f901fc987,奥顺灯箱厂,公司企业,厂矿,河北省,石家庄市,栾城区,河北省石家庄市栾城区G308(青石线),,1,0,114.570196,37.972933,"(0311)85435565,15100182988",enterprise,http://api.map.baidu.com/place/detail?uid=9ec50c7a1c9f643f901fc987&output=html&source=placeapi_v2,,,,,,,,,,,,,,,,,,,,0
94a6780e66139d2aadcb6677,石家庄栾城区腾润制衣厂(锦绣枝星),公司企业,厂矿,河北省,石家庄市,栾城区,河北省石家庄市栾城区富强街与南开路交叉路口西南侧,,1,0,114.563967,37.966927,18932918082,enterprise,http://api.map.baidu.com/place/detail?uid=94a6780e66139d2aadcb6677&output=html&source=placeapi_v2,,,,,,,,,,,,,,,,,,114.56409412777,37.966937309831,0
e87ae73ddcba3126b54f5488,通用帆布厂,公司企业,厂矿,河北省,石家庄市,栾城区,栾城区楼底镇段高路好日子家电西100米,e87ae73ddcba3126b54f5488,1,0,114.572897,37.971185,,enterprise,http://api.map.baidu.com/place/detail?uid=e87ae73ddcba3126b54f5488&output=html&source=placeapi_v2,,,,,,,,,,,,,,,,,,114.57301421615,37.97131091156,0
67483218879b69460c0e6b26,新桥篷布厂,公司企业,厂矿,河北省,石家庄市,栾城区,石家庄市栾城区X017梦扬幼儿园西侧约140米,67483218879b69460c0e6b26,1,0,114.568237,37.975812,13513372535,enterprise,http://api.map.baidu.com/place/detail?uid=67483218879b69460c0e6b26&output=html&source=placeapi_v2,,,0,,,,,,,,1,,,,,,,114.56835980515,37.975821141747,0
2d28a5797b4f43152fe67b6d,凤铝特约加工厂,公司企业,厂矿,河北省,石家庄市,裕华区,石家庄市裕华区仓盛路佳琳阳光新城西南侧约130米,2d28a5797b4f43152fe67b6d,1,0,114.555788,37.989123,15383839800,enterprise,http://api.map.baidu.com/place/detail?uid=2d28a5797b4f43152fe67b6d&output=html&source=placeapi_v2,,,,,,,,,,,,,,,,,,,,0
9224819302b044e6990050d8,鑫龙帆布厂,公司企业,厂矿,河北省,石家庄市,栾城区,石家庄市栾城区X017梦扬幼儿园西南侧约160米,,1,0,114.568327,37.974865,,enterprise,http://api.map.baidu.com/place/detail?uid=9224819302b044e6990050d8&output=html&source=placeapi_v2,,,,,,,,,,,,,,,,,,,,0
d0153955ee24755dce06a45d,石家庄正恒灯箱工艺厂,公司企业,厂矿,河北省,石家庄市,栾城区,石家庄市栾城区于底小学北侧约200米,,1,0,114.561597,37.956722,17734298882,enterprise,http://api.map.baidu.com/place/detail?uid=d0153955ee24755dce06a45d&output=html&source=placeapi_v2,,,5.0,,,,,,,,1,,,,,,,,,0
6ddb9238075f045a3517dcad,龙鹤山矿泉水厂总厂,公司企业,厂矿,河北省,石家庄市,裕华区,石家庄市裕华区方郄路融创・臻华园东北侧约40米,,1,0,114.55702,37.983114,,enterprise,http://api.map.baidu.com/place/detail?uid=6ddb9238075f045a3517dcad&output=html&source=placeapi_v2,,,,,,,,,,,,,,,,,,,,0
805ffb060110db6583a00cf3,裕和区祥隆线带厂,公司企业,厂矿,河北省,石家庄市,裕华区,石家庄市裕华区华纺街与育峰路交叉路口往北约70米,,1,0,114.600203,37.980565,,enterprise,http://api.map.baidu.com/place/detail?uid=805ffb060110db6583a00cf3&output=html&source=placeapi_v2,,,,,,,,,,,,,,,,,,,,0
09a298bc6ee2b357d5b74e37,河北龙鹤山矿泉水厂,公司企业,厂矿,河北省,石家庄市,栾城区,河北省石家庄市栾城区龙鹤山矿泉水厂(恒大雅苑东),09a298bc6ee2b357d5b74e37,1,1,114.584296,37.986064,13011590540,enterprise,http://api.map.baidu.com/place/detail?uid=09a298bc6ee2b357d5b74e37&output=html&source=placeapi_v2,,,,,,,,,,,,,,,,,,114.58428456009,37.986139551597,1
2ef63863fb8a7f77a4c756bc,石栾印刷厂,公司企业,厂矿,河北省,石家庄市,栾城区,中华街北200米,,1,1,114.586272,37.975224,,enterprise,http://api.map.baidu.com/place/detail?uid=2ef63863fb8a7f77a4c756bc&output=html&source=placeapi_v2,,,,,,,,,,,,,,,,,,114.58620693388,37.974975910507,1
fd44cfb81b71a4dc0b1cc707,荣华包装厂,公司企业,厂矿,河北省,石家庄市,栾城区,栾城区南三环路北200米,,1,0,114.610476,37.967749,,enterprise,http://api.map.baidu.com/place/detail?uid=fd44cfb81b71a4dc0b1cc707&output=html&source=placeapi_v2,,,,,,,,,,,,,,,,,,114.61046385242,37.967969155814,0
509a2edcdfdab83fa9059de6,栾城区林溪调味品厂,公司企业,厂矿,河北省,石家庄市,裕华区,石家庄市裕华区新元高速与景观路交叉路口往西北约260米,,1,0,114.590502,37.980901,18931870055,enterprise,http://api.map.baidu.com/place/detail?uid=509a2edcdfdab83fa9059de6&output=html&source=placeapi_v2,,,,,,,,,,,,,,,,,,,,0
67f2fe4eb1192829ddee8b88,石家庄东阳纸制品有限公司,公司企业,厂矿,河北省,石家庄市,栾城区,河北省石家庄市栾城区X056,,1,0,114.611434,37.972771,"14703213009,15933621288",enterprise,http://api.map.baidu.com/place/detail?uid=67f2fe4eb1192829ddee8b88&output=html&source=placeapi_v2,,,0.0,,,,,,,,1,,,,,,,,,0
f077504109595b894c3a5944,裕华区科仕达机械厂,公司企业,厂矿,河北省,石家庄市,裕华区,台上村北,,1,0,114.597924,37.983301,,enterprise,http://api.map.baidu.com/place/detail?uid=f077504109595b894c3a5944&output=html&source=placeapi_v2,,,,,,,,,,,,,,,,,,,,0
7be1a89e98393a176b49f381,中原货架厂,公司企业,厂矿,河北省,石家庄市,栾城区,石家庄市栾城区新元高速欣悦旅馆西侧约220米,,1,0,114.594657,37.955675,"17732309391,18348888926",enterprise,http://api.map.baidu.com/place/detail?uid=7be1a89e98393a176b49f381&output=html&source=placeapi_v2,,,,,,,,,,,,,,,,,,,,0
dd904bd6da6b9d510482c2c2,石家庄深兰印刷厂,公司企业,厂矿,河北省,石家庄市,栾城区,河北省石家庄市栾城区308国道东龙府邸对面,,1,0,114.579221,37.964598,"17733886194,17733886196",enterprise,http://api.map.baidu.com/place/detail?uid=dd904bd6da6b9d510482c2c2&output=html&source=placeapi_v2,,,4.0,,,,,,,,1,,,,,,,114.57909390203,37.964730744897,0
447af4b69f1aedf4ae045705,石家庄世嘉铁艺厂,公司企业,厂矿,河北省,石家庄市,栾城区,河北省石家庄市栾城区G308旧货市场西南200米处,,1,0,114.575319,37.967146,(0311)86586416,enterprise,http://api.map.baidu.com/place/detail?uid=447af4b69f1aedf4ae045705&output=html&source=placeapi_v2,,,,,,,,,,,,,,,,,,,,0
1ad0d587b79df5b3c7f50d27,桐华货架厂,公司企业,厂矿,河北省,石家庄市,栾城区,河北省石家庄市栾城区石栾大街,,1,0,114.574511,37.968643,"15128102458,15833987008",enterprise,http://api.map.baidu.com/place/detail?uid=1ad0d587b79df5b3c7f50d27&output=html&source=placeapi_v2,,,5,,,,,,,,1,,,,,,,114.57441899978,37.968635038467,0
374ae64c388cb3be6e20b9c7,裕华区巴氏木制品厂,公司企业,厂矿,河北省,石家庄市,裕华区,河北省石家庄市裕华区S9902(新元高速),,1,0,114.5888,37.988357,,enterprise,http://api.map.baidu.com/place/detail?uid=374ae64c388cb3be6e20b9c7&output=html&source=placeapi_v2,,,0.0,,,,,,,,1,,,,,,,,,0
c83d033554053a4d1f38949b,裕华区伟丰机械加工厂,公司企业,厂矿,河北省,石家庄市,裕华区,石家庄市裕华区华纺街石家庄市裕华区东京北幼儿园南侧约130米,c83d033554053a4d1f38949b,1,0,114.600256,37.984618,(0311)85499306,enterprise,http://api.map.baidu.com/place/detail?uid=c83d033554053a4d1f38949b&output=html&source=placeapi_v2,,,,,,,,,,,,,,,,,,114.59987472229,37.984589128502,0
e87ae73ddcba3126b54f5488,通用帆布厂,公司企业,厂矿,河北省,石家庄市,栾城区,栾城区楼底镇段高路好日子家电西100米,e87ae73ddcba3126b54f5488,1,0,114.572897,37.971185,,enterprise,http://api.map.baidu.com/place/detail?uid=e87ae73ddcba3126b54f5488&output=html&source=placeapi_v2,,,,,,,,,,,,,,,,,,114.57301421615,37.97131091156,0
303c06411a1c627d09a8d49b,如简卫生纸厂,公司企业,厂矿,河北省,石家庄市,裕华区,河北省石家庄市裕华区中大街38号,303c06411a1c627d09a8d49b,1,0,114.57971,37.984803,17733827400,enterprise,http://api.map.baidu.com/place/detail?uid=303c06411a1c627d09a8d49b&output=html&source=placeapi_v2,,,5,,,,,,,,1,,,,,,,,,0
1c26c133156e5679f4e73b26,盛隆宽幅针刺无纺布厂,公司企业,厂矿,河北省,石家庄市,栾城区,石家庄市栾城区段高路东龙府邸西北侧,,1,1,114.577905,37.970275,,enterprise,http://api.map.baidu.com/place/detail?uid=1c26c133156e5679f4e73b26&output=html&source=placeapi_v2,,,,,,,,,,,,,,,,,,,,1
f9404b273c7e0a49d8131883,宇坤织布厂,公司企业,厂矿,河北省,石家庄市,裕华区,石家庄市裕华区新元高速与工农路交叉路口往西南约150米,f9404b273c7e0a49d8131883,1,0,114.589757,37.986261,,enterprise,http://api.map.baidu.com/place/detail?uid=f9404b273c7e0a49d8131883&output=html&source=placeapi_v2,,,,,,,,,,,,,,,,,,,,0
fe94772782daf387badf8f35,第一帆布厂,公司企业,厂矿,河北省,石家庄市,栾城区,石家庄市栾城区石栾大街东龙府邸西侧约220米,,1,1,114.575618,37.970566,13503201907,enterprise,http://api.map.baidu.com/place/detail?uid=fe94772782daf387badf8f35&output=html&source=placeapi_v2,,,,,,,,,,,,,,,,,,114.57527118269,37.970325992474,1
afd21233591dc9763310afe1,石家庄海洋制冷设备厂,公司企业,厂矿,河北省,石家庄市,栾城区,河北省石家庄市栾城区西许营旧货市场(308国道南),,1,0,114.575582,37.968944,,enterprise,http://api.map.baidu.com/place/detail?uid=afd21233591dc9763310afe1&output=html&source=placeapi_v2,,,,,,,,,,,,,,,,,,,,0
1451aeda979a6d89eedfca18,裕华俊升机械设备加工厂,公司企业,厂矿,河北省,石家庄市,裕华区,河北省石家庄市裕华区红星路10号付6号,,1,0,114.577242,37.982599,,enterprise,http://api.map.baidu.com/place/detail?uid=1451aeda979a6d89eedfca18&output=html&source=placeapi_v2,,,,,,,,,,,,,,,,,,,,0
48e10e1a1eee69ba6b49f3bd,河北交通票证印刷厂,公司企业,厂矿,河北省,石家庄市,栾城区,石家庄市栾城区南郄马镇东佐村北太行大街与段高路交口西行800米路南,,1,0,114.635035,37.971623,,enterprise,http://api.map.baidu.com/place/detail?uid=48e10e1a1eee69ba6b49f3bd&output=html&source=placeapi_v2,,,,,,,,,,,,,,,,,,114.63503831297,37.971722703106,0
9558591d3a8311e16c3e1b8f,润诚环保砖厂,公司企业,厂矿,河北省,石家庄市,栾城区,南三环路北50米,9558591d3a8311e16c3e1b8f,1,1,114.619172,37.966579,,enterprise,http://api.map.baidu.com/place/detail?uid=9558591d3a8311e16c3e1b8f&output=html&source=placeapi_v2,,,,,,,,,,,,,,,,,,114.61912084777,37.966427812577,1
de509a46d3e7707a2b201ae2,石家庄市新昌保温建材厂,公司企业,厂矿,河北省,石家庄市,栾城区,栾城区南三环路南50米,,1,0,114.626418,37.965794,,enterprise,http://api.map.baidu.com/place/detail?uid=de509a46d3e7707a2b201ae2&output=html&source=placeapi_v2,,,,,,,,,,,,,,,,,,114.62642216357,37.965959661158,0
7296f7997d6fc1b22dfaa761,石家庄市染料厂,公司企业,厂矿,河北省,石家庄市,藁城区,河北省石家庄市藁城区工业大街与建石南路交汇处,,1,0,114.698992,37.983689,,enterprise,http://api.map.baidu.com/place/detail?uid=7296f7997d6fc1b22dfaa761&output=html&source=placeapi_v2,,,,,,,,,,,,,,,,,,114.69840520045,37.983715524088,0
fed5c5de4dc016f2eddfca48,威远生化新厂区,公司企业,厂矿,河北省,石家庄市,藁城区,石家庄市藁城区工业大街河北威远生物化工有限公司,,1,0,114.695863,37.967587,,enterprise,http://api.map.baidu.com/place/detail?uid=fed5c5de4dc016f2eddfca48&output=html&source=placeapi_v2,,,,,,,,,,,,,,,,,,,,0
f3a9bacd5e1375b0ce04ef5d,石家庄豪雪面粉厂,公司企业,厂矿,河北省,石家庄市,藁城区,河北省石家庄市藁城区新赵线,,1,1,114.736915,37.98652,,enterprise,http://api.map.baidu.com/place/detail?uid=f3a9bacd5e1375b0ce04ef5d&output=html&source=placeapi_v2,,,5,,,,,,,,1,,,,,,,114.73736540122,37.986366269394,1
aac2400d8e97e9fa17b54b4c,石家庄丰收机械制造厂,公司企业,厂矿,河北省,石家庄市,藁城区,石家庄市藁城区马山线,,1,0,114.714304,37.968093,,enterprise,http://api.map.baidu.com/place/detail?uid=aac2400d8e97e9fa17b54b4c&output=html&source=placeapi_v2,,,,,,,,,,,,,,,,,,,,0
d443f9d805f13bdcaecb6683,三鑫塑料制品厂,公司企业,厂矿,河北省,石家庄市,藁城区,石家庄市藁城区新赵线河北省农村信用合作社(丽阳信用社)西南侧约270米,,1,0,114.735397,37.967009,,enterprise,http://api.map.baidu.com/place/detail?uid=d443f9d805f13bdcaecb6683&output=html&source=placeapi_v2,,,,,,,,,,,,,,,,,,,,0
f2c8eef052afc9dd705e805a,藁城区腾虎服装有限公司,公司企业,厂矿,河北省,石家庄市,藁城区,石家庄市藁城区政通西路,,1,0,114.784472,37.980168,(0311)88098888,enterprise,http://api.map.baidu.com/place/detail?uid=f2c8eef052afc9dd705e805a&output=html&source=placeapi_v2,,,0.0,,,,,,,,1,,,,,,,,,0
ef00f9c74616ee1008ccdd82,衣家源旧衣服回收厂,公司企业,厂矿,河北省,石家庄市,藁城区,河北省石家庄市藁城区,,1,0,114.785954,37.966501,,enterprise,http://api.map.baidu.com/place/detail?uid=ef00f9c74616ee1008ccdd82&output=html&source=placeapi_v2,,,,,,,,,,,1,,,,,,,,,0
2d6cb41ca03654ddf1193786,嘉诺床垫厂,公司企业,厂矿,河北省,石家庄市,藁城区,石家庄市藁城区通东路智慧树幼儿园东侧约80米,,1,0,114.796186,37.980469,13931890949,enterprise,http://api.map.baidu.com/place/detail?uid=2d6cb41ca03654ddf1193786&output=html&source=placeapi_v2,,,,,,,,,,,,,,,,,,,,0
8fdefcbb7a94eafe5d0d02d0,秦氏宫灯厂,公司企业,厂矿,河北省,石家庄市,藁城区,石家庄市藁城区东大街与中华东路交叉路口往东约100米,,1,0,114.851579,37.961771,,enterprise,http://api.map.baidu.com/place/detail?uid=8fdefcbb7a94eafe5d0d02d0&output=html&source=placeapi_v2,,,0.0,,,,,,,,1,,,,,,,,,0
f3df9cfb730bb9b3430245ac,河北振泰电力设备有限公司南厂区,公司企业,厂矿,河北省,石家庄市,藁城区,河北省石家庄市藁城区公安局梅花派出所治安管理办公室,,1,0,114.870348,37.98191,,enterprise,http://api.map.baidu.com/place/detail?uid=f3df9cfb730bb9b3430245ac&output=html&source=placeapi_v2,,,,,,,,,,,,,,,,,,,,0
2068b55716ee940d7ec876f8,富邦饲料厂,公司企业,厂矿,河北省,石家庄市,藁城区,石家庄市藁城区藁贾路弘艺幼儿园南侧约170米,,1,0,114.887026,37.958808,,enterprise,http://api.map.baidu.com/place/detail?uid=2068b55716ee940d7ec876f8&output=html&source=placeapi_v2,,,,,,,,,,,,,,,,,,114.8870281773,37.958732259739,0
3f22d159e9948037c91b95f2,石家庄神彩颜料厂,公司企业,厂矿,河北省,石家庄市,鹿泉区,河北省石家庄市鹿泉区龙泉路小车行联校南侧420米,,1,0,114.349753,38.00019,,enterprise,http://api.map.baidu.com/place/detail?uid=3f22d159e9948037c91b95f2&output=html&source=placeapi_v2,5000.0,,,,,,,,,,,,,,,,,,,0
a4543f468d1493946fc02cae,鹿泉区立国机械设备加工厂,公司企业,厂矿,河北省,石家庄市,鹿泉区,河北省石家庄市鹿泉区S537,,1,0,114.344941,38.004057,13930158150,enterprise,http://api.map.baidu.com/place/detail?uid=a4543f468d1493946fc02cae&output=html&source=placeapi_v2,,,5.0,,,,,,,,1,,,,,,,,,0
4de31f328e1f61b828b97cf7,鹿泉区奥明氧化铁颜料厂,公司企业,厂矿,河北省,石家庄市,鹿泉区,河北省石家庄市鹿泉区上庄镇谷庄村桃源路2号,,1,0,114.35106,38.000736,(0311)82233868,enterprise,http://api.map.baidu.com/place/detail?uid=4de31f328e1f61b828b97cf7&output=html&source=placeapi_v2,,,,,,,,,,,,,,,,,,,,0
acb1cde7cd122dc58f55ecb5,鹿泉市嘉泰精密五金加工厂,公司企业,厂矿,河北省,石家庄市,鹿泉区,石家庄市鹿泉区工业路与盛华街交叉路口往西约80米,,1,0,114.352083,38.000466,,enterprise,http://api.map.baidu.com/place/detail?uid=acb1cde7cd122dc58f55ecb5&output=html&source=placeapi_v2,,,,,,,,,,,,,,,,,,,,0
2466f3f0e492fc3ee6e96545,惠殖温控设备厂,公司企业,厂矿,河北省,石家庄市,鹿泉区,河北省石家庄市鹿泉区G20(青银高速),,1,0,114.375662,37.997927,15076338888,enterprise,http://api.map.baidu.com/place/detail?uid=2466f3f0e492fc3ee6e96545&output=html&source=placeapi_v2,,,,,,,,,,,,,,,,,,,,0
710a81258fd32634a0acc499,石家庄鹿泉区路灯厂太阳能路灯厂,公司企业,厂矿,河北省,石家庄市,鹿泉区,河北省石家庄市鹿泉区S392(石铜路),,1,0,114.423587,37.990512,(0311)80766006,enterprise,http://api.map.baidu.com/place/detail?uid=710a81258fd32634a0acc499&output=html&source=placeapi_v2,,,,,,,,,,,,,,,,,,114.42331675649,37.990776033327,0
a8caa13c855b696efe0eb049,石家庄华朗路灯厂,公司企业,厂矿,河北省,石家庄市,鹿泉区,河北省石家庄市鹿泉区石铜路河北(福建)中小企业科技园1号楼,,1,0,114.423335,37.990459,,enterprise,http://api.map.baidu.com/place/detail?uid=a8caa13c855b696efe0eb049&output=html&source=placeapi_v2,,,5.0,,,,,,,,1,,,,,,,,,0
41e92e2c9f47e2fdf60e77cd,鹿泉永盛精包装纸制品厂,公司企业,厂矿,河北省,石家庄市,桥西区,石家庄市桥西区西三环与兴东路交叉路口往西约230米,,1,0,114.431493,38.007112,,enterprise,http://api.map.baidu.com/place/detail?uid=41e92e2c9f47e2fdf60e77cd&output=html&source=placeapi_v2,,,,,,,,,,,,,,,,,,,,0
26be7a82343ac54d43e192b4,石家庄西良精包装制品厂,公司企业,厂矿,河北省,石家庄市,桥西区,石家庄市桥西区西三环与兴东路交叉路口往西约220米,26be7a82343ac54d43e192b4,1,1,114.43172,38.007131,,enterprise,http://api.map.baidu.com/place/detail?uid=26be7a82343ac54d43e192b4&output=html&source=placeapi_v2,,,,,,,,,,,,,,,,,,,,1
05be78f38f853ceb120daa8a,路路行水泥彩砖制品厂,公司企业,厂矿,河北省,石家庄市,鹿泉区,石家庄市鹿泉区育新街茗雅苑东侧约220米,05be78f38f853ceb120daa8a,1,0,114.443604,37.994482,13930123889,enterprise,http://api.map.baidu.com/place/detail?uid=05be78f38f853ceb120daa8a&output=html&source=placeapi_v2,,,,,,,,,,,,,,,,,,114.44359905312,37.99453704999,0
243853ad8486c91642d63eb2,华北石材城加工区,公司企业,厂矿,河北省,石家庄市,鹿泉区,河北省石家庄市鹿泉区铜冶镇学院路益寿园老年公寓附近,243853ad8486c91642d63eb2,1,0,114.459789,37.997097,,enterprise,http://api.map.baidu.com/place/detail?uid=243853ad8486c91642d63eb2&output=html&source=placeapi_v2,,,,,,,,,,,,,,,,,,,,0
72e30bd06f2019a1e5e965e3,石家庄市隆婷卷闸厂(学院路),公司企业,厂矿,河北省,石家庄市,鹿泉区,永红路蓝天怡然3-1-101号,72e30bd06f2019a1e5e965e3,1,0,114.461132,37.993056,13513389810,enterprise,http://api.map.baidu.com/place/detail?uid=72e30bd06f2019a1e5e965e3&output=html&source=placeapi_v2,,,,,,,,,,,,,,,,,,,,0
e1dc7bc94f96c76a0d3dda6d,鑫冀鑫纱窗厂,公司企业,厂矿,河北省,石家庄市,桥西区,石家庄市桥西区汇明路与中华南大街交叉路口往北约210米,e1dc7bc94f96c76a0d3dda6d,1,0,114.483952,37.99924,,enterprise,http://api.map.baidu.com/place/detail?uid=e1dc7bc94f96c76a0d3dda6d&output=html&source=placeapi_v2,,,,,,,,,,,,,,,,,,114.4839396108,37.999032176068,0
05be78f38f853ceb120daa8a,路路行水泥彩砖制品厂,公司企业,厂矿,河北省,石家庄市,鹿泉区,石家庄市鹿泉区育新街茗雅苑东侧约220米,05be78f38f853ceb120daa8a,1,0,114.443604,37.994482,13930123889,enterprise,http://api.map.baidu.com/place/detail?uid=05be78f38f853ceb120daa8a&output=html&source=placeapi_v2,,,,,,,,,,,,,,,,,,114.44359905312,37.99453704999,0
34e48508e39c31e2d8d89167,郊南机械厂,公司企业,厂矿,河北省,石家庄市,桥西区,河北省石家庄市桥西区石铜路389号,34e48508e39c31e2d8d89167,1,0,114.444829,38.004386,,enterprise,http://api.map.baidu.com/place/detail?uid=34e48508e39c31e2d8d89167&output=html&source=placeapi_v2,,,,,,,,,,,,,,,,,,114.44472440086,38.004396526201,0
7fc42cfe8356f1eacb213d28,一超货架展柜厂,公司企业,厂矿,河北省,石家庄市,桥西区,石家庄市桥西区石铜路宇翔物流园,,1,0,114.444606,38.002823,"15032728511,15230818809",enterprise,http://api.map.baidu.com/place/detail?uid=7fc42cfe8356f1eacb213d28&output=html&source=placeapi_v2,,,,,,,,,,,,,,,,,,114.44443350079,38.002817485875,0
22671becdef9ec082811d14b,郑州高压阀门厂天津节能蝶阀厂,公司企业,厂矿,河北省,石家庄市,裕华区,河北省石家庄市裕华区G107(胜利南街),22671becdef9ec082811d14b,1,0,114.503222,37.996298,,enterprise,http://api.map.baidu.com/place/detail?uid=22671becdef9ec082811d14b&output=html&source=placeapi_v2,,,0.0,,,,,,,,1,,,,,,,114.50286852754,37.996241315296,0
2ec03c290b3b2686c51b75e2,鑫中管厂,公司企业,厂矿,河北省,石家庄市,裕华区,石家庄市裕华区建设南大街润丰五金城,,1,0,114.518528,38.001107,"13032623109,15097317132",enterprise,http://api.map.baidu.com/place/detail?uid=2ec03c290b3b2686c51b75e2&output=html&source=placeapi_v2,,,,,,,,,,,,,,,,,,,,0
f49d30e107b39673d13ce3fc,思拓挤塑泡沫保温厂,公司企业,厂矿,河北省,石家庄市,裕华区,河北省石家庄市裕华区仓兴街润丰五金城l区1号,f49d30e107b39673d13ce3fc,1,0,114.516999,38.001981,13703115546,enterprise,http://api.map.baidu.com/place/detail?uid=f49d30e107b39673d13ce3fc&output=html&source=placeapi_v2,,,5,,,,,,,,1,,,,,,,114.51702792332,38.001981984635,0
d36c650c8e2777724f776e82,山东众帮绳网厂,公司企业,厂矿,河北省,石家庄市,裕华区,河北省石家庄市裕华区建设南大街润丰五金城H区15排51~52号,d36c650c8e2777724f776e82,1,0,114.517976,38.002571,"13731121678,17717113445",enterprise,http://api.map.baidu.com/place/detail?uid=d36c650c8e2777724f776e82&output=html&source=placeapi_v2,,,,,,,,,,,2,,,,,,,114.51788972168,38.002537786051,0
d62db8bb85b3a1c7ae045753,金利达打包带胶带厂,公司企业,厂矿,河北省,石家庄市,裕华区,石家庄市裕华区南二环建设大街润丰五金城西院L区3排45.46号,,1,0,114.517502,38.001059,"13333373658,13930457187",enterprise,http://api.map.baidu.com/place/detail?uid=d62db8bb85b3a1c7ae045753&output=html&source=placeapi_v2,,,,,,,,,,,,,,,,,,114.51738518716,38.001061174175,0
08a1c4f1d51de4ae882fb547,金尚桥架厂,公司企业,厂矿,河北省,石家庄市,裕华区,河北省石家庄市裕华区建设南大街润丰五金城H区15排29-30号,08a1c4f1d51de4ae882fb547,1,0,114.517862,38.003436,"13315199868,17796909868",enterprise,http://api.map.baidu.com/place/detail?uid=08a1c4f1d51de4ae882fb547&output=html&source=placeapi_v2,,,,,,,,,,,,,,,,,,,,0
842e17c349fc1472354aae97,河北瑞泰电缆桥架有限公司,公司企业,厂矿,河北省,石家庄市,裕华区,石家庄市裕华区仓丰路润德国际五金机电城,842e17c349fc1472354aae97,1,0,114.502485,37.99741,"13731122268,15132118566",enterprise,http://api.map.baidu.com/place/detail?uid=842e17c349fc1472354aae97&output=html&source=placeapi_v2,,,,,,,,,,,,,,,,,,,,0
590c39f595009d0adbeced18,广东永鑫竹签厂,公司企业,厂矿,河北省,石家庄市,裕华区,石家庄市裕华区建设南大街栗源综合商务楼东侧约70米,590c39f595009d0adbeced18,1,0,114.521188,37.996669,"(0311)87215852,13663119005,13930146340,13931156226",enterprise,http://api.map.baidu.com/place/detail?uid=590c39f595009d0adbeced18&output=html&source=placeapi_v2,,,,,,,,,,,,,,,,,,114.52111035068,37.996666528513,0
6c6b3a9be653c7ead13ce3ec,永旺胶带厂,公司企业,厂矿,河北省,石家庄市,裕华区,石家庄市裕华区建设南大街润丰五金城,6c6b3a9be653c7ead13ce3ec,1,0,114.518722,38.005561,"(0311)89271251,13803362895",enterprise,http://api.map.baidu.com/place/detail?uid=6c6b3a9be653c7ead13ce3ec&output=html&source=placeapi_v2,,,,,,,,,,,,,,,,,,114.51860725323,38.005561046814,0
f42099f47bd1877217c8f6d7,圣德胶带厂,公司企业,厂矿,河北省,石家庄市,裕华区,石家庄市裕华区建设南大街润丰五金城,f42099f47bd1877217c8f6d7,1,0,114.518501,38.004929,"(0311)87733622,13582187331,18032662999",enterprise,http://api.map.baidu.com/place/detail?uid=f42099f47bd1877217c8f6d7&output=html&source=placeapi_v2,,,,,,,,,,,,,,,,,,114.51837850911,38.004930027341,0
49f9a3f6ce3865e77c29bdf4,信友打包带厂,公司企业,厂矿,河北省,石家庄市,裕华区,河北省石家庄市裕华区建设南大街河北师范大学西侧约120米,4a258f9c9b0cc5b3fda7783e,1,0,114.518302,38.005045,"15203110160,15830117876",enterprise,http://api.map.baidu.com/place/detail?uid=49f9a3f6ce3865e77c29bdf4&output=html&source=placeapi_v2,,,,,,,,,,,,,,,,,,114.51837906264,38.005046259077,0
81f3a53362cec9736f3e1b1a,宏绳网厂飞土工布,公司企业,厂矿,河北省,石家庄市,裕华区,石家庄市裕华区建设南大街润丰五金城,81f3a53362cec9736f3e1b1a,1,0,114.519016,38.004708,"13931126222,15031123666",enterprise,http://api.map.baidu.com/place/detail?uid=81f3a53362cec9736f3e1b1a&output=html&source=placeapi_v2,,,,,,,,,,,,,,,,,,,,0
3cb54ba3e155319af942b2a7,山东金诺绳网厂,公司企业,厂矿,河北省,石家庄市,裕华区,石家庄市裕华区建设南大街润丰五金城,3cb54ba3e155319af942b2a7,1,0,114.5198,38.006583,"15830677180,15831128117",enterprise,http://api.map.baidu.com/place/detail?uid=3cb54ba3e155319af942b2a7&output=html&source=placeapi_v2,,,,,,,,,,,,,,,,,,114.51950182095,38.006586450846,0
b533ea4a14a567414f6d4674,石家庄市晶雪冷冻冷藏厂,公司企业,厂矿,河北省,石家庄市,裕华区,河北省石家庄市裕华区胜利大街369号,b533ea4a14a567414f6d4674,1,1,114.505048,37.984541,(0311)88705699,enterprise,http://api.map.baidu.com/place/detail?uid=b533ea4a14a567414f6d4674&output=html&source=placeapi_v2,,,,,,,,,,,,,,,,,,114.50388418408,37.984426416457,1
339382f96fd42e839f09f7d0,老张彩钢围挡厂,公司企业,厂矿,河北省,石家庄市,裕华区,河北省石家庄市裕华区胜利南街369号,339382f96fd42e839f09f7d0,1,1,114.504632,37.98287,"13073108334,18348886288",enterprise,http://api.map.baidu.com/place/detail?uid=339382f96fd42e839f09f7d0&output=html&source=placeapi_v2,,,,,,,,,,,,,,,,,,114.50435886938,37.982826237345,1
4c6258e631e0be51d8d891d8,天通网格布厂,公司企业,厂矿,河北省,石家庄市,裕华区,河北省石家庄市裕华区仓兴街润丰五金城西院2号,,1,0,114.515467,38.003216,"13582131219,13933845119",enterprise,http://api.map.baidu.com/place/detail?uid=4c6258e631e0be51d8d891d8&output=html&source=placeapi_v2,,,,,,,,,,,,,,,,,,,,0
16766ac143d5fea9601c677e,石家庄诚信塑料制品厂,公司企业,厂矿,河北省,石家庄市,裕华区,河北省石家庄市裕华区建设南大街诚信塑料制品厂永兴塑胶伴沧管道石家庄润丰五金城西院70号,16766ac143d5fea9601c677e,1,0,114.518712,38.002971,"15032060997,15032060998",enterprise,http://api.map.baidu.com/place/detail?uid=16766ac143d5fea9601c677e&output=html&source=placeapi_v2,,,,,,,,,,,,,,,,,,114.51861497277,38.002970958689,0
83e1b8e2ed3cf139fd0eb0f3,广大卷闸厂,公司企业,厂矿,河北省,石家庄市,桥西区,天安路海洋石油石南站西南450米,83e1b8e2ed3cf139fd0eb0f3,1,0,114.502072,37.983075,15731178887,enterprise,http://api.map.baidu.com/place/detail?uid=83e1b8e2ed3cf139fd0eb0f3&output=html&source=placeapi_v2,,,,,,,,,,,,,,,,,,114.50207885411,37.98303641533,0
fcc3c8c7a6f43bac7c29bda2,山东老曹绳网厂,公司企业,厂矿,河北省,石家庄市,裕华区,河北省石家庄市裕华区南二环东路润丰五金城h区30号,fcc3c8c7a6f43bac7c29bda2,1,0,114.518703,38.006518,"13731162888,18132008111",enterprise,http://api.map.baidu.com/place/detail?uid=fcc3c8c7a6f43bac7c29bda2&output=html&source=placeapi_v2,,,,,,,,,,,,,,,,,,,,0
b9d268d1c8b21132d8eced49,红宴力车厂,公司企业,厂矿,河北省,石家庄市,裕华区,河北省石家庄市裕华区建设南大街河北师范大学西侧约170米,b9d268d1c8b21132d8eced49,1,0,114.518268,38.003153,"13091010239,13903115227",enterprise,http://api.map.baidu.com/place/detail?uid=b9d268d1c8b21132d8eced49&output=html&source=placeapi_v2,,,,,,,,,,,,,,,,,,114.51827034966,38.003053003934,0
1a508b977130049e76e5b61f,万达胶带厂,公司企业,厂矿,河北省,石家庄市,裕华区,河北省石家庄市裕华区南二环东路润丰五金城f区12号,1a508b977130049e76e5b61f,1,0,114.521197,38.006029,"13013238880,13832308324",enterprise,http://api.map.baidu.com/place/detail?uid=1a508b977130049e76e5b61f&output=html&source=placeapi_v2,,,,,,,,,,,,,,,,,,114.52119219017,38.006142291697,0
d2d74f0a0ca25f6373210b93,增厚桥架厂,公司企业,厂矿,河北省,石家庄市,裕华区,河北省石家庄市裕华区南二环润丰五金城G区5排7号8号,d2d74f0a0ca25f6373210b93,1,0,114.520898,38.006177,13831116406,enterprise,http://api.map.baidu.com/place/detail?uid=d2d74f0a0ca25f6373210b93&output=html&source=placeapi_v2,,,0,,,,,,,,2,,,,,,,114.52092845766,38.006135278065,0
01fce65ede1b7b1c9b68b4d6,东羊桥架厂,公司企业,厂矿,河北省,石家庄市,裕华区,石家庄市裕华区南二环东路润丰五金城,01fce65ede1b7b1c9b68b4d6,1,0,114.521756,38.00678,,enterprise,http://api.map.baidu.com/place/detail?uid=01fce65ede1b7b1c9b68b4d6&output=html&source=placeapi_v2,,,,,,,,,,,,,,,,,,114.5217564165,38.006813017067,0
270768b60b113d1e81288a08,长东泡沫板挤塑板厂,公司企业,厂矿,河北省,石家庄市,裕华区,石家庄市裕华区南二环建设大街润丰五金机电城东区A区2排59号,270768b60b113d1e81288a08,1,0,114.523128,38.006189,"15930418387,15930418580",enterprise,http://api.map.baidu.com/place/detail?uid=270768b60b113d1e81288a08&output=html&source=placeapi_v2,,,0,,,,,,,,1,,,,,,,,,0
6d0c63f1dbc2a17c2ce67b94,冠鑫桥架厂,公司企业,厂矿,河北省,石家庄市,裕华区,石家庄市裕华区南二环东路润丰五金城,6d0c63f1dbc2a17c2ce67b94,1,0,114.520971,38.006173,"13933074897,18031915981",enterprise,http://api.map.baidu.com/place/detail?uid=6d0c63f1dbc2a17c2ce67b94&output=html&source=placeapi_v2,,,,,,,,,,,,,,,,,,114.52097236524,38.006136525152,0
53cb634b46a3560ccae33c80,河北亿展保温建材有限公司,公司企业,厂矿,河北省,石家庄市,裕华区,河北省石家庄市裕华区南二环东路东院70号,53cb634b46a3560ccae33c80,1,0,114.522466,38.006545,"(0311)86107277,18833168989",enterprise,http://api.map.baidu.com/place/detail?uid=53cb634b46a3560ccae33c80&output=html&source=placeapi_v2,,,,,,,,,,,,,,,,,,,,0
eeb840c7fab4541c455726fd,力车电动工程车生产加工厂,公司企业,厂矿,河北省,石家庄市,裕华区,石家庄市裕华区建设南大街润丰五金城,eeb840c7fab4541c455726fd,1,0,114.521079,38.005709,"(0311)86021172,13131194693,13739721390",enterprise,http://api.map.baidu.com/place/detail?uid=eeb840c7fab4541c455726fd&output=html&source=placeapi_v2,,,,,,,,,,,,,,,,,,114.52103443485,38.005671009282,0
fd297627a7a402f461685862,耀兴玻璃厂,,,河北省,石家庄市,裕华区,石家庄市裕华区裕翔街道裕翔街与308交叉口东行200米盛华涂料厂院内,,0,0,114.538794,37.997017,,,http://map.baidu.com/,,,,,,,,,,,,,,,,,,,,0
fb57ea007218ce67d22dd6f7,贾鑫印花厂,,,河北省,石家庄市,裕华区,308国道旁,,0,0,114.549978,37.990996,,,http://map.baidu.com/,,,,,,,,,,,,,,,,,,,,0
2d28a5797b4f43152fe67b6d,凤铝特约加工厂,,,河北省,石家庄市,裕华区,石家庄市裕华区仓盛路佳琳阳光新城西南侧约130米,,0,0,114.555788,37.989123,15383839800,,http://map.baidu.com/,,,,,,,,,,,,,,,,,,,,0
c9f05e3dc54652583617dc42,石家庄盛华涂料厂,,,河北省,石家庄市,裕华区,石家庄市裕华区石栾大街东南智汇城5号院西侧约210米,,0,1,114.538875,37.997023,,,http://map.baidu.com/,,,,,,,,,,,,,,,,,,,,1
3fbf33bd456a2f3a21f017b8,卓达美食工厂,,,河北省,石家庄市,裕华区,河北省石家庄市裕华区翟营南大街389号101号,,0,0,114.56199,38.013054,,,http://map.baidu.com/,,,,,,,,,,,,,,,,,,,,0
5983ff47efa25b45c1f1cfc6,河钢集团有限公司,,,河北省,石家庄市,裕华区,河北省石家庄市裕华区体育南大街385号,,0,2,114.541387,38.011935,(0311)66770709,,http://map.baidu.com/,,,,,,,,,,,,,,,,,,,,2
6ddb9238075f045a3517dcad,龙鹤山矿泉水厂总厂,,,河北省,石家庄市,裕华区,石家庄市裕华区方郄路融创・臻华园东北侧约40米,,0,0,114.55702,37.983114,,,http://map.baidu.com/,,,,,,,,,,,,,,,,,,,,0
26c1141270adfe5feaf8536e,供电公司,,,河北省,石家庄市,裕华区,石家庄市裕华区建华南大街国网石家庄检修分公司,,0,0,114.554923,38.008539,,,http://map.baidu.com/,,,,,,,,,,,,,,,,,,,,0
fbc281426f643ad1c91b95d3,石家庄大宏机械厂,公司企业,厂矿,河北省,石家庄市,裕华区,石家庄市裕华区方兴路双舟二幼东侧约100米,,1,1,114.596197,37.997934,"(0311)85490095,13833478936",enterprise,http://api.map.baidu.com/place/detail?uid=fbc281426f643ad1c91b95d3&output=html&source=placeapi_v2,,,,,,,,,,,,,,,,,,114.5961871081,37.99804080847,1
1834e095d0db987e35b06c47,三和彩钢板钢构(裕华区厂),公司企业,厂矿,河北省,石家庄市,裕华区,河北省石家庄市裕华区,,1,0,114.594238,38.000266,,enterprise,http://api.map.baidu.com/place/detail?uid=1834e095d0db987e35b06c47&output=html&source=placeapi_v2,,,0.0,,,,,,,,1,,,,,,,,,0
2e9f4dd74811f6811f389423,裕华长峪机械加工厂,公司企业,厂矿,河北省,石家庄市,裕华区,石家庄市裕华区方兴路双舟二幼西侧约240米,,1,0,114.592409,37.997419,,enterprise,http://api.map.baidu.com/place/detail?uid=2e9f4dd74811f6811f389423&output=html&source=placeapi_v2,,,,,,,,,,,,,,,,,,,,0
09a298bc6ee2b357d5b74e37,河北龙鹤山矿泉水厂,公司企业,厂矿,河北省,石家庄市,栾城区,河北省石家庄市栾城区龙鹤山矿泉水厂(恒大雅苑东),09a298bc6ee2b357d5b74e37,1,1,114.584296,37.986064,13011590540,enterprise,http://api.map.baidu.com/place/detail?uid=09a298bc6ee2b357d5b74e37&output=html&source=placeapi_v2,,,,,,,,,,,,,,,,,,114.58428456009,37.986139551597,1
5e518fe49b19ebb5aeb22adb,锦舒床垫厂,公司企业,厂矿,河北省,石家庄市,裕华区,河北省石家庄市裕华区S9902(新元高速),,1,0,114.590638,38.004929,,enterprise,http://api.map.baidu.com/place/detail?uid=5e518fe49b19ebb5aeb22adb&output=html&source=placeapi_v2,,,,,,,,,,,,,,,,,,,,0
805ffb060110db6583a00cf3,裕和区祥隆线带厂,公司企业,厂矿,河北省,石家庄市,裕华区,石家庄市裕华区华纺街与育峰路交叉路口往北约70米,,1,0,114.600203,37.980565,,enterprise,http://api.map.baidu.com/place/detail?uid=805ffb060110db6583a00cf3&output=html&source=placeapi_v2,,,,,,,,,,,,,,,,,,,,0
374ae64c388cb3be6e20b9c7,裕华区巴氏木制品厂,公司企业,厂矿,河北省,石家庄市,裕华区,河北省石家庄市裕华区S9902(新元高速),,1,0,114.5888,37.988357,,enterprise,http://api.map.baidu.com/place/detail?uid=374ae64c388cb3be6e20b9c7&output=html&source=placeapi_v2,,,0.0,,,,,,,,1,,,,,,,,,0
509a2edcdfdab83fa9059de6,栾城区林溪调味品厂,公司企业,厂矿,河北省,石家庄市,裕华区,石家庄市裕华区新元高速与景观路交叉路口往西北约260米,,1,0,114.590502,37.980901,18931870055,enterprise,http://api.map.baidu.com/place/detail?uid=509a2edcdfdab83fa9059de6&output=html&source=placeapi_v2,,,,,,,,,,,,,,,,,,,,0
f9404b273c7e0a49d8131883,宇坤织布厂,公司企业,厂矿,河北省,石家庄市,裕华区,石家庄市裕华区新元高速与工农路交叉路口往西南约150米,f9404b273c7e0a49d8131883,1,0,114.589757,37.986261,,enterprise,http://api.map.baidu.com/place/detail?uid=f9404b273c7e0a49d8131883&output=html&source=placeapi_v2,,,,,,,,,,,,,,,,,,,,0
f077504109595b894c3a5944,裕华区科仕达机械厂,公司企业,厂矿,河北省,石家庄市,裕华区,台上村北,,1,0,114.597924,37.983301,,enterprise,http://api.map.baidu.com/place/detail?uid=f077504109595b894c3a5944&output=html&source=placeapi_v2,,,,,,,,,,,,,,,,,,,,0
c83d033554053a4d1f38949b,裕华区伟丰机械加工厂,公司企业,厂矿,河北省,石家庄市,裕华区,石家庄市裕华区华纺街石家庄市裕华区东京北幼儿园南侧约130米,c83d033554053a4d1f38949b,1,0,114.600256,37.984618,(0311)85499306,enterprise,http://api.map.baidu.com/place/detail?uid=c83d033554053a4d1f38949b&output=html&source=placeapi_v2,,,,,,,,,,,,,,,,,,114.59987472229,37.984589128502,0
93b2bb1281e4325702897250,宜美沙发厂,公司企业,厂矿,河北省,石家庄市,裕华区,德昌南大街(河北聚悦化纤公司西北侧约200米),,1,1,114.619989,38.00188,,enterprise,http://api.map.baidu.com/place/detail?uid=93b2bb1281e4325702897250&output=html&source=placeapi_v2,,,,,,,,,,,,,,,,,,114.62009017781,38.001924662562,1
55e3327fe4f1e4946c3e1bd8,石家庄高新区金钢木器厂(石炼西路),公司企业,厂矿,河北省,石家庄市,裕华区,石家庄市裕华区石炼路盛景八方东南侧约90米,,1,2,114.656037,37.991512,,enterprise,http://api.map.baidu.com/place/detail?uid=55e3327fe4f1e4946c3e1bd8&output=html&source=placeapi_v2,,,,,,,,,,,,,,,,,,,,2
b8d31481a523f3af4154d74c,石家庄高新区亿嘉粉笔厂,公司企业,厂矿,河北省,石家庄市,裕华区,石家庄市裕华区北环路韩通学校东南450米,,1,1,114.654716,38.008078,13126117666,enterprise,http://api.map.baidu.com/place/detail?uid=b8d31481a523f3af4154d74c&output=html&source=placeapi_v2,0.0,,0.0,,,,,,,,,,,,,,,114.65486442401,38.007978358836,1
1f3281140e5448762cb17e01,洗衣设备厂,公司企业,厂矿,河北省,石家庄市,藁城区,石家庄市藁城区工业西街润达小区北侧约210米,,1,0,114.695221,38.004,,enterprise,http://api.map.baidu.com/place/detail?uid=1f3281140e5448762cb17e01&output=html&source=placeapi_v2,,,,,,,,,,,,,,,,,,,,0
7bed2146f447f65d9d95debd,石家庄高新区聚顺建材加工厂,公司企业,厂矿,河北省,石家庄市,裕华区,石家庄市裕华区中心街未来星幼儿园东北侧约70米,,1,0,114.663399,37.994751,13833395695,enterprise,http://api.map.baidu.com/place/detail?uid=7bed2146f447f65d9d95debd&output=html&source=placeapi_v2,0.0,10:00-22:00,,,,,,,,,,,,,,,,114.66325760231,37.994747137129,0
f3a9bacd5e1375b0ce04ef5d,石家庄豪雪面粉厂,公司企业,厂矿,河北省,石家庄市,藁城区,河北省石家庄市藁城区新赵线,,1,1,114.736915,37.98652,,enterprise,http://api.map.baidu.com/place/detail?uid=f3a9bacd5e1375b0ce04ef5d&output=html&source=placeapi_v2,,,5,,,,,,,,1,,,,,,,114.73736540122,37.986366269394,1
09e7fbb3e0af04e4e31103e4,诚信贴面砂光厂,公司企业,厂矿,河北省,石家庄市,藁城区,河北省石家庄市藁城区新开路28号,,1,1,114.736522,38.012855,,enterprise,http://api.map.baidu.com/place/detail?uid=09e7fbb3e0af04e4e31103e4&output=html&source=placeapi_v2,,,,,,,,,,,,,,,,,,114.73641561562,38.013202615043,1
7fd7231125ad739c5cbe8620,藁城市康利被服厂,公司企业,厂矿,河北省,石家庄市,藁城区,河北省石家庄市藁城区廉州镇北营村工业区18号(隆兴纺织有限公司西100米),,1,0,114.810281,38.004473,(0311)88105888,enterprise,http://api.map.baidu.com/place/detail?uid=7fd7231125ad739c5cbe8620&output=html&source=placeapi_v2,0.0,,0.0,,,,,,,,,,,,,,,114.81028330196,38.004603128402,0
34e9a7f7f1d46681c5effbd0,藁城区衡康被服厂,公司企业,厂矿,河北省,石家庄市,藁城区,河北省石家庄市藁城区廉州镇北营村,,1,0,114.802165,38.000607,13700319469,enterprise,http://api.map.baidu.com/place/detail?uid=34e9a7f7f1d46681c5effbd0&output=html&source=placeapi_v2,,,,,,,,,,,,,,,,,,,,0
98c03edb0cd267befa0cad77,罗纹针织厂,公司企业,厂矿,河北省,石家庄市,藁城区,河北省石家庄市藁城区,,1,0,114.803453,38.001082,13603399144,enterprise,http://api.map.baidu.com/place/detail?uid=98c03edb0cd267befa0cad77&output=html&source=placeapi_v2,,,0.0,,,,,,,,,,,,,,,,,0
f0ccb85138415f42871541a2,藁城区金地芝麻加工厂,公司企业,厂矿,河北省,石家庄市,藁城区,石家庄市藁城区藁贾线友谊加油站西250米,,1,0,114.864806,37.996146,15831950318,enterprise,http://api.map.baidu.com/place/detail?uid=f0ccb85138415f42871541a2&output=html&source=placeapi_v2,,,,,,,,,,,,,,,,,,114.86450260969,37.996129857698,0
b0a782d4c07ab79059f6beaf,河北省藁城市惠德机械工具厂,公司企业,厂矿,河北省,石家庄市,藁城区,河北省石家庄市藁城区廉州镇藁贾线藁城市惠德机械工具厂,,1,0,114.863433,38.012779,(0311)88199777,enterprise,http://api.map.baidu.com/place/detail?uid=b0a782d4c07ab79059f6beaf&output=html&source=placeapi_v2,,,,,,,,,,,,,,,,,,,,0
44800e4502abaf0df219374b,石家庄市金枫家具有限公司,公司企业,厂矿,河北省,石家庄市,鹿泉区,鹿泉区上庄世纪工业园内,44800e4502abaf0df219374b,1,0,114.390428,38.025937,"(0311)82199554,13582335531",enterprise,http://api.map.baidu.com/place/detail?uid=44800e4502abaf0df219374b&output=html&source=placeapi_v2,0.0,,,,,,,,,,,,,,,,,114.39128807507,38.026051250338,0
2bea93c67b13fbaaf72310d9,石家庄市中顺机械厂,公司企业,厂矿,河北省,石家庄市,鹿泉区,石家庄市鹿泉区火炬大街金辉优步悦山南侧约30米,,1,0,114.392258,38.028359,17733822817,enterprise,http://api.map.baidu.com/place/detail?uid=2bea93c67b13fbaaf72310d9&output=html&source=placeapi_v2,,,,,,,,,,,,,,,,,,,,0
41e92e2c9f47e2fdf60e77cd,鹿泉永盛精包装纸制品厂,公司企业,厂矿,河北省,石家庄市,桥西区,石家庄市桥西区西三环与兴东路交叉路口往西约230米,,1,0,114.431493,38.007112,,enterprise,http://api.map.baidu.com/place/detail?uid=41e92e2c9f47e2fdf60e77cd&output=html&source=placeapi_v2,,,,,,,,,,,,,,,,,,,,0
02244cd311065a95c42ba1c8,石家庄博美包装厂,公司企业,厂矿,河北省,石家庄市,鹿泉区,石家庄市鹿泉区凤东街与振岗路交叉路口北侧,,1,0,114.405401,38.025701,,enterprise,http://api.map.baidu.com/place/detail?uid=02244cd311065a95c42ba1c8&output=html&source=placeapi_v2,,,0.0,,,,,,,,2,,,,,,,114.40542689087,38.025326110374,0
26be7a82343ac54d43e192b4,石家庄西良精包装制品厂,公司企业,厂矿,河北省,石家庄市,桥西区,石家庄市桥西区西三环与兴东路交叉路口往西约220米,26be7a82343ac54d43e192b4,1,1,114.43172,38.007131,,enterprise,http://api.map.baidu.com/place/detail?uid=26be7a82343ac54d43e192b4&output=html&source=placeapi_v2,,,,,,,,,,,,,,,,,,,,1
881a28e715601e47f942b210,红旗印刷厂(石铜路),公司企业,厂矿,河北省,石家庄市,桥西区,河北省石家庄市桥西区石铜路2号,881a28e715601e47f942b210,1,1,114.465081,38.025458,"(0311)83808346,(0311)83833607",enterprise,http://api.map.baidu.com/place/detail?uid=881a28e715601e47f942b210&output=html&source=placeapi_v2,,,,,,,,,,,,,,,,,,114.46505144569,38.025354197431,1
a83e36ad9ee67f2d3586f4d4,万夏服装厂,公司企业,厂矿,河北省,石家庄市,桥西区,河北省石家庄市桥西区新石北路5号,a83e36ad9ee67f2d3586f4d4,1,1,114.464029,38.025658,(0311)83032273,enterprise,http://api.map.baidu.com/place/detail?uid=a83e36ad9ee67f2d3586f4d4&output=html&source=placeapi_v2,,,,,,,,,,,,,,,,,,114.46380379635,38.025592622383,1
d027d7b0f8b540f2ad31e52c,磊峰机电科技有限公司工厂,公司企业,厂矿,河北省,石家庄市,桥西区,河北省石家庄市桥西区石铜路35号,d027d7b0f8b540f2ad31e52c,1,1,114.462935,38.022267,,enterprise,http://api.map.baidu.com/place/detail?uid=d027d7b0f8b540f2ad31e52c&output=html&source=placeapi_v2,,,,,,,,,,,,,,,,,,,,1
753ebf460a4dbf1a5d17c3bf,鞋舍-中央工厂,公司企业,厂矿,河北省,石家庄市,桥西区,新石中路367号欧景园5号楼2单元1503室,,1,0,114.456555,38.022669,"18531153053,18532159984",enterprise,http://api.map.baidu.com/place/detail?uid=753ebf460a4dbf1a5d17c3bf&output=html&source=placeapi_v2,,,0,,,,,,,,0,,,,,,,,,0
af514b8d6d18429a932ca396,河北冀安消防器材厂,公司企业,厂矿,河北省,石家庄市,桥西区,河北省石家庄市桥西区振头街道石铜路32号,af514b8d6d18429a932ca396,1,1,114.460664,38.018667,(0311)83818297,enterprise,http://api.map.baidu.com/place/detail?uid=af514b8d6d18429a932ca396&output=html&source=placeapi_v2,,,,,,,,,,,,,,,,,,114.46013244143,38.018961440193,1
