[{"name":"Rosedale","address":"144-20 243 Street","city":"Rosedale","postcode":"11422","phone":"(718) 528-8490","mn":"12:00 PM - 8:00 PM","tu":"1:00 PM - 6:00 PM","we":"10:00 AM - 6:00 PM","th":"12:00 PM - 8:00 PM","fr":"10:00 AM - 6:00 PM","sa":"10:00 AM - 5:00 PM","su":"Closed - Closed","location_1":{"latitude":"40.660152","longitude":"-73.739488"},"borough":"QUEENS   ","latitude":"40.660152","longitude":"-73.739488","community_board":"13","community_council":"31","census_tract":"654","bin":"4135490007","bbl":"4135490007","nta":"Rosedale                                                                   ",":@computed_region_efsh_h5xi":"24018",":@computed_region_f5dn_yrer":"63",":@computed_region_yeji_bk3q":"3",":@computed_region_92fq_4b7q":"47",":@computed_region_sbqj_enih":"63"}
,{"name":"Bayside","address":"214-20 Northern Boulevard","city":"Bayside","postcode":"11361","phone":"(718) 229-1834","mn":"9:00 AM - 8:00 PM","tu":"1:00 PM - 6:00 PM","we":"10:00 AM - 6:00 PM","th":"12:00 PM - 8:00 PM","fr":"10:00 AM - 6:00 PM","sa":"10:00 AM - 5:00 PM","su":"Closed - Closed","location_1":{"latitude":"40.760363","longitude":"-73.768588"},"borough":"QUEENS   ","latitude":"40.760363","longitude":"-73.768588","community_board":"11","community_council":"19","census_tract":"1471","bin":"4073330215","bbl":"4073330215","nta":"Bayside-Bayside Hills                                                      ",":@computed_region_efsh_h5xi":"14196",":@computed_region_f5dn_yrer":"26",":@computed_region_yeji_bk3q":"3",":@computed_region_92fq_4b7q":"20",":@computed_region_sbqj_enih":"69"}
,{"name":"Central Library- The Archives","address":"89-11 Merrick Boulevard","city":"Jamaica","postcode":"11432","phone":"(718) 990-0700","mn":"9:00 AM - 9:00 PM","tu":"9:00 AM - 7:00 PM","we":"9:00 AM - 7:00 PM","th":"9:00 AM - 7:00 PM","fr":"9:00 AM - 7:00 PM","sa":"10:00 AM - 5:00 PM","su":"12:00 PM - 5:00 PM","location_1":{"latitude":"40.707865","longitude":"-73.795295"},"borough":"QUEENS   ","latitude":"40.707865","longitude":"-73.795295","community_board":"12","community_council":"27","census_tract":"460","bin":"4097980006","bbl":"4097980006","nta":"Jamaica                                                                    ",":@computed_region_efsh_h5xi":"24340",":@computed_region_f5dn_yrer":"41",":@computed_region_yeji_bk3q":"3",":@computed_region_92fq_4b7q":"6",":@computed_region_sbqj_enih":"61"}
,{"name":"Hollis","address":"202-05 Hillside Avenue","city":"Hollis","postcode":"11423","phone":"(718) 465-7355","mn":"12:00 PM - 8:00 PM","tu":"1:00 PM - 6:00 PM","we":"10:00 AM - 6:00 PM","th":"12:00 PM - 8:00 PM","fr":"10:00 AM - 6:00 PM","sa":"10:00 AM - 5:00 PM","su":"Closed - Closed","location_1":{"latitude":"40.719914","longitude":"-73.762191"},"borough":"QUEENS   ","latitude":"40.719914","longitude":"-73.762191","community_board":"8","community_council":"23","census_tract":"478","bin":"4105320120","bbl":"4105320120","nta":"Jamaica Estates-Holliswood                                                 ",":@computed_region_efsh_h5xi":"24332",":@computed_region_f5dn_yrer":"25",":@computed_region_yeji_bk3q":"3",":@computed_region_92fq_4b7q":"16",":@computed_region_sbqj_enih":"65"}
,{"name":"Queens Library for Teens","address":"2002 Cornaga Ave","city":"Far Rockaway","postcode":"11691","phone":"(718) 471-2573","mn":"2:30 PM - 6:00 PM","tu":"2:30 PM - 6:00 PM","we":"2:30 PM - 6:00 PM","th":"2:30 PM - 6:00 PM","fr":"2:30 PM - 6:00 PM","sa":"Closed - Closed","su":"Closed - Closed"}
,{"name":"Douglaston/Little Neck","address":"249-01 Northern Boulevard","city":"Little Neck","postcode":"11363","phone":"(718) 225-8414","mn":"12:00 PM - 8:00 PM","tu":"1:00 PM - 6:00 PM","we":"10:00 AM - 6:00 PM","th":"12:00 PM - 8:00 PM","fr":"10:00 AM - 6:00 PM","sa":"10:00 AM - 5:00 PM","su":"Closed - Closed","location_1":{"latitude":"40.76795","longitude":"-73.738088"},"borough":"QUEENS   ","latitude":"40.76795","longitude":"-73.738088","community_board":"11","community_council":"19","census_tract":"1479","bin":"4081260087","bbl":"4081260087","nta":"Douglas Manor-Douglaston-Little Neck                                       ",":@computed_region_efsh_h5xi":"14505",":@computed_region_f5dn_yrer":"26",":@computed_region_yeji_bk3q":"3",":@computed_region_92fq_4b7q":"20",":@computed_region_sbqj_enih":"69"}
,{"name":"Queensboro Hill","address":"60-05 Main Street","city":"Flushing","postcode":"11355","phone":"(718) 359-8332","mn":"12:00 PM - 8:00 PM","tu":"1:00 PM - 6:00 PM","we":"10:00 AM - 6:00 PM","th":"12:00 PM - 8:00 PM","fr":"10:00 AM - 6:00 PM","sa":"10:00 AM - 5:00 PM","su":"Closed - Closed","location_1":{"latitude":"40.743081","longitude":"-73.825526"},"borough":"QUEENS   ","latitude":"40.743081","longitude":"-73.825526","community_board":"7","community_council":"20","census_tract":"80301","bin":"4064050050","bbl":"4064050050","nta":"Queensboro Hill                                                            ",":@computed_region_efsh_h5xi":"14190",":@computed_region_f5dn_yrer":"22",":@computed_region_yeji_bk3q":"3",":@computed_region_92fq_4b7q":"3",":@computed_region_sbqj_enih":"67"}
,{"name":"Howard Beach","address":"92-06 156 Avenue","city":" Howard Beach","postcode":"11414","phone":"(718) 641-7086","mn":"12:00 PM - 8:00 PM","tu":"1:00 PM - 6:00 PM","we":"10:00 AM - 6:00 PM","th":"12:00 PM - 8:00 PM","fr":"10:00 AM - 6:00 PM","sa":"10:00 AM - 5:00 PM","su":"Closed - Closed","location_1":{"latitude":"40.664069","longitude":"-73.841928"},"borough":"QUEENS   ","latitude":"40.664069","longitude":"-73.841928","community_board":"10","community_council":"32","census_tract":"892","bin":"4139570001","bbl":"4139570001","nta":"Lindenwood-Howard Beach                                                    ",":@computed_region_efsh_h5xi":"15314",":@computed_region_f5dn_yrer":"62",":@computed_region_yeji_bk3q":"3",":@computed_region_92fq_4b7q":"41",":@computed_region_sbqj_enih":"64"}
,{"name":"South Jamaica","address":"108-41 Guy R. Brewer Boulevard","city":"Jamaica","postcode":"11433","phone":"(718) 739-4088","mn":"10:00 AM - 5:00 PM","tu":"Closed - Closed","we":"Closed - Closed","th":"Closed - Closed","fr":"Closed - Closed","sa":"Closed - Closed","su":"Closed - Closed","location_1":{"latitude":"40.695879","longitude":"-73.790734"},"borough":"QUEENS   ","latitude":"40.695879","longitude":"-73.790734","community_board":"12","community_council":"27","census_tract":"258","bin":"4101710008","bbl":"4101710008","nta":"South Jamaica                                                              ",":@computed_region_efsh_h5xi":"24668",":@computed_region_f5dn_yrer":"41",":@computed_region_yeji_bk3q":"3",":@computed_region_92fq_4b7q":"6",":@computed_region_sbqj_enih":"61"}
,{"name":"Long Island City","address":"37-44 21 Street","city":"Long Island City","postcode":"11101","phone":"(718) 752-3700","mn":"9:00 AM - 8:00 PM","tu":"1:00 PM - 6:00 PM","we":"10:00 AM - 6:00 PM","th":"12:00 PM - 8:00 PM","fr":"10:00 AM - 6:00 PM","sa":"10:00 AM - 5:00 PM","su":"Closed - Closed","location_1":{"latitude":"40.757826","longitude":"-73.938771"},"borough":"QUEENS   ","latitude":"40.757826","longitude":"-73.938771","community_board":"1","community_council":"26","census_tract":"43","bin":"4003630001","bbl":"4003630001","nta":"Queensbridge-Ravenswood-Long Island City                                   ",":@computed_region_efsh_h5xi":"16858",":@computed_region_f5dn_yrer":"39",":@computed_region_yeji_bk3q":"3",":@computed_region_92fq_4b7q":"33",":@computed_region_sbqj_enih":"72"}
,{"name":"Elmhurst","address":"86-01 Broadway","city":"Elmhurst","postcode":"11373","phone":"(718) 271-1020","mn":"9:00 AM - 8:00 PM","tu":"1:00 PM - 6:00 PM","we":"10:00 AM - 6:00 PM","th":"12:00 PM - 8:00 PM","fr":"10:00 AM - 6:00 PM","sa":"10:00 AM - 5:00 PM","su":"Closed - Closed","location_1":{"latitude":"40.738498","longitude":"-73.877382"},"borough":"QUEENS   ","latitude":"40.738498","longitude":"-73.877382","community_board":"4","community_council":"25","census_tract":"473","nta":"Elmhurst                                                                   ",":@computed_region_efsh_h5xi":"14784",":@computed_region_f5dn_yrer":"66",":@computed_region_yeji_bk3q":"3",":@computed_region_92fq_4b7q":"5",":@computed_region_sbqj_enih":"68"}
,{"name":"McGoldrick","address":"155-06 Roosevelt Av. (off Northern Blvd)","city":"Flushing","postcode":"11354","phone":"(718) 461-1616","mn":"12:00 PM - 8:00 PM","tu":"1:00 PM - 6:00 PM","we":"10:00 AM - 6:00 PM","th":"12:00 PM - 8:00 PM","fr":"10:00 AM - 6:00 PM","sa":"10:00 AM - 5:00 PM","su":"Closed - Closed","location_1":{"latitude":"40.763998","longitude":"-73.809754"},"borough":"QUEENS   ","latitude":"40.763998","longitude":"-73.809754","community_board":"7","community_council":"20","census_tract":"1171","bin":"4052750120","bbl":"4052750120","nta":"Murray Hill                                                                ",":@computed_region_efsh_h5xi":"13832",":@computed_region_f5dn_yrer":"22",":@computed_region_yeji_bk3q":"3",":@computed_region_92fq_4b7q":"3",":@computed_region_sbqj_enih":"67"}
,{"name":"Bellerose","address":"250-06 Hillside Avenue","city":"Bellerose","postcode":"11426","phone":"(718) 831-8644","mn":"12:00 PM - 8:00 PM","tu":"1:00 PM - 6:00 PM","we":"10:00 AM - 6:00 PM","th":"12:00 PM - 8:00 PM","fr":"10:00 AM - 6:00 PM","sa":"10:00 AM - 5:00 PM","su":"Closed - Closed","location_1":{"latitude":"40.735403","longitude":"-73.717266"},"borough":"QUEENS   ","latitude":"40.735403","longitude":"-73.717266","community_board":"13","community_council":"23","census_tract":"157101","bin":"4086040085","bbl":"4086040085","nta":"Bellerose                                                                  ",":@computed_region_efsh_h5xi":"24335",":@computed_region_f5dn_yrer":"63",":@computed_region_yeji_bk3q":"3",":@computed_region_92fq_4b7q":"16",":@computed_region_sbqj_enih":"63"}
,{"name":"Far Rockaway","address":"1637 Central Avenue","city":"Far Rockaway","postcode":"11691","phone":"(718) 327-2549","mn":"9:00 AM - 8:00 PM","tu":"1:00 PM - 6:00 PM","we":"10:00 AM - 6:00 PM","th":"12:00 PM - 8:00 PM","fr":"10:00 AM - 6:00 PM","sa":"10:00 AM - 5:00 PM","su":"Closed - Closed","location_1":{"latitude":"40.604487","longitude":"-73.752641"},"borough":"QUEENS   ","latitude":"40.604487","longitude":"-73.752641","community_board":"14","community_council":"31","census_tract":"103202","bin":"4155590025","bbl":"4155590025","nta":"Far Rockaway-Bayswater                                                     ",":@computed_region_efsh_h5xi":"20529",":@computed_region_f5dn_yrer":"51",":@computed_region_yeji_bk3q":"3",":@computed_region_92fq_4b7q":"47",":@computed_region_sbqj_enih":"59"}
,{"name":"Windsor Park","address":"79-50 Bell Boulevard","city":"Bayside","postcode":"11364","phone":"(718) 468-8300","mn":"12:00 PM - 8:00 PM","tu":"1:00 PM - 6:00 PM","we":"10:00 AM - 6:00 PM","th":"12:00 PM - 8:00 PM","fr":"10:00 AM - 6:00 PM","sa":"10:00 AM - 5:00 PM","su":"Closed - Closed","location_1":{"latitude":"40.734936","longitude":"-73.755509"},"borough":"QUEENS   ","latitude":"40.734936","longitude":"-73.755509","community_board":"11","community_council":"23","census_tract":"129103","bin":"4077720001","bbl":"4077720001","nta":"Oakland Gardens                                                            ",":@computed_region_efsh_h5xi":"14506",":@computed_region_f5dn_yrer":"26",":@computed_region_yeji_bk3q":"3",":@computed_region_92fq_4b7q":"16",":@computed_region_sbqj_enih":"69"}
,{"name":"Ozone Park","address":"92-24 Rockaway Boulevard","city":"Ozone Park","postcode":"11417","phone":"(718) 845-3127","mn":"12:00 PM - 8:00 PM","tu":"1:00 PM - 6:00 PM","we":"10:00 AM - 6:00 PM","th":"12:00 PM - 8:00 PM","fr":"10:00 AM - 6:00 PM","sa":"10:00 AM - 5:00 PM","su":"Closed - Closed","location_1":{"latitude":"40.681283","longitude":"-73.847111"},"borough":"QUEENS   ","latitude":"40.681283","longitude":"-73.847111","community_board":"10","community_council":"32","census_tract":"54","bin":"4091130030","bbl":"4091130030","nta":"Ozone Park                                                                 ",":@computed_region_efsh_h5xi":"24013",":@computed_region_f5dn_yrer":"62",":@computed_region_yeji_bk3q":"3",":@computed_region_92fq_4b7q":"41",":@computed_region_sbqj_enih":"64"}
,{"name":"Lefrak City","address":"98-30 57 Avenue","city":"Corona","postcode":"11368","phone":"(718) 592-7677","mn":"12:00 PM - 8:00 PM","tu":"1:00 PM - 6:00 PM","we":"10:00 AM - 6:00 PM","th":"12:00 PM - 8:00 PM","fr":"10:00 AM - 6:00 PM","sa":"10:00 AM - 5:00 PM","su":"Closed - Closed","location_1":{"latitude":"40.738027","longitude":"-73.861173"},"borough":"QUEENS   ","latitude":"40.738027","longitude":"-73.861173","community_board":"4","community_council":"21","census_tract":"455","bin":"4019180070","bbl":"4019180070","nta":"Corona                                                                     ",":@computed_region_efsh_h5xi":"14510",":@computed_region_f5dn_yrer":"66",":@computed_region_yeji_bk3q":"3",":@computed_region_92fq_4b7q":"21",":@computed_region_sbqj_enih":"68"}
,{"name":"Bay Terrace","address":"18-36 Bell Boulevard","city":"Bayside","postcode":"11360","phone":"(718) 423-7004","mn":"12:00 PM - 8:00 PM","tu":"1:00 PM - 6:00 PM","we":"10:00 AM - 6:00 PM","th":"12:00 PM - 8:00 PM","fr":"10:00 AM - 6:00 PM","sa":"10:00 AM - 5:00 PM","su":"Closed - Closed","location_1":{"latitude":"40.783103","longitude":"-73.777013"},"borough":"QUEENS   ","latitude":"40.783103","longitude":"-73.777013","community_board":"7","community_council":"19","census_tract":"99704","bin":"4058650082","bbl":"4058650082","nta":"Ft. Totten-Bay Terrace-Clearview                                           ",":@computed_region_efsh_h5xi":"14195",":@computed_region_f5dn_yrer":"22",":@computed_region_yeji_bk3q":"3",":@computed_region_92fq_4b7q":"20",":@computed_region_sbqj_enih":"67"}
,{"name":"North Forest Park","address":"98-27 Metropolitan Avenue","city":"Forest Hills","postcode":"11375","phone":"(718) 261-5512","mn":"12:00 PM - 8:00 PM","tu":"1:00 PM - 6:00 PM","we":"10:00 AM - 6:00 PM","th":"12:00 PM - 8:00 PM","fr":"10:00 AM - 6:00 PM","sa":"10:00 AM - 5:00 PM","su":"Closed - Closed","location_1":{"latitude":"40.710913","longitude":"-73.853662"},"borough":"QUEENS   ","latitude":"40.710913","longitude":"-73.853662","community_board":"6","community_council":"29","census_tract":"729","bin":"4032070022","bbl":"4032070022","nta":"Forest Hills                                                               ",":@computed_region_efsh_h5xi":"14786",":@computed_region_f5dn_yrer":"40",":@computed_region_yeji_bk3q":"3",":@computed_region_92fq_4b7q":"28",":@computed_region_sbqj_enih":"70"}
,{"name":"Forest Hills","address":"108-19 71 Avenue","city":"Forest Hills","postcode":"11375","phone":"(718) 268-7934","mn":"9:00 AM - 8:00 PM","tu":"1:00 PM - 6:00 PM","we":"10:00 AM - 6:00 PM","th":"12:00 PM - 8:00 PM","fr":"10:00 AM - 6:00 PM","sa":"10:00 AM - 5:00 PM","su":"Closed - Closed","location_1":{"latitude":"40.721777","longitude":"-73.843378"},"borough":"QUEENS   ","latitude":"40.721777","longitude":"-73.843378","community_board":"6","community_council":"29","census_tract":"739","bin":"4022230054","bbl":"4022230054","nta":"Forest Hills                                                               ",":@computed_region_efsh_h5xi":"14786",":@computed_region_f5dn_yrer":"40",":@computed_region_yeji_bk3q":"3",":@computed_region_92fq_4b7q":"28",":@computed_region_sbqj_enih":"70"}
,{"name":"Laurelton","address":"134-26 225 Street","city":"Laurelton","postcode":"11413","phone":"(718) 528-2822","mn":"12:00 PM - 8:00 PM","tu":"1:00 PM - 6:00 PM","we":"10:00 AM - 6:00 PM","th":"12:00 PM - 8:00 PM","fr":"10:00 AM - 6:00 PM","sa":"10:00 AM - 5:00 PM","su":"Closed - Closed","location_1":{"latitude":"40.677059","longitude":"-73.74514"},"borough":"QUEENS   ","latitude":"40.677059","longitude":"-73.74514","community_board":"13","community_council":"31","census_tract":"630","bin":"4131050007","bbl":"4131050007","nta":"Laurelton                                                                  ",":@computed_region_efsh_h5xi":"15313",":@computed_region_f5dn_yrer":"63",":@computed_region_yeji_bk3q":"3",":@computed_region_92fq_4b7q":"47",":@computed_region_sbqj_enih":"63"}
,{"name":"Mitchell-Linden","address":"29-42 Union Street","city":"Flushing","postcode":"11354","phone":"(718) 539-2330","mn":"12:00 PM - 8:00 PM","tu":"1:00 PM - 6:00 PM","we":"10:00 AM - 6:00 PM","th":"12:00 PM - 8:00 PM","fr":"10:00 AM - 6:00 PM","sa":"10:00 AM - 5:00 PM","su":"Closed - Closed","location_1":{"latitude":"40.771345","longitude":"-73.826582"},"borough":"QUEENS   ","latitude":"40.771345","longitude":"-73.826582","community_board":"7","community_council":"20","census_tract":"88901","bin":"4043430110","bbl":"4043430110","nta":"Flushing                                                                   ",":@computed_region_efsh_h5xi":"13832",":@computed_region_f5dn_yrer":"22",":@computed_region_yeji_bk3q":"3",":@computed_region_92fq_4b7q":"3",":@computed_region_sbqj_enih":"67"}
,{"name":"Woodside","address":"54-22 Skillman Avenue","city":" Woodside","postcode":"11377","phone":"(718) 429-4700","mn":"12:00 PM - 8:00 PM","tu":"1:00 PM - 6:00 PM","we":"10:00 AM - 6:00 PM","th":"12:00 PM - 8:00 PM","fr":"10:00 AM - 6:00 PM","sa":"10:00 AM - 5:00 PM","su":"Closed - Closed","location_1":{"latitude":"40.745524","longitude":"-73.90982"},"borough":"QUEENS   ","latitude":"40.745524","longitude":"-73.90982","community_board":"2","community_council":"26","census_tract":"251","bin":"4013170085","bbl":"4013170085","nta":"Woodside                                                                   ",":@computed_region_efsh_h5xi":"14787",":@computed_region_f5dn_yrer":"53",":@computed_region_yeji_bk3q":"3",":@computed_region_92fq_4b7q":"33",":@computed_region_sbqj_enih":"66"}
,{"name":"South Ozone Park","address":"128-16 Rockaway Boulevard","city":"South Ozone Park","postcode":"11420","phone":"(718) 529-1660","mn":"12:00 PM - 8:00 PM","tu":"1:00 PM - 6:00 PM","we":"10:00 AM - 6:00 PM","th":"12:00 PM - 8:00 PM","fr":"10:00 AM - 6:00 PM","sa":"10:00 AM - 5:00 PM","su":"Closed - Closed","location_1":{"latitude":"40.675084","longitude":"-73.809585"},"borough":"QUEENS   ","latitude":"40.675084","longitude":"-73.809585","community_board":"10","community_council":"28","census_tract":"818","bin":"4117500057","bbl":"4117500057","nta":"South Ozone Park                                                           ",":@computed_region_efsh_h5xi":"24016",":@computed_region_f5dn_yrer":"62",":@computed_region_yeji_bk3q":"3",":@computed_region_92fq_4b7q":"46",":@computed_region_sbqj_enih":"64"}
,{"name":"Broadway","address":"40-20 Broadway","city":"Long Island City","postcode":"11103","phone":"(718) 721-2462","mn":"9:00 AM - 8:00 PM","tu":"1:00 PM - 6:00 PM","we":"10:00 AM - 6:00 PM","th":"12:00 PM - 8:00 PM","fr":"10:00 AM - 6:00 PM","sa":"10:00 AM - 5:00 PM","su":"Closed - Closed","location_1":{"latitude":"40.758859","longitude":"-73.918772"},"borough":"QUEENS   ","latitude":"40.758859","longitude":"-73.918772","community_board":"1","community_council":"26","census_tract":"157","bin":"4006760050","bbl":"4006760050","nta":"Astoria                                                                    ",":@computed_region_efsh_h5xi":"16860",":@computed_region_f5dn_yrer":"39",":@computed_region_yeji_bk3q":"3",":@computed_region_92fq_4b7q":"33",":@computed_region_sbqj_enih":"72"}
,{"name":"Glendale","address":"78-60 73 Place","city":"Glendale","postcode":"11385","phone":"(718) 821-4980","mn":"Closed - Closed","tu":"Closed - Closed","we":"Closed - Closed","th":"Closed - Closed","fr":"Closed - Closed","sa":"Closed - Closed","su":"Closed - Closed","location_1":{"latitude":"40.703149","longitude":"-73.875748"},"borough":"QUEENS   ","latitude":"40.703149","longitude":"-73.875748","community_board":"5","community_council":"30","census_tract":"623","bin":"4036960047","bbl":"4036960047","nta":"Glendale                                                                   ",":@computed_region_efsh_h5xi":"15310",":@computed_region_f5dn_yrer":"54",":@computed_region_yeji_bk3q":"3",":@computed_region_92fq_4b7q":"34",":@computed_region_sbqj_enih":"62"}
,{"name":"Ridgewood","address":"20-12 Madison Street","city":"Ridgewood","postcode":"11385","phone":"(718) 821-4770","mn":"9:00 AM - 8:00 PM","tu":"1:00 PM - 6:00 PM","we":"10:00 AM - 6:00 PM","th":"12:00 PM - 8:00 PM","fr":"10:00 AM - 6:00 PM","sa":"10:00 AM - 5:00 PM","su":"Closed - Closed","location_1":{"latitude":"40.705193","longitude":"-73.902867"},"borough":"QUEENS   ","latitude":"40.705193","longitude":"-73.902867","community_board":"5","community_council":"30","census_tract":"589","bin":"4034910001","bbl":"4034910001","nta":"Ridgewood                                                                  ",":@computed_region_efsh_h5xi":"15310",":@computed_region_f5dn_yrer":"54",":@computed_region_yeji_bk3q":"3",":@computed_region_92fq_4b7q":"34",":@computed_region_sbqj_enih":"62"}
,{"name":"Woodhaven","address":"85-41 Forest Parkway","city":"Woodhaven","postcode":"11421","phone":"(718) 849-1010","mn":"12:00 PM - 8:00 PM","tu":"1:00 PM - 6:00 PM","we":"10:00 AM - 6:00 PM","th":"12:00 PM - 8:00 PM","fr":"10:00 AM - 6:00 PM","sa":"10:00 AM - 5:00 PM","su":"Closed - Closed","location_1":{"latitude":"40.694619","longitude":"-73.861812"},"borough":"QUEENS   ","latitude":"40.694619","longitude":"-73.861812","community_board":"9","community_council":"32","census_tract":"12","bin":"4088560085","bbl":"4088560085","nta":"Woodhaven                                                                  ",":@computed_region_efsh_h5xi":"24017",":@computed_region_f5dn_yrer":"46",":@computed_region_yeji_bk3q":"3",":@computed_region_92fq_4b7q":"41",":@computed_region_sbqj_enih":"60"}
,{"name":"South Hollis","address":"204-01 Hollis Avenue","city":"South Hollis","postcode":"11412","phone":"(718) 465-6779","mn":"12:00 PM - 8:00 PM","tu":"1:00 PM - 6:00 PM","we":"10:00 AM - 6:00 PM","th":"12:00 PM - 8:00 PM","fr":"10:00 AM - 6:00 PM","sa":"10:00 AM - 5:00 PM","su":"Closed - Closed","location_1":{"latitude":"40.706755","longitude":"-73.753827"},"borough":"QUEENS   ","latitude":"40.706755","longitude":"-73.753827","community_board":"12","community_council":"27","census_tract":"508","bin":"4109070030","bbl":"4109070030","nta":"Hollis                                                                     ",":@computed_region_efsh_h5xi":"15312",":@computed_region_f5dn_yrer":"41",":@computed_region_yeji_bk3q":"3",":@computed_region_92fq_4b7q":"6",":@computed_region_sbqj_enih":"61"}
,{"name":"Steinway","address":"21-45 31 Street","city":"Long Island City","postcode":"11105","phone":"(718) 728-1965","mn":"9:00 AM - 8:00 PM","tu":"1:00 PM - 6:00 PM","we":"10:00 AM - 6:00 PM","th":"12:00 PM - 8:00 PM","fr":"10:00 AM - 6:00 PM","sa":"10:00 AM - 5:00 PM","su":"Closed - Closed","location_1":{"latitude":"40.777105","longitude":"-73.909496"},"borough":"QUEENS   ","latitude":"40.777105","longitude":"-73.909496","community_board":"1","community_council":"22","census_tract":"113","bin":"4008310015","bbl":"4008310015","nta":"Steinway                                                                   ",":@computed_region_efsh_h5xi":"16862",":@computed_region_f5dn_yrer":"39",":@computed_region_yeji_bk3q":"3",":@computed_region_92fq_4b7q":"4",":@computed_region_sbqj_enih":"72"}
,{"name":"Sunnyside","address":"43-06 Greenpoint Avenue","city":"Long Island City","postcode":"11104","phone":"(718) 784-3033","mn":"9:00 AM - 8:00 PM","tu":"1:00 PM - 6:00 PM","we":"10:00 AM - 6:00 PM","th":"12:00 PM - 8:00 PM","fr":"10:00 AM - 6:00 PM","sa":"10:00 AM - 5:00 PM","su":"Closed - Closed","location_1":{"latitude":"40.740977","longitude":"-73.921797"},"borough":"QUEENS   ","latitude":"40.740977","longitude":"-73.921797","community_board":"2","community_council":"26","census_tract":"18502","bin":"4001730016","bbl":"4001730016","nta":"Hunters Point-Sunnyside-West Maspeth                                       ",":@computed_region_efsh_h5xi":"16861",":@computed_region_f5dn_yrer":"53",":@computed_region_yeji_bk3q":"3",":@computed_region_92fq_4b7q":"33",":@computed_region_sbqj_enih":"66"}
,{"name":"Maspeth","address":"69-70 Grand Avenue","city":"Maspeth","postcode":"11378","phone":"(718) 639-5228","mn":"12:00 PM - 8:00 PM","tu":"1:00 PM - 6:00 PM","we":"10:00 AM - 6:00 PM","th":"12:00 PM - 8:00 PM","fr":"10:00 AM - 6:00 PM","sa":"10:00 AM - 5:00 PM","su":"Closed - Closed","location_1":{"latitude":"40.727126","longitude":"-73.893357"},"borough":"QUEENS   ","latitude":"40.727126","longitude":"-73.893357","community_board":"5","community_council":"30","census_tract":"49302","bin":"4027960008","bbl":"4027960008","nta":"Maspeth                                                                    ",":@computed_region_efsh_h5xi":"14788",":@computed_region_f5dn_yrer":"54",":@computed_region_yeji_bk3q":"3",":@computed_region_92fq_4b7q":"34",":@computed_region_sbqj_enih":"62"}
,{"name":"Hillcrest","address":"187-05 Union Turnpike","city":"Flushing","postcode":"11366","phone":"(718) 454-2786","mn":"9:00 AM - 8:00 PM","tu":"1:00 PM - 6:00 PM","we":"10:00 AM - 6:00 PM","th":"12:00 PM - 8:00 PM","fr":"10:00 AM - 6:00 PM","sa":"10:00 AM - 5:00 PM","su":"Closed - Closed","location_1":{"latitude":"40.728981","longitude":"-73.781902"},"borough":"QUEENS   ","latitude":"40.728981","longitude":"-73.781902","community_board":"8","community_council":"24","census_tract":"1333","bin":"4072040040","bbl":"4072040040","nta":"Fresh Meadows-Utopia                                                       ",":@computed_region_efsh_h5xi":"14508",":@computed_region_f5dn_yrer":"25",":@computed_region_yeji_bk3q":"3",":@computed_region_92fq_4b7q":"24",":@computed_region_sbqj_enih":"65"}
,{"name":"Baisley Park","address":"117-11 Sutphin Boulevard","city":"Jamaica","postcode":"11436","phone":"(718) 529-1590","mn":"12:00 PM - 8:00 PM","tu":"1:00 PM - 6:00 PM","we":"10:00 AM - 6:00 PM","th":"12:00 PM - 8:00 PM","fr":"10:00 AM - 6:00 PM","sa":"10:00 AM - 5:00 PM","su":"Closed - Closed","location_1":{"latitude":"40.680318","longitude":"-73.79203"},"borough":"QUEENS   ","latitude":"40.680318","longitude":"-73.79203","community_board":"12","community_council":"28","census_tract":"288","bin":"4122040099","bbl":"4122040099","nta":"Baisley Park                                                               ",":@computed_region_efsh_h5xi":"24671",":@computed_region_f5dn_yrer":"41",":@computed_region_yeji_bk3q":"3",":@computed_region_92fq_4b7q":"46",":@computed_region_sbqj_enih":"71"}
,{"name":"Richmond Hill","address":"118-14 Hillside Avenue","city":"Richmond Hill","postcode":"11418","phone":"(718) 849-7150","mn":"12:00 PM - 8:00 PM","tu":"1:00 PM - 6:00 PM","we":"10:00 AM - 6:00 PM","th":"12:00 PM - 8:00 PM","fr":"10:00 AM - 6:00 PM","sa":"10:00 AM - 5:00 PM","su":"Closed - Closed","location_1":{"latitude":"40.701022","longitude":"-73.83211"},"borough":"QUEENS   ","latitude":"40.701022","longitude":"-73.83211","community_board":"9","community_council":"29","census_tract":"132","bin":"4092640056","bbl":"4092640056","nta":"Richmond Hill                                                              ",":@computed_region_efsh_h5xi":"24014",":@computed_region_f5dn_yrer":"46",":@computed_region_yeji_bk3q":"3",":@computed_region_92fq_4b7q":"28",":@computed_region_sbqj_enih":"60"}
,{"name":"Cyber Center","address":"89-11 Merrick Boulevard","city":"Jamaica","postcode":"11432","phone":"(718) 990-0700","mn":"9:00 AM - 9:00 PM","tu":"9:00 AM - 9:00 PM","we":"9:00 AM - 9:00 PM","th":"9:00 AM - 9:00 PM","fr":"9:00 AM - 7:00 PM","sa":"10:00 AM - 5:00 PM","su":"12:00 PM - 5:00 PM","location_1":{"latitude":"40.707865","longitude":"-73.795295"},"borough":"QUEENS   ","latitude":"40.707865","longitude":"-73.795295","community_board":"12","community_council":"27","census_tract":"460","bin":"4097980006","bbl":"4097980006","nta":"Jamaica                                                                    ",":@computed_region_efsh_h5xi":"24340",":@computed_region_f5dn_yrer":"41",":@computed_region_yeji_bk3q":"3",":@computed_region_92fq_4b7q":"6",":@computed_region_sbqj_enih":"61"}
,{"name":"Jackson Heights","address":"35-51 81 Street","city":"Jackson Heights","postcode":"11372","phone":"(718) 899-2500","mn":"9:00 AM - 8:00 PM","tu":"1:00 PM - 6:00 PM","we":"10:00 AM - 6:00 PM","th":"12:00 PM - 8:00 PM","fr":"10:00 AM - 6:00 PM","sa":"10:00 AM - 5:00 PM","su":"Closed - Closed","location_1":{"latitude":"40.751319","longitude":"-73.885533"},"borough":"QUEENS   ","latitude":"40.751319","longitude":"-73.885533","community_board":"3","community_council":"25","census_tract":"283","bin":"4012810048","bbl":"4012810048","nta":"Jackson Heights                                                            ",":@computed_region_efsh_h5xi":"14783",":@computed_region_f5dn_yrer":"65",":@computed_region_yeji_bk3q":"3",":@computed_region_92fq_4b7q":"5",":@computed_region_sbqj_enih":"73"}
,{"name":"North Hills","address":"57-04 Marathon Parkway","city":"Little Neck","postcode":"11362","phone":"(718) 225-3550","mn":"12:00 PM - 8:00 PM","tu":"1:00 PM - 6:00 PM","we":"10:00 AM - 6:00 PM","th":"12:00 PM - 8:00 PM","fr":"10:00 AM - 6:00 PM","sa":"10:00 AM - 5:00 PM","su":"Closed - Closed","location_1":{"latitude":"40.75942","longitude":"-73.731307"},"borough":"QUEENS   ","latitude":"40.75942","longitude":"-73.731307","community_board":"11","community_council":"23","census_tract":"152901","bin":"4082760657","bbl":"4082760657","nta":"Douglas Manor-Douglaston-Little Neck                                       ",":@computed_region_efsh_h5xi":"14197",":@computed_region_f5dn_yrer":"26",":@computed_region_yeji_bk3q":"3",":@computed_region_92fq_4b7q":"16",":@computed_region_sbqj_enih":"69"}
,{"name":"Lefferts","address":"103-34 Lefferts Boulevard","city":"Richmond Hill","postcode":"11419","phone":"(718) 843-5950","mn":"9:00 AM - 8:00 PM","tu":"1:00 PM - 6:00 PM","we":"10:00 AM - 6:00 PM","th":"12:00 PM - 8:00 PM","fr":"10:00 AM - 6:00 PM","sa":"10:00 AM - 5:00 PM","su":"Closed - Closed","location_1":{"latitude":"40.687273","longitude":"-73.824691"},"borough":"QUEENS   ","latitude":"40.687273","longitude":"-73.824691","community_board":"10","community_council":"28","census_tract":"106","bin":"4095560020","bbl":"4095560020","nta":"South Ozone Park                                                           ",":@computed_region_efsh_h5xi":"24015",":@computed_region_f5dn_yrer":"62",":@computed_region_yeji_bk3q":"3",":@computed_region_92fq_4b7q":"46",":@computed_region_sbqj_enih":"64"}
,{"name":"Job Information Center","address":"89-11 Merrick Boulevard","city":"Jamaica","postcode":"11432","phone":"(718) 990-0700","mn":"9:00 AM - 9:00 PM","tu":"9:00 AM - 9:00 PM","we":"9:00 AM - 9:00 PM","th":"9:00 AM - 9:00 PM","fr":"9:00 AM - 7:00 PM","sa":"10:00 AM - 5:00 PM","su":"12:00 PM - 5:00 PM","location_1":{"latitude":"40.707865","longitude":"-73.795295"},"borough":"QUEENS   ","latitude":"40.707865","longitude":"-73.795295","community_board":"12","community_council":"27","census_tract":"460","bin":"4097980006","bbl":"4097980006","nta":"Jamaica                                                                    ",":@computed_region_efsh_h5xi":"24340",":@computed_region_f5dn_yrer":"41",":@computed_region_yeji_bk3q":"3",":@computed_region_92fq_4b7q":"6",":@computed_region_sbqj_enih":"61"}
,{"name":"East Flushing","address":"196-36 Northern Boulevard","city":"Flushing","postcode":"11358","phone":"(718) 357-6643","mn":"12:00 PM - 8:00 PM","tu":"1:00 PM - 6:00 PM","we":"10:00 AM - 6:00 PM","th":"12:00 PM - 8:00 PM","fr":"10:00 AM - 6:00 PM","sa":"10:00 AM - 5:00 PM","su":"Closed - Closed","location_1":{"latitude":"40.757877","longitude":"-73.784804"},"borough":"QUEENS   ","latitude":"40.757877","longitude":"-73.784804","community_board":"11","community_council":"19","census_tract":"145101","bin":"4055200018","bbl":"4055200018","nta":"Auburndale                                                                 ",":@computed_region_efsh_h5xi":"14193",":@computed_region_f5dn_yrer":"26",":@computed_region_yeji_bk3q":"3",":@computed_region_92fq_4b7q":"20",":@computed_region_sbqj_enih":"69"}
,{"name":"Poppenhusen","address":"121-23 14 Avenue","city":"College Point","postcode":"11356","phone":"(718) 359-1102","mn":"12:00 PM - 8:00 PM","tu":"1:00 PM - 6:00 PM","we":"10:00 AM - 6:00 PM","th":"12:00 PM - 8:00 PM","fr":"10:00 AM - 6:00 PM","sa":"10:00 AM - 5:00 PM","su":"Closed - Closed","location_1":{"latitude":"40.785984","longitude":"-73.846506"},"borough":"QUEENS   ","latitude":"40.785984","longitude":"-73.846506","community_board":"7","community_council":"19","census_tract":"929","bin":"4040420113","bbl":"4040420113","nta":"College Point                                                              ",":@computed_region_efsh_h5xi":"14191",":@computed_region_f5dn_yrer":"22",":@computed_region_yeji_bk3q":"3",":@computed_region_92fq_4b7q":"20",":@computed_region_sbqj_enih":"67"}
,{"name":"Ravenswood","address":"Now a Family Literacy Center","city":"35-32 21 St., LIC","postcode":"11106","phone":"By apptmt only","mn":"Closed - Closed","tu":"Closed - Closed","we":"Closed - Closed","th":"Closed - Closed","fr":"Closed - Closed","sa":"Closed - Closed","su":"Closed - Closed","borough":"QUEENS   "}
,{"name":"East Elmhurst","address":"95-06 Astoria Boulevard","city":"East Elmhurst","postcode":"11369","phone":"(718) 424-2619","mn":"12:00 PM - 8:00 PM","tu":"1:00 PM - 6:00 PM","we":"10:00 AM - 6:00 PM","th":"12:00 PM - 8:00 PM","fr":"10:00 AM - 6:00 PM","sa":"10:00 AM - 5:00 PM","su":"Closed - Closed","location_1":{"latitude":"40.76278","longitude":"-73.874016"},"borough":"QUEENS   ","latitude":"40.76278","longitude":"-73.874016","community_board":"3","community_council":"21","census_tract":"353","bin":"4013750001","bbl":"4013750001","nta":"East Elmhurst                                                              ",":@computed_region_efsh_h5xi":"14511",":@computed_region_f5dn_yrer":"65",":@computed_region_yeji_bk3q":"3",":@computed_region_92fq_4b7q":"21",":@computed_region_sbqj_enih":"73"}
,{"name":"Middle Village","address":"72-31 Metropolitan Avenue","city":"Middle Village","postcode":"11379","phone":"(718) 326-1390","mn":"12:00 PM - 8:00 PM","tu":"1:00 PM - 6:00 PM","we":"10:00 AM - 6:00 PM","th":"12:00 PM - 8:00 PM","fr":"10:00 AM - 6:00 PM","sa":"10:00 AM - 5:00 PM","su":"Closed - Closed","location_1":{"latitude":"40.71258","longitude":"-73.880885"},"borough":"QUEENS   ","latitude":"40.71258","longitude":"-73.880885","community_board":"5","community_council":"30","census_tract":"65702","bin":"4030577501","bbl":"4030577501","nta":"Middle Village                                                             ",":@computed_region_efsh_h5xi":"15309",":@computed_region_f5dn_yrer":"54",":@computed_region_yeji_bk3q":"3",":@computed_region_92fq_4b7q":"34",":@computed_region_sbqj_enih":"62"}
,{"name":"Pomonok","address":"158-21 Jewel Avenue","city":"Flushing","postcode":"11365","phone":"(718) 591-4343","mn":"12:00 PM - 8:00 PM","tu":"1:00 PM - 6:00 PM","we":"10:00 AM - 6:00 PM","th":"12:00 PM - 8:00 PM","fr":"10:00 AM - 6:00 PM","sa":"10:00 AM - 5:00 PM","su":"Closed - Closed","location_1":{"latitude":"40.732272","longitude":"-73.809902"},"borough":"QUEENS   ","latitude":"40.732272","longitude":"-73.809902","community_board":"8","community_council":"24","census_tract":"122701","bin":"4067900022","bbl":"4067900022","nta":"Pomonok-Flushing Heights-Hillcrest                                         ",":@computed_region_efsh_h5xi":"14507",":@computed_region_f5dn_yrer":"25",":@computed_region_yeji_bk3q":"3",":@computed_region_92fq_4b7q":"24",":@computed_region_sbqj_enih":"65"}
,{"name":"Rego Park","address":"91-41 63 Drive","city":"Rego Park","postcode":"11374","phone":"(718) 459-5140","mn":"12:00 PM - 8:00 PM","tu":"1:00 PM - 6:00 PM","we":"10:00 AM - 6:00 PM","th":"12:00 PM - 8:00 PM","fr":"10:00 AM - 6:00 PM","sa":"10:00 AM - 5:00 PM","su":"Closed - Closed","location_1":{"latitude":"40.726991","longitude":"-73.864371"},"borough":"QUEENS   ","latitude":"40.726991","longitude":"-73.864371","community_board":"6","community_council":"29","census_tract":"695","bin":"4031030043","bbl":"4031030043","nta":"Rego Park                                                                  ",":@computed_region_efsh_h5xi":"14785",":@computed_region_f5dn_yrer":"40",":@computed_region_yeji_bk3q":"3",":@computed_region_92fq_4b7q":"28",":@computed_region_sbqj_enih":"70"}
,{"name":"Broad Channel","address":"16-26 Cross Bay Boulevard","city":"Broad Channel","postcode":"11693","phone":"(718) 318-4943","mn":"12:00 PM - 8:00 PM","tu":"1:00 PM - 6:00 PM","we":"10:00 AM - 6:00 PM","th":"12:00 PM - 8:00 PM","fr":"10:00 AM - 6:00 PM","sa":"10:00 AM - 5:00 PM","su":"Closed - Closed","location_1":{"latitude":"40.600838","longitude":"-73.820374"},"borough":"QUEENS   ","latitude":"40.600838","longitude":"-73.820374","community_board":"14","community_council":"32","census_tract":"107201","bin":"4154810530","bbl":"4154810530","nta":"Breezy Point-Belle Harbor-Rockaway Park-Broad Channel                      ",":@computed_region_efsh_h5xi":"20531",":@computed_region_f5dn_yrer":"51",":@computed_region_yeji_bk3q":"3",":@computed_region_92fq_4b7q":"41",":@computed_region_sbqj_enih":"58"}
,{"name":"Seaside","address":"116-15 Rockaway Beach Boulevard","city":"Rockaway Park","postcode":"11694","phone":"(718) 634-1876","mn":"12:00 PM - 8:00 PM","tu":"1:00 PM - 6:00 PM","we":"10:00 AM - 6:00 PM","th":"12:00 PM - 8:00 PM","fr":"10:00 AM - 6:00 PM","sa":"10:00 AM - 5:00 PM","su":"Closed - Closed","location_1":{"latitude":"40.57971","longitude":"-73.837487"},"borough":"QUEENS   ","latitude":"40.57971","longitude":"-73.837487","community_board":"14","community_council":"32","census_tract":"93402","bin":"4162260001","bbl":"4162260001","nta":"Breezy Point-Belle Harbor-Rockaway Park-Broad Channel                      ",":@computed_region_efsh_h5xi":"20532",":@computed_region_f5dn_yrer":"51",":@computed_region_yeji_bk3q":"3",":@computed_region_92fq_4b7q":"41",":@computed_region_sbqj_enih":"58"}
,{"name":"Auburndale","address":"25-55 Francis Lewis Boulevard","city":"Flushing","postcode":"11358","phone":"(718) 352-2027","mn":"12:00 PM - 8:00 PM","tu":"1:00 PM - 6:00 PM","we":"10:00 AM - 6:00 PM","th":"12:00 PM - 8:00 PM","fr":"10:00 AM - 6:00 PM","sa":"10:00 AM - 5:00 PM","su":"Closed - Closed","location_1":{"latitude":"40.773525","longitude":"-73.796552"},"borough":"QUEENS   ","latitude":"40.773525","longitude":"-73.796552","community_board":"7","community_council":"19","census_tract":"1017","bin":"4057690010","bbl":"4057690010","nta":"Ft. Totten-Bay Terrace-Clearview                                           ",":@computed_region_efsh_h5xi":"14193",":@computed_region_f5dn_yrer":"22",":@computed_region_yeji_bk3q":"3",":@computed_region_92fq_4b7q":"20",":@computed_region_sbqj_enih":"67"}
,{"name":"Queens Village","address":"94-11 217 Street","city":"Queens Village","postcode":"11428","phone":"(718) 776-6800","mn":"12:00 PM - 8:00 PM","tu":"1:00 PM - 6:00 PM","we":"10:00 AM - 6:00 PM","th":"12:00 PM - 8:00 PM","fr":"10:00 AM - 6:00 PM","sa":"10:00 AM - 5:00 PM","su":"Closed - Closed","location_1":{"latitude":"40.719749","longitude":"-73.739299"},"borough":"QUEENS   ","latitude":"40.719749","longitude":"-73.739299","community_board":"13","community_council":"23","census_tract":"566","bin":"4106210012","bbl":"4106210012","nta":"Queens Village                                                             ",":@computed_region_efsh_h5xi":"24337",":@computed_region_f5dn_yrer":"63",":@computed_region_yeji_bk3q":"3",":@computed_region_92fq_4b7q":"16",":@computed_region_sbqj_enih":"63"}
,{"name":"Kew Gardens Hills","address":"72-33 Vleigh Place","city":"Flushing","postcode":"11367","phone":"(718) 261-6654","mn":"12:00 PM - 8:00 PM","tu":"1:00 PM - 6:00 PM","we":"10:00 AM - 6:00 PM","th":"12:00 PM - 8:00 PM","fr":"10:00 AM - 6:00 PM","sa":"Closed - Closed","su":"12:00 PM - 5:00 PM","location_1":{"latitude":"40.725815","longitude":"-73.820989"},"borough":"QUEENS   ","latitude":"40.725815","longitude":"-73.820989","community_board":"8","community_council":"24","census_tract":"77907","bin":"4066610005","bbl":"4066610005","nta":"Kew Gardens Hills                                                          ",":@computed_region_efsh_h5xi":"14509",":@computed_region_f5dn_yrer":"25",":@computed_region_yeji_bk3q":"3",":@computed_region_92fq_4b7q":"24",":@computed_region_sbqj_enih":"65"}
,{"name":"Glen Oaks","address":"256-04 Union Turnpike","city":" Glen Oaks","postcode":"11004","phone":"(718) 831-8636","mn":"12:00 PM - 8:00 PM","tu":"1:00 PM - 6:00 PM","we":"10:00 AM - 6:00 PM","th":"12:00 PM - 8:00 PM","fr":"10:00 AM - 6:00 PM","sa":"10:00 AM - 5:00 PM","su":"Closed - Closed","location_1":{"latitude":"40.745388","longitude":"-73.715036"},"borough":"QUEENS   ","latitude":"40.745388","longitude":"-73.715036","community_board":"13","community_council":"23","census_tract":"157902","bin":"4086930010","bbl":"4086930010","nta":"Glen Oaks-Floral Park-New Hyde Park                                        ",":@computed_region_efsh_h5xi":"16098",":@computed_region_f5dn_yrer":"63",":@computed_region_yeji_bk3q":"3",":@computed_region_92fq_4b7q":"16",":@computed_region_sbqj_enih":"63"}
,{"name":"Briarwood","address":"85-12 Main Street","city":"Briarwood","postcode":"11435","phone":"(718) 658-1680","mn":"12:00 PM - 8:00 PM","tu":"1:00 PM - 6:00 PM","we":"10:00 AM - 6:00 PM","th":"12:00 PM - 8:00 PM","fr":"10:00 AM - 6:00 PM","sa":"10:00 AM - 5:00 PM","su":"Closed - Closed","location_1":{"latitude":"40.71014","longitude":"-73.819621"},"borough":"QUEENS   ","latitude":"40.71014","longitude":"-73.819621","community_board":"8","community_council":"24","census_tract":"22001","bin":"4096510025","bbl":"4096510025","nta":"Briarwood-Jamaica Hills                                                    ",":@computed_region_efsh_h5xi":"24670",":@computed_region_f5dn_yrer":"25",":@computed_region_yeji_bk3q":"3",":@computed_region_92fq_4b7q":"24",":@computed_region_sbqj_enih":"65"}
,{"name":"St. Albans","address":"191-05 Linden Boulevard","city":"St. Albans","postcode":"11412","phone":"(718) 528-8196","mn":"12:00 PM - 8:00 PM","tu":"1:00 PM - 6:00 PM","we":"10:00 AM - 6:00 PM","th":"12:00 PM - 8:00 PM","fr":"10:00 AM - 6:00 PM","sa":"10:00 AM - 5:00 PM","su":"Closed - Closed","location_1":{"latitude":"40.692284","longitude":"-73.760112"},"borough":"QUEENS   ","latitude":"40.692284","longitude":"-73.760112","community_board":"12","community_council":"27","census_tract":"528","bin":"4110620024","bbl":"4110620024","nta":"St. Albans                                                                 ",":@computed_region_efsh_h5xi":"15312",":@computed_region_f5dn_yrer":"41",":@computed_region_yeji_bk3q":"3",":@computed_region_92fq_4b7q":"6",":@computed_region_sbqj_enih":"71"}
,{"name":"Langston Hughes","address":"100-01 Northern Boulevard","city":"Corona","postcode":"11368","phone":"(718) 651-1100","mn":"9:00 AM - 8:00 PM","tu":"1:00 PM - 6:00 PM","we":"10:00 AM - 6:00 PM","th":"12:00 PM - 8:00 PM","fr":"10:00 AM - 6:00 PM","sa":"10:00 AM - 5:00 PM","su":"Closed - Closed","location_1":{"latitude":"40.757361","longitude":"-73.868331"},"borough":"QUEENS   ","latitude":"40.757361","longitude":"-73.868331","community_board":"3","community_council":"21","census_tract":"363","bin":"4016950039","bbl":"4016950039","nta":"East Elmhurst                                                              ",":@computed_region_efsh_h5xi":"14511",":@computed_region_f5dn_yrer":"65",":@computed_region_yeji_bk3q":"3",":@computed_region_92fq_4b7q":"21",":@computed_region_sbqj_enih":"73"}
,{"name":"Corona","address":"38-23 104 Street","city":"Corona","postcode":"11368","phone":"(718) 426-2844","mn":"12:00 PM - 8:00 PM","tu":"1:00 PM - 6:00 PM","we":"10:00 AM - 6:00 PM","th":"12:00 PM - 8:00 PM","fr":"10:00 AM - 6:00 PM","sa":"10:00 AM - 5:00 PM","su":"Closed - Closed","location_1":{"latitude":"40.750871","longitude":"-73.862204"},"borough":"QUEENS   ","latitude":"40.750871","longitude":"-73.862204","community_board":"3","community_council":"21","census_tract":"403","bin":"4017750077","bbl":"4017750077","nta":"North Corona                                                               ",":@computed_region_efsh_h5xi":"14510",":@computed_region_f5dn_yrer":"65",":@computed_region_yeji_bk3q":"3",":@computed_region_92fq_4b7q":"21",":@computed_region_sbqj_enih":"73"}
,{"name":"Astoria","address":"14-01 Astoria Boulevard","city":"Long Island City","postcode":"11102","phone":"(718) 278-2220","mn":"12:00 PM - 8:00 PM","tu":"1:00 PM - 6:00 PM","we":"10:00 AM - 6:00 PM","th":"12:00 PM - 8:00 PM","fr":"10:00 AM - 6:00 PM","sa":"10:00 AM - 5:00 PM","su":"Closed - Closed","location_1":{"latitude":"40.772173","longitude":"-73.928757"},"borough":"QUEENS   ","latitude":"40.772173","longitude":"-73.928757","community_board":"1","community_council":"22","census_tract":"83","bin":"4005400030","bbl":"4005400030","nta":"Old Astoria                                                                ",":@computed_region_efsh_h5xi":"16859",":@computed_region_f5dn_yrer":"39",":@computed_region_yeji_bk3q":"3",":@computed_region_92fq_4b7q":"4",":@computed_region_sbqj_enih":"72"}
,{"name":"Peninsula","address":"92-25 Rockaway Beach Boulevard","city":"Rockaway Beach","postcode":"11693","phone":"(718) 634-1110","mn":"9:00 AM - 8:00 PM","tu":"1:00 PM - 6:00 PM","we":"10:00 AM - 6:00 PM","th":"12:00 PM - 8:00 PM","fr":"10:00 AM - 6:00 PM","sa":"10:00 AM - 5:00 PM","su":"Closed - Closed","location_1":{"latitude":"40.5863","longitude":"-73.815797"},"borough":"QUEENS   ","latitude":"40.5863","longitude":"-73.815797","community_board":"14","community_council":"32","census_tract":"94203","bin":"4161350013","bbl":"4161350013","nta":"Hammels-Arverne-Edgemere                                                   ",":@computed_region_efsh_h5xi":"20531",":@computed_region_f5dn_yrer":"51",":@computed_region_yeji_bk3q":"3",":@computed_region_92fq_4b7q":"41",":@computed_region_sbqj_enih":"58"}
,{"name":"Fresh Meadows","address":"193-20 Horace Harding Expressway","city":"Fresh Meadows","postcode":"11365","phone":"(718) 454-7272","mn":"9:00 AM - 8:00 PM","tu":"1:00 PM - 6:00 PM","we":"10:00 AM - 6:00 PM","th":"12:00 PM - 8:00 PM","fr":"10:00 AM - 6:00 PM","sa":"10:00 AM - 5:00 PM","su":"Closed - Closed","location_1":{"latitude":"40.74172","longitude":"-73.782521"},"borough":"QUEENS   ","latitude":"40.74172","longitude":"-73.782521","community_board":"8","community_council":"23","census_tract":"1347","bin":"4071170200","bbl":"4071170200","nta":"Fresh Meadows-Utopia                                                       ",":@computed_region_efsh_h5xi":"14507",":@computed_region_f5dn_yrer":"25",":@computed_region_yeji_bk3q":"3",":@computed_region_92fq_4b7q":"16",":@computed_region_sbqj_enih":"65"}
,{"name":"Whitestone","address":"151-10 14 Road","city":"Whitestone","postcode":"11357","phone":"(718) 767-8010","mn":"12:00 PM - 8:00 PM","tu":"1:00 PM - 6:00 PM","we":"10:00 AM - 6:00 PM","th":"12:00 PM - 8:00 PM","fr":"10:00 AM - 6:00 PM","sa":"10:00 AM - 5:00 PM","su":"Closed - Closed","location_1":{"latitude":"40.78864","longitude":"-73.810893"},"borough":"QUEENS   ","latitude":"40.78864","longitude":"-73.810893","community_board":"7","community_council":"19","census_tract":"987","bin":"4047170025","bbl":"4047170025","nta":"Whitestone                                                                 ",":@computed_region_efsh_h5xi":"14192",":@computed_region_f5dn_yrer":"22",":@computed_region_yeji_bk3q":"3",":@computed_region_92fq_4b7q":"20",":@computed_region_sbqj_enih":"67"}
,{"name":"Cambria Heights","address":"218-13 Linden Boulevard","city":"Cambria Heights","postcode":"11411","phone":"(718) 528-3535","mn":"9:00 AM - 8:00 PM","tu":"1:00 PM - 6:00 PM","we":"10:00 AM - 6:00 PM","th":"12:00 PM - 8:00 PM","fr":"10:00 AM - 6:00 PM","sa":"10:00 AM - 5:00 PM","su":"Closed - Closed","location_1":{"latitude":"40.69554","longitude":"-73.74138"},"borough":"QUEENS   ","latitude":"40.69554","longitude":"-73.74138","community_board":"13","community_council":"27","census_tract":"598","bin":"4113190001","bbl":"4113190001","nta":"Cambria Heights                                                            ",":@computed_region_efsh_h5xi":"15311",":@computed_region_f5dn_yrer":"63",":@computed_region_yeji_bk3q":"3",":@computed_region_92fq_4b7q":"6",":@computed_region_sbqj_enih":"63"}
,{"name":"Court Square","address":"25-01 Jackson Avenue","city":"Long Island City","postcode":"11101","phone":"(718) 937-2790","mn":"11:00 AM - 7:00 PM","tu":"1:00 PM - 6:00 PM","we":"10:00 AM - 6:00 PM","th":"12:00 PM - 7:00 PM","fr":"10:00 AM - 6:00 PM","sa":"10:00 AM - 5:00 PM","su":"Closed - Closed","location_1":{"latitude":"40.746845","longitude":"-73.94444"},"borough":"QUEENS   ","latitude":"40.746845","longitude":"-73.94444","community_board":"2","community_council":"26","census_tract":"19","bin":"4000790030","bbl":"4000790030","nta":"Hunters Point-Sunnyside-West Maspeth                                       ",":@computed_region_efsh_h5xi":"16858",":@computed_region_f5dn_yrer":"53",":@computed_region_yeji_bk3q":"3",":@computed_region_92fq_4b7q":"33",":@computed_region_sbqj_enih":"66"}
,{"name":"Queensbridge","address":"Now a Family Literacy Center","city":"10-43 41 Ave., LIC","postcode":"11101","phone":"By apptmt only","mn":"Closed - Closed","tu":"Closed - Closed","we":"Closed - Closed","th":"Closed - Closed","fr":"Closed - Closed","sa":"Closed - Closed","su":"Closed - Closed","borough":"QUEENS   "}
,{"name":"Rochdale Village","address":"169-09 137 Avenue","city":"Jamaica","postcode":"11434","phone":"(718) 723-4440","mn":"9:00 AM - 8:00 PM","tu":"1:00 PM - 6:00 PM","we":"10:00 AM - 6:00 PM","th":"12:00 PM - 8:00 PM","fr":"10:00 AM - 6:00 PM","sa":"10:00 AM - 5:00 PM","su":"Closed - Closed","location_1":{"latitude":"40.672568","longitude":"-73.770994"},"borough":"QUEENS   ","latitude":"40.672568","longitude":"-73.770994","community_board":"12","community_council":"28","census_tract":"33402","bin":"4124950175","bbl":"4124950175","nta":"Springfield Gardens North                                                  ",":@computed_region_efsh_h5xi":"24669",":@computed_region_f5dn_yrer":"41",":@computed_region_yeji_bk3q":"3",":@computed_region_92fq_4b7q":"46",":@computed_region_sbqj_enih":"71"}
,{"name":"Flushing","address":"41-17 Main Street","city":"Flushing","postcode":"11355","phone":"(718) 661-1200","mn":"9:00 AM - 9:00 PM","tu":"9:00 AM - 9:00 PM","we":"9:00 AM - 9:00 PM","th":"9:00 AM - 9:00 PM","fr":"9:00 AM - 7:00 PM","sa":"10:00 AM - 5:00 PM","su":"12:00 PM - 5:00 PM","location_1":{"latitude":"40.757784","longitude":"-73.829252"},"borough":"QUEENS   ","latitude":"40.757784","longitude":"-73.829252","community_board":"7","community_council":"20","census_tract":"853","bin":"4050430011","bbl":"4050430011","nta":"Flushing                                                                   ",":@computed_region_efsh_h5xi":"14190",":@computed_region_f5dn_yrer":"22",":@computed_region_yeji_bk3q":"3",":@computed_region_92fq_4b7q":"3",":@computed_region_sbqj_enih":"67"}
,{"name":"Central Library","address":"89-11 Merrick Boulevard","city":"Jamaica","postcode":"11432","phone":"(718) 990-0700","mn":"9:00 AM - 9:00 PM","tu":"9:00 AM - 9:00 PM","we":"9:00 AM - 9:00 PM","th":"9:00 AM - 9:00 PM","fr":"9:00 AM - 7:00 PM","sa":"10:00 AM - 5:00 PM","su":"12:00 PM - 5:00 PM","location_1":{"latitude":"40.707865","longitude":"-73.795295"},"borough":"QUEENS   ","latitude":"40.707865","longitude":"-73.795295","community_board":"12","community_council":"27","census_tract":"460","bin":"4097980006","bbl":"4097980006","nta":"Jamaica                                                                    ",":@computed_region_efsh_h5xi":"24340",":@computed_region_f5dn_yrer":"41",":@computed_region_yeji_bk3q":"3",":@computed_region_92fq_4b7q":"6",":@computed_region_sbqj_enih":"61"}
,{"name":"Arverne","address":"312 Beach 54 Street","city":"Arverne","postcode":"11692","phone":"(718) 634-4784","mn":"12:00 PM - 8:00 PM","tu":"1:00 PM - 6:00 PM","we":"10:00 AM - 6:00 PM","th":"12:00 PM - 8:00 PM","fr":"10:00 AM - 6:00 PM","sa":"10:00 AM - 5:00 PM","su":"Closed - Closed","location_1":{"latitude":"40.593066","longitude":"-73.784341"},"borough":"QUEENS   ","latitude":"40.593066","longitude":"-73.784341","community_board":"14","community_council":"31","census_tract":"97204","bin":"4158900018","bbl":"4158900018","nta":"Hammels-Arverne-Edgemere                                                   ",":@computed_region_efsh_h5xi":"20530",":@computed_region_f5dn_yrer":"51",":@computed_region_yeji_bk3q":"3",":@computed_region_92fq_4b7q":"47",":@computed_region_sbqj_enih":"59"}]
