uid,name,cat_L1,cat_L2,province,city,area,address,street_id,detail,child_num,loc_lng,loc_lat,telephone,type,detail_url,price,shop_hours,overall_rating,taste_rating,service_rating,environment_rating,facility_rating,hygiene_rating,technology_rating,image_num,comment_num,groupon_num,discount_num,favorite_num,checkin_num,brand,content_tag,naviloc_lng,naviloc_lat,child_num
48925d4066b05c89a6da3987,尘洁干洗店,生活服务,洗衣店,内蒙古自治区,呼和浩特市,玉泉区,内蒙古自治区呼和浩特市玉泉区杭盖路商品楼4栋7号,,1,0,111.748596,40.717568,,life,http://api.map.baidu.com/place/detail?uid=48925d4066b05c89a6da3987&output=html&source=placeapi_v2,,09:00-20:00,,,,,,,,7,,,,,,,,111.74864750994,40.717438223163,0
b2e85ea90a689bee6340a9ac,便民洗衣店,生活服务,洗衣店,内蒙古自治区,呼和浩特市,赛罕区,呼和浩特市赛罕区,,1,0,111.752962,40.728676,,life,http://api.map.baidu.com/place/detail?uid=b2e85ea90a689bee6340a9ac&output=html&source=placeapi_v2,,,,,,,,,,4,,,,,,,,111.75311710176,40.728704519187,0
0039b075f4163f1e33169b76,小郭干洗店,生活服务,洗衣店,内蒙古自治区,呼和浩特市,玉泉区,南二环路与土默特立交桥交叉口东南150米,0039b075f4163f1e33169b76,1,0,111.595642,40.77387,13948536693,life,http://api.map.baidu.com/place/detail?uid=0039b075f4163f1e33169b76&output=html&source=placeapi_v2,,09:00-20:00,0.0,,,,,,,10,,,,,,,,,,0
5b2670ac3fef2968c72ba10a,皇甫洗衣店,生活服务,洗衣店,内蒙古自治区,呼和浩特市,玉泉区,呼和浩特市玉泉区巴彦淖尔北路高架云中逸品,5b2670ac3fef2968c72ba10a,1,0,111.635598,40.777268,19947110749,life,http://api.map.baidu.com/place/detail?uid=5b2670ac3fef2968c72ba10a&output=html&source=placeapi_v2,,,,,,,,,,5,,,,,,,,111.635632345,40.776986607123,0
38f3403f69453891a0acc444,秀净干洗店,生活服务,洗衣店,内蒙古自治区,呼和浩特市,玉泉区,内蒙古自治区呼和浩特市玉泉区昭君路农科家园4号楼,38f3403f69453891a0acc444,1,0,111.673756,40.780067,,life,http://api.map.baidu.com/place/detail?uid=38f3403f69453891a0acc444&output=html&source=placeapi_v2,,09:00-20:00,,,,,,,,5,,,,,,,,,,0
c65bf1e9b305409f25e0a013,衣之恋洗衣(昭君路店),生活服务,洗衣店,内蒙古自治区,呼和浩特市,玉泉区,内蒙古自治区呼和浩特市玉泉区昭君路蓝色港湾16号,c65bf1e9b305409f25e0a013,1,0,111.679641,40.770728,18247167816,life,http://api.map.baidu.com/place/detail?uid=c65bf1e9b305409f25e0a013&output=html&source=placeapi_v2,,09:00-19:00,,,,,,,,2,,,,,,,,111.67950250492,40.770528499577,0
7cf2ccc3967c6cacc5effbca,瑞瑞干洗店,生活服务,洗衣店,内蒙古自治区,呼和浩特市,玉泉区,内蒙古自治区呼和浩特市玉泉区昭君路昕雅明苑,,1,0,111.689134,40.753498,,life,http://api.map.baidu.com/place/detail?uid=7cf2ccc3967c6cacc5effbca&output=html&source=placeapi_v2,,,,,,,,,,3,,,,,,,,111.68916600758,40.753401591571,0
b6d1f5cbc07014abc17da2db,衣恋干洗店(兴兴小区社区卫生服务站东南),生活服务,洗衣店,内蒙古自治区,呼和浩特市,玉泉区,内蒙古自治区呼和浩特市玉泉区天骄花园1号,b6d1f5cbc07014abc17da2db,1,0,111.660099,40.777107,13451348632,life,http://api.map.baidu.com/place/detail?uid=b6d1f5cbc07014abc17da2db&output=html&source=placeapi_v2,,09:00-20:00,0,,,,,,,9,1,,,,,,,111.66012999234,40.776969094043,0
030309151382a4ec4e2fdfab,衣兰诺洗衣店,生活服务,洗衣店,内蒙古自治区,呼和浩特市,赛罕区,呼和浩特市赛罕区金桥左岸阳光东门,030309151382a4ec4e2fdfab,1,0,111.730712,40.757791,13734848499,life,http://api.map.baidu.com/place/detail?uid=030309151382a4ec4e2fdfab&output=html&source=placeapi_v2,,09:00-20:00,5,,,,,,,9,2,,,,,,,111.73081187861,40.757652528744,0
87a10d6a5f72d80943e192d2,荣玉洗衣店,生活服务,洗衣店,内蒙古自治区,呼和浩特市,赛罕区,内蒙古自治区呼和浩特市赛罕区励学街旺第嘉苑,87a10d6a5f72d80943e192d2,1,0,111.743983,40.766301,,life,http://api.map.baidu.com/place/detail?uid=87a10d6a5f72d80943e192d2&output=html&source=placeapi_v2,,,,,,,,,,6,,,,,,,,111.74399676672,40.766181459463,0
fddd699f3483fb022dfaa751,雨洁干洗店(兴安南路店),生活服务,洗衣店,内蒙古自治区,呼和浩特市,赛罕区,呼和浩特市赛罕区兴安南路传媒小区,fddd699f3483fb022dfaa751,1,0,111.737708,40.76892,,life,http://api.map.baidu.com/place/detail?uid=fddd699f3483fb022dfaa751&output=html&source=placeapi_v2,,08:30-20:00,,,,,,,,3,,,,,,,,,,0
aad9d58220304a789900500c,天天顺干洗店,生活服务,洗衣店,内蒙古自治区,呼和浩特市,赛罕区,内蒙古自治区呼和浩特市赛罕区三环路金桥景观花园,aad9d58220304a789900500c,1,0,111.751868,40.758258,,life,http://api.map.baidu.com/place/detail?uid=aad9d58220304a789900500c&output=html&source=placeapi_v2,,,,,,,,,,7,,,,,,,,,,0
030309151382a4ec4e2fdfab,衣兰诺洗衣店,生活服务,洗衣店,内蒙古自治区,呼和浩特市,赛罕区,呼和浩特市赛罕区金桥左岸阳光东门,030309151382a4ec4e2fdfab,1,0,111.730712,40.757791,13734848499,life,http://api.map.baidu.com/place/detail?uid=030309151382a4ec4e2fdfab&output=html&source=placeapi_v2,,09:00-20:00,5,,,,,,,9,2,,,,,,,111.73081187861,40.757652528744,0
96871c7d4f32418703ff2d2b,依丽洁绿色干洗连锁店,生活服务,洗衣店,内蒙古自治区,呼和浩特市,赛罕区,内蒙古自治区呼和浩特市赛罕区锦绣嘉苑B区2号,,1,0,111.739235,40.758403,15184719602,life,http://api.map.baidu.com/place/detail?uid=96871c7d4f32418703ff2d2b&output=html&source=placeapi_v2,,09:00-20:00,,,,,,,,8,,,,,,,,,,0
bab27ecb7108b820abf0cd3a,赛维洗衣(金七道店),生活服务,洗衣店,内蒙古自治区,呼和浩特市,土默特左旗,内蒙古自治区呼和浩特市土默特左旗经济技术开发区金七道公元仰山东门,bab27ecb7108b820abf0cd3a,1,0,111.554111,40.783854,13015227857,life,http://api.map.baidu.com/place/detail?uid=bab27ecb7108b820abf0cd3a&output=html&source=placeapi_v2,,08:00-19:00,,,,,,,,5,,,,,,,,,,0
d26e6249ae01d55e7dc876fa,玫瑰园洗・衣(博雅西苑西北),生活服务,洗衣店,内蒙古自治区,呼和浩特市,土默特左旗,内蒙古自治区呼和浩特市土默特左旗博君西巷博雅西苑4号楼,d26e6249ae01d55e7dc876fa,1,0,111.543878,40.787511,18647371675,life,http://api.map.baidu.com/place/detail?uid=d26e6249ae01d55e7dc876fa&output=html&source=placeapi_v2,,09:00-19:30,5,,,,,,,5,2,,,,,,,111.5436567177,40.78735793188,0
b9e6a5e1ddf22e9a4d776ead,艾莱妮洗衣,生活服务,洗衣店,内蒙古自治区,呼和浩特市,土默特左旗,呼和浩特市土默特左旗金四路公元大道,,1,0,111.546534,40.785643,13084710541,life,http://api.map.baidu.com/place/detail?uid=b9e6a5e1ddf22e9a4d776ead&output=html&source=placeapi_v2,,,,,,,,,,3,,,,,,,,111.5467061691,40.78548044254,0
4ac80f6b16a8d558100daa3d,泰吉洗衣裁缝店,生活服务,洗衣店,内蒙古自治区,呼和浩特市,土默特左旗,呼和浩特市土默特左旗泰和熙地,4ac80f6b16a8d558100daa3d,1,0,111.543828,40.795204,18347985099,life,http://api.map.baidu.com/place/detail?uid=4ac80f6b16a8d558100daa3d&output=html&source=placeapi_v2,,,,,,,,,,6,,,,,,,,111.5438886494,40.795121666973,0
61c283c5f680297d3b221c33,雅洁绿化洗衣,生活服务,洗衣店,内蒙古自治区,呼和浩特市,土默特左旗,内蒙古自治区呼和浩特市土默特左旗宽城小区福园底商,61c283c5f680297d3b221c33,1,0,111.542448,40.794162,,life,http://api.map.baidu.com/place/detail?uid=61c283c5f680297d3b221c33&output=html&source=placeapi_v2,,,,,,,,,,6,,,,,,,,,,0
95aca0ba4fcfb9bc4d776ea9,上院绿色干洗,生活服务,洗衣店,内蒙古自治区,呼和浩特市,土默特左旗,内蒙古自治区呼和浩特市土默特左旗金川上院小区雅静6号车库阳104号,95aca0ba4fcfb9bc4d776ea9,1,0,111.557672,40.801516,15248011448,life,http://api.map.baidu.com/place/detail?uid=95aca0ba4fcfb9bc4d776ea9&output=html&source=placeapi_v2,,08:00-21:00,5,,,,,,,5,12,,,,,,,111.55781965838,40.801387936066,0
cb803c648ff24ec340ab9a3b,每日新洗衣店,生活服务,洗衣店,内蒙古自治区,呼和浩特市,土默特左旗,呼和浩特市金川开发区半山半水小区西门里50米路南,cb803c648ff24ec340ab9a3b,1,0,111.543263,40.783216,15326012299,life,http://api.map.baidu.com/place/detail?uid=cb803c648ff24ec340ab9a3b&output=html&source=placeapi_v2,,09:00-20:00,,,,,,,,6,2,,,,,,,111.54314765425,40.783331181171,0
91c9221c43208f15b05c6a10,家洁净干洗店,生活服务,洗衣店,内蒙古自治区,呼和浩特市,土默特左旗,内蒙古自治区呼和浩特市土默特左旗金川开发区金华学府20号楼101商铺,91c9221c43208f15b05c6a10,1,0,111.569304,40.794115,15148033545,life,http://api.map.baidu.com/place/detail?uid=91c9221c43208f15b05c6a10&output=html&source=placeapi_v2,,08:30-20:00,,,,,,,,5,,,,,,,,111.56950459261,40.794263736965,0
c9a5dd72a005f6d3616858fe,兰兰干洗店(鄂尔多斯西街店),生活服务,洗衣店,内蒙古自治区,呼和浩特市,回民区,内蒙古自治区呼和浩特市回民区时代华城01,c9a5dd72a005f6d3616858fe,1,0,111.602807,40.797237,18947968678,life,http://api.map.baidu.com/place/detail?uid=c9a5dd72a005f6d3616858fe&output=html&source=placeapi_v2,,09:00-20:00,,,,,,,,7,,,,,,,,111.60278689187,40.797121346997,0
0039b075f4163f1e33169b76,小郭干洗店,生活服务,洗衣店,内蒙古自治区,呼和浩特市,玉泉区,南二环路与土默特立交桥交叉口东南150米,0039b075f4163f1e33169b76,1,0,111.595642,40.77387,13948536693,life,http://api.map.baidu.com/place/detail?uid=0039b075f4163f1e33169b76&output=html&source=placeapi_v2,,09:00-20:00,0.0,,,,,,,10,,,,,,,,,,0
356146d6dbe3aa9e7adbd2e5,海荣裁缝干洗店,生活服务,洗衣店,内蒙古自治区,呼和浩特市,玉泉区,内蒙古自治区呼和浩特市玉泉区鄂尔多斯西街兴隆小区5号楼,356146d6dbe3aa9e7adbd2e5,1,0,111.634966,40.799054,15924414223,life,http://api.map.baidu.com/place/detail?uid=356146d6dbe3aa9e7adbd2e5&output=html&source=placeapi_v2,,09:00-20:00,,,,,,,,6,,,,,,,,111.63501813579,40.798882319862,0
787010079d2295593904b176,奈美干洗店,生活服务,洗衣店,内蒙古自治区,呼和浩特市,玉泉区,鄂尔多斯路办事处兴隆小区5井,787010079d2295593904b176,1,0,111.634986,40.799058,,life,http://api.map.baidu.com/place/detail?uid=787010079d2295593904b176&output=html&source=placeapi_v2,,09:00-20:00,,,,,,,,3,,,,,,,,,,0
5b2670ac3fef2968c72ba10a,皇甫洗衣店,生活服务,洗衣店,内蒙古自治区,呼和浩特市,玉泉区,呼和浩特市玉泉区巴彦淖尔北路高架云中逸品,5b2670ac3fef2968c72ba10a,1,0,111.635598,40.777268,19947110749,life,http://api.map.baidu.com/place/detail?uid=5b2670ac3fef2968c72ba10a&output=html&source=placeapi_v2,,,,,,,,,,5,,,,,,,,111.635632345,40.776986607123,0
8e17ee33d19b8db3eddfca83,服装加工干洗,生活服务,洗衣店,内蒙古自治区,呼和浩特市,玉泉区,呼和浩特市玉泉区南二环快速路现代华城-1期,8e17ee33d19b8db3eddfca83,1,0,111.624328,40.781483,,life,http://api.map.baidu.com/place/detail?uid=8e17ee33d19b8db3eddfca83&output=html&source=placeapi_v2,,,,,,,,,,3,,,,,,,,,,0
0381dd379028323fc1f1cf2c,永洁干洗店,生活服务,洗衣店,内蒙古自治区,呼和浩特市,玉泉区,呼和浩特市玉泉区西菜园办事处现代华城门脸房,0381dd379028323fc1f1cf2c,1,0,111.624517,40.781477,18047491963,life,http://api.map.baidu.com/place/detail?uid=0381dd379028323fc1f1cf2c&output=html&source=placeapi_v2,,09:00-20:00,,,,,,,,6,,,,,,,,,,0
1f8b862eefc3aa151811d511,雅洁干洗,生活服务,洗衣店,内蒙古自治区,呼和浩特市,玉泉区,内蒙古自治区呼和浩特市玉泉区西菜园街道盛世东元南区九号楼雅洁干洗店,1f8b862eefc3aa151811d511,1,0,111.653911,40.78592,,life,http://api.map.baidu.com/place/detail?uid=1f8b862eefc3aa151811d511&output=html&source=placeapi_v2,,,,,,,,,,9,,,,,,,,111.65378845939,40.786059527578,0
194fcbbbea9d7737d23ce30f,烁洁干洗店,生活服务,洗衣店,内蒙古自治区,呼和浩特市,玉泉区,内蒙古自治区呼和浩特市玉泉区鄂尔多斯西街御水人家3001号,194fcbbbea9d7737d23ce30f,1,0,111.649987,40.800633,,life,http://api.map.baidu.com/place/detail?uid=194fcbbbea9d7737d23ce30f&output=html&source=placeapi_v2,,09:00-20:00,0,,,,,,,9,1,,,,,,,111.65005392132,40.800552432532,0
0314e1b498908fc10c0a706f,孙乐干洗店,生活服务,洗衣店,内蒙古自治区,呼和浩特市,玉泉区,内蒙古自治区呼和浩特市玉泉区西菜园街道西菜园办事处盛世东元北区15号楼孙乐干洗店,,1,0,111.655736,40.789119,,life,http://api.map.baidu.com/place/detail?uid=0314e1b498908fc10c0a706f&output=html&source=placeapi_v2,,09:00-20:00,,,,,,,,1,,,,,,,,,,0
4abbf6c44f9db04d90114c6c,日日新洗衣(盛世东元店),生活服务,洗衣店,内蒙古自治区,呼和浩特市,玉泉区,内蒙古自治区呼和浩特市玉泉区南二环路辅路小贾车行隔壁,4abbf6c44f9db04d90114c6c,1,0,111.656059,40.786143,15540711284,life,http://api.map.baidu.com/place/detail?uid=4abbf6c44f9db04d90114c6c&output=html&source=placeapi_v2,,07:30-21:00,,,,,,,,14,4,,,,,,,,,0
aa13c6dd0382efe188b988fb,艺拉客干洗,生活服务,洗衣店,内蒙古自治区,呼和浩特市,玉泉区,内蒙古自治区呼和浩特市玉泉区南二环盛世东元北区20号楼7号,aa13c6dd0382efe188b988fb,1,0,111.655366,40.786371,,life,http://api.map.baidu.com/place/detail?uid=aa13c6dd0382efe188b988fb&output=html&source=placeapi_v2,,,,,,,,,,7,,,,,,,,111.65539028184,40.786217830307,0
0fbc7cbde4c02db732f71deb,顶洁干洗店,生活服务,洗衣店,内蒙古自治区,呼和浩特市,玉泉区,内蒙古自治区呼和浩特市玉泉区六中前街众成小区4号楼,0fbc7cbde4c02db732f71deb,1,0,111.674522,40.794981,13384889497,life,http://api.map.baidu.com/place/detail?uid=0fbc7cbde4c02db732f71deb&output=html&source=placeapi_v2,,09:00-20:00,,,,,,,,10,,,,,,,,111.67446305143,40.794964877107,0
cbbe9c8b1d8960efeddfca75,小温制衣干洗,生活服务,洗衣店,内蒙古自治区,呼和浩特市,玉泉区,内蒙古自治区呼和浩特市玉泉区石羊桥路安装公司住宅二区西门,cbbe9c8b1d8960efeddfca75,1,0,111.679146,40.793444,18004875168,life,http://api.map.baidu.com/place/detail?uid=cbbe9c8b1d8960efeddfca75&output=html&source=placeapi_v2,,09:00-20:00,,,,,,,,9,,,,,,,,,,0
61b4d658bbdc04cfcac3db3a,宏旺干洗店,生活服务,洗衣店,内蒙古自治区,呼和浩特市,玉泉区,内蒙古自治区呼和浩特市玉泉区村主街道G209,61b4d658bbdc04cfcac3db3a,1,0,111.667012,40.790086,(0471)2275326,life,http://api.map.baidu.com/place/detail?uid=61b4d658bbdc04cfcac3db3a&output=html&source=placeapi_v2,,09:00-20:00,,,,,,,,5,,,,,,,,111.66695142165,40.790074429563,0
1624e3d1b60c7deb8bdb733d,干洗水洗,生活服务,洗衣店,内蒙古自治区,呼和浩特市,玉泉区,内蒙古自治区呼和浩特市玉泉区三里营西路11号楼18号,1624e3d1b60c7deb8bdb733d,1,0,111.67231,40.795369,13734719892,life,http://api.map.baidu.com/place/detail?uid=1624e3d1b60c7deb8bdb733d&output=html&source=placeapi_v2,,09:00-20:00,,,,,,,,9,,,,,,,,111.67226994722,40.795445276317,0
633f688c2b27b38c7bf79647,专业码边改衣服干洗,生活服务,洗衣店,内蒙古自治区,呼和浩特市,玉泉区,呼和浩特市玉泉区昭君路福利达批发市场南侧约100米,633f688c2b27b38c7bf79647,1,0,111.664979,40.789494,15184762004,life,http://api.map.baidu.com/place/detail?uid=633f688c2b27b38c7bf79647&output=html&source=placeapi_v2,,08:30-20:00,,,,,,,,8,,,,,,,,111.66507072295,40.789395758014,0
4bd2d594fd733ff06e20b96a,艾尚洗衣店,生活服务,洗衣店,内蒙古自治区,呼和浩特市,玉泉区,呼和浩特市玉泉区三里营西路呼和浩特市第三职业中等专业学校东侧约120米,,1,0,111.669982,40.792532,,life,http://api.map.baidu.com/place/detail?uid=4bd2d594fd733ff06e20b96a&output=html&source=placeapi_v2,,,,,,,,,,5,,,,,,,,,,0
5eed9e89093e110cb13c8193,净朵干洗店,生活服务,洗衣店,内蒙古自治区,呼和浩特市,玉泉区,内蒙古自治区呼和浩特市玉泉区蓝宇花园6号,5eed9e89093e110cb13c8193,1,0,111.686008,40.790283,,life,http://api.map.baidu.com/place/detail?uid=5eed9e89093e110cb13c8193&output=html&source=placeapi_v2,,,,,,,,,,6,,,,,,,,111.6860693275,40.790535516406,0
7d62e09556e1233f16764378,洛克洗衣连锁(新天地店),生活服务,洗衣店,内蒙古自治区,呼和浩特市,玉泉区,内蒙古自治区呼和浩特市玉泉区新天地广场(通达长途汽车南站西南),7d62e09556e1233f16764378,1,0,111.666897,40.797276,18347104510,life,http://api.map.baidu.com/place/detail?uid=7d62e09556e1233f16764378&output=html&source=placeapi_v2,,09:00-19:00,0,,,,,,,11,2,,,,,,,111.66670795301,40.797248254191,0
b7cf2db5a0404052f8dc8542,清粼干洗店,生活服务,洗衣店,内蒙古自治区,呼和浩特市,玉泉区,内蒙古自治区呼和浩特市玉泉区石羊桥南路万盛家园9号楼,b7cf2db5a0404052f8dc8542,1,0,111.679623,40.795946,13474712231,life,http://api.map.baidu.com/place/detail?uid=b7cf2db5a0404052f8dc8542&output=html&source=placeapi_v2,,09:00-20:00,,,,,,,,6,,,,,,,,111.67954354131,40.796086660516,0
24036e67baf691f9ab059df8,洛克洗衣连锁(金熙嘉园店),生活服务,洗衣店,内蒙古自治区,呼和浩特市,玉泉区,内蒙古自治区呼和浩特市玉泉区锡林南路恩和家园10号楼,24036e67baf691f9ab059df8,1,0,111.681073,40.798364,15849197739,life,http://api.map.baidu.com/place/detail?uid=24036e67baf691f9ab059df8&output=html&source=placeapi_v2,,09:00-20:00,,,,,,,,7,,,,,,,,111.68112615619,40.798266395616,0
9aad0fc8b6e00d1a8705bfa7,东方瑞俪洗衣,生活服务,洗衣店,内蒙古自治区,呼和浩特市,玉泉区,内蒙古自治区呼和浩特市玉泉区三段23号,9aad0fc8b6e00d1a8705bfa7,1,0,111.684206,40.783876,,life,http://api.map.baidu.com/place/detail?uid=9aad0fc8b6e00d1a8705bfa7&output=html&source=placeapi_v2,,08:00-21:00,,,,,,,,4,,,,,,,,111.68430797048,40.783908500998,0
8b28e7eb90aa2bf8c17da25f,万锦洗衣坊,生活服务,洗衣店,内蒙古自治区,呼和浩特市,玉泉区,内蒙古自治区呼和浩特市玉泉区锡林郭勒南路万锦香颂小区13号楼,8b28e7eb90aa2bf8c17da25f,1,0,111.691708,40.780541,15848372111,life,http://api.map.baidu.com/place/detail?uid=8b28e7eb90aa2bf8c17da25f&output=html&source=placeapi_v2,,09:00-20:00,5,,,,,,,5,1,,,,,,,,,0
ce710e5dae250e46c909f07a,艳丽干洗,生活服务,洗衣店,内蒙古自治区,呼和浩特市,玉泉区,内蒙古自治区呼和浩特市玉泉区芦花园社区巷塞外名苑,ce710e5dae250e46c909f07a,1,0,111.6623,40.78676,,life,http://api.map.baidu.com/place/detail?uid=ce710e5dae250e46c909f07a&output=html&source=placeapi_v2,,,,,,,,,,7,,,,,,,,111.66224597522,40.786867211762,0
3bf170dcdfbb3caf89b98860,时尚制衣干洗,生活服务,洗衣店,内蒙古自治区,呼和浩特市,玉泉区,内蒙古自治区呼和浩特市玉泉区锡林路25号,3bf170dcdfbb3caf89b98860,1,0,111.68533,40.797019,13644815648,life,http://api.map.baidu.com/place/detail?uid=3bf170dcdfbb3caf89b98860&output=html&source=placeapi_v2,,07:00-22:00,,,,,,,,6,,,,,,,,,,0
f6793ffe9251a0a3e115f9f9,天枫干洗店(大东园东一巷店),生活服务,洗衣店,内蒙古自治区,呼和浩特市,玉泉区,石羊桥安利公司旁三元辰小区底店,f6793ffe9251a0a3e115f9f9,1,0,111.67353,40.802151,13500692609,life,http://api.map.baidu.com/place/detail?uid=f6793ffe9251a0a3e115f9f9&output=html&source=placeapi_v2,,09:00-20:00,0.0,,,,,,,1,1,,,,,,,111.67343360499,40.802191405622,0
38f3403f69453891a0acc444,秀净干洗店,生活服务,洗衣店,内蒙古自治区,呼和浩特市,玉泉区,内蒙古自治区呼和浩特市玉泉区昭君路农科家园4号楼,38f3403f69453891a0acc444,1,0,111.673756,40.780067,,life,http://api.map.baidu.com/place/detail?uid=38f3403f69453891a0acc444&output=html&source=placeapi_v2,,09:00-20:00,,,,,,,,5,,,,,,,,,,0
a65d08a1d94063fd631809ba,洗尔洁洗衣店,生活服务,洗衣店,内蒙古自治区,呼和浩特市,玉泉区,呼和浩特市玉泉区小玉石巷芳清园二区-南区,a65d08a1d94063fd631809ba,1,0,111.666843,40.799944,13337129482,life,http://api.map.baidu.com/place/detail?uid=a65d08a1d94063fd631809ba&output=html&source=placeapi_v2,,09:00-20:00,,,,,,,,2,,,,,,,,,,0
74d51aef682ba7f0fc0eb097,诚信干洗(西五十家街店),生活服务,洗衣店,内蒙古自治区,呼和浩特市,玉泉区,内蒙古自治区呼和浩特市玉泉区西五十家街4号,74d51aef682ba7f0fc0eb097,1,0,111.664771,40.802096,,life,http://api.map.baidu.com/place/detail?uid=74d51aef682ba7f0fc0eb097&output=html&source=placeapi_v2,,09:00-20:00,0,,,,,,,9,2,,,,,,,111.66480719335,40.801971204517,0
71fd2418abfdb2efbea24093,小姚干洗,生活服务,洗衣店,内蒙古自治区,呼和浩特市,玉泉区,呼和浩特市玉泉区西五十家街4号,71fd2418abfdb2efbea24093,1,0,111.665518,40.801066,13015020209,life,http://api.map.baidu.com/place/detail?uid=71fd2418abfdb2efbea24093&output=html&source=placeapi_v2,,09:00-20:00,0.0,,,,,,,8,,,,,,,,111.66536629151,40.80102342254,0
d286f3016dd7cd9e725e8024,汇洁洗衣连锁店,生活服务,洗衣店,内蒙古自治区,呼和浩特市,玉泉区,内蒙古自治区呼和浩特市玉泉区大东园街汉庭酒店西南侧约80米,,1,0,111.671889,40.800956,,life,http://api.map.baidu.com/place/detail?uid=d286f3016dd7cd9e725e8024&output=html&source=placeapi_v2,,,,,,,,,,1,,,,,,,,111.67201761859,40.800851482602,0
2317333bdad17725aecb6680,家洁干洗(大东园一巷),生活服务,洗衣店,内蒙古自治区,呼和浩特市,玉泉区,内蒙古自治区呼和浩特市玉泉区清泉街御景苑北区1号楼,2317333bdad17725aecb6680,1,0,111.671535,40.800809,,life,http://api.map.baidu.com/place/detail?uid=2317333bdad17725aecb6680&output=html&source=placeapi_v2,,09:00-20:00,0,,,,,,,9,1,,,,,,,111.67159085071,40.800711531512,0
1f8b862eefc3aa151811d511,雅洁干洗,生活服务,洗衣店,内蒙古自治区,呼和浩特市,玉泉区,内蒙古自治区呼和浩特市玉泉区西菜园街道盛世东元南区九号楼雅洁干洗店,1f8b862eefc3aa151811d511,1,0,111.653911,40.78592,,life,http://api.map.baidu.com/place/detail?uid=1f8b862eefc3aa151811d511&output=html&source=placeapi_v2,,,,,,,,,,9,,,,,,,,111.65378845939,40.786059527578,0
598a92e4acaa09ff441a3285,德奈福洗衣馆(印象江南店),生活服务,洗衣店,内蒙古自治区,呼和浩特市,玉泉区,呼和浩特市玉泉区南柴火市街24号,598a92e4acaa09ff441a3285,1,0,111.65572,40.801077,15394714662,life,http://api.map.baidu.com/place/detail?uid=598a92e4acaa09ff441a3285&output=html&source=placeapi_v2,,08:30-20:30,0.0,,,,,,,8,,,,,,,,111.65581892449,40.801108339377,0
0314e1b498908fc10c0a706f,孙乐干洗店,生活服务,洗衣店,内蒙古自治区,呼和浩特市,玉泉区,内蒙古自治区呼和浩特市玉泉区西菜园街道西菜园办事处盛世东元北区15号楼孙乐干洗店,,1,0,111.655736,40.789119,,life,http://api.map.baidu.com/place/detail?uid=0314e1b498908fc10c0a706f&output=html&source=placeapi_v2,,09:00-20:00,,,,,,,,1,,,,,,,,,,0
523b8e3a5d30143e7ab55ceb,德奈福洗衣(Z峰汇东北),生活服务,洗衣店,内蒙古自治区,呼和浩特市,玉泉区,呼和浩特市玉泉区郭勒南路秋实Z峰汇底商,523b8e3a5d30143e7ab55ceb,1,0,111.693093,40.78217,15774716262,life,http://api.map.baidu.com/place/detail?uid=523b8e3a5d30143e7ab55ceb&output=html&source=placeapi_v2,,10:00-22:00,,,,,,,,6,,,,,,,,111.69301399804,40.782284806816,0
b6d1f5cbc07014abc17da2db,衣恋干洗店(兴兴小区社区卫生服务站东南),生活服务,洗衣店,内蒙古自治区,呼和浩特市,玉泉区,内蒙古自治区呼和浩特市玉泉区天骄花园1号,b6d1f5cbc07014abc17da2db,1,0,111.660099,40.777107,13451348632,life,http://api.map.baidu.com/place/detail?uid=b6d1f5cbc07014abc17da2db&output=html&source=placeapi_v2,,09:00-20:00,0,,,,,,,9,1,,,,,,,111.66012999234,40.776969094043,0
5e9fd1e7cb3f497f1e5800f6,客来美干洗店,生活服务,洗衣店,内蒙古自治区,呼和浩特市,玉泉区,内蒙古自治区呼和浩特市玉泉区小召前街办事处泓博花园西门,5e9fd1e7cb3f497f1e5800f6,1,0,111.667441,40.803914,15847127079,life,http://api.map.baidu.com/place/detail?uid=5e9fd1e7cb3f497f1e5800f6&output=html&source=placeapi_v2,,09:00-20:00,0,,,,,,,10,2,,,,,,,111.66732756912,40.803909623082,0
cc67ce953e690c5ccd04ef7d,丽洁干洗(二十六中南巷),生活服务,洗衣店,内蒙古自治区,呼和浩特市,玉泉区,呼和浩特市玉泉区二十六中南巷迎春园,cc67ce953e690c5ccd04ef7d,1,0,111.676919,40.803329,,life,http://api.map.baidu.com/place/detail?uid=cc67ce953e690c5ccd04ef7d&output=html&source=placeapi_v2,,09:00-20:00,0,,,,,,,8,1,,,,,,,111.67685101966,40.803444551729,0
07ce411805bf926f774ff1bf,裁缝干洗店,生活服务,洗衣店,内蒙古自治区,呼和浩特市,玉泉区,内蒙古自治区呼和浩特市玉泉区工艺厂巷9号,07ce411805bf926f774ff1bf,1,0,111.678105,40.803986,,life,http://api.map.baidu.com/place/detail?uid=07ce411805bf926f774ff1bf&output=html&source=placeapi_v2,,,,,,,,,,4,,,,,,,,111.67805674957,40.804079347765,0
8c1460bd4d45db4adf1e5284,玉洁干洗,生活服务,洗衣店,内蒙古自治区,呼和浩特市,玉泉区,内蒙古自治区呼和浩特市玉泉区鄂尔多斯大街印象江南1期11号楼,8c1460bd4d45db4adf1e5284,1,0,111.654167,40.800402,"15124709451,15391131463",life,http://api.map.baidu.com/place/detail?uid=8c1460bd4d45db4adf1e5284&output=html&source=placeapi_v2,,09:00-20:00,,,,,,,,4,,,,,,,,111.65407678042,40.800318494005,0
4abbf6c44f9db04d90114c6c,日日新洗衣(盛世东元店),生活服务,洗衣店,内蒙古自治区,呼和浩特市,玉泉区,内蒙古自治区呼和浩特市玉泉区南二环路辅路小贾车行隔壁,4abbf6c44f9db04d90114c6c,1,0,111.656059,40.786143,15540711284,life,http://api.map.baidu.com/place/detail?uid=4abbf6c44f9db04d90114c6c&output=html&source=placeapi_v2,,07:30-21:00,,,,,,,,14,4,,,,,,,,,0
e19565f40bd06f4a3ee231a8,圆缘洗衣店,生活服务,洗衣店,内蒙古自治区,呼和浩特市,玉泉区,呼和浩特市玉泉区东五十家街民和花园,,1,0,111.669703,40.803195,,life,http://api.map.baidu.com/place/detail?uid=e19565f40bd06f4a3ee231a8&output=html&source=placeapi_v2,,00:00-24:00,,,,,,,,1,,,,,,,,111.66956733311,40.803357415522,0
2571b777ebe0c6cbd22dd686,巨兰干洗,生活服务,洗衣店,内蒙古自治区,呼和浩特市,玉泉区,内蒙古自治区呼和浩特市玉泉区二十六中南巷迎春小区,,1,0,111.677475,40.80377,,life,http://api.map.baidu.com/place/detail?uid=2571b777ebe0c6cbd22dd686&output=html&source=placeapi_v2,,,,,,,,,,2,,,,,,,,111.6775357746,40.803659902938,0
aa13c6dd0382efe188b988fb,艺拉客干洗,生活服务,洗衣店,内蒙古自治区,呼和浩特市,玉泉区,内蒙古自治区呼和浩特市玉泉区南二环盛世东元北区20号楼7号,aa13c6dd0382efe188b988fb,1,0,111.655366,40.786371,,life,http://api.map.baidu.com/place/detail?uid=aa13c6dd0382efe188b988fb&output=html&source=placeapi_v2,,,,,,,,,,7,,,,,,,,111.65539028184,40.786217830307,0
cf88b8024a3c221b2efaa79e,三利洗染中心,生活服务,洗衣店,内蒙古自治区,呼和浩特市,玉泉区,呼和浩特市玉泉区工艺厂巷华众小区,cf88b8024a3c221b2efaa79e,1,0,111.679992,40.804821,,life,http://api.map.baidu.com/place/detail?uid=cf88b8024a3c221b2efaa79e&output=html&source=placeapi_v2,,09:00-20:00,,,,,,,,,,,,,,,,,,0
5e21740105f768414e776e60,有壹家洗衣店,生活服务,洗衣店,内蒙古自治区,呼和浩特市,赛罕区,呼和浩特市赛罕区金桥开发区金桥路鸿都大厦南巷内,5e21740105f768414e776e60,1,0,111.715759,40.788,18604717424,life,http://api.map.baidu.com/place/detail?uid=5e21740105f768414e776e60&output=html&source=placeapi_v2,,07:30-19:30,0.0,,,,,,,2,1,,,,,,,111.71588051482,40.788212780923,0
631c4157855c751c31f71d43,福奈特(新希望街店),生活服务,洗衣店,内蒙古自治区,呼和浩特市,赛罕区,内蒙古自治区呼和浩特市赛罕区新希望街1014号,631c4157855c751c31f71d43,1,0,111.700432,40.800729,(0471)3149181,life,http://api.map.baidu.com/place/detail?uid=631c4157855c751c31f71d43&output=html&source=placeapi_v2,,09:00-21:00,0,,,,,,,13,1,,,,,,,111.7002879802,40.801015928937,0
3a0a78bded5f5b8763180937,洛克洗衣连锁(档案局小区店),生活服务,洗衣店,内蒙古自治区,呼和浩特市,赛罕区,内蒙古自治区呼和浩特市赛罕区世纪四路档案局小区13号,3a0a78bded5f5b8763180937,1,0,111.708344,40.792342,,life,http://api.map.baidu.com/place/detail?uid=3a0a78bded5f5b8763180937&output=html&source=placeapi_v2,,09:00-19:00,0.0,,,,,,,16,,,,,,,,,,0
bc5993e1c19cf814c7f025ac,威特斯干洗,生活服务,洗衣店,内蒙古自治区,呼和浩特市,赛罕区,呼和浩特市赛罕区包头东街万豪长隆湾,,1,0,111.723626,40.791931,14747294344,life,http://api.map.baidu.com/place/detail?uid=bc5993e1c19cf814c7f025ac&output=html&source=placeapi_v2,,09:00-20:00,,,,,,,,3,,,,,,,,,,0
b72535aeca7e4731f03cbaac,洛克洗衣连锁(风华园店),生活服务,洗衣店,内蒙古自治区,呼和浩特市,赛罕区,内蒙古自治区呼和浩特市赛罕区水上公园北街8号,b72535aeca7e4731f03cbaac,1,0,111.700264,40.795338,"(0471)4979860,15764717150",life,http://api.map.baidu.com/place/detail?uid=b72535aeca7e4731f03cbaac&output=html&source=placeapi_v2,,09:00-19:00,,,,,,,,9,,,,,,,,,,0
b70e12ad9960013ea5da3920,奥妮卡洗衣生活馆,生活服务,洗衣店,内蒙古自治区,呼和浩特市,赛罕区,内蒙古自治区呼和浩特市赛罕区昭乌达路海德酒店往南50米路东巷子文明路(文明路中段路北),b70e12ad9960013ea5da3920,1,0,111.712477,40.802266,13354714705,life,http://api.map.baidu.com/place/detail?uid=b70e12ad9960013ea5da3920&output=html&source=placeapi_v2,,08:00-20:00,,,,,,,,5,,,,,,,,111.71252566084,40.802142669756,0
0eeafbaa3ee89c3f400245d1,UCC国际洗衣(银河北街店),生活服务,洗衣店,内蒙古自治区,呼和浩特市,赛罕区,包头东街5号中海・财富广场E底商,0eeafbaa3ee89c3f400245d1,1,0,111.729596,40.791046,15024945856,life,http://api.map.baidu.com/place/detail?uid=0eeafbaa3ee89c3f400245d1&output=html&source=placeapi_v2,,09:00-20:00,,,,,,,,3,,,,,,,,,,0
386536b141e9d4e10b69d922,衣洁丽干洗(惠民街店),生活服务,洗衣店,内蒙古自治区,呼和浩特市,赛罕区,内蒙古自治区呼和浩特市赛罕区金河湾1号,386536b141e9d4e10b69d922,1,0,111.727374,40.782413,,life,http://api.map.baidu.com/place/detail?uid=386536b141e9d4e10b69d922&output=html&source=placeapi_v2,,09:00-20:00,1,,,,,,,10,4,,,,,,,,,0
00d7c728e1b77dec8bfc06a1,映月芙蓉洗衣,生活服务,洗衣店,内蒙古自治区,呼和浩特市,赛罕区,内蒙古自治区呼和浩特市赛罕区锡林郭勒南路,00d7c728e1b77dec8bfc06a1,1,0,111.697371,40.784175,"(0471)3450559,15391164999",life,http://api.map.baidu.com/place/detail?uid=00d7c728e1b77dec8bfc06a1&output=html&source=placeapi_v2,,09:00-20:00,1,,,,,,,5,,,,,,,,,,0
18b36123e073691a2b3a9f49,佳洁学府干洗,生活服务,洗衣店,内蒙古自治区,呼和浩特市,赛罕区,呼和浩特市赛罕区大学西路街道学府花园路34号底店,18b36123e073691a2b3a9f49,1,0,111.710219,40.807283,15184757738,life,http://api.map.baidu.com/place/detail?uid=18b36123e073691a2b3a9f49&output=html&source=placeapi_v2,,09:00-20:00,5,,,,,,,7,,,,,,,,111.71009984699,40.80741045521,0
bae93e011615ad8b40afe683,德国卡柏健康干洗(呼和浩特南二环店),生活服务,洗衣店,内蒙古自治区,呼和浩特市,赛罕区,内蒙古呼和浩特市赛罕区南二环路丰瑞公园一号B区5号楼底商106号,bae93e011615ad8b40afe683,1,0,111.697229,40.792436,18347963767,life,http://api.map.baidu.com/place/detail?uid=bae93e011615ad8b40afe683&output=html&source=placeapi_v2,,08:30-19:00,,,,,,,,5,,,,,,,,,,0
6b9580bbac3041b8f7eafc1f,赛维干洗(兴安南路店),生活服务,洗衣店,内蒙古自治区,呼和浩特市,赛罕区,兴安南路金岁大酒店十字路口南200米路西青城大学南巷内,6b9580bbac3041b8f7eafc1f,1,0,111.717729,40.807487,,life,http://api.map.baidu.com/place/detail?uid=6b9580bbac3041b8f7eafc1f&output=html&source=placeapi_v2,,09:00-20:00,,,,,,,,5,,,,,,,,111.71760246048,40.807450662093,0
5ada5603d6787345b04c494e,日日新洗衣(新希望家园),生活服务,洗衣店,内蒙古自治区,呼和浩特市,赛罕区,呼和浩特市赛罕区新希望家园西A1区11号楼,5ada5603d6787345b04c494e,1,0,111.701693,40.798853,15754845658,life,http://api.map.baidu.com/place/detail?uid=5ada5603d6787345b04c494e&output=html&source=placeapi_v2,,,,,,,,,,7,,,,,,,,,,0
523b8e3a5d30143e7ab55ceb,德奈福洗衣(Z峰汇东北),生活服务,洗衣店,内蒙古自治区,呼和浩特市,玉泉区,呼和浩特市玉泉区郭勒南路秋实Z峰汇底商,523b8e3a5d30143e7ab55ceb,1,0,111.693093,40.78217,15774716262,life,http://api.map.baidu.com/place/detail?uid=523b8e3a5d30143e7ab55ceb&output=html&source=placeapi_v2,,10:00-22:00,,,,,,,,6,,,,,,,,111.69301399804,40.782284806816,0
1443287a1306fc924e2fdf1c,意达干洗店,生活服务,洗衣店,内蒙古自治区,呼和浩特市,赛罕区,内蒙古自治区呼和浩特市赛罕区兴安南路意达花园1号楼,,1,0,111.716526,40.807245,,life,http://api.map.baidu.com/place/detail?uid=1443287a1306fc924e2fdf1c&output=html&source=placeapi_v2,,08:00-20:00,,,,,,,,2,,,,,,,,111.71654828459,40.80716765401,0
9bd0850cc5fde5c7354aaefb,东方瑞丽国际洗衣生活馆,生活服务,洗衣店,内蒙古自治区,呼和浩特市,赛罕区,内蒙古自治区呼和浩特市赛罕区金宇星城S9-101商铺,,1,0,111.732025,40.784612,18147388001,life,http://api.map.baidu.com/place/detail?uid=9bd0850cc5fde5c7354aaefb&output=html&source=placeapi_v2,,,,,,,,,,2,,,,,,,,111.73197061636,40.784658596988,0
513485c0287de41ec6effb52,亚维干洗,生活服务,洗衣店,内蒙古自治区,呼和浩特市,赛罕区,内蒙古自治区呼和浩特市赛罕区兴农小区13号,513485c0287de41ec6effb52,1,0,111.713714,40.808347,13474835131,life,http://api.map.baidu.com/place/detail?uid=513485c0287de41ec6effb52&output=html&source=placeapi_v2,,08:00-20:00,,,,,,,,2,,,,,,,,,,0
5472d8900f44ac7ea20464a9,赛维洗衣生活馆(丰州南路),生活服务,洗衣店,内蒙古自治区,呼和浩特市,赛罕区,内蒙古自治区呼和浩特市赛罕区丰州南路紫御东君7号楼102室,5472d8900f44ac7ea20464a9,1,0,111.748862,40.803407,15548717666,life,http://api.map.baidu.com/place/detail?uid=5472d8900f44ac7ea20464a9&output=html&source=placeapi_v2,,09:00-20:00,5,,,,,,,8,2,,,,,,,111.74856861985,40.803343276473,0
c17afb3e993fe44be6e965f9,奥奇洗衣,生活服务,洗衣店,内蒙古自治区,呼和浩特市,赛罕区,呼和浩特市赛罕区巴音巴什小区,,1,0,111.770216,40.792112,"18548124847,18698419517",life,http://api.map.baidu.com/place/detail?uid=c17afb3e993fe44be6e965f9&output=html&source=placeapi_v2,,09:00-18:00,,,,,,,,,,,,,,,,,,0
9bd0850cc5fde5c7354aaefb,东方瑞丽国际洗衣生活馆,生活服务,洗衣店,内蒙古自治区,呼和浩特市,赛罕区,内蒙古自治区呼和浩特市赛罕区金宇星城S9-101商铺,,1,0,111.732025,40.784612,18147388001,life,http://api.map.baidu.com/place/detail?uid=9bd0850cc5fde5c7354aaefb&output=html&source=placeapi_v2,,,,,,,,,,2,,,,,,,,111.73197061636,40.784658596988,0
d377c5f775aad094c51e5166,专业皮具护理,生活服务,洗衣店,内蒙古自治区,呼和浩特市,赛罕区,内蒙古自治区呼和浩特市赛罕区和畅路金桥馨康花园27号楼,d377c5f775aad094c51e5166,1,0,111.73833,40.785658,"13314887471,15326026234",life,http://api.map.baidu.com/place/detail?uid=d377c5f775aad094c51e5166&output=html&source=placeapi_v2,,,0,,,,,,,7,1,,,,,,,111.73838582115,40.785526054195,0
c17afb3e993fe44be6e965f9,奥奇洗衣,生活服务,洗衣店,内蒙古自治区,呼和浩特市,赛罕区,呼和浩特市赛罕区巴音巴什小区,,1,0,111.770216,40.792112,"18548124847,18698419517",life,http://api.map.baidu.com/place/detail?uid=c17afb3e993fe44be6e965f9&output=html&source=placeapi_v2,,09:00-18:00,,,,,,,,,,,,,,,,,,0
2af8353c951120f902ff2d72,红梅洗衣店,生活服务,洗衣店,内蒙古自治区,呼和浩特市,回民区,呼和浩特市回民区金三道首府洋房,2af8353c951120f902ff2d72,1,0,111.56653,40.807555,15847131311,life,http://api.map.baidu.com/place/detail?uid=2af8353c951120f902ff2d72&output=html&source=placeapi_v2,,,,,,,,,,6,,,,,,,,111.5665548674,40.807585048384,0
95aca0ba4fcfb9bc4d776ea9,上院绿色干洗,生活服务,洗衣店,内蒙古自治区,呼和浩特市,土默特左旗,内蒙古自治区呼和浩特市土默特左旗金川上院小区雅静6号车库阳104号,95aca0ba4fcfb9bc4d776ea9,1,0,111.557672,40.801516,15248011448,life,http://api.map.baidu.com/place/detail?uid=95aca0ba4fcfb9bc4d776ea9&output=html&source=placeapi_v2,,08:00-21:00,5,,,,,,,5,12,,,,,,,111.55781965838,40.801387936066,0
55fa2c0b9b6653501ce99939,明珠洗衣店,生活服务,洗衣店,内蒙古自治区,呼和浩特市,回民区,呼和浩特市回民区草原明珠小区14号楼,55fa2c0b9b6653501ce99939,1,0,111.611075,40.828634,,life,http://api.map.baidu.com/place/detail?uid=55fa2c0b9b6653501ce99939&output=html&source=placeapi_v2,,09:00-20:00,,,,,,,,3,,,,,,,,111.61124872954,40.82861037108,0
14b54c33b4483a4c4c5547d3,上海溪洁干洗,生活服务,洗衣店,内蒙古自治区,呼和浩特市,回民区,呼和浩特市回民区草原明珠路草原明珠小区-南区,14b54c33b4483a4c4c5547d3,1,0,111.612024,40.827131,,life,http://api.map.baidu.com/place/detail?uid=14b54c33b4483a4c4c5547d3&output=html&source=placeapi_v2,,,,,,,,,,2,,,,,,,,111.61192922219,40.826998923775,0
be875e1f67e16742bb17e79c,蓝海洗染中心,生活服务,洗衣店,内蒙古自治区,呼和浩特市,回民区,钢铁路民康巷咱家小区南门东五十米,be875e1f67e16742bb17e79c,1,0,111.628132,40.818341,,life,http://api.map.baidu.com/place/detail?uid=be875e1f67e16742bb17e79c&output=html&source=placeapi_v2,,10:00-21:00,0,,,,,,,8,1,,,,,,,111.62811315868,40.818417311177,0
07c8872746bc97a582288abb,UCC国际洗衣旗舰店(庆凯街店),生活服务,洗衣店,内蒙古自治区,呼和浩特市,回民区,内蒙古自治区呼和浩特市回民区庆凯街香槟美景小区南门302号,07c8872746bc97a582288abb,1,0,111.639361,40.811229,15849360078,life,http://api.map.baidu.com/place/detail?uid=07c8872746bc97a582288abb&output=html&source=placeapi_v2,,08:00-20:30,5,,,,,,,14,8,,,,,,,111.6395501338,40.811037546311,0
3916ba653f226d852cb90897,瑞雪干洗店,生活服务,洗衣店,内蒙古自治区,呼和浩特市,回民区,内蒙古自治区呼和浩特市回民区新华西街2号呼钢小区4号楼,3916ba653f226d852cb90897,1,0,111.641316,40.819828,15848134029,life,http://api.map.baidu.com/place/detail?uid=3916ba653f226d852cb90897&output=html&source=placeapi_v2,,09:00-20:00,,,,,,,,3,,,,,,,,111.64139765808,40.819722869603,0
46095c05c93f0d55dc1e52f9,天顺祥皮革护理,生活服务,洗衣店,内蒙古自治区,呼和浩特市,回民区,内蒙古自治区呼和浩特市回民区阿拉善南路冠丰家园3号楼12号,46095c05c93f0d55dc1e52f9,1,0,111.634751,40.811676,15849375326,life,http://api.map.baidu.com/place/detail?uid=46095c05c93f0d55dc1e52f9&output=html&source=placeapi_v2,,07:00-21:00,,,,,,,,6,,,,,,,,111.63467495165,40.811766693372,0
921516ff6b5a4a94f11937e5,心字洗衣,生活服务,洗衣店,内蒙古自治区,呼和浩特市,回民区,内蒙古自治区呼和浩特市回民区欧星香槟美景小区3,,1,0,111.637917,40.810596,13394897397,life,http://api.map.baidu.com/place/detail?uid=921516ff6b5a4a94f11937e5&output=html&source=placeapi_v2,,,,,,,,,,11,,,,,,,,111.63796949249,40.810418893218,0
99159e20516a52c13f9a5e66,云净雅干洗店,生活服务,洗衣店,内蒙古自治区,呼和浩特市,回民区,呼和浩特市回民区海拉尔西路办事处西龙王庙香槟美景1号楼,99159e20516a52c13f9a5e66,1,0,111.639595,40.81132,,life,http://api.map.baidu.com/place/detail?uid=99159e20516a52c13f9a5e66&output=html&source=placeapi_v2,,,0,,,,,,,13,1,,,,,,,111.63973834228,40.811112543045,0
5e593fe9154d061edbeced9a,小刘干洗缝纫,生活服务,洗衣店,内蒙古自治区,呼和浩特市,回民区,内蒙古自治区呼和浩特市回民区光明大街宝丽家园,5e593fe9154d061edbeced9a,1,0,111.63584,40.824223,13404838981,life,http://api.map.baidu.com/place/detail?uid=5e593fe9154d061edbeced9a&output=html&source=placeapi_v2,,08:00-16:00,,,,,,,,3,,,,,,,,,,0
162d5a7f7220af0fc41b7582,干洗改衣皮衣,生活服务,洗衣店,内蒙古自治区,呼和浩特市,回民区,呼和浩特市回民区庆凯街祥龙小区别墅区南侧约30米,162d5a7f7220af0fc41b7582,1,0,111.643505,40.812778,,life,http://api.map.baidu.com/place/detail?uid=162d5a7f7220af0fc41b7582&output=html&source=placeapi_v2,,,,,,,,,,6,,,,,,,,111.6435810049,40.812672992243,0
a38605f6a2dbe8749ee32198,力洁绿色干洗店,生活服务,洗衣店,内蒙古自治区,呼和浩特市,回民区,内蒙古自治区呼和浩特市回民区阿吉拉沁南路与新华西街交叉路口南侧明泽百度城北侧约50米回民区电信三分局巷子里,a38605f6a2dbe8749ee32198,1,0,111.645372,40.818037,15648176513,life,http://api.map.baidu.com/place/detail?uid=a38605f6a2dbe8749ee32198&output=html&source=placeapi_v2,,09:00-20:00,,,,,,,,9,,,,,,,,,,0
c9c59ddb2c83d2f603ff2d46,赛维洗衣(新华西街店),生活服务,洗衣店,内蒙古自治区,呼和浩特市,回民区,内蒙古自治区呼和浩特市回民区新华西街(呼钢东路地铁站c口处),c9c59ddb2c83d2f603ff2d46,1,0,111.622204,40.810393,13081521349,life,http://api.map.baidu.com/place/detail?uid=c9c59ddb2c83d2f603ff2d46&output=html&source=placeapi_v2,,09:00-20:00,5,,,,,,,,1,,,,,,,,,0
2ad99621d08a9cca9fec2b93,雅俏制衣干洗店,生活服务,洗衣店,内蒙古自治区,呼和浩特市,回民区,呼和浩特市回民区西村前街3号,2ad99621d08a9cca9fec2b93,1,0,111.646026,40.82333,15147150930,life,http://api.map.baidu.com/place/detail?uid=2ad99621d08a9cca9fec2b93&output=html&source=placeapi_v2,,09:00-20:00,0,,,,,,,7,1,,,,,,,111.64605051412,40.823457020567,0
3fecdce4c646e4ebc36c1481,中意干洗店(分店),生活服务,洗衣店,内蒙古自治区,呼和浩特市,回民区,内蒙古自治区呼和浩特市回民区铁西家园A区北(海拉尔西街南),3fecdce4c646e4ebc36c1481,1,0,111.633248,40.83238,15034949557,life,http://api.map.baidu.com/place/detail?uid=3fecdce4c646e4ebc36c1481&output=html&source=placeapi_v2,,09:00-20:00,,,,,,,,3,,,,,,,,111.63339993184,40.83244663019,0
5c0ef9228403627f7bf796d8,洁又佳洗衣缝纫部,生活服务,洗衣店,内蒙古自治区,呼和浩特市,回民区,呼和浩特市回民区西村前街明泽雅居,,1,0,111.648676,40.823879,,life,http://api.map.baidu.com/place/detail?uid=5c0ef9228403627f7bf796d8&output=html&source=placeapi_v2,,,,,,,,,,4,,,,,,,,,,0
772659c3e56f77bd130daa2e,洁秀雅干洗店,生活服务,洗衣店,内蒙古自治区,呼和浩特市,回民区,呼和浩特市回民区沿河西路信号厂小区南侧约150米,772659c3e56f77bd130daa2e,1,0,111.646726,40.828597,15354807761,life,http://api.map.baidu.com/place/detail?uid=772659c3e56f77bd130daa2e&output=html&source=placeapi_v2,,09:00-20:00,,,,,,,,3,,,,,,,,,,0
ab130813d49c0a5ad8d891c8,立洁洗衣(阿吉拉沁南路),生活服务,洗衣店,内蒙古自治区,呼和浩特市,回民区,金百富大酒店(县府街店)北60米,ab130813d49c0a5ad8d891c8,1,0,111.647899,40.813568,,life,http://api.map.baidu.com/place/detail?uid=ab130813d49c0a5ad8d891c8&output=html&source=placeapi_v2,,00:00-24:00,0,,,,,,,14,1,,,,,,,111.64809418071,40.81361099992,0
141049f85d7cc06afbdc8556,衣缘干洗店,生活服务,洗衣店,内蒙古自治区,呼和浩特市,回民区,内蒙古自治区呼和浩特市回民区新华西路办事处新华西街孔家营阙里人家小区18号楼,141049f85d7cc06afbdc8556,1,0,111.623659,40.807329,15849390771,life,http://api.map.baidu.com/place/detail?uid=141049f85d7cc06afbdc8556&output=html&source=placeapi_v2,,09:00-20:00,,,,,,,,6,,,,,,,,111.6235746237,40.807454038121,0
4d50657153214e83b42655a3,日日新洗衣(县府街店),生活服务,洗衣店,内蒙古自治区,呼和浩特市,回民区,攸攸板镇县府西街艾博龙园南门东底商,4d50657153214e83b42655a3,1,0,111.64323,40.807247,15504815858,life,http://api.map.baidu.com/place/detail?uid=4d50657153214e83b42655a3&output=html&source=placeapi_v2,,08:00-20:00,,,,,,,,9,,,,,,,,111.64330898541,40.8070553377,0
1cc7bf776a0857c92fb17e12,泉神干洗店(吉利花园东),生活服务,洗衣店,内蒙古自治区,呼和浩特市,回民区,内蒙古自治区呼和浩特市回民区县府街吉利小区6号楼3室,1cc7bf776a0857c92fb17e12,1,0,111.649154,40.807693,,life,http://api.map.baidu.com/place/detail?uid=1cc7bf776a0857c92fb17e12&output=html&source=placeapi_v2,,09:00-20:00,0,,,,,,,9,1,,,,,,,111.64897674701,40.807679722149,0
dd79b3001962843728201af3,清丽干洗店,生活服务,洗衣店,内蒙古自治区,呼和浩特市,回民区,内蒙古自治区呼和浩特市回民区牛街牛街水岸世纪西区5号,dd79b3001962843728201af3,1,0,111.655175,40.820838,15560711097,life,http://api.map.baidu.com/place/detail?uid=dd79b3001962843728201af3&output=html&source=placeapi_v2,,09:00-20:00,,,,,,,,7,,,,,,,,111.65520633313,40.820741270886,0
e9acc3c08d3f3874f7b9169e,田程洗衣店,生活服务,洗衣店,内蒙古自治区,呼和浩特市,回民区,内蒙古自治区呼和浩特市回民区环河街街道县府街阿吉拉沁南路邮电小区对面,e9acc3c08d3f3874f7b9169e,1,0,111.649342,40.811093,,life,http://api.map.baidu.com/place/detail?uid=e9acc3c08d3f3874f7b9169e&output=html&source=placeapi_v2,,09:00-20:00,,,,,,,,7,,,,,,,,,,0
871caf6241c87cf96ca3cc8c,依莱净干洗(县府街店),生活服务,洗衣店,内蒙古自治区,呼和浩特市,回民区,呼和浩特市回民区县府街40号,871caf6241c87cf96ca3cc8c,1,0,111.652788,40.81017,,life,http://api.map.baidu.com/place/detail?uid=871caf6241c87cf96ca3cc8c&output=html&source=placeapi_v2,,09:00-20:00,,,,,,,,10,,,,,,,,111.65285399978,40.810142980169,0
2080be795cda4d3138221cff,路卡迪洗衣专家,生活服务,洗衣店,内蒙古自治区,呼和浩特市,回民区,内蒙古自治区呼和浩特市回民区路牛街三区2695号,,1,0,111.656489,40.818895,18847143930,life,http://api.map.baidu.com/place/detail?uid=2080be795cda4d3138221cff&output=html&source=placeapi_v2,,09:00-20:00,,,,,,,,2,,,,,,,,,,0
5a162f854a91503b0782c2b5,洗衣裁缝店,生活服务,洗衣店,内蒙古自治区,呼和浩特市,回民区,内蒙古自治区呼和浩特市回民区铁西家园A区(海拉尔西街南),5a162f854a91503b0782c2b5,1,0,111.633492,40.832436,15034794636,life,http://api.map.baidu.com/place/detail?uid=5a162f854a91503b0782c2b5&output=html&source=placeapi_v2,,09:00-20:00,,,,,,,,4,,,,,,,,,,0
20029da794b808402cb90895,伊斯曼洗衣(文化宫街店),生活服务,洗衣店,内蒙古自治区,呼和浩特市,回民区,呼和浩特市回民区文化宫路总工会家属院,20029da794b808402cb90895,1,0,111.670295,40.818723,18847188666,life,http://api.map.baidu.com/place/detail?uid=20029da794b808402cb90895&output=html&source=placeapi_v2,21,08:00-20:00,0,,,,,,,16,0,,,,,,,111.67044949068,40.818767297103,0
657105b9311522db0c0e6b94,德奈福洗衣(海亮店),生活服务,洗衣店,内蒙古自治区,呼和浩特市,回民区,呼和浩特市回民区中山西路街道中山西路海亮金宝街一楼56号,657105b9311522db0c0e6b94,1,0,111.67673,40.819413,13947109982,life,http://api.map.baidu.com/place/detail?uid=657105b9311522db0c0e6b94&output=html&source=placeapi_v2,,09:00-20:00,,,,,,,,2,,,,,,,,111.67677860995,40.819578282845,0
4fc3161aa03607aa3a13fdfe,福奈特洗衣(都市华庭店),生活服务,洗衣店,内蒙古自治区,呼和浩特市,回民区,内蒙古自治区呼和浩特市回民区大学西街71号都市华庭银都大厦b座9号,4fc3161aa03607aa3a13fdfe,1,0,111.679154,40.811423,(0471)6688018,life,http://api.map.baidu.com/place/detail?uid=4fc3161aa03607aa3a13fdfe&output=html&source=placeapi_v2,,08:00-18:30,0,,,,,,,14,1,,,,,,,111.67929110758,40.811172458969,0
b3eac71c490fa446631c67d2,美国UCC国际洗衣(青城店),生活服务,洗衣店,内蒙古自治区,呼和浩特市,回民区,内蒙古自治区呼和浩特市回民区公园西路119号,b3eac71c490fa446631c67d2,1,0,111.668109,40.813308,13789517481,life,http://api.map.baidu.com/place/detail?uid=b3eac71c490fa446631c67d2&output=html&source=placeapi_v2,,09:00-21:00,,,,,,,,10,,,,,,,,111.66803678222,40.813392297136,0
3da907f31351c050b320a8fe,友邦fhe洗衣(人民路店),生活服务,洗衣店,内蒙古自治区,呼和浩特市,新城区,内蒙古自治区呼和浩特市新城区人民路16号,3da907f31351c050b320a8fe,1,0,111.682502,40.820346,(0471)6264555,life,http://api.map.baidu.com/place/detail?uid=3da907f31351c050b320a8fe&output=html&source=placeapi_v2,,08:00-18:30,0,,,,,,,7,2,,,,,,,111.68232474457,40.820296320033,0
e08bc7b4506850884151c0ab,洛克洗衣店(宽巷子店),生活服务,洗衣店,内蒙古自治区,呼和浩特市,玉泉区,内蒙古自治区呼和浩特市玉泉区心月家园6号,e08bc7b4506850884151c0ab,1,0,111.666536,40.812856,,life,http://api.map.baidu.com/place/detail?uid=e08bc7b4506850884151c0ab&output=html&source=placeapi_v2,,,,,,,,,,7,,,,,,,,,,0
a8db29b22dae916f28b97ca1,可心干洗缝纫,生活服务,洗衣店,内蒙古自治区,呼和浩特市,回民区,通道街街道通道北街三顺店西巷路南,a8db29b22dae916f28b97ca1,1,0,111.663292,40.822095,,life,http://api.map.baidu.com/place/detail?uid=a8db29b22dae916f28b97ca1&output=html&source=placeapi_v2,,,,,,,,,,7,,,,,,,,111.66331699973,40.822236978645,0
fd137963eed680d8843304d3,汇洁干洗店,生活服务,洗衣店,内蒙古自治区,呼和浩特市,回民区,内蒙古自治区呼和浩特市回民区后新城道牛街四区14号楼100号,fd137963eed680d8843304d3,1,0,111.664555,40.817824,15904819062,life,http://api.map.baidu.com/place/detail?uid=fd137963eed680d8843304d3&output=html&source=placeapi_v2,,,,,,,,,,7,,,,,,,,,,0
21ac08e89e52c037744ff1a9,日鑫干洗店,生活服务,洗衣店,内蒙古自治区,呼和浩特市,新城区,内蒙古自治区呼和浩特市新城区人民路邮电西小区(邮校北巷南),21ac08e89e52c037744ff1a9,1,0,111.682738,40.822995,,life,http://api.map.baidu.com/place/detail?uid=21ac08e89e52c037744ff1a9&output=html&source=placeapi_v2,,09:00-20:00,0,,,,,,,7,1,,,,,,,111.68258672909,40.823021060183,0
4c9368516534615749fd3f6f,裁缝洗衣店,生活服务,洗衣店,内蒙古自治区,呼和浩特市,玉泉区,内蒙古自治区呼和浩特市玉泉区粱山街兴华小区5号,4c9368516534615749fd3f6f,1,0,111.668505,40.809472,16647154088,life,http://api.map.baidu.com/place/detail?uid=4c9368516534615749fd3f6f&output=html&source=placeapi_v2,,09:00-20:00,0,,,,,,,6,1,,,,,,,111.66855131275,40.80933574113,0
906568ab1e1ef26ff4231071,水洗干洗设备,生活服务,洗衣店,内蒙古自治区,呼和浩特市,回民区,呼和浩特市回民区石羊桥路塞宝小区,,1,0,111.668712,40.812904,,life,http://api.map.baidu.com/place/detail?uid=906568ab1e1ef26ff4231071&output=html&source=placeapi_v2,,,,,,,,,,2,,,,,,,,,,0
7f24521138ee11958605bf85,天添干洗店(人民路),生活服务,洗衣店,内蒙古自治区,呼和浩特市,赛罕区,呼和浩特市赛罕区人民路恒基公寓东侧,,1,0,111.684874,40.815757,13484710585,life,http://api.map.baidu.com/place/detail?uid=7f24521138ee11958605bf85&output=html&source=placeapi_v2,,09:00-20:00,,,,,,,,2,,,,,,,,111.68474145409,40.815688823081,0
bcb460a5e300248f2bd7ab4f,洛克洗衣(健康街店),生活服务,洗衣店,内蒙古自治区,呼和浩特市,赛罕区,内蒙古自治区呼和浩特市赛罕区健康街8号,bcb460a5e300248f2bd7ab4f,1,0,111.684648,40.819472,15754877994,life,http://api.map.baidu.com/place/detail?uid=bcb460a5e300248f2bd7ab4f&output=html&source=placeapi_v2,,08:00-20:00,0,,,,,,,6,0,,,,,,,111.68461978849,40.819523450002,0
1a94df691ce016b40b69d97f,日日新洗衣(大东街店),生活服务,洗衣店,内蒙古自治区,呼和浩特市,玉泉区,呼和浩特市玉泉区大东街钰景花园104号底商,1a94df691ce016b40b69d97f,1,0,111.667597,40.807487,(0471)5226501,life,http://api.map.baidu.com/place/detail?uid=1a94df691ce016b40b69d97f&output=html&source=placeapi_v2,,08:00-18:30,0,,,,,,,12,2,,,,,,,111.66748271726,40.807650837853,0
60268c748e4b2422dbeced91,洛克洗衣(同盛店),生活服务,洗衣店,内蒙古自治区,呼和浩特市,赛罕区,内蒙古自治区呼和浩特市赛罕区恒基公寓1号楼,60268c748e4b2422dbeced91,1,0,111.684577,40.815736,,life,http://api.map.baidu.com/place/detail?uid=60268c748e4b2422dbeced91&output=html&source=placeapi_v2,,09:00-19:00,1,,,,,,,3,1,,,,,,,111.68469062168,40.815774944738,0
5c8e0623afff1760f703b80d,衣生缘干洗店(三顺店西巷店),生活服务,洗衣店,内蒙古自治区,呼和浩特市,回民区,景观小区5号,5c8e0623afff1760f703b80d,1,0,111.663685,40.822422,,life,http://api.map.baidu.com/place/detail?uid=5c8e0623afff1760f703b80d&output=html&source=placeapi_v2,,09:00-20:00,,,,,,,,13,,,,,,,,111.66372494991,40.822253983492,0
bccca26b56b4f13c52e5c5fe,多洁丽干洗店(吕祖庙街店),生活服务,洗衣店,内蒙古自治区,呼和浩特市,玉泉区,呼和浩特市玉泉区吕祖庙街新华小区门面房,bccca26b56b4f13c52e5c5fe,1,0,111.667306,40.810392,,life,http://api.map.baidu.com/place/detail?uid=bccca26b56b4f13c52e5c5fe&output=html&source=placeapi_v2,,09:00-20:00,0,,,,,,,8,1,,,,,,,,,0
d15112de0c47f44ef8221384,慧珍干洗店,生活服务,洗衣店,内蒙古自治区,呼和浩特市,回民区,呼和浩特市回民区文化宫路战备路知福公寓,d15112de0c47f44ef8221384,1,0,111.669747,40.829401,,life,http://api.map.baidu.com/place/detail?uid=d15112de0c47f44ef8221384&output=html&source=placeapi_v2,,,0.0,,,,,,,10,1,,,,,,,111.66980007958,40.829496664467,0
2e9bb3788a76b5926f4760de,福缘洗衣店,生活服务,洗衣店,内蒙古自治区,呼和浩特市,玉泉区,呼和浩特市玉泉区建华街建华小苑,2e9bb3788a76b5926f4760de,1,0,111.677147,40.807967,,life,http://api.map.baidu.com/place/detail?uid=2e9bb3788a76b5926f4760de&output=html&source=placeapi_v2,,,,,,,,,,7,,,,,,,,111.67711274097,40.807960348538,0
6881c4acddcebc3dc336444a,好洁干洗店(四眼井巷店),生活服务,洗衣店,内蒙古自治区,呼和浩特市,玉泉区,内蒙古自治区呼和浩特市玉泉区大东街6号,6881c4acddcebc3dc336444a,1,0,111.665086,40.810706,,life,http://api.map.baidu.com/place/detail?uid=6881c4acddcebc3dc336444a&output=html&source=placeapi_v2,,09:00-20:00,0,,,,,,,7,1,,,,,,,111.66524810325,40.810738848076,0
75bde268295cf39c2efaa7a8,伊尔萨干洗店,生活服务,洗衣店,内蒙古自治区,呼和浩特市,新城区,呼和浩特市新城区迎宾北路新华大街-63号院,75bde268295cf39c2efaa7a8,1,0,111.6785,40.830377,,life,http://api.map.baidu.com/place/detail?uid=75bde268295cf39c2efaa7a8&output=html&source=placeapi_v2,,,,,,,,,,5,,,,,,,,,,0
8f0a822417200bd02811d1d6,宇洁干洗店,生活服务,洗衣店,内蒙古自治区,呼和浩特市,新城区,内蒙古自治区呼和浩特市新城区巨隆昌街88号,8f0a822417200bd02811d1d6,1,0,111.69171,40.826593,13034719456,life,http://api.map.baidu.com/place/detail?uid=8f0a822417200bd02811d1d6&output=html&source=placeapi_v2,,09:00-20:00,0.0,,,,,,,10,,,,,,,,111.69180723778,40.826619834376,0
dd79b3001962843728201af3,清丽干洗店,生活服务,洗衣店,内蒙古自治区,呼和浩特市,回民区,内蒙古自治区呼和浩特市回民区牛街牛街水岸世纪西区5号,dd79b3001962843728201af3,1,0,111.655175,40.820838,15560711097,life,http://api.map.baidu.com/place/detail?uid=dd79b3001962843728201af3&output=html&source=placeapi_v2,,09:00-20:00,,,,,,,,7,,,,,,,,111.65520633313,40.820741270886,0
2080be795cda4d3138221cff,路卡迪洗衣专家,生活服务,洗衣店,内蒙古自治区,呼和浩特市,回民区,内蒙古自治区呼和浩特市回民区路牛街三区2695号,,1,0,111.656489,40.818895,18847143930,life,http://api.map.baidu.com/place/detail?uid=2080be795cda4d3138221cff&output=html&source=placeapi_v2,,09:00-20:00,,,,,,,,2,,,,,,,,,,0
8b550ecb1910c6e997ec845f,知恩干洗店,生活服务,洗衣店,内蒙古自治区,呼和浩特市,赛罕区,内蒙古自治区呼和浩特市赛罕区呼伦南路208号,8b550ecb1910c6e997ec845f,1,0,111.691995,40.81544,,life,http://api.map.baidu.com/place/detail?uid=8b550ecb1910c6e997ec845f&output=html&source=placeapi_v2,,09:00-20:00,,,,,,,,5,,,,,,,,111.69189053765,40.815412492649,0
1ad82a3fc3e6d7763c9a5e95,新起点缝纫店,生活服务,洗衣店,内蒙古自治区,呼和浩特市,玉泉区,内蒙古自治区呼和浩特市玉泉区大南街街道大南街办事处开来中学新起点缝纫店,1ad82a3fc3e6d7763c9a5e95,1,0,111.658306,40.811257,,life,http://api.map.baidu.com/place/detail?uid=1ad82a3fc3e6d7763c9a5e95&output=html&source=placeapi_v2,,,0,,,,,,,1,1,,,,,,,,,0
86549ee37a52f31caeee7a1f,迎宾干洗,生活服务,洗衣店,内蒙古自治区,呼和浩特市,新城区,呼和浩特市新城区综合服务楼6号,86549ee37a52f31caeee7a1f,1,0,111.678905,40.830462,,life,http://api.map.baidu.com/place/detail?uid=86549ee37a52f31caeee7a1f&output=html&source=placeapi_v2,,09:00-20:00,0,,,,,,,6,1,,,,,,,,,0
49a2dd12873640c6932ca386,洁尔雅服装干洗店,生活服务,洗衣店,内蒙古自治区,呼和浩特市,赛罕区,内蒙古自治区呼和浩特市赛罕区人民路二毛小区西侧约30米,49a2dd12873640c6932ca386,1,0,111.688615,40.806888,15248066587,life,http://api.map.baidu.com/place/detail?uid=49a2dd12873640c6932ca386&output=html&source=placeapi_v2,,10:00-22:00,0,,,,,,,4,0,,,,,,,111.68862030944,40.806815168925,0
07ce411805bf926f774ff1bf,裁缝干洗店,生活服务,洗衣店,内蒙古自治区,呼和浩特市,玉泉区,内蒙古自治区呼和浩特市玉泉区工艺厂巷9号,07ce411805bf926f774ff1bf,1,0,111.678105,40.803986,,life,http://api.map.baidu.com/place/detail?uid=07ce411805bf926f774ff1bf&output=html&source=placeapi_v2,,,,,,,,,,4,,,,,,,,111.67805674957,40.804079347765,0
f6793ffe9251a0a3e115f9f9,天枫干洗店(大东园东一巷店),生活服务,洗衣店,内蒙古自治区,呼和浩特市,玉泉区,石羊桥安利公司旁三元辰小区底店,f6793ffe9251a0a3e115f9f9,1,0,111.67353,40.802151,13500692609,life,http://api.map.baidu.com/place/detail?uid=f6793ffe9251a0a3e115f9f9&output=html&source=placeapi_v2,,09:00-20:00,0.0,,,,,,,1,1,,,,,,,111.67343360499,40.802191405622,0
dca5b9ff435ec118c8213dc6,日日洁干洗店(通河巷店),生活服务,洗衣店,内蒙古自治区,呼和浩特市,回民区,呼和浩特市回民区通河巷内蒙古医科大学附属医院西北侧约150米,dca5b9ff435ec118c8213dc6,1,0,111.660326,40.827764,13771417497,life,http://api.map.baidu.com/place/detail?uid=dca5b9ff435ec118c8213dc6&output=html&source=placeapi_v2,,08:00-19:00,,,,,,,,3,,,,,,,,111.66037038698,40.827708686907,0
5e9fd1e7cb3f497f1e5800f6,客来美干洗店,生活服务,洗衣店,内蒙古自治区,呼和浩特市,玉泉区,内蒙古自治区呼和浩特市玉泉区小召前街办事处泓博花园西门,5e9fd1e7cb3f497f1e5800f6,1,0,111.667441,40.803914,15847127079,life,http://api.map.baidu.com/place/detail?uid=5e9fd1e7cb3f497f1e5800f6&output=html&source=placeapi_v2,,09:00-20:00,0,,,,,,,10,2,,,,,,,111.66732756912,40.803909623082,0
0adce3e20f358f1c80a00c37,洛克洗衣(净清店),生活服务,洗衣店,内蒙古自治区,呼和浩特市,赛罕区,大学西路前进巷蒙吉利小区3号楼,0adce3e20f358f1c80a00c37,1,0,111.69538,40.814254,15547132871,life,http://api.map.baidu.com/place/detail?uid=0adce3e20f358f1c80a00c37&output=html&source=placeapi_v2,,09:00-19:00,0,,,,,,,9,1,,,,,,,111.6952629499,40.814225179125,0
74d51aef682ba7f0fc0eb097,诚信干洗(西五十家街店),生活服务,洗衣店,内蒙古自治区,呼和浩特市,玉泉区,内蒙古自治区呼和浩特市玉泉区西五十家街4号,74d51aef682ba7f0fc0eb097,1,0,111.664771,40.802096,,life,http://api.map.baidu.com/place/detail?uid=74d51aef682ba7f0fc0eb097&output=html&source=placeapi_v2,,09:00-20:00,0,,,,,,,9,2,,,,,,,111.66480719335,40.801971204517,0
2571b777ebe0c6cbd22dd686,巨兰干洗,生活服务,洗衣店,内蒙古自治区,呼和浩特市,玉泉区,内蒙古自治区呼和浩特市玉泉区二十六中南巷迎春小区,,1,0,111.677475,40.80377,,life,http://api.map.baidu.com/place/detail?uid=2571b777ebe0c6cbd22dd686&output=html&source=placeapi_v2,,,,,,,,,,2,,,,,,,,111.6775357746,40.803659902938,0
cf88b8024a3c221b2efaa79e,三利洗染中心,生活服务,洗衣店,内蒙古自治区,呼和浩特市,玉泉区,呼和浩特市玉泉区工艺厂巷华众小区,cf88b8024a3c221b2efaa79e,1,0,111.679992,40.804821,,life,http://api.map.baidu.com/place/detail?uid=cf88b8024a3c221b2efaa79e&output=html&source=placeapi_v2,,09:00-20:00,,,,,,,,,,,,,,,,,,0
a0362faa57c1862004fef557,宇邦洗衣,生活服务,洗衣店,内蒙古自治区,呼和浩特市,玉泉区,呼和浩特市玉泉区大召西夹道瑞福祥南小区,a0362faa57c1862004fef557,1,0,111.659294,40.808438,13848155816,life,http://api.map.baidu.com/place/detail?uid=a0362faa57c1862004fef557&output=html&source=placeapi_v2,,08:00-19:00,,,,,,,,6,,,,,,,,111.65900826388,40.808410426982,0
cc67ce953e690c5ccd04ef7d,丽洁干洗(二十六中南巷),生活服务,洗衣店,内蒙古自治区,呼和浩特市,玉泉区,呼和浩特市玉泉区二十六中南巷迎春园,cc67ce953e690c5ccd04ef7d,1,0,111.676919,40.803329,,life,http://api.map.baidu.com/place/detail?uid=cc67ce953e690c5ccd04ef7d&output=html&source=placeapi_v2,,09:00-20:00,0,,,,,,,8,1,,,,,,,111.67685101966,40.803444551729,0
d991e11679b0c0561f3894fe,洛克洗衣(新建西街店),生活服务,洗衣店,内蒙古自治区,呼和浩特市,赛罕区,内蒙古自治区呼和浩特市赛罕区学苑西街58号,d991e11679b0c0561f3894fe,1,0,111.695012,40.810026,13754095350,life,http://api.map.baidu.com/place/detail?uid=d991e11679b0c0561f3894fe&output=html&source=placeapi_v2,,09:00-19:00,0.0,,,,,,,7,1,,,,,,,111.69491082762,40.810170414017,0
71fd2418abfdb2efbea24093,小姚干洗,生活服务,洗衣店,内蒙古自治区,呼和浩特市,玉泉区,呼和浩特市玉泉区西五十家街4号,71fd2418abfdb2efbea24093,1,0,111.665518,40.801066,13015020209,life,http://api.map.baidu.com/place/detail?uid=71fd2418abfdb2efbea24093&output=html&source=placeapi_v2,,09:00-20:00,0.0,,,,,,,8,,,,,,,,111.66536629151,40.80102342254,0
e19565f40bd06f4a3ee231a8,圆缘洗衣店,生活服务,洗衣店,内蒙古自治区,呼和浩特市,玉泉区,呼和浩特市玉泉区东五十家街民和花园,,1,0,111.669703,40.803195,,life,http://api.map.baidu.com/place/detail?uid=e19565f40bd06f4a3ee231a8&output=html&source=placeapi_v2,,00:00-24:00,,,,,,,,1,,,,,,,,111.66956733311,40.803357415522,0
f473c517a3c5abbefe0eb0b9,佳洁利干洗店,生活服务,洗衣店,内蒙古自治区,呼和浩特市,赛罕区,内蒙古自治区呼和浩特市赛罕区阳光巷金地商城1楼,,1,0,111.689788,40.809613,15148070970,life,http://api.map.baidu.com/place/detail?uid=f473c517a3c5abbefe0eb0b9&output=html&source=placeapi_v2,,08:00-20:00,,,,,,,,2,,,,,,,,111.689836669,40.80950871772,0
871caf6241c87cf96ca3cc8c,依莱净干洗(县府街店),生活服务,洗衣店,内蒙古自治区,呼和浩特市,回民区,呼和浩特市回民区县府街40号,871caf6241c87cf96ca3cc8c,1,0,111.652788,40.81017,,life,http://api.map.baidu.com/place/detail?uid=871caf6241c87cf96ca3cc8c&output=html&source=placeapi_v2,,09:00-20:00,,,,,,,,10,,,,,,,,111.65285399978,40.810142980169,0
d286f3016dd7cd9e725e8024,汇洁洗衣连锁店,生活服务,洗衣店,内蒙古自治区,呼和浩特市,玉泉区,内蒙古自治区呼和浩特市玉泉区大东园街汉庭酒店西南侧约80米,,1,0,111.671889,40.800956,,life,http://api.map.baidu.com/place/detail?uid=d286f3016dd7cd9e725e8024&output=html&source=placeapi_v2,,,,,,,,,,1,,,,,,,,111.67201761859,40.800851482602,0
2317333bdad17725aecb6680,家洁干洗(大东园一巷),生活服务,洗衣店,内蒙古自治区,呼和浩特市,玉泉区,内蒙古自治区呼和浩特市玉泉区清泉街御景苑北区1号楼,2317333bdad17725aecb6680,1,0,111.671535,40.800809,,life,http://api.map.baidu.com/place/detail?uid=2317333bdad17725aecb6680&output=html&source=placeapi_v2,,09:00-20:00,0,,,,,,,9,1,,,,,,,111.67159085071,40.800711531512,0
23116913c3bf5afd734b8704,祥云洗衣连锁(新建西街店),生活服务,洗衣店,内蒙古自治区,呼和浩特市,赛罕区,内蒙古自治区呼和浩特市赛罕区奈伦小区1号,23116913c3bf5afd734b8704,1,0,111.694656,40.809945,(0471)6682055,life,http://api.map.baidu.com/place/detail?uid=23116913c3bf5afd734b8704&output=html&source=placeapi_v2,,09:00-20:00,0,,,,,,,8,1,,,,,,,,,0
060c7dbbaca5ae4c15c905f6,何氏干洗坊,生活服务,洗衣店,内蒙古自治区,呼和浩特市,赛罕区,内蒙古自治区呼和浩特市赛罕区明珠巷19号,060c7dbbaca5ae4c15c905f6,1,0,111.694517,40.811773,,life,http://api.map.baidu.com/place/detail?uid=060c7dbbaca5ae4c15c905f6&output=html&source=placeapi_v2,,09:00-20:00,0.0,,,,,,,6,,,,,,,,111.69454130605,40.811722988615,0
a462c4171c97aafbdbeced45,祥云干洗连锁(兴安南路店),生活服务,洗衣店,内蒙古自治区,呼和浩特市,赛罕区,内蒙古自治区呼和浩特市赛罕区兴安南路46号,a462c4171c97aafbdbeced45,1,0,111.713521,40.818925,15247100945,life,http://api.map.baidu.com/place/detail?uid=a462c4171c97aafbdbeced45&output=html&source=placeapi_v2,,09:00-20:00,0,,,,,,,7,1,,,,,,,111.71329588864,40.818867509845,0
c8e8f633fdf64b6cab0dd804,福奈特洗衣(大学东路店),生活服务,洗衣店,内蒙古自治区,呼和浩特市,赛罕区,内蒙古自治区呼和浩特市赛罕区大学东街118号,c8e8f633fdf64b6cab0dd804,1,0,111.707493,40.819279,"(0471)4916333,(0471)6203311",life,http://api.map.baidu.com/place/detail?uid=c8e8f633fdf64b6cab0dd804&output=html&source=placeapi_v2,,08:30-19:00,1,,,,,,,13,1,,,,,,,111.70758414331,40.819089942908,0
c04261101617953acbe33c4f,山多士抗菌干洗店,生活服务,洗衣店,内蒙古自治区,呼和浩特市,赛罕区,呼和浩特市赛罕区学苑东街林科院住宅区西北2门西北侧约50米,,1,0,111.716081,40.816136,,life,http://api.map.baidu.com/place/detail?uid=c04261101617953acbe33c4f&output=html&source=placeapi_v2,,,,,,,,,,3,,,,,,,,111.71627639805,40.815985625661,0
23f2b7736311aabdf33cba89,腾飞制衣干洗水洗(桃李巷),生活服务,洗衣店,内蒙古自治区,呼和浩特市,赛罕区,内蒙古自治区呼和浩特市赛罕区桃李巷内蒙古大学东校区学生宿舍西,23f2b7736311aabdf33cba89,1,0,111.704053,40.82017,15248088815,life,http://api.map.baidu.com/place/detail?uid=23f2b7736311aabdf33cba89&output=html&source=placeapi_v2,,09:00-20:00,,,,,,,,13,,,,,,,,111.70394780171,40.820135530692,0
7fd723117b72b5e25cbe867f,福奈特洗衣(乌兰察布东街店),生活服务,洗衣店,内蒙古自治区,呼和浩特市,赛罕区,内蒙古自治区呼和浩特市赛罕区乌兰察布东街96号,7fd723117b72b5e25cbe867f,1,0,111.714516,40.829241,(0471)4963111,life,http://api.map.baidu.com/place/detail?uid=7fd723117b72b5e25cbe867f&output=html&source=placeapi_v2,,09:00-18:30,0,,,,,,,17,1,,,,,,,111.71455175388,40.829150671006,0
e199dc795101a463bfa822c2,易净洗衣(内蒙古自治区安防中心店),生活服务,洗衣店,内蒙古自治区,呼和浩特市,赛罕区,呼和浩特市赛罕区乌兰察布西路三十五中东巷内蒙古安防中心一层,e199dc795101a463bfa822c2,1,0,111.706362,40.82655,,life,http://api.map.baidu.com/place/detail?uid=e199dc795101a463bfa822c2&output=html&source=placeapi_v2,,09:00-20:00,,,,,,,,6,,,,,,,,111.70645306439,40.826597874098,0
cd9d05ddbdf7b0cb85420e37,洛克洗衣连锁(发展小区店),生活服务,洗衣店,内蒙古自治区,呼和浩特市,赛罕区,呼和浩特市赛罕区鄂尔多斯东街发展小区,cd9d05ddbdf7b0cb85420e37,1,0,111.723771,40.809997,,life,http://api.map.baidu.com/place/detail?uid=cd9d05ddbdf7b0cb85420e37&output=html&source=placeapi_v2,,09:00-19:00,1,,,,,,,4,4,,,,,,,111.72374522627,40.810093411452,0
ca1d29788fc478233617dc63,舒雅干洗,生活服务,洗衣店,内蒙古自治区,呼和浩特市,赛罕区,呼和浩特市赛罕区新桥靠北街弘元公寓东南侧,ca1d29788fc478233617dc63,1,0,111.713826,40.825395,,life,http://api.map.baidu.com/place/detail?uid=ca1d29788fc478233617dc63&output=html&source=placeapi_v2,,,,,,,,,,3,,,,,,,,,,0
18b36123e073691a2b3a9f49,佳洁学府干洗,生活服务,洗衣店,内蒙古自治区,呼和浩特市,赛罕区,呼和浩特市赛罕区大学西路街道学府花园路34号底店,18b36123e073691a2b3a9f49,1,0,111.710219,40.807283,15184757738,life,http://api.map.baidu.com/place/detail?uid=18b36123e073691a2b3a9f49&output=html&source=placeapi_v2,,09:00-20:00,5,,,,,,,7,,,,,,,,111.71009984699,40.80741045521,0
6b9580bbac3041b8f7eafc1f,赛维干洗(兴安南路店),生活服务,洗衣店,内蒙古自治区,呼和浩特市,赛罕区,兴安南路金岁大酒店十字路口南200米路西青城大学南巷内,6b9580bbac3041b8f7eafc1f,1,0,111.717729,40.807487,,life,http://api.map.baidu.com/place/detail?uid=6b9580bbac3041b8f7eafc1f&output=html&source=placeapi_v2,,09:00-20:00,,,,,,,,5,,,,,,,,111.71760246048,40.807450662093,0
68643eaa26ac1ccec909f0c0,宏洋擦鞋,生活服务,洗衣店,内蒙古自治区,呼和浩特市,赛罕区,呼和浩特市赛罕区桥靠西街金宇紫光小区西门旁,68643eaa26ac1ccec909f0c0,1,0,111.704238,40.822047,15247127988,life,http://api.map.baidu.com/place/detail?uid=68643eaa26ac1ccec909f0c0&output=html&source=placeapi_v2,,08:00-21:00,,,,,,,,5,,,,,,,,111.70427367281,40.821962551322,0
cabb80663031a48ab64f5484,荣蓉干洗店,生活服务,洗衣店,内蒙古自治区,呼和浩特市,赛罕区,兴安南路66号,cabb80663031a48ab64f5484,1,0,111.71739,40.808782,"13644811024,15024969185",life,http://api.map.baidu.com/place/detail?uid=cabb80663031a48ab64f5484&output=html&source=placeapi_v2,,08:00-21:00,,,,,,,,4,,,,,,,,111.71758989139,40.808879360982,0
5ca020be995c7cea774ff1af,北京三洋干洗有限公司(呼和浩特分店),生活服务,洗衣店,内蒙古自治区,呼和浩特市,新城区,内蒙古自治区呼和浩特市新城区新华大街12号,5ca020be995c7cea774ff1af,1,0,111.701685,40.833352,(0471)2534500,life,http://api.map.baidu.com/place/detail?uid=5ca020be995c7cea774ff1af&output=html&source=placeapi_v2,,08:00-18:30,0,,,,,,,10,2,,,,,,,111.70158271511,40.833512839827,0
a1418eb42bc85501ebe58276,洛克洗衣(长乐店),生活服务,洗衣店,内蒙古自治区,呼和浩特市,赛罕区,内蒙古自治区呼和浩特市赛罕区邮电长乐小区10号,a1418eb42bc85501ebe58276,1,0,111.713265,40.834129,,life,http://api.map.baidu.com/place/detail?uid=a1418eb42bc85501ebe58276&output=html&source=placeapi_v2,,09:00-19:00,0,,,,,,,13,2,,,,,,,111.71330542775,40.834030959465,0
c1146c784c86c8ad40024578,德奈福干洗(嘉怡店),生活服务,洗衣店,内蒙古自治区,呼和浩特市,赛罕区,呼和浩特市赛罕区嘉怡华庭1栋,c1146c784c86c8ad40024578,1,0,111.721195,40.807642,,life,http://api.map.baidu.com/place/detail?uid=c1146c784c86c8ad40024578&output=html&source=placeapi_v2,,10:00-22:00,0,,,,,,,12,1,,,,,,,111.72133752945,40.807491583078,0
513485c0287de41ec6effb52,亚维干洗,生活服务,洗衣店,内蒙古自治区,呼和浩特市,赛罕区,内蒙古自治区呼和浩特市赛罕区兴农小区13号,513485c0287de41ec6effb52,1,0,111.713714,40.808347,13474835131,life,http://api.map.baidu.com/place/detail?uid=513485c0287de41ec6effb52&output=html&source=placeapi_v2,,08:00-20:00,,,,,,,,2,,,,,,,,,,0
036ea884cb552308c0364412,有壹家连锁洗衣,生活服务,洗衣店,内蒙古自治区,呼和浩特市,赛罕区,内蒙古自治区呼和浩特市赛罕区乌兰察布东路汇雅风尚小区院内4号楼底商,,1,0,111.715205,40.828115,15326064560,life,http://api.map.baidu.com/place/detail?uid=036ea884cb552308c0364412&output=html&source=placeapi_v2,,08:00-20:00,0.0,,,,,,,2,,,,,,,,,,0
0adce3e20f358f1c80a00c37,洛克洗衣(净清店),生活服务,洗衣店,内蒙古自治区,呼和浩特市,赛罕区,大学西路前进巷蒙吉利小区3号楼,0adce3e20f358f1c80a00c37,1,0,111.69538,40.814254,15547132871,life,http://api.map.baidu.com/place/detail?uid=0adce3e20f358f1c80a00c37&output=html&source=placeapi_v2,,09:00-19:00,0,,,,,,,9,1,,,,,,,111.6952629499,40.814225179125,0
1443287a1306fc924e2fdf1c,意达干洗店,生活服务,洗衣店,内蒙古自治区,呼和浩特市,赛罕区,内蒙古自治区呼和浩特市赛罕区兴安南路意达花园1号楼,,1,0,111.716526,40.807245,,life,http://api.map.baidu.com/place/detail?uid=1443287a1306fc924e2fdf1c&output=html&source=placeapi_v2,,08:00-20:00,,,,,,,,2,,,,,,,,111.71654828459,40.80716765401,0
0de537ac4047dc533517dcf2,裁缝洗衣店,生活服务,洗衣店,内蒙古自治区,呼和浩特市,赛罕区,内蒙古自治区呼和浩特市赛罕区有色地质勘查局家属院东2门旁,0de537ac4047dc533517dcf2,1,0,111.713916,40.829939,15547172895,life,http://api.map.baidu.com/place/detail?uid=0de537ac4047dc533517dcf2&output=html&source=placeapi_v2,,08:30-20:30,,,,,,,,3,,,,,,,,111.71397611163,40.829954577077,0
015d7d01b05578118ab98899,汇丰干洗店,生活服务,洗衣店,内蒙古自治区,呼和浩特市,赛罕区,呼和浩特市赛罕区新华东街89号,015d7d01b05578118ab98899,1,0,111.721435,40.833742,,life,http://api.map.baidu.com/place/detail?uid=015d7d01b05578118ab98899&output=html&source=placeapi_v2,,09:00-20:00,0.0,,,,,,,9,,,,,,,,111.72146969624,40.833666098477,0
b70e12ad9960013ea5da3920,奥妮卡洗衣生活馆,生活服务,洗衣店,内蒙古自治区,呼和浩特市,赛罕区,内蒙古自治区呼和浩特市赛罕区昭乌达路海德酒店往南50米路东巷子文明路(文明路中段路北),b70e12ad9960013ea5da3920,1,0,111.712477,40.802266,13354714705,life,http://api.map.baidu.com/place/detail?uid=b70e12ad9960013ea5da3920&output=html&source=placeapi_v2,,08:00-20:00,,,,,,,,5,,,,,,,,111.71252566084,40.802142669756,0
31d5a54fc1426d61dbeceded,中浦洗衣,生活服务,洗衣店,内蒙古自治区,呼和浩特市,赛罕区,呼和浩特市赛罕区幸福街桥华世纪村-居华四季,31d5a54fc1426d61dbeceded,1,0,111.7277,40.821101,,life,http://api.map.baidu.com/place/detail?uid=31d5a54fc1426d61dbeceded&output=html&source=placeapi_v2,,08:00-20:00,,,,,,,,,,,,,,,,111.72766674663,40.821193521204,0
2d56e3551a7b59fa48cc4a3e,享名干洗水洗,生活服务,洗衣店,内蒙古自治区,呼和浩特市,赛罕区,呼和浩特市赛罕区兴康巷呼市农机管理站住宅,2d56e3551a7b59fa48cc4a3e,1,0,111.696628,40.80852,13190603034,life,http://api.map.baidu.com/place/detail?uid=2d56e3551a7b59fa48cc4a3e&output=html&source=placeapi_v2,,09:00-20:00,0.0,,,,,,,5,1,,,,,,,,,0
cdef105af0809e24b42655f1,日日新洗衣(长乐湾店),生活服务,洗衣店,内蒙古自治区,呼和浩特市,赛罕区,呼和浩特市赛罕区锦泰巷中房小区,cdef105af0809e24b42655f1,1,0,111.722937,40.834159,15561031273,life,http://api.map.baidu.com/place/detail?uid=cdef105af0809e24b42655f1&output=html&source=placeapi_v2,,10:00-22:00,0.0,,,,,,,10,,,,,,,,111.7229883383,40.834036179315,0
8b550ecb1910c6e997ec845f,知恩干洗店,生活服务,洗衣店,内蒙古自治区,呼和浩特市,赛罕区,内蒙古自治区呼和浩特市赛罕区呼伦南路208号,8b550ecb1910c6e997ec845f,1,0,111.691995,40.81544,,life,http://api.map.baidu.com/place/detail?uid=8b550ecb1910c6e997ec845f&output=html&source=placeapi_v2,,09:00-20:00,,,,,,,,5,,,,,,,,111.69189053765,40.815412492649,0
d991e11679b0c0561f3894fe,洛克洗衣(新建西街店),生活服务,洗衣店,内蒙古自治区,呼和浩特市,赛罕区,内蒙古自治区呼和浩特市赛罕区学苑西街58号,d991e11679b0c0561f3894fe,1,0,111.695012,40.810026,13754095350,life,http://api.map.baidu.com/place/detail?uid=d991e11679b0c0561f3894fe&output=html&source=placeapi_v2,,09:00-19:00,0.0,,,,,,,7,1,,,,,,,111.69491082762,40.810170414017,0
5f08dd5a6d1870b84151c037,美国UCC国际洗衣(展览馆西路店),生活服务,洗衣店,内蒙古自治区,呼和浩特市,赛罕区,内蒙古自治区呼和浩特市赛罕区创业路万达二期5号楼,5f08dd5a6d1870b84151c037,1,0,111.726785,40.828128,15848948356,life,http://api.map.baidu.com/place/detail?uid=5f08dd5a6d1870b84151c037&output=html&source=placeapi_v2,,08:00-22:00,,,,,,,,2,,,,,,,,111.72688175068,40.82789786581,0
23116913c3bf5afd734b8704,祥云洗衣连锁(新建西街店),生活服务,洗衣店,内蒙古自治区,呼和浩特市,赛罕区,内蒙古自治区呼和浩特市赛罕区奈伦小区1号,23116913c3bf5afd734b8704,1,0,111.694656,40.809945,(0471)6682055,life,http://api.map.baidu.com/place/detail?uid=23116913c3bf5afd734b8704&output=html&source=placeapi_v2,,09:00-20:00,0,,,,,,,8,1,,,,,,,,,0
060c7dbbaca5ae4c15c905f6,何氏干洗坊,生活服务,洗衣店,内蒙古自治区,呼和浩特市,赛罕区,内蒙古自治区呼和浩特市赛罕区明珠巷19号,060c7dbbaca5ae4c15c905f6,1,0,111.694517,40.811773,,life,http://api.map.baidu.com/place/detail?uid=060c7dbbaca5ae4c15c905f6&output=html&source=placeapi_v2,,09:00-20:00,0.0,,,,,,,6,,,,,,,,111.69454130605,40.811722988615,0
1c4d6354a155d7a9246e98b2,福奈特洗衣(鄂尔多斯东街店),生活服务,洗衣店,内蒙古自治区,呼和浩特市,赛罕区,呼和浩特市赛罕区竹园小区东区B12,1c4d6354a155d7a9246e98b2,1,0,111.747835,40.813781,(0471)5234188,life,http://api.map.baidu.com/place/detail?uid=1c4d6354a155d7a9246e98b2&output=html&source=placeapi_v2,,09:00-20:00,1,,,,,,,12,3,,,,,,,111.74770463859,40.813762501145,0
bbef2755a8b0ceb6f6e73b7d,福奈特洗衣(新华联雅园店),生活服务,洗衣店,内蒙古自治区,呼和浩特市,赛罕区,呼和浩特市赛罕区腾飞南路新华联雅园,bbef2755a8b0ceb6f6e73b7d,1,0,111.763274,40.813554,(0471)4931186,life,http://api.map.baidu.com/place/detail?uid=bbef2755a8b0ceb6f6e73b7d&output=html&source=placeapi_v2,,08:30-19:00,0,,,,,,,10,0,,,,,,,,,0
352ce1bd82fb3461f423100a,卡尔洗衣,生活服务,洗衣店,内蒙古自治区,呼和浩特市,赛罕区,内蒙古自治区呼和浩特市赛罕区敕勒川大街15号蓝海大厦b座102号,352ce1bd82fb3461f423100a,1,0,111.760351,40.822772,15754911700,life,http://api.map.baidu.com/place/detail?uid=352ce1bd82fb3461f423100a&output=html&source=placeapi_v2,,08:30-19:30,,,,,,,,4,,,,,,,,111.76023675683,40.822859701049,0
58bbba031540d4bea8175a65,友邦洗衣(金隅店),生活服务,洗衣店,内蒙古自治区,呼和浩特市,赛罕区,呼和浩特市赛罕区敕勒川路街道腾飞大道金隅时代城南门,58bbba031540d4bea8175a65,1,0,111.766191,40.817775,(0471)5165567,life,http://api.map.baidu.com/place/detail?uid=58bbba031540d4bea8175a65&output=html&source=placeapi_v2,,09:00-20:00,,,,,,,,7,,,,,,,,111.76622041475,40.817694901831,0
a31bf75f5b09650c97ec844e,衣为先洗衣(鄂尔多斯东街店),生活服务,洗衣店,内蒙古自治区,呼和浩特市,赛罕区,内蒙古自治区呼和浩特市赛罕区竹园小区东区B12,a31bf75f5b09650c97ec844e,1,0,111.747293,40.813708,18347917866,life,http://api.map.baidu.com/place/detail?uid=a31bf75f5b09650c97ec844e&output=html&source=placeapi_v2,,09:00-21:00,0,,,,,,,14,1,,,,,,,,,0
cf2e5176b6d41e4fc7f0253f,阿玛尼洗衣会所(新华联雅园店),生活服务,洗衣店,内蒙古自治区,呼和浩特市,赛罕区,内蒙古自治区呼和浩特市赛罕区前达门路65-4号,cf2e5176b6d41e4fc7f0253f,1,0,111.760282,40.81457,(0471)3280166,life,http://api.map.baidu.com/place/detail?uid=cf2e5176b6d41e4fc7f0253f&output=html&source=placeapi_v2,,09:00-19:00,,,,,,,,6,,,,,,,,,,0
4cae91960f69a15681288a02,福奈特洗衣(鑫泰嘉园店),生活服务,洗衣店,内蒙古自治区,呼和浩特市,赛罕区,内蒙古自治区呼和浩特市赛罕区四纬路2号,4cae91960f69a15681288a02,1,0,111.754826,40.834547,(0471)4193533,life,http://api.map.baidu.com/place/detail?uid=4cae91960f69a15681288a02&output=html&source=placeapi_v2,,08:30-19:00,5,,,,,,,10,2,,,,,,,111.75484406242,40.83444998895,0
b8b93d85a42c8492d42ce2ea,三洋干洗(绿地腾飞大厦店),生活服务,洗衣店,内蒙古自治区,呼和浩特市,赛罕区,内蒙古自治区呼和浩特市赛罕区学苑东街绿地腾飞大厦f座108号,b8b93d85a42c8492d42ce2ea,1,0,111.764795,40.826497,,life,http://api.map.baidu.com/place/detail?uid=b8b93d85a42c8492d42ce2ea&output=html&source=placeapi_v2,,08:00-19:30,0,,,,,,,5,0,,,,,,,111.76475293119,40.826741525913,0
2f56b40015d64ae9ae045723,浣衣干洗,生活服务,洗衣店,内蒙古自治区,呼和浩特市,赛罕区,内蒙古自治区呼和浩特市赛罕区学苑东街万正・尚都商业楼4号一楼底商108号,2f56b40015d64ae9ae045723,1,0,111.754462,40.826312,(0471)6378855,life,http://api.map.baidu.com/place/detail?uid=2f56b40015d64ae9ae045723&output=html&source=placeapi_v2,,08:00-20:00,,,,,,,,1,,,,,,,,111.75451352409,40.826323852792,0
c428ab19b68b40315fd4fe27,布兰奇国际洗衣会所(呼市旗舰店),生活服务,洗衣店,内蒙古自治区,呼和浩特市,赛罕区,内蒙古自治区呼和浩特市赛罕区巨海城9区4栋,c428ab19b68b40315fd4fe27,1,0,111.740421,40.82039,13848914894,life,http://api.map.baidu.com/place/detail?uid=c428ab19b68b40315fd4fe27&output=html&source=placeapi_v2,,08:30-22:30,0,,,,,,,3,0,,,,,,,111.74041443549,40.820459498465,0
5472d8900f44ac7ea20464a9,赛维干洗(丰州南路店),生活服务,洗衣店,内蒙古自治区,呼和浩特市,赛罕区,内蒙古自治区呼和浩特市赛罕区丰州南路紫御东君7号楼102室,5472d8900f44ac7ea20464a9,1,0,111.748862,40.803407,15548717666,life,http://api.map.baidu.com/place/detail?uid=5472d8900f44ac7ea20464a9&output=html&source=placeapi_v2,,09:00-20:00,5,,,,,,,8,2,,,,,,,111.74856861985,40.803343276473,0
cf46d2ce7b5b53ced62ce2ab,洛克干洗制衣,生活服务,洗衣店,内蒙古自治区,呼和浩特市,赛罕区,内蒙古自治区呼和浩特市赛罕区丰州南路爱与自主幼儿园南门,cf46d2ce7b5b53ced62ce2ab,1,0,111.738744,40.828477,,life,http://api.map.baidu.com/place/detail?uid=cf46d2ce7b5b53ced62ce2ab&output=html&source=placeapi_v2,,09:00-20:00,0,,,,,,,8,1,,,,,,,111.73879238434,40.828486878177,0
d184b9cafe819a04b64f5417,威特斯国际洗衣(富恒国际店),生活服务,洗衣店,内蒙古自治区,呼和浩特市,赛罕区,内蒙古自治区呼和浩特市赛罕区讨号板北街富恒国际9号楼900-7号,d184b9cafe819a04b64f5417,1,0,111.761655,40.832474,15648152729,life,http://api.map.baidu.com/place/detail?uid=d184b9cafe819a04b64f5417&output=html&source=placeapi_v2,,08:00-21:00,5,,,,,,,11,8,,,,,,,,,0
d24cd330016aa874f4231033,美国UCC国际洗衣(腾飞南路店),生活服务,洗衣店,内蒙古自治区,呼和浩特市,赛罕区,内蒙古自治区呼和浩特市赛罕区腾飞南路锦绣福源c区103号,d24cd330016aa874f4231033,1,0,111.763434,40.812305,13514717734,life,http://api.map.baidu.com/place/detail?uid=d24cd330016aa874f4231033&output=html&source=placeapi_v2,,09:00-18:30,,,,,,,,7,,,,,,,,111.76339299995,40.812417979885,0
f5df9aa752b397bcd1f49eff,卓朗干洗店,生活服务,洗衣店,内蒙古自治区,呼和浩特市,赛罕区,内蒙古自治区呼和浩特市赛罕区腾飞路51号金隅时代城6号楼2单元101号,f5df9aa752b397bcd1f49eff,1,0,111.766749,40.82002,13674810034,life,http://api.map.baidu.com/place/detail?uid=f5df9aa752b397bcd1f49eff&output=html&source=placeapi_v2,,09:00-20:00,,,,,,,,,,,,,,,,,,0
84b007d58af9c7539cec2b8c,奥特洗福莱洗衣会所(库伦街店),生活服务,洗衣店,内蒙古自治区,呼和浩特市,赛罕区,内蒙古自治区呼和浩特市赛罕区澳华城市花园商铺D号楼103号,84b007d58af9c7539cec2b8c,1,0,111.771873,40.813767,,life,http://api.map.baidu.com/place/detail?uid=84b007d58af9c7539cec2b8c&output=html&source=placeapi_v2,,09:00-20:00,5,,,,,,,7,1,,,,,,,,,0
668458366e2571f3902ca350,专业干洗店,生活服务,洗衣店,内蒙古自治区,呼和浩特市,赛罕区,内蒙古自治区呼和浩特市赛罕区丰州南路黄焖鸡米饭旁,668458366e2571f3902ca350,1,0,111.738255,40.828417,15598067007,life,http://api.map.baidu.com/place/detail?uid=668458366e2571f3902ca350&output=html&source=placeapi_v2,,09:00-20:00,,,,,,,,6,,,,,,,,111.73828572207,40.828420647358,0
1a2c47fba99cc9cb8b2fb564,干洗制衣,生活服务,洗衣店,内蒙古自治区,呼和浩特市,赛罕区,呼和浩特市赛罕区徐家沙梁北巷西把栅小区东北侧约60米,1a2c47fba99cc9cb8b2fb564,1,0,111.7387,40.828535,,life,http://api.map.baidu.com/place/detail?uid=1a2c47fba99cc9cb8b2fb564&output=html&source=placeapi_v2,,09:00-20:00,,,,,,,,1,,,,,,,,111.73877120679,40.828549282048,0
84b007d58af9c7539cec2b8c,奥特洗福莱洗衣会所(库伦街店),生活服务,洗衣店,内蒙古自治区,呼和浩特市,赛罕区,内蒙古自治区呼和浩特市赛罕区澳华城市花园商铺D号楼103号,84b007d58af9c7539cec2b8c,1,0,111.771873,40.813767,,life,http://api.map.baidu.com/place/detail?uid=84b007d58af9c7539cec2b8c&output=html&source=placeapi_v2,,09:00-20:00,5,,,,,,,7,1,,,,,,,,,0
639cd3874eebfd60acee7a06,奥特洗尚干洗店,生活服务,洗衣店,内蒙古自治区,呼和浩特市,回民区,呼和浩特市回民区成吉思汗西街万达华府,639cd3874eebfd60acee7a06,1,0,111.613575,40.838002,15547183998,life,http://api.map.baidu.com/place/detail?uid=639cd3874eebfd60acee7a06&output=html&source=placeapi_v2,,00:00-24:00,5.0,,,,,,,2,1,,,,,,,,,0
d677f9a81fb556bcc4f0258a,洁美干洗店(厂汉板乾沁源西),生活服务,洗衣店,内蒙古自治区,呼和浩特市,回民区,内蒙古自治区呼和浩特市回民区攸攸板镇厂汉板乾沁源小区17号楼,d677f9a81fb556bcc4f0258a,1,0,111.638393,40.855952,15049193699,life,http://api.map.baidu.com/place/detail?uid=d677f9a81fb556bcc4f0258a&output=html&source=placeapi_v2,,09:00-20:00,0.0,,,,,,,7,,,,,,,,111.63822288202,40.855976903531,0
0430dd25e898554b167643df,运洁洗衣房,生活服务,洗衣店,内蒙古自治区,呼和浩特市,回民区,呼和浩特市回民区海拉尔西街昌盛小区南侧约90米,0430dd25e898554b167643df,1,0,111.647555,40.840008,13624714342,life,http://api.map.baidu.com/place/detail?uid=0430dd25e898554b167643df&output=html&source=placeapi_v2,,09:00-20:00,0.0,,,,,,,12,,,,,,,,111.64755490725,40.839844016369,0
3fecdce4c646e4ebc36c1481,中意干洗店(分店),生活服务,洗衣店,内蒙古自治区,呼和浩特市,回民区,内蒙古自治区呼和浩特市回民区铁西家园A区北(海拉尔西街南),3fecdce4c646e4ebc36c1481,1,0,111.633248,40.83238,15034949557,life,http://api.map.baidu.com/place/detail?uid=3fecdce4c646e4ebc36c1481&output=html&source=placeapi_v2,,09:00-20:00,,,,,,,,3,,,,,,,,111.63339993184,40.83244663019,0
38f92eb5c0c8389bc5f025ef,旺旺干洗店(水泉文苑西北),生活服务,洗衣店,内蒙古自治区,呼和浩特市,回民区,内蒙古自治区呼和浩特市回民区成吉思汗大街西段水泉文苑17号楼,38f92eb5c0c8389bc5f025ef,1,0,111.630723,40.844634,,life,http://api.map.baidu.com/place/detail?uid=38f92eb5c0c8389bc5f025ef&output=html&source=placeapi_v2,,09:00-20:00,,,,,,,,6,,,,,,,,,,0
d1491db4aed11d5ba1d2302d,海泉干洗店(工农兵路店),生活服务,洗衣店,内蒙古自治区,呼和浩特市,回民区,呼和浩特市回民区昌盛小区2楼,d1491db4aed11d5ba1d2302d,1,0,111.648875,40.842101,,life,http://api.map.baidu.com/place/detail?uid=d1491db4aed11d5ba1d2302d&output=html&source=placeapi_v2,,09:00-20:00,0.0,,,,,,,7,1,,,,,,,111.64905295566,40.842143500882,0
ec583694f55935db82a12e71,干洗水洗店,生活服务,洗衣店,内蒙古自治区,呼和浩特市,回民区,呼和浩特市回民区工农兵路鸿搏雅园,ec583694f55935db82a12e71,1,0,111.647507,40.85119,,life,http://api.map.baidu.com/place/detail?uid=ec583694f55935db82a12e71&output=html&source=placeapi_v2,,,,,,,,,,2,,,,,,,,,,0
c6c4a01c4d00acc59222e026,妹慧裁缝干洗店,生活服务,洗衣店,内蒙古自治区,呼和浩特市,回民区,呼和浩特市回民区北二环快速路厂汉板乾沁源,c6c4a01c4d00acc59222e026,1,0,111.635877,40.855941,,life,http://api.map.baidu.com/place/detail?uid=c6c4a01c4d00acc59222e026&output=html&source=placeapi_v2,,,,,,,,,,1,,,,,,,,,,0
8729eb6b7c244e604d55478e,俊英干洗店,生活服务,洗衣店,内蒙古自治区,呼和浩特市,回民区,呼和浩特市回民区攸攸板镇工农兵路北鸿博雅园9楼附楼商业5号,8729eb6b7c244e604d55478e,1,0,111.647344,40.850511,,life,http://api.map.baidu.com/place/detail?uid=8729eb6b7c244e604d55478e&output=html&source=placeapi_v2,,,,,,,,,,1,,,,,,,,,,0
639cd3874eebfd60acee7a06,奥特洗尚干洗店,生活服务,洗衣店,内蒙古自治区,呼和浩特市,回民区,呼和浩特市回民区成吉思汗西街万达华府,639cd3874eebfd60acee7a06,1,0,111.613575,40.838002,15547183998,life,http://api.map.baidu.com/place/detail?uid=639cd3874eebfd60acee7a06&output=html&source=placeapi_v2,,00:00-24:00,5.0,,,,,,,2,1,,,,,,,,,0
c2d0bb16c90ccc1a8e772786,中意干洗店(鸿搏雅园东北),生活服务,洗衣店,内蒙古自治区,呼和浩特市,回民区,内蒙古自治区呼和浩特市回民区鸿按雅园12,c2d0bb16c90ccc1a8e772786,1,0,111.646759,40.850889,,life,http://api.map.baidu.com/place/detail?uid=c2d0bb16c90ccc1a8e772786&output=html&source=placeapi_v2,,09:00-20:00,,,,,,,,3,,,,,,,,,,0
5a162f854a91503b0782c2b5,洗衣裁缝店,生活服务,洗衣店,内蒙古自治区,呼和浩特市,回民区,内蒙古自治区呼和浩特市回民区铁西家园A区(海拉尔西街南),5a162f854a91503b0782c2b5,1,0,111.633492,40.832436,15034794636,life,http://api.map.baidu.com/place/detail?uid=5a162f854a91503b0782c2b5&output=html&source=placeapi_v2,,09:00-20:00,,,,,,,,4,,,,,,,,,,0
3668e1d5c50cd9a2fa0cadea,健康时尚洗衣,生活服务,洗衣店,内蒙古自治区,呼和浩特市,回民区,呼和浩特市回民区北二环快速路厂汉板小学南侧约130米,3668e1d5c50cd9a2fa0cadea,1,0,111.630375,40.858366,,life,http://api.map.baidu.com/place/detail?uid=3668e1d5c50cd9a2fa0cadea&output=html&source=placeapi_v2,,09:00-20:00,,,,,,,,4,,,,,,,,,,0
c5a6850f453a1eec6140a945,映月芙蓉洗衣,生活服务,洗衣店,内蒙古自治区,呼和浩特市,回民区,呼和浩特市回民区阿拉善北路万达华府,c5a6850f453a1eec6140a945,1,0,111.615461,40.83681,15248093175,life,http://api.map.baidu.com/place/detail?uid=c5a6850f453a1eec6140a945&output=html&source=placeapi_v2,,09:00-20:00,,,,,,,,8,,,,,,,,111.61551549877,40.836696545135,0
7850ec168aadb9285f0d02e1,华美干洗(公主府街店),生活服务,洗衣店,内蒙古自治区,呼和浩特市,新城区,内蒙古自治区呼和浩特市新城区公主府街恒兴大厦南门,7850ec168aadb9285f0d02e1,1,0,111.670885,40.844975,,life,http://api.map.baidu.com/place/detail?uid=7850ec168aadb9285f0d02e1&output=html&source=placeapi_v2,,09:00-20:00,0.0,,,,,,,5,,,,,,,,,,0
d9fcab709188edfac1f1cf7c,干洗制衣,生活服务,洗衣店,内蒙古自治区,呼和浩特市,新城区,内蒙古自治区呼和浩特市新城区八一路华新小区,d9fcab709188edfac1f1cf7c,1,0,111.674565,40.847347,,life,http://api.map.baidu.com/place/detail?uid=d9fcab709188edfac1f1cf7c&output=html&source=placeapi_v2,,,,,,,,,,5,,,,,,,,,,0
06c0309ccc91835ffea77822,公大洗衣店,生活服务,洗衣店,内蒙古自治区,呼和浩特市,新城区,呼和浩特市新城区公主府街嘉和小区(公主府街)西南侧约50米,06c0309ccc91835ffea77822,1,0,111.669751,40.844719,,life,http://api.map.baidu.com/place/detail?uid=06c0309ccc91835ffea77822&output=html&source=placeapi_v2,,08:30-21:30,,,,,,,,5,,,,,,,,111.66972565048,40.844716088095,0
d1469ee776d3051f84330430,朗洁洗衣中心,生活服务,洗衣店,内蒙古自治区,呼和浩特市,新城区,内蒙古自治区呼和浩特市新城区胜利西街美新花园45号,d1469ee776d3051f84330430,1,0,111.675479,40.839909,13171026198,life,http://api.map.baidu.com/place/detail?uid=d1469ee776d3051f84330430&output=html&source=placeapi_v2,,,0,,,,,,,10,1,,,,,,,111.6753984884,40.839854781333,0
b965de8a45585309c42ba1de,福奈特洗衣(海拉尔大街店),生活服务,洗衣店,内蒙古自治区,呼和浩特市,新城区,内蒙古呼和浩特市新城区海拉尔大街(土中西300米路北侧)凤凰新城底商,b965de8a45585309c42ba1de,1,0,111.683908,40.844455,15354865929,life,http://api.map.baidu.com/place/detail?uid=b965de8a45585309c42ba1de&output=html&source=placeapi_v2,,08:00-18:30,5,,,,,,,8,3,,,,,,,111.68391652936,40.844405357241,0
bf99b5b2f8bb4bc016c905e7,洛克洗衣店,生活服务,洗衣店,内蒙古自治区,呼和浩特市,新城区,内蒙古自治区呼和浩特市新城区车站后街17号,,1,0,111.676325,40.838756,(0471)6518970,life,http://api.map.baidu.com/place/detail?uid=bf99b5b2f8bb4bc016c905e7&output=html&source=placeapi_v2,,09:00-18:00,,,,,,,,1,,,,,,,,111.67607917401,40.838770487038,0
925c550f585ac7b25a3ac83d,美洁干洗(爱民街店),生活服务,洗衣店,内蒙古自治区,呼和浩特市,新城区,内蒙古自治区呼和浩特市新城区爱民小区2号院2号,925c550f585ac7b25a3ac83d,1,0,111.684348,40.849206,15647164169,life,http://api.map.baidu.com/place/detail?uid=925c550f585ac7b25a3ac83d&output=html&source=placeapi_v2,,09:00-20:00,0,,,,,,,9,1,,,,,,,111.68443548764,40.849108350756,0
c95670c11ad552e2da2f28c2,新城区干洗店,生活服务,洗衣店,内蒙古自治区,呼和浩特市,新城区,呼和浩特市新城区铁道饭店西巷呼建小区西北侧,c95670c11ad552e2da2f28c2,1,0,111.666899,40.836702,,life,http://api.map.baidu.com/place/detail?uid=c95670c11ad552e2da2f28c2&output=html&source=placeapi_v2,,,,,,,,,,2,,,,,,,,111.66713549816,40.836691795136,0
6793f3ea2700d69a54bfff82,牧雅洗衣鞋美容(NO.768),生活服务,洗衣店,内蒙古自治区,呼和浩特市,新城区,呼和浩特市新城区气象局西路天府花园38栋8号商铺,6793f3ea2700d69a54bfff82,1,0,111.661679,40.853646,(0471)3294358,life,http://api.map.baidu.com/place/detail?uid=6793f3ea2700d69a54bfff82&output=html&source=placeapi_v2,,09:00-20:00,,,,,,,,4,,,,,,,,111.66161915381,40.853790925007,0
424d44caaf23dd9d08ccdd42,宏洋擦鞋修鞋洗鞋(宏洋分店),生活服务,洗衣店,内蒙古自治区,呼和浩特市,新城区,内蒙古自治区呼和浩特市新城区气象局西巷天府小区39号楼2号商铺,424d44caaf23dd9d08ccdd42,1,0,111.66236,40.853779,15024958180,life,http://api.map.baidu.com/place/detail?uid=424d44caaf23dd9d08ccdd42&output=html&source=placeapi_v2,,,0,,,,,,,9,0,,,,,,,111.6623154367,40.853924691048,0
289f50148c7e3f0ac8213d20,福奈特洗衣(赛马场北路店),生活服务,洗衣店,内蒙古自治区,呼和浩特市,新城区,呼和浩特市新城区赛马场北路名城国际,289f50148c7e3f0ac8213d20,1,0,111.663639,40.856033,(0471)6234128,life,http://api.map.baidu.com/place/detail?uid=289f50148c7e3f0ac8213d20&output=html&source=placeapi_v2,,09:00-18:30,,,,,,,,10,,,,,,,,111.66359515913,40.856203050672,0
75bde268295cf39c2efaa7a8,伊尔萨干洗店,生活服务,洗衣店,内蒙古自治区,呼和浩特市,新城区,呼和浩特市新城区迎宾北路新华大街-63号院,75bde268295cf39c2efaa7a8,1,0,111.6785,40.830377,,life,http://api.map.baidu.com/place/detail?uid=75bde268295cf39c2efaa7a8&output=html&source=placeapi_v2,,,,,,,,,,5,,,,,,,,,,0
282d06f01c1bbfdf1fe999a2,麦尔多高级干洗店(分店),生活服务,洗衣店,内蒙古自治区,呼和浩特市,新城区,内蒙古自治区呼和浩特市新城区总局街18号,282d06f01c1bbfdf1fe999a2,1,0,111.690538,40.834543,13029523125,life,http://api.map.baidu.com/place/detail?uid=282d06f01c1bbfdf1fe999a2&output=html&source=placeapi_v2,,09:00-20:00,0.0,,,,,,,1,,,,,,,,111.69050101622,40.834622906126,0
d15112de0c47f44ef8221384,慧珍干洗店,生活服务,洗衣店,内蒙古自治区,呼和浩特市,回民区,呼和浩特市回民区文化宫路战备路知福公寓,d15112de0c47f44ef8221384,1,0,111.669747,40.829401,,life,http://api.map.baidu.com/place/detail?uid=d15112de0c47f44ef8221384&output=html&source=placeapi_v2,,,0.0,,,,,,,10,1,,,,,,,111.66980007958,40.829496664467,0
dd73a44ab603f55fc6effb88,干洗水洗设备,生活服务,洗衣店,内蒙古自治区,呼和浩特市,新城区,内蒙古自治区呼和浩特市新城区新车站西街183号,dd73a44ab603f55fc6effb88,1,0,111.661265,40.834596,(0471)6964939,life,http://api.map.baidu.com/place/detail?uid=dd73a44ab603f55fc6effb88&output=html&source=placeapi_v2,,09:00-20:00,,,,,,,,6,,,,,,,,111.66093245314,40.834566978975,0
86549ee37a52f31caeee7a1f,迎宾干洗,生活服务,洗衣店,内蒙古自治区,呼和浩特市,新城区,呼和浩特市新城区综合服务楼6号,86549ee37a52f31caeee7a1f,1,0,111.678905,40.830462,,life,http://api.map.baidu.com/place/detail?uid=86549ee37a52f31caeee7a1f&output=html&source=placeapi_v2,,09:00-20:00,0,,,,,,,6,1,,,,,,,,,0
321dc802c4e4e150b626555f,嘉亮擦鞋洗修鞋,生活服务,洗衣店,内蒙古自治区,呼和浩特市,新城区,艺术厅北街14号,321dc802c4e4e150b626555f,1,0,111.686414,40.833349,13394711099,life,http://api.map.baidu.com/place/detail?uid=321dc802c4e4e150b626555f&output=html&source=placeapi_v2,,09:00-21:00,,,,,,,,5,,,,,,,,111.68628499987,40.833322977346,0
4be335c9e3fc0dd66e20b97b,洁华干洗,生活服务,洗衣店,内蒙古自治区,呼和浩特市,新城区,赛马场北路公主花园15号楼底店,4be335c9e3fc0dd66e20b97b,1,0,111.656075,40.855489,,life,http://api.map.baidu.com/place/detail?uid=4be335c9e3fc0dd66e20b97b&output=html&source=placeapi_v2,,,,,,,,,,7,,,,,,,,111.65621657918,40.855307686458,0
195923bd5386386481288a4c,干洗染色修改衣服,生活服务,洗衣店,内蒙古自治区,呼和浩特市,新城区,呼和浩特市新城区海拉尔东街储运小区,,1,0,111.712327,40.849345,,life,http://api.map.baidu.com/place/detail?uid=195923bd5386386481288a4c&output=html&source=placeapi_v2,,,,,,,,,,4,,,,,,,,111.71235594847,40.849273788258,0
258bd2d27d008f36c41e515f,友邦洗衣(光华店),生活服务,洗衣店,内蒙古自治区,呼和浩特市,新城区,内蒙古自治区呼和浩特市新城区昭君新村塞外苑4号,258bd2d27d008f36c41e515f,1,0,111.712756,40.840187,(0471)4971452,life,http://api.map.baidu.com/place/detail?uid=258bd2d27d008f36c41e515f&output=html&source=placeapi_v2,,09:00-20:00,0,,,,,,,8,1,,,,,,,111.71280164993,40.840331386801,0
8eb48fa1ff271ba5f32d83fe,福奈特洗衣(兴安北路店),生活服务,洗衣店,内蒙古自治区,呼和浩特市,新城区,内蒙古自治区呼和浩特市新城区兴安北路88号,8eb48fa1ff271ba5f32d83fe,1,0,111.705141,40.838007,(0471)4977733,life,http://api.map.baidu.com/place/detail?uid=8eb48fa1ff271ba5f32d83fe&output=html&source=placeapi_v2,,08:00-18:30,0,,,,,,,12,1,,,,,,,111.70490685064,40.837947067626,0
107c72568ede3c7f59bbbc60,日日新洗衣(芳汀花园),生活服务,洗衣店,内蒙古自治区,呼和浩特市,新城区,内蒙古自治区呼和浩特市新城区海拉尔东街24号亲亲尚城b区4号楼,,1,0,111.72181,40.845065,15247111765,life,http://api.map.baidu.com/place/detail?uid=107c72568ede3c7f59bbbc60&output=html&source=placeapi_v2,,07:30-20:00,,,,,,,,6,,,,,,,,111.72163051089,40.845063695918,0
1f4ac067ee4bc646b34c4908,绿邦康宝百草酵素洗护,生活服务,洗衣店,内蒙古自治区,呼和浩特市,新城区,新华大街奈伦国际8号楼202号,,1,0,111.71778,40.841036,13488516339,life,http://api.map.baidu.com/place/detail?uid=1f4ac067ee4bc646b34c4908&output=html&source=placeapi_v2,,,,,,,,,,,,,,,,,,,,0
5d5d599362f4ffbd9a005017,红旺干洗裁缝,生活服务,洗衣店,内蒙古自治区,呼和浩特市,新城区,内蒙古自治区呼和浩特市新城区光华街光华小学对面,5d5d599362f4ffbd9a005017,1,0,111.710929,40.841402,,life,http://api.map.baidu.com/place/detail?uid=5d5d599362f4ffbd9a005017&output=html&source=placeapi_v2,,09:00-20:00,0.0,,,,,,,2,1,,,,,,,111.71107981297,40.841437486461,0
a1418eb42bc85501ebe58276,洛克洗衣(长乐店),生活服务,洗衣店,内蒙古自治区,呼和浩特市,赛罕区,内蒙古自治区呼和浩特市赛罕区邮电长乐小区10号,a1418eb42bc85501ebe58276,1,0,111.713265,40.834129,,life,http://api.map.baidu.com/place/detail?uid=a1418eb42bc85501ebe58276&output=html&source=placeapi_v2,,09:00-19:00,0,,,,,,,13,2,,,,,,,111.71330542775,40.834030959465,0
5ca020be995c7cea774ff1af,北京三洋干洗有限公司(呼和浩特分店),生活服务,洗衣店,内蒙古自治区,呼和浩特市,新城区,内蒙古自治区呼和浩特市新城区新华大街12号,5ca020be995c7cea774ff1af,1,0,111.701685,40.833352,(0471)2534500,life,http://api.map.baidu.com/place/detail?uid=5ca020be995c7cea774ff1af&output=html&source=placeapi_v2,,08:00-18:30,0,,,,,,,10,2,,,,,,,111.70158271511,40.833512839827,0
676f0739ef71fb484f3a594f,公大干洗中心,生活服务,洗衣店,内蒙古自治区,呼和浩特市,新城区,内蒙古自治区呼和浩特市新城区电动住宅区6号,676f0739ef71fb484f3a594f,1,0,111.70772,40.839134,13904715320,life,http://api.map.baidu.com/place/detail?uid=676f0739ef71fb484f3a594f&output=html&source=placeapi_v2,,09:00-20:00,0,,,,,,,9,2,,,,,,,111.70776000189,40.839048058477,0
d2d74fcd1bd730e59d9d68c1,璐洁洗衣(海藤名苑景苑东),生活服务,洗衣店,内蒙古自治区,呼和浩特市,新城区,内蒙古自治区呼和浩特市新城区内海拉尔东街海藤名苑景苑,d2d74fcd1bd730e59d9d68c1,1,0,111.714193,40.853055,13674786099,life,http://api.map.baidu.com/place/detail?uid=d2d74fcd1bd730e59d9d68c1&output=html&source=placeapi_v2,,09:00-20:00,0,,,,,,,10,1,,,,,,,111.71426860978,40.852908716862,0
ce0e2b2a606417779ee321a6,翰皇擦鞋(展览馆东路店),生活服务,洗衣店,内蒙古自治区,呼和浩特市,新城区,呼和浩特市新城区展览馆东路中华家园-二期,ce0e2b2a606417779ee321a6,1,0,111.720771,40.854878,,life,http://api.map.baidu.com/place/detail?uid=ce0e2b2a606417779ee321a6&output=html&source=placeapi_v2,,,0.0,,,,,,,5,0,,,,,,,111.72082951433,40.854889760658,0
4471c6cc5df2e9c4373a7198,靓衣净洗衣,生活服务,洗衣店,内蒙古自治区,呼和浩特市,新城区,内蒙古自治区呼和浩特市新城区爱民街东苑新城3号楼1层,4471c6cc5df2e9c4373a7198,1,0,111.711661,40.854821,15754887406,life,http://api.map.baidu.com/place/detail?uid=4471c6cc5df2e9c4373a7198&output=html&source=placeapi_v2,,09:00-20:00,,,,,,,,9,,,,,,,,111.7115978433,40.854972699019,0
b07ef7c43ac30bfd84330466,福瑞特绿色干洗店,生活服务,洗衣店,内蒙古自治区,呼和浩特市,新城区,呼和浩特市新城区隆裕巷中华家园-二期,b07ef7c43ac30bfd84330466,1,0,111.718409,40.853789,18947187875,life,http://api.map.baidu.com/place/detail?uid=b07ef7c43ac30bfd84330466&output=html&source=placeapi_v2,,09:00-20:00,,,,,,,,7,,,,,,,,,,0
3af0660a87f3559feee4a5d4,辉煌洗鞋修鞋(光华西街擦鞋店),生活服务,洗衣店,内蒙古自治区,呼和浩特市,新城区,内蒙古自治区呼和浩特市新城区平远小区3号,3af0660a87f3559feee4a5d4,1,0,111.701646,40.837415,,life,http://api.map.baidu.com/place/detail?uid=3af0660a87f3559feee4a5d4&output=html&source=placeapi_v2,,09:00-21:00,,,,,,,,9,,,,,,,,,,0
7fd723117b72b5e25cbe867f,福奈特洗衣(乌兰察布东街店),生活服务,洗衣店,内蒙古自治区,呼和浩特市,赛罕区,内蒙古自治区呼和浩特市赛罕区乌兰察布东街96号,7fd723117b72b5e25cbe867f,1,0,111.714516,40.829241,(0471)4963111,life,http://api.map.baidu.com/place/detail?uid=7fd723117b72b5e25cbe867f&output=html&source=placeapi_v2,,09:00-18:30,0,,,,,,,17,1,,,,,,,111.71455175388,40.829150671006,0
015d7d01b05578118ab98899,汇丰干洗店,生活服务,洗衣店,内蒙古自治区,呼和浩特市,赛罕区,呼和浩特市赛罕区新华东街89号,015d7d01b05578118ab98899,1,0,111.721435,40.833742,,life,http://api.map.baidu.com/place/detail?uid=015d7d01b05578118ab98899&output=html&source=placeapi_v2,,09:00-20:00,0.0,,,,,,,9,,,,,,,,111.72146969624,40.833666098477,0
cdef105af0809e24b42655f1,日日新洗衣(长乐湾店),生活服务,洗衣店,内蒙古自治区,呼和浩特市,赛罕区,呼和浩特市赛罕区锦泰巷中房小区,cdef105af0809e24b42655f1,1,0,111.722937,40.834159,15561031273,life,http://api.map.baidu.com/place/detail?uid=cdef105af0809e24b42655f1&output=html&source=placeapi_v2,,10:00-22:00,0.0,,,,,,,10,,,,,,,,111.7229883383,40.834036179315,0
eb366c5cc9587d5b1df74df7,枝枝干洗店,生活服务,洗衣店,内蒙古自治区,呼和浩特市,新城区,内蒙古自治区呼和浩特市新城区迎新中路团结小区5号楼5号,eb366c5cc9587d5b1df74df7,1,0,111.729553,40.843314,13947102096,life,http://api.map.baidu.com/place/detail?uid=eb366c5cc9587d5b1df74df7&output=html&source=placeapi_v2,,09:00-20:00,0,,,,,,,12,1,,,,,,,111.72956839921,40.843239105631,0
3f826ed3c5d75845d1f49ef1,星鑫洗衣店,生活服务,洗衣店,内蒙古自治区,呼和浩特市,新城区,内蒙古自治区呼和浩特市新城区爱民街财经学院3113号,3f826ed3c5d75845d1f49ef1,1,0,111.702517,40.853083,,life,http://api.map.baidu.com/place/detail?uid=3f826ed3c5d75845d1f49ef1&output=html&source=placeapi_v2,,,0.0,,,,,,,12,,,,,,,,111.70256634887,40.852893976254,0
0196a55172e8ae79b5f42ff0,洛克洗衣连锁(将军花园店),生活服务,洗衣店,内蒙古自治区,呼和浩特市,新城区,内蒙古自治区呼和浩特市新城区明秀巷5号,0196a55172e8ae79b5f42ff0,1,0,111.697171,40.842692,,life,http://api.map.baidu.com/place/detail?uid=0196a55172e8ae79b5f42ff0&output=html&source=placeapi_v2,,09:00-19:00,0.0,,,,,,,2,1,,,,,,,111.69727339896,40.842714576287,0
e090819a5c4fb7078d77273d,衣和缘改衣店,生活服务,洗衣店,内蒙古自治区,呼和浩特市,新城区,内蒙古自治区呼和浩特市新城区海腾名苑小区1号楼1018号,e090819a5c4fb7078d77273d,1,0,111.714109,40.853094,15560942589,life,http://api.map.baidu.com/place/detail?uid=e090819a5c4fb7078d77273d&output=html&source=placeapi_v2,,09:00-20:00,,,,,,,,5,,,,,,,,,,0
c0c9ba5288cdc3f751e5c55e,佳星干洗店(呼和浩特世和中医院西北),生活服务,洗衣店,内蒙古自治区,呼和浩特市,新城区,呼和浩特市新城区构件街幸福小区北区8号楼1层,c0c9ba5288cdc3f751e5c55e,1,0,111.725348,40.849721,13704786816,life,http://api.map.baidu.com/place/detail?uid=c0c9ba5288cdc3f751e5c55e&output=html&source=placeapi_v2,,09:00-20:00,0.0,,,,,,,5,,,,,,,,111.72545649413,40.849641268987,0
09a6f25cc35d9dbdae31e550,干洗店,生活服务,洗衣店,内蒙古自治区,呼和浩特市,新城区,呼和浩特市新城区兴安北路苏雅拉公园东南侧约150米,,1,0,111.696354,40.855957,,life,http://api.map.baidu.com/place/detail?uid=09a6f25cc35d9dbdae31e550&output=html&source=placeapi_v2,,09:00-20:00,,,,,,,,2,,,,,,,,,,0
d5cc3ee31776d49fd1f49e6d,内蒙古国航大厦-洗衣中心,生活服务,洗衣店,内蒙古自治区,呼和浩特市,新城区,内蒙古自治区呼和浩特市新城区哲里木路96号国航大厦1楼,d5cc3ee31776d49fd1f49e6d,1,0,111.695184,40.834905,(0471)6608406,life,http://api.map.baidu.com/place/detail?uid=d5cc3ee31776d49fd1f49e6d&output=html&source=placeapi_v2,37,"09:00-12:00,14:00-19:00",0.0,,,,,,,14,,,,,,,,111.69518438231,40.834905302394,0
0de537ac4047dc533517dcf2,裁缝洗衣店,生活服务,洗衣店,内蒙古自治区,呼和浩特市,赛罕区,内蒙古自治区呼和浩特市赛罕区有色地质勘查局家属院东2门旁,0de537ac4047dc533517dcf2,1,0,111.713916,40.829939,15547172895,life,http://api.map.baidu.com/place/detail?uid=0de537ac4047dc533517dcf2&output=html&source=placeapi_v2,,08:30-20:30,,,,,,,,3,,,,,,,,111.71397611163,40.829954577077,0
d1e68c696ca56f3a6e20b9e8,小海豚洗业奢侈品护理,生活服务,洗衣店,内蒙古自治区,呼和浩特市,新城区,内蒙古自治区呼和浩特市新城区青城巷20号1号楼,d1e68c696ca56f3a6e20b9e8,1,0,111.694922,40.836352,15598079373,life,http://api.map.baidu.com/place/detail?uid=d1e68c696ca56f3a6e20b9e8&output=html&source=placeapi_v2,,09:00-20:00,,,,,,,,1,,,,,,,,111.69482439086,40.836315972809,0
036ea884cb552308c0364412,有壹家连锁洗衣,生活服务,洗衣店,内蒙古自治区,呼和浩特市,赛罕区,内蒙古自治区呼和浩特市赛罕区乌兰察布东路汇雅风尚小区院内4号楼底商,,1,0,111.715205,40.828115,15326064560,life,http://api.map.baidu.com/place/detail?uid=036ea884cb552308c0364412&output=html&source=placeapi_v2,,08:00-20:00,0.0,,,,,,,2,,,,,,,,,,0
15e1e85e42a1d8a35810931e,洛克洗衣连锁(如意小区店),生活服务,洗衣店,内蒙古自治区,呼和浩特市,新城区,呼和浩特市新城区如意路7号,15e1e85e42a1d8a35810931e,1,0,111.752127,40.848974,,life,http://api.map.baidu.com/place/detail?uid=15e1e85e42a1d8a35810931e&output=html&source=placeapi_v2,,09:00-19:00,1,,,,,,,10,3,,,,,,,,,0
4cae91960f69a15681288a02,福奈特洗衣(鑫泰嘉园店),生活服务,洗衣店,内蒙古自治区,呼和浩特市,赛罕区,内蒙古自治区呼和浩特市赛罕区四纬路2号,4cae91960f69a15681288a02,1,0,111.754826,40.834547,(0471)4193533,life,http://api.map.baidu.com/place/detail?uid=4cae91960f69a15681288a02&output=html&source=placeapi_v2,,08:30-19:00,5,,,,,,,10,2,,,,,,,111.75484406242,40.83444998895,0
63f41f65b5f6346a4acc4a62,德奈福洗衣(万达店),生活服务,洗衣店,内蒙古自治区,呼和浩特市,赛罕区,新华大街26号万达广场-B区F1,63f41f65b5f6346a4acc4a62,1,0,111.7435,40.841073,,life,http://api.map.baidu.com/place/detail?uid=63f41f65b5f6346a4acc4a62&output=html&source=placeapi_v2,,08:30-20:30,,,,,,,,9,,,,,,,,111.74369595924,40.841114559163,0
3a2f8f2c50ceb0b02bd7ab35,美国UCC国际洗衣(万达店),生活服务,洗衣店,内蒙古自治区,呼和浩特市,赛罕区,内蒙古自治区呼和浩特市赛罕区新华东街26号,3a2f8f2c50ceb0b02bd7ab35,1,0,111.742815,40.839542,18686095358,life,http://api.map.baidu.com/place/detail?uid=3a2f8f2c50ceb0b02bd7ab35&output=html&source=placeapi_v2,,08:00-20:00,0,,,,,,,7,0,,,,,,,111.74286126004,40.8395843665,0
9db98551f6135b036849f33f,赛维干洗(万达店),生活服务,洗衣店,内蒙古自治区,呼和浩特市,赛罕区,呼和浩特市赛罕区万达商业街3区4段1021号商铺(乌兰察布东路天骏大酒店西100米路北万达步行街),9db98551f6135b036849f33f,1,0,111.742812,40.836987,13500690056,life,http://api.map.baidu.com/place/detail?uid=9db98551f6135b036849f33f&output=html&source=placeapi_v2,,09:00-20:00,4,,,,,,,8,3,,,,,,,,,0
660611c4ca451609c356ac87,巧皮匠专业皮具护理(万达广场B区店),生活服务,洗衣店,内蒙古自治区,呼和浩特市,赛罕区,内蒙古自治区呼和浩特市赛罕区如意开发区新华东街26号万达广场F1层,660611c4ca451609c356ac87,1,0,111.743453,40.841085,,life,http://api.map.baidu.com/place/detail?uid=660611c4ca451609c356ac87&output=html&source=placeapi_v2,,,,,,,,,,12,,,,,,,,111.743688824,40.841134159429,0
eb68bfa2ae2cba8295f08c07,恒瑞皮革护理,生活服务,洗衣店,内蒙古自治区,呼和浩特市,新城区,内蒙古自治区呼和浩特市新城区万通路水岸小镇,eb68bfa2ae2cba8295f08c07,1,0,111.76348,40.851304,13404834259,life,http://api.map.baidu.com/place/detail?uid=eb68bfa2ae2cba8295f08c07&output=html&source=placeapi_v2,,09:00-21:00,,,,,,,,3,,,,,,,,,,0
d184b9cafe819a04b64f5417,威特斯国际洗衣(富恒国际店),生活服务,洗衣店,内蒙古自治区,呼和浩特市,赛罕区,内蒙古自治区呼和浩特市赛罕区讨号板北街富恒国际9号楼900-7号,d184b9cafe819a04b64f5417,1,0,111.761655,40.832474,15648152729,life,http://api.map.baidu.com/place/detail?uid=d184b9cafe819a04b64f5417&output=html&source=placeapi_v2,,08:00-21:00,5,,,,,,,11,8,,,,,,,,,0
537f50353df41f68601c67c6,洛克洗衣(滨水新村店),生活服务,洗衣店,内蒙古自治区,呼和浩特市,新城区,呼和浩特市新城区成吉思汗大街街道毫沁营镇南店滨水新村西门17号,537f50353df41f68601c67c6,1,0,111.753365,40.861429,,life,http://api.map.baidu.com/place/detail?uid=537f50353df41f68601c67c6&output=html&source=placeapi_v2,,09:00-19:00,0.0,,,,,,,6,,,,,,,,,,0
02938f0eb939d8c075e5b66f,美兰裁缝干洗店,生活服务,洗衣店,内蒙古自治区,呼和浩特市,赛罕区,呼和浩特市赛罕区智慧岛幼儿园东南侧约200米,02938f0eb939d8c075e5b66f,1,0,111.796392,40.845625,,life,http://api.map.baidu.com/place/detail?uid=02938f0eb939d8c075e5b66f&output=html&source=placeapi_v2,,09:00-20:00,,,,,,,,6,,,,,,,,,,0
3e4490a9c18c33668d7727d5,智洁洗衣,生活服务,洗衣店,内蒙古自治区,呼和浩特市,赛罕区,内蒙古自治区呼和浩特市赛罕区林荫街(民族小学东200米路南),3e4490a9c18c33668d7727d5,1,0,111.786624,40.849724,15148003248,life,http://api.map.baidu.com/place/detail?uid=3e4490a9c18c33668d7727d5&output=html&source=placeapi_v2,,09:00-20:00,,,,,,,,1,,,,,,,,111.78658145864,40.84980691811,0
8f880d2d81f4a72ca7c7566e,海丰干洗,生活服务,洗衣店,内蒙古自治区,呼和浩特市,赛罕区,内蒙古自治区呼和浩特市赛罕区满洲里路西蒙奈伦广场西侧约250米,8f880d2d81f4a72ca7c7566e,1,0,111.779697,40.840588,,life,http://api.map.baidu.com/place/detail?uid=8f880d2d81f4a72ca7c7566e&output=html&source=placeapi_v2,,08:30-20:00,,,,,,,,1,,,,,,,,111.77975549109,40.840602592153,0
978e68b865c35cf0223bf220,腊弟洗衣店,生活服务,洗衣店,内蒙古自治区,呼和浩特市,赛罕区,内蒙古自治区呼和浩特市赛罕区什兰岱街什兰岱小学东侧约230米,978e68b865c35cf0223bf220,1,0,111.808424,40.843338,15148036062,life,http://api.map.baidu.com/place/detail?uid=978e68b865c35cf0223bf220&output=html&source=placeapi_v2,,,,,,,,,,5,,,,,,,,,,0
0312d157087226a10a5cb31c,大众干洗店(什兰岱街店),生活服务,洗衣店,内蒙古自治区,呼和浩特市,赛罕区,呼和浩特市赛罕区什兰岱街什兰岱小学东南侧约130米,0312d157087226a10a5cb31c,1,0,111.806813,40.843163,,life,http://api.map.baidu.com/place/detail?uid=0312d157087226a10a5cb31c&output=html&source=placeapi_v2,,,,,,,,,,6,,,,,,,,,,0
bf3a5bf80632528d88b98865,UCC国际洗衣,生活服务,洗衣店,内蒙古自治区,呼和浩特市,赛罕区,呼和浩特市赛罕区科尔沁南路泽信・青城,,1,0,111.781872,40.842367,,life,http://api.map.baidu.com/place/detail?uid=bf3a5bf80632528d88b98865&output=html&source=placeapi_v2,,,,,,,,,,,,,,,,,,,,0
ebd32e0946c8efc9c4f025e4,洁净干洗(呼黄路店),生活服务,洗衣店,内蒙古自治区,呼和浩特市,赛罕区,呼和浩特市赛罕区呼黄路金谷农商银行(白塔支行)东南侧约170米,,1,0,111.88128,40.857435,,life,http://api.map.baidu.com/place/detail?uid=ebd32e0946c8efc9c4f025e4&output=html&source=placeapi_v2,,09:00-20:00,,,,,,,,4,,,,,,,,,,0
3668e1d5c50cd9a2fa0cadea,健康时尚洗衣,生活服务,洗衣店,内蒙古自治区,呼和浩特市,回民区,呼和浩特市回民区北二环快速路厂汉板小学南侧约130米,3668e1d5c50cd9a2fa0cadea,1,0,111.630375,40.858366,,life,http://api.map.baidu.com/place/detail?uid=3668e1d5c50cd9a2fa0cadea&output=html&source=placeapi_v2,,09:00-20:00,,,,,,,,4,,,,,,,,,,0
d677f9a81fb556bcc4f0258a,洁美干洗店(厂汉板乾沁源西),生活服务,洗衣店,内蒙古自治区,呼和浩特市,回民区,内蒙古自治区呼和浩特市回民区攸攸板镇厂汉板乾沁源小区17号楼,d677f9a81fb556bcc4f0258a,1,0,111.638393,40.855952,15049193699,life,http://api.map.baidu.com/place/detail?uid=d677f9a81fb556bcc4f0258a&output=html&source=placeapi_v2,,09:00-20:00,0.0,,,,,,,7,,,,,,,,111.63822288202,40.855976903531,0
c6c4a01c4d00acc59222e026,妹慧裁缝干洗店,生活服务,洗衣店,内蒙古自治区,呼和浩特市,回民区,呼和浩特市回民区北二环快速路厂汉板乾沁源,c6c4a01c4d00acc59222e026,1,0,111.635877,40.855941,,life,http://api.map.baidu.com/place/detail?uid=c6c4a01c4d00acc59222e026&output=html&source=placeapi_v2,,,,,,,,,,1,,,,,,,,,,0
c10a9ba679f5445da2a93432,衣之沐干洗裁缝店,生活服务,洗衣店,内蒙古自治区,呼和浩特市,新城区,呼和浩特市新城区兴安北路30号,c10a9ba679f5445da2a93432,1,0,111.690018,40.876091,15690915590,life,http://api.map.baidu.com/place/detail?uid=c10a9ba679f5445da2a93432&output=html&source=placeapi_v2,,09:00-21:00,,,,,,,,10,,,,,,,,111.69001055938,40.876003750504,0
131f65b7ec33da399868b40d,福奈特洗衣(哲里木路店),生活服务,洗衣店,内蒙古自治区,呼和浩特市,新城区,呼和浩特市新城区哲里木路交通家园东侧,131f65b7ec33da399868b40d,1,0,111.680774,40.868491,,life,http://api.map.baidu.com/place/detail?uid=131f65b7ec33da399868b40d&output=html&source=placeapi_v2,,08:30-19:00,,,,,,,,5,,,,,,,,111.68114072042,40.868560867787,0
c4a82fce0804d4b0ae31e537,军嫂洗衣店,生活服务,洗衣店,内蒙古自治区,呼和浩特市,新城区,呼和浩特市新城区山水路山水小区南1门西南侧约40米,c4a82fce0804d4b0ae31e537,1,0,111.689001,40.867939,15947410665,life,http://api.map.baidu.com/place/detail?uid=c4a82fce0804d4b0ae31e537&output=html&source=placeapi_v2,,09:00-20:00,5,,,,,,,9,1,,,,,,,,,0
b4b49da16f6ebfa1b14c495c,浪家洗衣,生活服务,洗衣店,内蒙古自治区,呼和浩特市,新城区,山水路山水小区南门23号楼底商,b4b49da16f6ebfa1b14c495c,1,0,111.692179,40.868675,18748105689,life,http://api.map.baidu.com/place/detail?uid=b4b49da16f6ebfa1b14c495c&output=html&source=placeapi_v2,,08:00-20:00,,,,,,,,4,,,,,,,,,,0
d59a4808e48ce622f32d833d,张丽萍水洗店,生活服务,洗衣店,内蒙古自治区,呼和浩特市,新城区,呼和浩特市新城区成吉思汗大街赛马场铁路小区,d59a4808e48ce622f32d833d,1,0,111.677117,40.864933,,life,http://api.map.baidu.com/place/detail?uid=d59a4808e48ce622f32d833d&output=html&source=placeapi_v2,,09:00-20:00,,,,,,,,2,,,,,,,,,,0
1af43dc2a095c3f63f9a5e3f,美国UCC国际洗衣(麻花板路店),生活服务,洗衣店,内蒙古自治区,呼和浩特市,新城区,内蒙古自治区呼和浩特市新城区曙光西街1020号,1af43dc2a095c3f63f9a5e3f,1,0,111.688392,40.86275,"13674851989,13684789212",life,http://api.map.baidu.com/place/detail?uid=1af43dc2a095c3f63f9a5e3f&output=html&source=placeapi_v2,,09:00-19:00,5,,,,,,,7,3,,,,,,,111.68875562838,40.862782665759,0
8167e24bcf7649d1601c67d0,三洋干洗(成吉思汗大街店),生活服务,洗衣店,内蒙古自治区,呼和浩特市,新城区,呼和浩特市新城区成吉思汗大街天骄领域,8167e24bcf7649d1601c67d0,1,0,111.670022,40.863087,(0471)3829900,life,http://api.map.baidu.com/place/detail?uid=8167e24bcf7649d1601c67d0&output=html&source=placeapi_v2,,08:00-19:00,,,,,,,,5,,,,,,,,111.67028150665,40.863135150424,0
289f50148c7e3f0ac8213d20,福奈特洗衣(赛马场北路店),生活服务,洗衣店,内蒙古自治区,呼和浩特市,新城区,呼和浩特市新城区赛马场北路名城国际,289f50148c7e3f0ac8213d20,1,0,111.663639,40.856033,(0471)6234128,life,http://api.map.baidu.com/place/detail?uid=289f50148c7e3f0ac8213d20&output=html&source=placeapi_v2,,09:00-18:30,,,,,,,,10,,,,,,,,111.66359515913,40.856203050672,0
d4bdc52749a3d362b05c6a2d,卓朗洗衣,生活服务,洗衣店,内蒙古自治区,呼和浩特市,新城区,内蒙古自治区呼和浩特市新城区商业街加州华府一期18号楼,d4bdc52749a3d362b05c6a2d,1,0,111.719401,40.872059,18104853535,life,http://api.map.baidu.com/place/detail?uid=d4bdc52749a3d362b05c6a2d&output=html&source=placeapi_v2,,08:30-19:30,,,,,,,,5,,,,,,,,111.71925167857,40.872044078612,0
6547667f5d951195246e98ac,沃喜莱洗衣,生活服务,洗衣店,内蒙古自治区,呼和浩特市,新城区,呼和浩特市新城区华侨新村9栋,6547667f5d951195246e98ac,1,0,111.708935,40.867424,,life,http://api.map.baidu.com/place/detail?uid=6547667f5d951195246e98ac&output=html&source=placeapi_v2,,09:00-20:00,0,,,,,,,6,1,,,,,,,111.70892457144,40.867478347023,0
7e3f80a134db553cf22d8397,朵儿制衣干洗,生活服务,洗衣店,内蒙古自治区,呼和浩特市,新城区,兴安北路毫沁营大十字北,7e3f80a134db553cf22d8397,1,0,111.706974,40.884191,15598408461,life,http://api.map.baidu.com/place/detail?uid=7e3f80a134db553cf22d8397&output=html&source=placeapi_v2,,09:00-20:00,,,,,,,,8,,,,,,,,111.70679544006,40.884228775016,0
c10a9ba679f5445da2a93432,衣之沐干洗裁缝店,生活服务,洗衣店,内蒙古自治区,呼和浩特市,新城区,呼和浩特市新城区兴安北路30号,c10a9ba679f5445da2a93432,1,0,111.690018,40.876091,15690915590,life,http://api.map.baidu.com/place/detail?uid=c10a9ba679f5445da2a93432&output=html&source=placeapi_v2,,09:00-21:00,,,,,,,,10,,,,,,,,111.69001055938,40.876003750504,0
4471c6cc5df2e9c4373a7198,靓衣净洗衣,生活服务,洗衣店,内蒙古自治区,呼和浩特市,新城区,内蒙古自治区呼和浩特市新城区爱民街东苑新城3号楼1层,4471c6cc5df2e9c4373a7198,1,0,111.711661,40.854821,15754887406,life,http://api.map.baidu.com/place/detail?uid=4471c6cc5df2e9c4373a7198&output=html&source=placeapi_v2,,09:00-20:00,,,,,,,,9,,,,,,,,111.7115978433,40.854972699019,0
51486645ae9b462efea7783b,易净洗衣,生活服务,洗衣店,内蒙古自治区,呼和浩特市,新城区,内蒙古自治区呼和浩特市新城区康复街17号呼和佳地9号楼,51486645ae9b462efea7783b,1,0,111.696636,40.86169,15548777768,life,http://api.map.baidu.com/place/detail?uid=51486645ae9b462efea7783b&output=html&source=placeapi_v2,,,,,,,,,,6,,,,,,,,111.69672018469,40.861499694972,0
b4b49da16f6ebfa1b14c495c,浪家洗衣,生活服务,洗衣店,内蒙古自治区,呼和浩特市,新城区,山水路山水小区南门23号楼底商,b4b49da16f6ebfa1b14c495c,1,0,111.692179,40.868675,18748105689,life,http://api.map.baidu.com/place/detail?uid=b4b49da16f6ebfa1b14c495c&output=html&source=placeapi_v2,,08:00-20:00,,,,,,,,4,,,,,,,,,,0
0374a68482708f5bcae33c4a,灰姑娘生态洗护生活馆,生活服务,洗衣店,内蒙古自治区,呼和浩特市,新城区,呼和浩特市新城区衡达.丁香河畔西南侧约40米,0374a68482708f5bcae33c4a,1,0,111.754718,40.865823,,life,http://api.map.baidu.com/place/detail?uid=0374a68482708f5bcae33c4a&output=html&source=placeapi_v2,,08:30-20:00,,,,,,,,4,,,,,,,,,,0
537f50353df41f68601c67c6,洛克洗衣(滨水新村店),生活服务,洗衣店,内蒙古自治区,呼和浩特市,新城区,呼和浩特市新城区成吉思汗大街街道毫沁营镇南店滨水新村西门17号,537f50353df41f68601c67c6,1,0,111.753365,40.861429,,life,http://api.map.baidu.com/place/detail?uid=537f50353df41f68601c67c6&output=html&source=placeapi_v2,,09:00-19:00,0.0,,,,,,,6,,,,,,,,,,0
e12a08f43c589377047ce8d8,洁护超声波干洗店,生活服务,洗衣店,内蒙古自治区,呼和浩特市,新城区,呼和浩特市新城区海拉尔东街与科尔沁路交汇处中交上东国际一期北门2-1011商铺,,1,0,111.778533,40.863111,15184758955,life,http://api.map.baidu.com/place/detail?uid=e12a08f43c589377047ce8d8&output=html&source=placeapi_v2,,08:30-20:30,0,,,,,,,1,2,,,,,,,111.77846920591,40.863300727742,0
b63b2268787254e542d63e2d,洁新干洗中心(河西路店),生活服务,洗衣店,内蒙古自治区,呼和浩特市,赛罕区,呼和浩特市赛罕区呼黄路赛罕区民航小学西北侧约40米,b63b2268787254e542d63e2d,1,0,111.838591,40.869959,,life,http://api.map.baidu.com/place/detail?uid=b63b2268787254e542d63e2d&output=html&source=placeapi_v2,,09:00-20:00,0.0,,,,,,,6,,,,,,,,,,0
ebd32e0946c8efc9c4f025e4,洁净干洗(呼黄路店),生活服务,洗衣店,内蒙古自治区,呼和浩特市,赛罕区,呼和浩特市赛罕区呼黄路金谷农商银行(白塔支行)东南侧约170米,,1,0,111.88128,40.857435,,life,http://api.map.baidu.com/place/detail?uid=ebd32e0946c8efc9c4f025e4&output=html&source=placeapi_v2,,09:00-20:00,,,,,,,,4,,,,,,,,,,0
7e3f80a134db553cf22d8397,朵儿制衣干洗,生活服务,洗衣店,内蒙古自治区,呼和浩特市,新城区,兴安北路毫沁营大十字北,7e3f80a134db553cf22d8397,1,0,111.706974,40.884191,15598408461,life,http://api.map.baidu.com/place/detail?uid=7e3f80a134db553cf22d8397&output=html&source=placeapi_v2,,09:00-20:00,,,,,,,,8,,,,,,,,111.70679544006,40.884228775016,0
e9afc5f48701056d38e4a6fa,威斯特洗衣(活力奥特莱斯A区店),生活服务,洗衣店,内蒙古自治区,呼和浩特市,新城区,内蒙古自治区呼和浩特市新城区活力奥特莱斯A区(呼和浩特职业学院东北)活力奥特莱斯A区F1,e9afc5f48701056d38e4a6fa,1,0,111.845519,40.909289,,life,http://api.map.baidu.com/place/detail?uid=e9afc5f48701056d38e4a6fa&output=html&source=placeapi_v2,,,3,,,,,,,6,3,,,,,,,,,0
52c7f4ee535f1dbf25d2bb11,洗衣店,生活服务,洗衣店,内蒙古自治区,呼和浩特市,新城区,呼和浩特市新城区讨思浩小学东侧约40米,,1,0,111.814765,40.922899,,life,http://api.map.baidu.com/place/detail?uid=52c7f4ee535f1dbf25d2bb11&output=html&source=placeapi_v2,,,,,,,,,,,,,,,,,,111.81457057696,40.922865618783,0
52c7f4ee535f1dbf25d2bb11,洗衣店,生活服务,洗衣店,内蒙古自治区,呼和浩特市,新城区,呼和浩特市新城区讨思浩小学东侧约40米,,1,0,111.814765,40.922899,,life,http://api.map.baidu.com/place/detail?uid=52c7f4ee535f1dbf25d2bb11&output=html&source=placeapi_v2,,,,,,,,,,,,,,,,,,111.81457057696,40.922865618783,0
