uid,name,cat_L1,cat_L2,province,city,area,address,street_id,detail,child_num,loc_lng,loc_lat,telephone,type,detail_url,price,shop_hours,overall_rating,taste_rating,service_rating,environment_rating,facility_rating,hygiene_rating,technology_rating,image_num,comment_num,groupon_num,discount_num,favorite_num,checkin_num,brand,content_tag,naviloc_lng,naviloc_lat,child_num
982d1c16254b76d52806ce26,恒翔发展实业有限公司(魅力园),公司企业,农林园艺,广东省,潮州市,潮安区,广东省潮州市潮安区彩文路长禄街8号,982d1c16254b76d52806ce26,1,0,116.683571,23.473496,(0768)5823321,enterprise,http://api.map.baidu.com/place/detail?uid=982d1c16254b76d52806ce26&output=html&source=placeapi_v2,,,,,,,,,,,,,,,,,,116.68364107435,23.473480795496,0
11fa1f068b5c5e9228b97cc3,楚金园艺场,公司企业,农林园艺,广东省,潮州市,潮安区,潮州市潮安区彩文路锦盛花园西北侧约220米,11fa1f068b5c5e9228b97cc3,1,1,116.674988,23.478815,,enterprise,http://api.map.baidu.com/place/detail?uid=11fa1f068b5c5e9228b97cc3&output=html&source=placeapi_v2,,,,,,,,,,,,,,,,,,,,1
25d00a57fba3658a1f389483,高达园艺,公司企业,农林园艺,广东省,潮州市,潮安区,广东省潮州市潮安区沙溪党校养老院,,1,0,116.602705,23.505281,,enterprise,http://api.map.baidu.com/place/detail?uid=25d00a57fba3658a1f389483&output=html&source=placeapi_v2,,,,,,,,,,,,,,,,,,,,0
0bc737bd8c0808c74c6d46b4,潮州东山湖农场,公司企业,农林园艺,广东省,潮州市,潮安区,广东省潮州市潮安区X078,0bc737bd8c0808c74c6d46b4,1,0,116.601881,23.500821,,enterprise,http://api.map.baidu.com/place/detail?uid=0bc737bd8c0808c74c6d46b4&output=html&source=placeapi_v2,,,,,,,,,,,,,,,,,,116.60255836797,23.50154260006,0
acf54be5b5fb142221f01761,沙溪镇农场,公司企业,农林园艺,广东省,潮州市,潮安区,广东省潮州市潮安区沙溪镇农场(汕昆高速公路东),,1,0,116.579633,23.512844,,enterprise,http://api.map.baidu.com/place/detail?uid=acf54be5b5fb142221f01761&output=html&source=placeapi_v2,,,,,,,,,,,,,,,,,,116.57952509515,23.514637564148,0
4d6699ec3e63abd1da2f2803,锦艺园花木场,公司企业,农林园艺,广东省,潮州市,潮安区,潮州市潮安区金和路海贝尔幼儿园第二分园西南侧约180米,,1,0,116.630685,23.515236,"13902799234,13902799719",enterprise,http://api.map.baidu.com/place/detail?uid=4d6699ec3e63abd1da2f2803&output=html&source=placeapi_v2,,,,,,,,,,,,,,,,,,116.6305975183,23.515018053297,0
84683710f41c5a022cb96dc7,顺武园艺,公司企业,农林园艺,广东省,潮州市,潮安区,广东省潮州市潮安区金和路上官路治安岗下来1500米左右路段,,1,0,116.623581,23.505495,13421097728,enterprise,http://api.map.baidu.com/place/detail?uid=84683710f41c5a022cb96dc7&output=html&source=placeapi_v2,,,,,,,,,,,,,,,,,,116.62395381154,23.505657396234,0
d497339a0fc04b822b11d1fe,泰园花木场,公司企业,农林园艺,广东省,潮州市,潮安区,广东省潮州市潮安区鑫园花木场西100米,,1,0,116.627593,23.516574,13829028001,enterprise,http://api.map.baidu.com/place/detail?uid=d497339a0fc04b822b11d1fe&output=html&source=placeapi_v2,,,0.0,,,,,,,,1,,,,,,,116.62779506292,23.516410255299,0
8a4062b9774f560b5bf6be4c,源美园林,公司企业,农林园艺,广东省,潮州市,潮安区,广东省潮州市潮安区金石镇上官村上官路山边,,1,0,116.624406,23.508195,,enterprise,http://api.map.baidu.com/place/detail?uid=8a4062b9774f560b5bf6be4c&output=html&source=placeapi_v2,,,,,,,,,,,,,,,,,,116.62549137371,23.507077178636,0
7d66b42209500c1a8e772781,兴发花木场第二分场,公司企业,农林园艺,广东省,潮州市,潮安区,广东省潮州市潮安区金和路,,1,0,116.628434,23.515877,13413747778,enterprise,http://api.map.baidu.com/place/detail?uid=7d66b42209500c1a8e772781&output=html&source=placeapi_v2,,,,,,,,,,,1,,,,,,,,,0
5fed3147d189d930364aae44,潮州市潮安区圣大农业科技有限公司,公司企业,农林园艺,广东省,潮州市,潮安区,潮州市潮安区玉林路宏安中学西南侧约80米,,1,0,116.653018,23.497426,18675065378,enterprise,http://api.map.baidu.com/place/detail?uid=5fed3147d189d930364aae44&output=html&source=placeapi_v2,,,,,,,,,,,2,,,,,,,,,0
58514e67a2c7d627b54f546a,兴发花木场,公司企业,农林园艺,广东省,潮州市,潮安区,广东省潮州市潮安区金和路,,1,0,116.628363,23.51615,13413747778,enterprise,http://api.map.baidu.com/place/detail?uid=58514e67a2c7d627b54f546a&output=html&source=placeapi_v2,,,,,,,,,,,,,,,,,,116.62839928117,23.51620079674,0
8874e16092740a75a104644c,潮州市潮安区金石镇东岳园林,公司企业,农林园艺,广东省,潮州市,潮安区,广东省潮州市潮安区佳美园艺花木场南150米,,1,0,116.623189,23.512703,,enterprise,http://api.map.baidu.com/place/detail?uid=8874e16092740a75a104644c&output=html&source=placeapi_v2,,,,,,,,,,,,,,,,,,,,0
4891a4e3f5e34561e9f85357,锦盛花木场,公司企业,农林园艺,广东省,潮州市,潮安区,广东省潮州市潮安区0768钓鱼场北侧130米,,1,0,116.624169,23.506824,,enterprise,http://api.map.baidu.com/place/detail?uid=4891a4e3f5e34561e9f85357&output=html&source=placeapi_v2,,,5.0,,,,,,,,1,,,,,,,116.62427615949,23.506535933736,0
0239bc89c1ca4e6e32870a44,伟华花木场,公司企业,农林园艺,广东省,潮州市,潮安区,广东省潮州市潮安区金和路,,1,0,116.626959,23.511437,"13924774398,15226455421",enterprise,http://api.map.baidu.com/place/detail?uid=0239bc89c1ca4e6e32870a44&output=html&source=placeapi_v2,,08:00-20:00,,,,,,,,,,,,,,,,,,0
d70d53721a296da3220220f9,潮州市潮安区锦艺花卉种植专业合作社,公司企业,农林园艺,广东省,潮州市,潮安区,广东省潮州市潮安区金石镇,,1,0,116.622311,23.511673,,enterprise,http://api.map.baidu.com/place/detail?uid=d70d53721a296da3220220f9&output=html&source=placeapi_v2,,,,,,,,,,,,,,,,,,116.62254422827,23.511329757085,0
055a2d4cf6b02168d0ff232d,政勇花木场,公司企业,农林园艺,广东省,潮州市,潮安区,广东省潮州市潮安区金和路西50米,,1,0,116.627127,23.516917,13421061314,enterprise,http://api.map.baidu.com/place/detail?uid=055a2d4cf6b02168d0ff232d&output=html&source=placeapi_v2,,,,,,,,,,,,,,,,,,116.62716627332,23.516969415768,0
b464756b6e5e5875e856fab2,榕浩花木场,公司企业,农林园艺,广东省,潮州市,潮安区,潮州市潮安区振兴路,,1,0,116.682933,23.499729,13923516177,enterprise,http://api.map.baidu.com/place/detail?uid=b464756b6e5e5875e856fab2&output=html&source=placeapi_v2,,,,,,,,,,,,,,,,,,,,0
6d511d03a7a2a75f167643d1,普众艺术科技园,公司企业,农林园艺,广东省,潮州市,潮安区,广东省潮州市潮安区前陇村,,1,0,116.603691,23.540916,13690007756,enterprise,http://api.map.baidu.com/place/detail?uid=6d511d03a7a2a75f167643d1&output=html&source=placeapi_v2,,,,,,,,,,,,,,,,,,116.60356456536,23.540627712054,0
6429919322113decc5effb9f,潮州市潮安区兴木园林绿化有限公司,公司企业,农林园艺,广东省,潮州市,潮安区,潮州市潮安区S233与高铁机场路交叉路口往西约270米,6429919322113decc5effb9f,1,0,116.592249,23.550981,15816579345,enterprise,http://api.map.baidu.com/place/detail?uid=6429919322113decc5effb9f&output=html&source=placeapi_v2,,,,,,,,,,,,,,,,,,116.59232570996,23.550661039184,0
b4ce43e36f5bfebf4054d797,萌山锐炎铁场,公司企业,农林园艺,广东省,潮州市,潮安区,广东省潮州市潮安区X078沙溪镇上西林小学东侧约250米,b4ce43e36f5bfebf4054d797,1,0,116.613677,23.536074,,enterprise,http://api.map.baidu.com/place/detail?uid=b4ce43e36f5bfebf4054d797&output=html&source=placeapi_v2,,,,,,,,,,,,,,,,,,,,0
5353f14cb72955982d473394,潮州市潮安区沙溪镇三顾果林场,公司企业,农林园艺,广东省,潮州市,潮安区,潮州市潮安区X078潮州市潮安区沙溪镇上西林小学西北侧约220米,,1,0,116.609963,23.537522,,enterprise,http://api.map.baidu.com/place/detail?uid=5353f14cb72955982d473394&output=html&source=placeapi_v2,,,,,,,,,,,,,,,,,,116.60991659321,23.538365910229,0
2df7628e9d01798db42655cc,林壁园艺,公司企业,农林园艺,广东省,潮州市,潮安区,广东省潮州市潮安区富春园花木场旁边,,1,0,116.644521,23.534495,,enterprise,http://api.map.baidu.com/place/detail?uid=2df7628e9d01798db42655cc&output=html&source=placeapi_v2,,,5.0,,,,,,,,1,,,,,,,,,0
c49116a08abe987c9cec2bae,锦艺园,公司企业,农林园艺,广东省,潮州市,潮安区,广东省潮州市潮安区S233(潮汕路),,1,0,116.641907,23.530572,,enterprise,http://api.map.baidu.com/place/detail?uid=c49116a08abe987c9cec2bae&output=html&source=placeapi_v2,,,,,,,,,,,,,,,,,,116.64189384034,23.530593336051,0
5e899f51f8355a781894c68c,岭东园艺,公司企业,农林园艺,广东省,潮州市,潮安区,潮州市潮安区古楼路世芳园西北侧约150米,5e899f51f8355a781894c68c,1,0,116.620264,23.540436,13413775444,enterprise,http://api.map.baidu.com/place/detail?uid=5e899f51f8355a781894c68c&output=html&source=placeapi_v2,,06:00-22:00,5,,,,,,,,1,,,,,,,116.62022659646,23.540292535893,0
a1dff621d55a3dc04bcc4a06,沙池花木场,公司企业,农林园艺,广东省,潮州市,潮安区,潮州市潮安区金石大道下陇小学南侧约160米,a1dff621d55a3dc04bcc4a06,1,0,116.637195,23.533041,"13534658430,13902799245",enterprise,http://api.map.baidu.com/place/detail?uid=a1dff621d55a3dc04bcc4a06&output=html&source=placeapi_v2,,09:00-23:00,0,,,,,,,,1,,,,,,,116.63713460607,23.533204534568,0
29f68ad4ea620e24c3364443,万芳园艺,公司企业,农林园艺,广东省,潮州市,潮安区,潮州市潮安区晋君路翁厝美来小学南侧约210米,,1,0,116.626586,23.526786,,enterprise,http://api.map.baidu.com/place/detail?uid=29f68ad4ea620e24c3364443&output=html&source=placeapi_v2,,,,,,,,,,,,,,,,,,,,0
7121c6f1f8f5db36bca8226b,绿宝花木园艺场,公司企业,农林园艺,广东省,潮州市,潮安区,广东省潮州市潮安区鹤巢路X078号,,1,0,116.630248,23.542693,13531580065,enterprise,http://api.map.baidu.com/place/detail?uid=7121c6f1f8f5db36bca8226b&output=html&source=placeapi_v2,,,5,,,,,,,,3,,,,,,,,,0
09b2f87c5bb2c263373a7126,金石镇诚泽园艺场,公司企业,农林园艺,广东省,潮州市,潮安区,S233特快店西北100米,,1,0,116.644146,23.533762,13690031168,enterprise,http://api.map.baidu.com/place/detail?uid=09b2f87c5bb2c263373a7126&output=html&source=placeapi_v2,0.0,09:00-23:00,5,,,,,,,,1,,,,,,,116.64402073314,23.533874077689,0
0062eed8fa1a2aa18bdb732a,益嘉园艺场,公司企业,农林园艺,广东省,潮州市,潮安区,潮州市潮安区潮汕路多艺弯头东侧约200米,,1,0,116.647119,23.529568,13433750330,enterprise,http://api.map.baidu.com/place/detail?uid=0062eed8fa1a2aa18bdb732a&output=html&source=placeapi_v2,,,,,,,,,,,,,,,,,,,,0
5f03de856135e7ca774ff1e9,广东绿兴园林工程有限公司(金石花市办事处),公司企业,农林园艺,广东省,潮州市,潮安区,广东省潮州市潮安区潮汕公路金石路段别人装饰材料对面路口往里100米,5f03de856135e7ca774ff1e9,1,0,116.644015,23.534083,13560017178,enterprise,http://api.map.baidu.com/place/detail?uid=5f03de856135e7ca774ff1e9&output=html&source=placeapi_v2,,,0.0,,,,,,,,,,,,,,,,,0
9e062db54ea7d403734b87d9,阿杰花木场,公司企业,农林园艺,广东省,潮州市,潮安区,广东省潮州市潮安区鹳一工业园诚信建安东侧250米,,1,0,116.63888,23.543767,,enterprise,http://api.map.baidu.com/place/detail?uid=9e062db54ea7d403734b87d9&output=html&source=placeapi_v2,,,0.0,,,,,,,,1,,,,,,,,,0
ee4b8205586a9c3595f08cdb,福春花木场,公司企业,农林园艺,广东省,潮州市,潮安区,广东省潮州市潮安区中国石油碧辟潮州骏达加油站北,ee4b8205586a9c3595f08cdb,1,0,116.644531,23.533795,13827349839,enterprise,http://api.map.baidu.com/place/detail?uid=ee4b8205586a9c3595f08cdb&output=html&source=placeapi_v2,,,0.0,,,,,,,,1,,,,,,,116.64424260562,23.534083180044,0
3253c835e93a143107026f7a,盛园花木场,公司企业,农林园艺,广东省,潮州市,潮安区,广东省潮州市潮安区深华门业隔壁,,1,0,116.625286,23.548651,18025739302,enterprise,http://api.map.baidu.com/place/detail?uid=3253c835e93a143107026f7a&output=html&source=placeapi_v2,,08:00-19:00,,,,,,,,,,,,,,,,,,0
bf0035f846cf5da95a109375,东海花木场,公司企业,农林园艺,广东省,潮州市,潮安区,广东省潮州市潮安区光斌兰业东北100米,,1,0,116.630166,23.542483,13903095429,enterprise,http://api.map.baidu.com/place/detail?uid=bf0035f846cf5da95a109375&output=html&source=placeapi_v2,,,,,,,,,,,3,,,,,,,,,0
9a16c2ee62f7d9735e0d02ff,啊深花木场,公司企业,农林园艺,广东省,潮州市,潮安区,广东省潮州市潮安区X078,,1,0,116.627849,23.539096,,enterprise,http://api.map.baidu.com/place/detail?uid=9a16c2ee62f7d9735e0d02ff&output=html&source=placeapi_v2,,,,,,,,,,,,,,,,,,,,0
58cb88ad2352dd1af62310a0,潮州市顺丰花木场,公司企业,农林园艺,广东省,潮州市,潮安区,广东省潮州市潮安区078县道与镜鸿路交叉口北520米,,1,0,116.62903,23.541124,13502503134,enterprise,http://api.map.baidu.com/place/detail?uid=58cb88ad2352dd1af62310a0&output=html&source=placeapi_v2,,09:00-23:00,5,,,,,,,,2,,,,,,,116.62910528373,23.541045693113,0
e1bf9c61666087c39e95ded5,浩文花木场,公司企业,农林园艺,广东省,潮州市,潮安区,广东省潮州市潮安区金石镇远光村鹳钊路中段,,1,0,116.627784,23.541746,13715829577,enterprise,http://api.map.baidu.com/place/detail?uid=e1bf9c61666087c39e95ded5&output=html&source=placeapi_v2,,,,,,,,,,,,,,,,,,,,0
79ebf32a7b96fbc60d3dda72,金石山草场竹林居,公司企业,农林园艺,广东省,潮州市,潮安区,潮州市潮安区振兴街潮州市潮安区金石镇东莆小学西北侧约30米,,1,0,116.624077,23.534124,,enterprise,http://api.map.baidu.com/place/detail?uid=79ebf32a7b96fbc60d3dda72&output=html&source=placeapi_v2,,,,,,,,,,,,,,,,,,116.62406667375,23.534141963732,0
53336367a5bd6d3a2b3a9feb,宏旭达花木场,公司企业,农林园艺,广东省,潮州市,潮安区,潮州市潮安区星新路与银鹳南路交叉路口往东约90米,,1,0,116.65165,23.54482,13531515238,enterprise,http://api.map.baidu.com/place/detail?uid=53336367a5bd6d3a2b3a9feb&output=html&source=placeapi_v2,,,,,,,,,,,,,,,,,,116.65188738762,23.545034088635,0
68b7d2271a1b9b1504026fab,杰记花木场,公司企业,农林园艺,广东省,潮州市,潮安区,广东省潮州市潮安区远光路口旁柴头手机斜对面,,1,0,116.62802,23.542715,13829051129,enterprise,http://api.map.baidu.com/place/detail?uid=68b7d2271a1b9b1504026fab&output=html&source=placeapi_v2,,,0.0,,,,,,,,,,,,,,,,,0
90fddcace6d9fca74e55472a,阿豪绿化场,公司企业,农林园艺,广东省,潮州市,潮安区,广东省潮州市潮安区鹳蕉路88号正西方向90米,,1,0,116.627696,23.544951,,enterprise,http://api.map.baidu.com/place/detail?uid=90fddcace6d9fca74e55472a&output=html&source=placeapi_v2,,09:00-23:00,,,,,,,,,,,,,,,,,,0
e823033eb66a621132870ad6,广东韩东水产苗种繁育有限公司,公司企业,农林园艺,广东省,潮州市,潮安区,东宁路附近,,1,0,116.672838,23.538897,,enterprise,http://api.map.baidu.com/place/detail?uid=e823033eb66a621132870ad6&output=html&source=placeapi_v2,,,,,,,,,,,,,,,,,,,,0
d7bf75fece0ba3c4f942b2a5,龙信农场,公司企业,农林园艺,广东省,潮州市,潮安区,潮州市潮安区东彩路粤安机电商行东北侧约230米,,1,0,116.677049,23.528079,(0768)6582653,enterprise,http://api.map.baidu.com/place/detail?uid=d7bf75fece0ba3c4f942b2a5&output=html&source=placeapi_v2,,,,,,,,,,,,,,,,,,116.67689556893,23.528063261182,0
6429919322113decc5effb9f,潮州市潮安区兴木园林绿化有限公司,公司企业,农林园艺,广东省,潮州市,潮安区,潮州市潮安区S233与高铁机场路交叉路口往西约270米,6429919322113decc5effb9f,1,0,116.592249,23.550981,15816579345,enterprise,http://api.map.baidu.com/place/detail?uid=6429919322113decc5effb9f&output=html&source=placeapi_v2,,,,,,,,,,,,,,,,,,116.59232570996,23.550661039184,0
84fbe313f287cad9e115f934,潮州市冠乔园林绿化有限公司,公司企业,农林园艺,广东省,潮州市,潮安区,广东省潮州市潮安区S233(潮汕路),,1,0,116.600579,23.58325,,enterprise,http://api.map.baidu.com/place/detail?uid=84fbe313f287cad9e115f934&output=html&source=placeapi_v2,,,,,,,,,,,,,,,,,,116.60059585699,23.583403065954,0
2b6e0a812bcbbe5c2e473399,银湖花木基地,公司企业,农林园艺,广东省,潮州市,潮安区,潮州市潮安区,,1,0,116.638625,23.565222,,enterprise,http://api.map.baidu.com/place/detail?uid=2b6e0a812bcbbe5c2e473399&output=html&source=placeapi_v2,,,,,,,,,,,,,,,,,,116.63865468272,23.565145696128,0
9c40c6cc7d435675d92f28bb,万盛花木场,公司企业,农林园艺,广东省,潮州市,潮安区,广东省潮州市潮安区龙湖镇银湖村德兴牛肉火锅东100米,,1,0,116.637046,23.568315,13509899878,enterprise,http://api.map.baidu.com/place/detail?uid=9c40c6cc7d435675d92f28bb&output=html&source=placeapi_v2,,09:00-23:00,5.0,,,,,,,,1,,,,,,,,,0
5bd61238d8801777213bf2b3,贝博艺园,公司企业,农林园艺,广东省,潮州市,潮安区,潮州市潮安区秀英小学西北侧约300米,,1,0,116.629985,23.557418,,enterprise,http://api.map.baidu.com/place/detail?uid=5bd61238d8801777213bf2b3&output=html&source=placeapi_v2,,,,,,,,,,,,,,,,,,,,0
e08ddaf786404342b25c6aaf,兴艺花木场,公司企业,农林园艺,广东省,潮州市,潮安区,潮州市潮安区潮汕路骏怡精选酒店(潮汕高铁站店)东南侧约50米,e08ddaf786404342b25c6aaf,1,0,116.621543,23.558478,13502507750,enterprise,http://api.map.baidu.com/place/detail?uid=e08ddaf786404342b25c6aaf&output=html&source=placeapi_v2,,,,,,,,,,,,,,,,,,116.62138754584,23.558673468461,0
a35bff0258e420c9ecdfcaa7,潮安县东凤小龙虾养殖场,公司企业,农林园艺,广东省,潮州市,潮安区,广东省潮州市潮安区东四村,,1,0,116.68958,23.553772,13076408986,enterprise,http://api.map.baidu.com/place/detail?uid=a35bff0258e420c9ecdfcaa7&output=html&source=placeapi_v2,,,5.0,,,,,,,,1,,,,,,,116.68902230793,23.553175423407,0
66db45c0ca0ea504f92d6136,林博园艺,公司企业,农林园艺,广东省,潮州市,潮安区,广东省潮州市潮安区东鹏五金东和学校南220米,,1,0,116.558486,23.611663,13502503976,enterprise,http://api.map.baidu.com/place/detail?uid=66db45c0ca0ea504f92d6136&output=html&source=placeapi_v2,,,,,,,,,,,,,,,,,,,,0
d660757851a447ff08f5eb02,英群农业生态有限公司,公司企业,农林园艺,广东省,潮州市,潮安区,广东省潮州市潮安区英凤村沟头脚,,1,0,116.561735,23.599318,13670733080,enterprise,http://api.map.baidu.com/place/detail?uid=d660757851a447ff08f5eb02&output=html&source=placeapi_v2,,,0.0,,,,,,,,1,,,,,,,116.56124533261,23.598559684545,0
5517029cc9e88ad503ec014c,永兴花盆厂,公司企业,农林园艺,广东省,潮州市,潮安区,广东省潮州市潮安区凤塘镇书图工业区酷家卫浴旁边,,1,0,116.558481,23.60465,(0768)6559829,enterprise,http://api.map.baidu.com/place/detail?uid=5517029cc9e88ad503ec014c&output=html&source=placeapi_v2,,,,,,,,,,,,,,,,,,,,0
0c52c7783e4f8df33ce231fb,老表鹅鸭场,公司企业,农林园艺,广东省,潮州市,潮安区,广东省潮州市潮安区凤塘镇冯厝村,,1,0,116.584676,23.606682,,enterprise,http://api.map.baidu.com/place/detail?uid=0c52c7783e4f8df33ce231fb&output=html&source=placeapi_v2,,,,,,,,,,,,,,,,,,116.58407699063,23.606469040862,0
84fbe313f287cad9e115f934,潮州市冠乔园林绿化有限公司,公司企业,农林园艺,广东省,潮州市,潮安区,广东省潮州市潮安区S233(潮汕路),,1,0,116.600579,23.58325,,enterprise,http://api.map.baidu.com/place/detail?uid=84fbe313f287cad9e115f934&output=html&source=placeapi_v2,,,,,,,,,,,,,,,,,,116.60059585699,23.583403065954,0
2e237671ee31978d581093c6,凤塘镇坚宜鸡鹅鸭养殖场,公司企业,农林园艺,广东省,潮州市,潮安区,潮州市潮安区仙岩寺路丘厝学校东侧约140米,,1,0,116.576672,23.603892,13715805588,enterprise,http://api.map.baidu.com/place/detail?uid=2e237671ee31978d581093c6&output=html&source=placeapi_v2,,,,,,,,,,,,,,,,,,,,0
eb9fc169be3d9e918e77274b,龙湖东润草皮种植专业合作社,公司企业,农林园艺,广东省,潮州市,潮安区,潮州市潮安区浮新路,,1,0,116.644521,23.59216,,enterprise,http://api.map.baidu.com/place/detail?uid=eb9fc169be3d9e918e77274b&output=html&source=placeapi_v2,0.0,,5,,,,,,,,10,,,,,,,,,0
9583e516e4de2aa6b817e7d1,幸福养殖场,公司企业,农林园艺,广东省,潮州市,潮安区,潮州市潮安区309乡道东200米,,1,0,116.66522,23.607966,,enterprise,http://api.map.baidu.com/place/detail?uid=9583e516e4de2aa6b817e7d1&output=html&source=placeapi_v2,,,,,,,,,,,,,,,,,,,,0
ac2a74e3252497c9f423104a,绿庄花木场,公司企业,农林园艺,广东省,潮州市,潮安区,江东镇中横路中段吉英大排档对面,,1,0,116.671139,23.590265,18811866555,enterprise,http://api.map.baidu.com/place/detail?uid=ac2a74e3252497c9f423104a&output=html&source=placeapi_v2,,08:00-20:00,,,,,,,,,,,,,,,,,,0
df7c94801a9186d47dc87699,潮州市湘桥区彤昌养殖场,公司企业,农林园艺,广东省,潮州市,湘桥区,广东省潮州市湘桥区,,1,0,116.772642,23.600264,13433359656,enterprise,http://api.map.baidu.com/place/detail?uid=df7c94801a9186d47dc87699&output=html&source=placeapi_v2,,,0.0,,,,,,,,1,,,,,,,,,0
8e341ac3d76b1883f942b238,七里香抖音农场,公司企业,农林园艺,广东省,潮州市,潮安区,广东省潮州市潮安区G1523(甬莞高速),,1,0,116.545971,23.618024,,enterprise,http://api.map.baidu.com/place/detail?uid=8e341ac3d76b1883f942b238&output=html&source=placeapi_v2,,,,,,,,,,,1,,,,,,,,,0
2f0d2839ac88aa0957bfffcc,潮州市潮食汇生态农业有限公司,公司企业,农林园艺,广东省,潮州市,潮安区,潮州市潮安区兴东一路金太阳实验幼儿园东侧约180米,,1,0,116.587423,23.626952,,enterprise,http://api.map.baidu.com/place/detail?uid=2f0d2839ac88aa0957bfffcc&output=html&source=placeapi_v2,,,,,,,,,,,,,,,,,,,,0
c76d15a3ae020c28d518b724,金镇达园艺,公司企业,农林园艺,广东省,潮州市,潮安区,潮州市潮安区南较西路南国明珠-B区东南侧约30米,c76d15a3ae020c28d518b724,1,0,116.63221,23.6476,,enterprise,http://api.map.baidu.com/place/detail?uid=c76d15a3ae020c28d518b724&output=html&source=placeapi_v2,,,,,,,,,,,,,,,,,,116.63214167672,23.647672115626,0
ed814a0ce1440951932ca3a6,上东埔村农场片,公司企业,农林园艺,广东省,潮州市,潮安区,潮州市潮安区东田路佳丽幼儿园东南侧约250米,,1,0,116.628958,23.619652,,enterprise,http://api.map.baidu.com/place/detail?uid=ed814a0ce1440951932ca3a6&output=html&source=placeapi_v2,,,,,,,,,,,,,,,,,,116.62879881333,23.619017930456,0
cfdcd166527e74cc0d3dda0e,仙洲开心农场,公司企业,农林园艺,广东省,潮州市,湘桥区,潮州市湘桥区凤洲西路与潮州大桥交叉口西南300米,cfdcd166527e74cc0d3dda0e,1,0,116.645543,23.644195,13690020611,enterprise,http://api.map.baidu.com/place/detail?uid=cfdcd166527e74cc0d3dda0e&output=html&source=placeapi_v2,,15:00-02:00,3.6,,,,,,,,0,,,,,,,116.64578152063,23.644114739889,0
8fc273990fb3228b4d2fdf88,少辉园艺,公司企业,农林园艺,广东省,潮州市,潮安区,潮州市潮安区绿榕南路骄阳宝贝幼儿园南侧约200米,8fc273990fb3228b4d2fdf88,1,0,116.629931,23.644354,13288788335,enterprise,http://api.map.baidu.com/place/detail?uid=8fc273990fb3228b4d2fdf88&output=html&source=placeapi_v2,,09:00-23:00,,,,,,,,,,,,,,,,,,0
b384dd698b3e938edc1e52dc,星华柑场,公司企业,农林园艺,广东省,潮州市,湘桥区,广东省潮州市湘桥区Y250,,1,0,116.693012,23.626846,,enterprise,http://api.map.baidu.com/place/detail?uid=b384dd698b3e938edc1e52dc&output=html&source=placeapi_v2,,,,,,,,,,,,,,,,,,,,0
ea250511bc49f8e829fc4878,潮州市小红帽农业科技有限公司,公司企业,农林园艺,广东省,潮州市,湘桥区,广东省潮州市湘桥区梅花村,,1,0,116.735501,23.63351,,enterprise,http://api.map.baidu.com/place/detail?uid=ea250511bc49f8e829fc4878&output=html&source=placeapi_v2,,,,,,,,,,,,,,,,,,,,0
241a918e59376ffe2fb96dc0,潮州市湘桥区绿辉生态农业专业合作社,公司企业,农林园艺,广东省,潮州市,湘桥区,潮州市湘桥区巷下村横路上,,1,0,116.723771,23.615145,13727917123,enterprise,http://api.map.baidu.com/place/detail?uid=241a918e59376ffe2fb96dc0&output=html&source=placeapi_v2,,06:00-12:00,,,,,,,,,,,,,,,,,,0
532f8f51ca7006e9ed74f8a1,大雄家禽屠宰场,公司企业,农林园艺,广东省,潮州市,湘桥区,广东省潮州市湘桥区沈海高速,,1,0,116.755839,23.622617,,enterprise,http://api.map.baidu.com/place/detail?uid=532f8f51ca7006e9ed74f8a1&output=html&source=placeapi_v2,,,,,,,,,,,,,,,,,,,,0
e47de885c0f431589122e06c,宅仔山狮头鹅养殖场,公司企业,农林园艺,广东省,潮州市,湘桥区,广东省潮州市湘桥区,,1,0,116.760807,23.618252,13413732093,enterprise,http://api.map.baidu.com/place/detail?uid=e47de885c0f431589122e06c&output=html&source=placeapi_v2,,00:00-24:00,5.0,,,,,,,,2,,,,,,,,,0
f98b504f19215c6e77026923,坑门阿楷农场,公司企业,农林园艺,广东省,潮州市,湘桥区,广东省潮州市湘桥区,,1,0,116.81192,23.625543,13533433337,enterprise,http://api.map.baidu.com/place/detail?uid=f98b504f19215c6e77026923&output=html&source=placeapi_v2,,,,,,,,,,,,,,,,,,,,0
696bf7754f6c4060c4f50d3f,潮州市开发区鸿浩家禽养殖场,公司企业,农林园艺,广东省,潮州市,湘桥区,广东省潮州市湘桥区八角楼村出莲片,,1,0,116.791251,23.628386,13534680275,enterprise,http://api.map.baidu.com/place/detail?uid=696bf7754f6c4060c4f50d3f&output=html&source=placeapi_v2,,,,,,,,,,,,,,,,,,,,0
d8a4e25afca943f31f3894c5,潮安区良种场,公司企业,农林园艺,广东省,潮州市,潮安区,潮州市潮安区外环西路潮州市职业技术学校北侧约150米,,1,0,116.567398,23.659301,,enterprise,http://api.map.baidu.com/place/detail?uid=d8a4e25afca943f31f3894c5&output=html&source=placeapi_v2,,,,,,,,,,,,,,,,,,,,0
a33248d6fe5c9d0ff62310e0,潮州市水车山屋农业农机有限公司,公司企业,农林园艺,广东省,潮州市,潮安区,广东省潮州市潮安区古巷镇枫洋岭后北坑仔山脊,,1,0,116.537219,23.661754,13903092798,enterprise,http://api.map.baidu.com/place/detail?uid=a33248d6fe5c9d0ff62310e0&output=html&source=placeapi_v2,,,5.0,,,,,,,,2,,,,,,,,,0
38bbf4ea12690e4742d63e8a,彭彭植物园艺,公司企业,农林园艺,广东省,潮州市,湘桥区,广东省潮州市湘桥区坤辉直街彭彭园艺,,1,0,116.637883,23.655813,13413767634,enterprise,http://api.map.baidu.com/place/detail?uid=38bbf4ea12690e4742d63e8a&output=html&source=placeapi_v2,,,,,,,,,,,,,,,,,,116.63792977353,23.655773558441,0
6a8f04992eb67e9ab74f54a8,茗茶・园艺,公司企业,农林园艺,广东省,潮州市,湘桥区,广东省潮州市湘桥区春光景山村池东路2号,6a8f04992eb67e9ab74f54a8,1,0,116.642266,23.675408,18029788333,enterprise,http://api.map.baidu.com/place/detail?uid=6a8f04992eb67e9ab74f54a8&output=html&source=placeapi_v2,,,,,,,,,,,,,,,,,,116.64232722334,23.675542778322,0
0e09f2f4d2283b519ff77925,水池假山园林,公司企业,农林园艺,广东省,潮州市,湘桥区,潮州市湘桥区新春路潮州市枫春水果粮油批发市场,0e09f2f4d2283b519ff77925,1,0,116.637982,23.656558,,enterprise,http://api.map.baidu.com/place/detail?uid=0e09f2f4d2283b519ff77925&output=html&source=placeapi_v2,,,,,,,,,,,,,,,,,,116.6377990602,23.656385658556,0
acd834178734bef76fa3ccca,康农牧业发展有限公司,公司企业,农林园艺,广东省,潮州市,湘桥区,广东省潮州市湘桥区新洋路银丰花园a座32号,acd834178734bef76fa3ccca,1,0,116.634031,23.675752,13631023297,enterprise,http://api.map.baidu.com/place/detail?uid=acd834178734bef76fa3ccca&output=html&source=placeapi_v2,,,,,,,,,,,,,,,,,,,,0
c76d15a3ae020c28d518b724,金镇达园艺,公司企业,农林园艺,广东省,潮州市,潮安区,潮州市潮安区南较西路南国明珠-B区东南侧约30米,c76d15a3ae020c28d518b724,1,0,116.63221,23.6476,,enterprise,http://api.map.baidu.com/place/detail?uid=c76d15a3ae020c28d518b724&output=html&source=placeapi_v2,,,,,,,,,,,,,,,,,,116.63214167672,23.647672115626,0
e024cb59209e00ef6ca3cce6,广东省潮州市桦林娱乐科技发展有限公司,公司企业,农林园艺,广东省,潮州市,湘桥区,广东省潮州市湘桥区下寺直街69号,,1,0,116.641239,23.652948,,enterprise,http://api.map.baidu.com/place/detail?uid=e024cb59209e00ef6ca3cce6&output=html&source=placeapi_v2,,,,,,,,,,,,,,,,,,116.64096032933,23.652695248869,0
93dab479449b01dea8f729fd,韩山园艺,公司企业,农林园艺,广东省,潮州市,湘桥区,广东省潮州市湘桥区后三巷1号,93dab479449b01dea8f729fd,1,0,116.674761,23.681334,13829086928,enterprise,http://api.map.baidu.com/place/detail?uid=93dab479449b01dea8f729fd&output=html&source=placeapi_v2,,,,,,,,,,,,,,,,,,,,0
776e3e454bc4a3da430245ab,市红山林场,公司企业,农林园艺,广东省,潮州市,湘桥区,潮州市湘桥区凤东路,776e3e454bc4a3da430245ab,1,0,116.708317,23.670092,,enterprise,http://api.map.baidu.com/place/detail?uid=776e3e454bc4a3da430245ab&output=html&source=placeapi_v2,,,,,,,,,,,,,,,,,,,,0
fab4f9846dcf6863d8ecedda,黄田山果林场,公司企业,农林园艺,广东省,潮州市,湘桥区,广东省潮州市湘桥区凤东路红山森林公园,,1,0,116.706422,23.671841,,enterprise,http://api.map.baidu.com/place/detail?uid=fab4f9846dcf6863d8ecedda&output=html&source=placeapi_v2,,,,,,,,,,,,,,,,,,,,0
4aab38f272db52ef82a12e33,白石岭林场,公司企业,农林园艺,广东省,潮州市,湘桥区,广东省潮州市湘桥区铁铺镇G15沈海高速,,1,0,116.794561,23.661402,,enterprise,http://api.map.baidu.com/place/detail?uid=4aab38f272db52ef82a12e33&output=html&source=placeapi_v2,,,,,,,,,,,,,,,,,,116.79466865208,23.661903635026,0
42275a1576d5af5afea778c1,祺钰嘉宝果培植基地,公司企业,农林园艺,广东省,潮州市,湘桥区,广东省潮州市湘桥区铁铺镇灯心坑,,1,0,116.805552,23.676706,,enterprise,http://api.map.baidu.com/place/detail?uid=42275a1576d5af5afea778c1&output=html&source=placeapi_v2,,,0.0,,,,,,,,,,,,,,,116.80537009734,23.676519384081,0
8452dd8ce6613081c61b7550,大坑苗圃场,公司企业,农林园艺,广东省,潮州市,潮安区,广东省潮州市潮安区大坑苗圃场(绿太阳生态旅游度假区西),,1,0,116.511966,23.688735,,enterprise,http://api.map.baidu.com/place/detail?uid=8452dd8ce6613081c61b7550&output=html&source=placeapi_v2,,,,,,,,,,,,,,,,,,,,0
988691c4b06cff4b843304d0,大坑果林场,公司企业,农林园艺,广东省,潮州市,潮安区,广东省潮州市潮安区大坑果林场(绿太阳生态旅游度假区西南),,1,0,116.513731,23.6879,,enterprise,http://api.map.baidu.com/place/detail?uid=988691c4b06cff4b843304d0&output=html&source=placeapi_v2,,,,,,,,,,,,,,,,,,,,0
55da330bf532861415c9052a,潮州市绿健农业科技有限公司,公司企业,农林园艺,广东省,潮州市,潮安区,广东省潮州市潮安区登塘镇林妈陂一村周厝,,1,0,116.543114,23.707192,13903094982,enterprise,http://api.map.baidu.com/place/detail?uid=55da330bf532861415c9052a&output=html&source=placeapi_v2,,,,,,,,,,,,,,,,,,,,0
37b3c052a7023c4800ec01a2,皇标农场,公司企业,农林园艺,广东省,潮州市,潮安区,广东省潮州市潮安区,,1,0,116.542575,23.70502,,enterprise,http://api.map.baidu.com/place/detail?uid=37b3c052a7023c4800ec01a2&output=html&source=placeapi_v2,,,5,,,,,,,,2,,,,,,,,,0
4c2bcd25336b541f4c3a5901,艺宝园(园林绿化),公司企业,农林园艺,广东省,潮州市,湘桥区,潮州市湘桥区S227与东埔北路交叉路口往东约80米,4c2bcd25336b541f4c3a5901,1,0,116.64613,23.710196,15812670609,enterprise,http://api.map.baidu.com/place/detail?uid=4c2bcd25336b541f4c3a5901&output=html&source=placeapi_v2,,,,,,,,,,,,,,,,,,,,0
384bf65c4c285acebd484234,优质茶园基地,公司企业,农林园艺,广东省,潮州市,湘桥区,潮州市湘桥区春荣路莲花园,384bf65c4c285acebd484234,1,0,116.636489,23.683483,13829089238,enterprise,http://api.map.baidu.com/place/detail?uid=384bf65c4c285acebd484234&output=html&source=placeapi_v2,,,,,,,,,,,,,,,,,,,,0
93dab479449b01dea8f729fd,韩山园艺,公司企业,农林园艺,广东省,潮州市,湘桥区,广东省潮州市湘桥区后三巷1号,93dab479449b01dea8f729fd,1,0,116.674761,23.681334,13829086928,enterprise,http://api.map.baidu.com/place/detail?uid=93dab479449b01dea8f729fd&output=html&source=placeapi_v2,,,,,,,,,,,,,,,,,,,,0
e44e65fd82dbc666704b8730,上津村林场,公司企业,农林园艺,广东省,潮州市,湘桥区,广东省潮州市湘桥区良玉路与北山路交叉口东南880米,,1,0,116.685371,23.695546,,enterprise,http://api.map.baidu.com/place/detail?uid=e44e65fd82dbc666704b8730&output=html&source=placeapi_v2,,,,,,,,,,,,,,,,,,,,0
01e5bf5b669e9c2c5cbe8644,窑美农场,公司企业,农林园艺,广东省,潮州市,湘桥区,广东省潮州市湘桥区,,1,0,116.740891,23.696562,,enterprise,http://api.map.baidu.com/place/detail?uid=01e5bf5b669e9c2c5cbe8644&output=html&source=placeapi_v2,,,,,,,,,,,,,,,,,,,,0
34e4850878ba8ae1d8d89147,古庵村农场,公司企业,农林园艺,广东省,潮州市,湘桥区,广东省潮州市湘桥区光彩路,,1,0,116.719554,23.712077,,enterprise,http://api.map.baidu.com/place/detail?uid=34e4850878ba8ae1d8d89147&output=html&source=placeapi_v2,,,,,,,,,,,,,,,,,,,,0
669de48122834d7bae080f33,天子地林场,公司企业,农林园艺,广东省,潮州市,湘桥区,潮州市湘桥区,,1,0,116.771331,23.69149,,enterprise,http://api.map.baidu.com/place/detail?uid=669de48122834d7bae080f33&output=html&source=placeapi_v2,,,,,,,,,,,,,,,,,,116.77162170885,23.691734315936,0
cfabd7532dbadfac8a36ee79,万泰农牧,公司企业,农林园艺,广东省,潮州市,湘桥区,广东省潮州市湘桥区磷溪镇西坑村桂竹山(雅力斯生物研究所北边200米),,1,0,116.748199,23.700429,(0768)6707777,enterprise,http://api.map.baidu.com/place/detail?uid=cfabd7532dbadfac8a36ee79&output=html&source=placeapi_v2,,,,,,,,,,,,,,,,,,116.74805534203,23.699774442324,0
5fcb72dd24207cbfd3ff23d5,世田村茗伟茶场,公司企业,农林园艺,广东省,潮州市,潮安区,广东省潮州市潮安区登塘镇世田村大路边,,1,0,116.41847,23.718766,13715785237,enterprise,http://api.map.baidu.com/place/detail?uid=5fcb72dd24207cbfd3ff23d5&output=html&source=placeapi_v2,,,,,,,,,,,2,,,,,,,,,0
e687802e4cfc5aa216a1901f,科普农业,公司企业,农林园艺,广东省,潮州市,湘桥区,潮州市湘桥区074县道玉瑶山庄内,,1,0,116.737009,23.734925,,enterprise,http://api.map.baidu.com/place/detail?uid=e687802e4cfc5aa216a1901f&output=html&source=placeapi_v2,,,,,,,,,,,,,,,,,,,,0
34e4850878ba8ae1d8d89147,古庵村农场,公司企业,农林园艺,广东省,潮州市,湘桥区,广东省潮州市湘桥区光彩路,,1,0,116.719554,23.712077,,enterprise,http://api.map.baidu.com/place/detail?uid=34e4850878ba8ae1d8d89147&output=html&source=placeapi_v2,,,,,,,,,,,,,,,,,,,,0
fe96cb73a70b41312afc4842,植物工厂,公司企业,农林园艺,广东省,潮州市,湘桥区,潮州市湘桥区074县道玉瑶山庄内,,1,0,116.737298,23.735399,,enterprise,http://api.map.baidu.com/place/detail?uid=fe96cb73a70b41312afc4842&output=html&source=placeapi_v2,,,,,,,,,,,,,,,,,,,,0
00d044ab34458a2726d2bb5d,潮州市溪口农业旅游发展有限公司,公司企业,农林园艺,广东省,潮州市,潮安区,广东省潮州市潮安区X072(金龙街),,1,0,116.59588,23.767668,13727989689,enterprise,http://api.map.baidu.com/place/detail?uid=00d044ab34458a2726d2bb5d&output=html&source=placeapi_v2,,,,,,,,,,,,,,,,,,116.59485647439,23.76744005705,0
40c7f237e8a69ee24c6d465c,归湖中天种植场,公司企业,农林园艺,广东省,潮州市,潮安区,广东省潮州市潮安区归湖镇仙洋村砖埕乡沟仔上,,1,0,116.644512,23.76319,,enterprise,http://api.map.baidu.com/place/detail?uid=40c7f237e8a69ee24c6d465c&output=html&source=placeapi_v2,,,,,,,,,,,,,,,,,,,,0
76c0338b28d35b283be4a66e,凌风生态农业有限公司,公司企业,农林园艺,广东省,潮州市,潮安区,广东省潮州市潮安区S231,,1,0,116.685814,23.746925,13553778830,enterprise,http://api.map.baidu.com/place/detail?uid=76c0338b28d35b283be4a66e&output=html&source=placeapi_v2,,,,,,,,,,,,,,,,,,116.68609723745,23.746779128951,0
6027aa691b15bd3727d2bb6c,潮州市建成农业综合开发有限公司,公司企业,农林园艺,广东省,潮州市,潮安区,广东省潮州市潮安区河塘村安凤公路北200米,,1,0,116.687339,23.749887,,enterprise,http://api.map.baidu.com/place/detail?uid=6027aa691b15bd3727d2bb6c&output=html&source=placeapi_v2,,,,,,,,,,,,,,,,,,116.68738067168,23.749646589624,0
a12baa4044d77e55e856fa46,草岚武林场,公司企业,农林园艺,广东省,潮州市,湘桥区,潮州市湘桥区意溪镇,,1,0,116.76627,23.767741,,enterprise,http://api.map.baidu.com/place/detail?uid=a12baa4044d77e55e856fa46&output=html&source=placeapi_v2,,,,,,,,,,,,,,,,,,,,0
e8b22b842ddf2c5672210b2d,饶平县樟溪镇大寮溪畜牧场,公司企业,农林园艺,广东省,潮州市,饶平县,潮州市饶平县,,1,0,116.821703,23.754668,,enterprise,http://api.map.baidu.com/place/detail?uid=e8b22b842ddf2c5672210b2d&output=html&source=placeapi_v2,,,,,,,,,,,,,,,,,,116.82162135849,23.754836078733,0
74181a1369b44e2a1e58008d,长盛水产养殖场,公司企业,农林园艺,广东省,潮州市,潮安区,广东省潮州市潮安区,,1,0,116.562384,23.787462,,enterprise,http://api.map.baidu.com/place/detail?uid=74181a1369b44e2a1e58008d&output=html&source=placeapi_v2,,,,,,,,,,,,,,,,,,,,0
53cea3f07e834fb6c156acc3,竹园村茶场,公司企业,农林园艺,广东省,潮州市,潮安区,潮州市潮安区文祠镇竹园村麻埕场,,1,0,116.715928,23.780296,,enterprise,http://api.map.baidu.com/place/detail?uid=53cea3f07e834fb6c156acc3&output=html&source=placeapi_v2,,,,,,,,,,,,,,,,,,,,0
c3d352f0e25634cc43afe63a,饶平县盈韵农场,公司企业,农林园艺,广东省,潮州市,饶平县,广东省潮州市饶平县坪溪古山村双吉娘下水尾,,1,0,116.763214,23.810823,13670737671,enterprise,http://api.map.baidu.com/place/detail?uid=c3d352f0e25634cc43afe63a&output=html&source=placeapi_v2,,08:00-18:00,,,,,,,,,1,,,,,,,,,0
72e57fd7424d0bacf8dc8546,坪新林场,公司企业,农林园艺,广东省,潮州市,饶平县,潮州市饶平县,,1,0,116.8083,23.791613,,enterprise,http://api.map.baidu.com/place/detail?uid=72e57fd7424d0bacf8dc8546&output=html&source=placeapi_v2,,,,,,,,,,,,,,,,,,116.80708353695,23.790590650549,0
05d763f267b9b08ce81e9708,周湖茶场,公司企业,农林园艺,广东省,潮州市,饶平县,潮州市饶平县074县道岭头村大路旁,,1,0,116.806873,23.808843,13539352099,enterprise,http://api.map.baidu.com/place/detail?uid=05d763f267b9b08ce81e9708&output=html&source=placeapi_v2,,00:00-24:00,,,,,,,,,,,,,,,,116.80676443368,23.808571492263,0
3099193ea02772f1f4b9167f,潮州市聪香茶业有限公司,公司企业,农林园艺,广东省,潮州市,饶平县,广东省潮州市饶平县浮滨镇岭头村13号,,1,0,116.806819,23.80558,15218539071,enterprise,http://api.map.baidu.com/place/detail?uid=3099193ea02772f1f4b9167f&output=html&source=placeapi_v2,,,,,,,,,,,,,,,,,,,,0
c3d352f0e25634cc43afe63a,饶平县盈韵农场,公司企业,农林园艺,广东省,潮州市,饶平县,广东省潮州市饶平县坪溪古山村双吉娘下水尾,,1,0,116.763214,23.810823,13670737671,enterprise,http://api.map.baidu.com/place/detail?uid=c3d352f0e25634cc43afe63a&output=html&source=placeapi_v2,,08:00-18:00,,,,,,,,,1,,,,,,,,,0
4b62a61c0c30a16f5cbe866f,天恩农家茶场,公司企业,农林园艺,广东省,潮州市,饶平县,广东潮州市饶平县北岭北巷6号,,1,0,116.815435,23.826768,13829080568,enterprise,http://api.map.baidu.com/place/detail?uid=4b62a61c0c30a16f5cbe866f&output=html&source=placeapi_v2,,08:00-21:10,,,,,,,,,,,,,,,,,,0
4d462cc08ff2ad59c9fa5f95,潮州市潮安区绿茵农业开发有限公司,公司企业,农林园艺,广东省,潮州市,潮安区,广东省潮州市潮安区赤竹坪,,1,0,116.562466,23.845032,,enterprise,http://api.map.baidu.com/place/detail?uid=4d462cc08ff2ad59c9fa5f95&output=html&source=placeapi_v2,,,,,,,,,,,,,,,,,,,,0
d1469ee7ba75416285330497,万峰林场,公司企业,农林园艺,广东省,潮州市,潮安区,潮州市潮安区溪蝙线万峰派出所西北侧约130米,,1,0,116.595634,23.857114,(0768)6763111,enterprise,http://api.map.baidu.com/place/detail?uid=d1469ee7ba75416285330497&output=html&source=placeapi_v2,,,,,,,,,,,,,,,,,,116.59504300753,23.856472306057,0
c4be88f64774a1e3ad045789,潮州市恒泰农业有限公司,公司企业,农林园艺,广东省,潮州市,潮安区,广东省潮州市潮安区归湖镇高源村赤竹坪水库附近,c4be88f64774a1e3ad045789,1,0,116.643138,23.854424,13502951806,enterprise,http://api.map.baidu.com/place/detail?uid=c4be88f64774a1e3ad045789&output=html&source=placeapi_v2,,,5,,,,,,,,2,,,,,,,116.64312201531,23.854437770757,0
cdaecfb9de3c14500d3dda9e,池湖林场,公司企业,农林园艺,广东省,潮州市,潮安区,潮州市潮安区,,1,0,116.561803,23.885558,,enterprise,http://api.map.baidu.com/place/detail?uid=cdaecfb9de3c14500d3dda9e&output=html&source=placeapi_v2,,,,,,,,,,,,,,,,,,,,0
d0f0f167b5c1b70da0a934b5,乌浪塘茶场,公司企业,农林园艺,广东省,潮州市,潮安区,潮州市潮安区凤凰镇乌浪塘,,1,0,116.679636,23.893516,13433782779,enterprise,http://api.map.baidu.com/place/detail?uid=d0f0f167b5c1b70da0a934b5&output=html&source=placeapi_v2,,08:00-22:00,,,,,,,,,,,,,,,,116.67963919967,23.893216353508,0
9fbc43dee6df7b45fd0eb0fc,潮安区凤凰镇下埔村坎塘凤凰妙涧茶场,公司企业,农林园艺,广东省,潮州市,潮安区,广东省潮州市潮安区G355,,1,0,116.695267,23.894084,,enterprise,http://api.map.baidu.com/place/detail?uid=9fbc43dee6df7b45fd0eb0fc&output=html&source=placeapi_v2,,,,,,,,,,,,,,,,,,,,0
7b7a5ca4a407aa6cd12dd67e,凤凰卓文茶叶种植园,公司企业,农林园艺,广东省,潮州市,潮安区,潮州市潮安区凤凰镇凤光村,,1,0,116.665051,23.886158,,enterprise,http://api.map.baidu.com/place/detail?uid=7b7a5ca4a407aa6cd12dd67e&output=html&source=placeapi_v2,,,,,,,,,,,,,,,,,,,,0
e32c39fe8e7452503617dc6d,文氏家禽屠宰场,公司企业,农林园艺,广东省,潮州市,潮安区,广东省潮州市潮安区凤凰镇,,1,0,116.712806,23.900168,13433706889,enterprise,http://api.map.baidu.com/place/detail?uid=e32c39fe8e7452503617dc6d&output=html&source=placeapi_v2,,,,,,,,,,,,,,,,,,,,0
bcc8468733f30394eee4a568,欧坑茶场,公司企业,农林园艺,广东省,潮州市,潮安区,潮州市潮安区S231凤凰丰柏加油站北侧约150米,,1,0,116.713484,23.909379,,enterprise,http://api.map.baidu.com/place/detail?uid=bcc8468733f30394eee4a568&output=html&source=placeapi_v2,,,,,,,,,,,,,,,,,,116.71354649301,23.909246686312,0
155b609b9e8205052e4733ae,上角茶场,公司企业,农林园艺,广东省,潮州市,潮安区,广东省潮州市潮安区上角村,,1,0,116.75302,23.929287,,enterprise,http://api.map.baidu.com/place/detail?uid=155b609b9e8205052e4733ae&output=html&source=placeapi_v2,,,,,,,,,,,,,,,,,,,,0
ff11b4251419b61e15c905b3,凤凰志庆茶叶种植园,公司企业,农林园艺,广东省,潮州市,潮安区,广东省潮州市潮安区凤凰镇凤西村大坪,,1,0,116.671003,23.969174,,enterprise,http://api.map.baidu.com/place/detail?uid=ff11b4251419b61e15c905b3&output=html&source=placeapi_v2,,,,,,,,,,,,,,,,,,,,0
824da1787107c53bd7851fc3,朝怀茶叶种殖基地,公司企业,农林园艺,广东省,潮州市,潮安区,广东省潮州市潮安区凤西大坪村,,1,0,116.671933,23.967013,,enterprise,http://api.map.baidu.com/place/detail?uid=824da1787107c53bd7851fc3&output=html&source=placeapi_v2,,,,,,,,,,,,,,,,,,116.67184994947,23.966970451856,0
807bbf3c1b5be5a6d92f286e,枞Q乌岽单丛总部基地,公司企业,农林园艺,广东省,潮州市,潮安区,广东省潮州市潮安区凤凰镇乌岽村,,1,0,116.662928,23.96261,"13725528688,4009023868",enterprise,http://api.map.baidu.com/place/detail?uid=807bbf3c1b5be5a6d92f286e&output=html&source=placeapi_v2,,,,,,,,,,,,,,,,,,,,0
66fd0e0e69b6770ea4c756fa,潮州市尚科农业服务有限公司,公司企业,农林园艺,广东省,潮州市,饶平县,广东省潮州市饶平县G355与田饶特大桥交叉口西南方向100米,,1,0,116.825369,23.966466,15814923646,enterprise,http://api.map.baidu.com/place/detail?uid=66fd0e0e69b6770ea4c756fa&output=html&source=placeapi_v2,,,,,,,,,,,,,,,,,,,,0
