uid,name,cat_L1,cat_L2,province,city,area,address,street_id,detail,child_num,loc_lng,loc_lat,telephone,type,detail_url,price,shop_hours,overall_rating,taste_rating,service_rating,environment_rating,facility_rating,hygiene_rating,technology_rating,image_num,comment_num,groupon_num,discount_num,favorite_num,checkin_num,brand,content_tag,naviloc_lng,naviloc_lat,child_num
c4f1bb45557046f482a12e0b,周记正宗水城牛羊肉粉,美食,小吃快餐店,贵州省,贵阳市,花溪区,贵州省贵阳市花溪区农贸市场出口,,1,0,106.625222,26.330413,18286115610,cater,http://api.map.baidu.com/place/detail?uid=c4f1bb45557046f482a12e0b&output=html&source=placeapi_v2,,06:00-20:00,3.5,,,,,,,,,,,,,,,,,0
76940706c9cc90643be4a617,正新鸡排(青岩镇店),美食,小吃快餐店,贵州省,贵阳市,花溪区,北明清街61号,,1,0,106.694659,26.338521,,cater,http://api.map.baidu.com/place/detail?uid=76940706c9cc90643be4a617&output=html&source=placeapi_v2,,,,,,,,,,,,,,,,,,,,0
abbcfe63b4d5e034102935b2,范记老店特色小吃,美食,小吃快餐店,贵州省,贵阳市,花溪区,贵阳市花溪区青马路青岩古镇,,1,0,106.69194,26.339682,13195103485,cater,http://api.map.baidu.com/place/detail?uid=abbcfe63b4d5e034102935b2&output=html&source=placeapi_v2,,,3.5,,,,,,,,5,,,,,,,,,0
3ba4280f53b7faef4f6d4633,随缘小吃(诗乡路店),美食,小吃快餐店,贵州省,贵阳市,花溪区,贵阳市花溪区青岩古镇西门公交站进站口,3ba4280f53b7faef4f6d4633,1,0,106.688423,26.337041,18785152385,cater,http://api.map.baidu.com/place/detail?uid=3ba4280f53b7faef4f6d4633&output=html&source=placeapi_v2,,06:00-22:00,,,,,,,,,,,,,,,,106.68849471493,26.336986850097,0
cdeffd865adf1904f21937ea,罗红小吃店,美食,小吃快餐店,贵州省,贵阳市,花溪区,贵州省贵阳市花溪区横街6号,,1,0,106.695263,26.337354,13765175579,cater,http://api.map.baidu.com/place/detail?uid=cdeffd865adf1904f21937ea&output=html&source=placeapi_v2,37.0,,3.7,,,,,,,,4,,,,,,,,,0
a081f5c34a54b1cc441a328c,古镇陈记肠旺面牛肉粉,美食,小吃快餐店,贵州省,贵阳市,花溪区,贵阳市花溪区青马路西门停车场旁,a081f5c34a54b1cc441a328c,1,0,106.688316,26.336936,"13985412036,18111809958",cater,http://api.map.baidu.com/place/detail?uid=a081f5c34a54b1cc441a328c&output=html&source=placeapi_v2,,08:00-23:00,3.5,,,,,,,,,,,,,,,106.68838621221,26.336877876863,0
96f88fed3053f7474d554706,顾记小吃店,美食,小吃快餐店,贵州省,贵阳市,花溪区,贵州省贵阳市花溪区横街6号,,1,0,106.695159,26.337337,13595170940,cater,http://api.map.baidu.com/place/detail?uid=96f88fed3053f7474d554706&output=html&source=placeapi_v2,,08:00-20:00,3.5,,,,,,,,0,,,,,,,,,0
ef77c6956a20746586420e7c,缘延园,美食,小吃快餐店,贵州省,贵阳市,花溪区,贵州省贵阳市花溪区南街118号,,1,0,106.69468,26.33494,"13984127263,18275399843",cater,http://api.map.baidu.com/place/detail?uid=ef77c6956a20746586420e7c&output=html&source=placeapi_v2,57.0,09:00-20:00,3.5,,,,,,,,0,,,,,,,,,0
727412e5893b25c700ff2dbb,品味・青岩,美食,小吃快餐店,贵州省,贵阳市,花溪区,贵州省贵阳市花溪区交通路240号青岩古镇商铺楼,,1,0,106.692533,26.337906,13984136133,cater,http://api.map.baidu.com/place/detail?uid=727412e5893b25c700ff2dbb&output=html&source=placeapi_v2,,08:00-18:00,3.5,,,,,,,,3,,,,,,,,,0
a6f00d7563f2e123c056ac02,遵义老牌羊肉粉,美食,小吃快餐店,贵州省,贵阳市,花溪区,贵阳市花溪区湖潮乡羊艾茶场4-2号,,1,0,106.500055,26.393425,13007804286,cater,http://api.map.baidu.com/place/detail?uid=a6f00d7563f2e123c056ac02&output=html&source=placeapi_v2,,07:00-19:00,,,,,,,,,,,,,,,,106.49998972788,26.393286581808,0
da51200a5307483fd22dd6b6,夜郎小吃街,美食,小吃快餐店,贵州省,贵阳市,花溪区,贵阳市花溪区花燕路与思杨路交叉路口往东约180米,da51200a5307483fd22dd6b6,1,0,106.652654,26.394567,15111111149,cater,http://api.map.baidu.com/place/detail?uid=da51200a5307483fd22dd6b6&output=html&source=placeapi_v2,,00:00-24:00,5,,,,,,,,1,,,,,,,106.65268286659,26.394465570534,0
5146dd0767c023d31576438b,宜宾燃面特色鱼米线(思雅美食广场店),美食,小吃快餐店,贵州省,贵阳市,花溪区,贵州省贵阳市花溪区贵安新区大学城思雅路思雅美食工厂1层15号,,1,0,106.638135,26.394058,13195116966,cater,http://api.map.baidu.com/place/detail?uid=5146dd0767c023d31576438b&output=html&source=placeapi_v2,,,3.6,,,,,,,,0,,,,,,,106.63861877005,26.393914642398,0
7bacd55637b318084afc8d6a,杂粮煎饼,美食,小吃快餐店,贵州省,贵阳市,花溪区,贵州省贵阳市花溪区思雅路思雅美食工厂一楼,,1,0,106.638371,26.393902,19885633169,cater,http://api.map.baidu.com/place/detail?uid=7bacd55637b318084afc8d6a&output=html&source=placeapi_v2,,10:00-22:00,,,,,,,,,3,,,,,,,,,0
2e97d9bba9f56e823be4a6c3,正新鸡排(商业广场店),美食,小吃快餐店,贵州省,贵阳市,花溪区,贵阳市花溪区大学城财经大学正对面照壁庭轩商业广场二楼79号,2e97d9bba9f56e823be4a6c3,1,0,106.645532,26.386321,13655871951,cater,http://api.map.baidu.com/place/detail?uid=2e97d9bba9f56e823be4a6c3&output=html&source=placeapi_v2,10.0,10:00-22:00,3.7,,,,,,,,0,,,,,,,106.64631807831,26.387577137725,0
c8b085eb4ce7cea94e2fdf52,思杨小排粉面,美食,小吃快餐店,贵州省,贵阳市,花溪区,贵阳市花溪区思孟路贵阳市中心实验幼儿园指导园西南侧约160米,,1,0,106.628282,26.406128,13595894958,cater,http://api.map.baidu.com/place/detail?uid=c8b085eb4ce7cea94e2fdf52&output=html&source=placeapi_v2,,08:00-19:00,,,,,,,,,,,,,,,,,,0
2ec9a7104f5642afb13c8171,黄焖鸡米饭,美食,小吃快餐店,贵州省,贵阳市,花溪区,贵州省贵阳市花溪区思孟路碧桂园学府一号3栋106室,2ec9a7104f5642afb13c8171,1,0,106.619138,26.40121,13628561423,cater,http://api.map.baidu.com/place/detail?uid=2ec9a7104f5642afb13c8171&output=html&source=placeapi_v2,,10:00-22:00,,,,,,,,,,,,,,,,106.61900499688,26.401439405639,0
056b9d0b1e3409f330621276,融香灵重庆鸡公煲,美食,小吃快餐店,贵州省,贵阳市,花溪区,贵阳市花溪区贵安新区大学城贵州医科大学二期九栋7号,056b9d0b1e3409f330621276,1,0,106.64475,26.380071,18198134779,cater,http://api.map.baidu.com/place/detail?uid=056b9d0b1e3409f330621276&output=html&source=placeapi_v2,,,3.6,,,,,,,,,,,,,,,106.64504393794,26.380038098924,0
e22dbce1fd795cc304026f1e,陈氏遵义豆花面(大学城分店),美食,小吃快餐店,贵州省,贵阳市,花溪区,思孟路多彩贵州酒店西南侧约170米,,1,0,106.630315,26.404332,18275561626,cater,http://api.map.baidu.com/place/detail?uid=e22dbce1fd795cc304026f1e&output=html&source=placeapi_v2,,,,,,,,,,,,,,,,,,106.63049240107,26.404397032005,0
c1f2a89b9ed22158354aaef3,牛羊肉粉面馆,美食,小吃快餐店,贵州省,贵阳市,花溪区,贵安新区数字经济产业园SZ-24-A-53号,,1,0,106.633457,26.408127,13639009205,cater,http://api.map.baidu.com/place/detail?uid=c1f2a89b9ed22158354aaef3&output=html&source=placeapi_v2,,07:00-22:00,,,,,,,,,,,,,,,,106.63359379007,26.408174943588,0
aacaf500eb15dc5331f71d8f,鸡队来一份炸鸡汉堡,美食,小吃快餐店,贵州省,贵阳市,花溪区,贵阳市花溪区贵安新区大学城思雅路思雅美食工厂负一层L1B26号,,1,0,106.642797,26.381444,,cater,http://api.map.baidu.com/place/detail?uid=aacaf500eb15dc5331f71d8f&output=html&source=placeapi_v2,,,,,,,,,,,,,,,,,,,,0
08017e6189f30a08774ff106,沙县小吃,美食,小吃快餐店,贵州省,贵阳市,花溪区,贵州省贵阳市花溪区明珠大道609号保利溪湖B地块S1-S3地下车库商业第商业S1S2栋负1层10号房,,1,0,106.668515,26.407523,,cater,http://api.map.baidu.com/place/detail?uid=08017e6189f30a08774ff106&output=html&source=placeapi_v2,,,,,,,,,,,,,,,,,,106.66881514627,26.407533372057,0
fe6b64fa5098d4eff7eafc9e,百家爱青岩风味小吃,美食,小吃快餐店,贵州省,贵阳市,花溪区,花溪区万科花溪大都会,,1,0,106.674968,26.413582,15285596215,cater,http://api.map.baidu.com/place/detail?uid=fe6b64fa5098d4eff7eafc9e&output=html&source=placeapi_v2,,,,,,,,,,,,,,,,,,,,0
0fd3522803b120f12fb17eb4,贤会快餐店,美食,小吃快餐店,贵州省,贵阳市,花溪区,贵阳市花溪区龙溪大道中国工商银行(孟关传化分理处)东北侧约280米,,1,0,106.761637,26.399793,,cater,http://api.map.baidu.com/place/detail?uid=0fd3522803b120f12fb17eb4&output=html&source=placeapi_v2,,,,,,,,,,,,,,,,,,,,0
5513e5cd7899e7c7932ca326,老牌牛羊肉粉面馆,美食,小吃快餐店,贵州省,贵阳市,花溪区,贵阳市花溪区X100中国工商银行(孟关传化分理处)西南侧约170米,,1,0,106.759615,26.396226,,cater,http://api.map.baidu.com/place/detail?uid=5513e5cd7899e7c7932ca326&output=html&source=placeapi_v2,,,,,,,,,,,,,,,,,,,,0
1d88ff4a82327f072efaa7c7,火焰街小吃坊,美食,小吃快餐店,贵州省,贵阳市,花溪区,贵州省贵阳市花溪区大华路2号,,1,0,106.754535,26.410588,15185063683,cater,http://api.map.baidu.com/place/detail?uid=1d88ff4a82327f072efaa7c7&output=html&source=placeapi_v2,,10:00-20:00,,,,,,,,,,,,,,,,106.7545599298,26.410363523739,0
5a43da529623cc5e0ab93a4f,壹日叁餐小吃店,美食,小吃快餐店,贵州省,贵阳市,花溪区,贵阳市花溪区溪孟路孟关汽配城,,1,0,106.746853,26.39936,13765021983,cater,http://api.map.baidu.com/place/detail?uid=5a43da529623cc5e0ab93a4f&output=html&source=placeapi_v2,,,,,,,,,,,,,,,,,,,,0
8f9677d394234944dbd89176,沙县小吃,美食,小吃快餐店,贵州省,贵阳市,花溪区,贵阳市花溪区孟关苗族布依族乡孟关汽配城A区2栋,,1,0,106.746743,26.401297,18275065637,cater,http://api.map.baidu.com/place/detail?uid=8f9677d394234944dbd89176&output=html&source=placeapi_v2,,,,,,,,,,,,,,,,,,,,0
99c5ab3f1d87fabcfa42b229,遵义刘二妈米皮凉粉凉面贵阳老素粉,美食,小吃快餐店,贵州省,贵阳市,花溪区,贵阳市花溪区福雷路贵阳农商银行(孟关支行)东南侧约220米,,1,0,106.751929,26.406335,,cater,http://api.map.baidu.com/place/detail?uid=99c5ab3f1d87fabcfa42b229&output=html&source=placeapi_v2,,,,,,,,,,,,,,,,,,,,0
293fa999c8d2eba9b320a8f0,高镇辣鸡粉面馆,美食,小吃快餐店,贵州省,贵阳市,花溪区,贵阳市花溪区溪孟路孟关汽配城,,1,0,106.746485,26.398637,"18885413836,19808438415",cater,http://api.map.baidu.com/place/detail?uid=293fa999c8d2eba9b320a8f0&output=html&source=placeapi_v2,,,,,,,,,,,,,,,,,,106.74659374127,26.39877020963,0
7b6926c58c57b231a1d230bc,南区小吃店,美食,小吃快餐店,贵州省,贵阳市,花溪区,贵州省贵阳市花溪区学士路5号,7b6926c58c57b231a1d230bc,1,0,106.680238,26.4294,18275351582,cater,http://api.map.baidu.com/place/detail?uid=7b6926c58c57b231a1d230bc&output=html&source=placeapi_v2,,08:00-21:30,,,,,,,,,,,,,,,,,,0
9ee392b8dbc39f58babd63ea,花溪飞碗牛肉粉(花阁路店),美食,小吃快餐店,贵州省,贵阳市,花溪区,贵州省贵阳市花溪区花阁路138号,9ee392b8dbc39f58babd63ea,1,0,106.683731,26.439565,15985102452,cater,http://api.map.baidu.com/place/detail?uid=9ee392b8dbc39f58babd63ea&output=html&source=placeapi_v2,18.0,10:00-22:00,4.0,,,,,,,,45,,,,,,,106.68366765141,26.439656383315,0
e3fbd76f449c3395b426554f,赵记小吃,美食,小吃快餐店,贵州省,贵阳市,花溪区,贵州省贵阳市花溪区霞晖路331号,e3fbd76f449c3395b426554f,1,0,106.680207,26.429662,18375176517,cater,http://api.map.baidu.com/place/detail?uid=e3fbd76f449c3395b426554f&output=html&source=placeapi_v2,19.0,10:00-21:00,,,,,,,,,,,,,,,,,,0
2cbb309e75d36f2586330442,花溪公园小吃城,美食,小吃快餐店,贵州省,贵阳市,花溪区,贵阳市花溪区吉麟路硕苑东南侧约60米,2cbb309e75d36f2586330442,1,0,106.672999,26.440756,,cater,http://api.map.baidu.com/place/detail?uid=2cbb309e75d36f2586330442&output=html&source=placeapi_v2,,,1,,,,,,,,1,,,,,,,106.67301679782,26.440683220836,0
e240c34421d585e028d7ab9a,汇粥所,美食,小吃快餐店,贵州省,贵阳市,花溪区,贵阳市花溪区花蕾巷花溪区第二幼儿园北侧约40米,,1,0,106.680895,26.430612,18798113979,cater,http://api.map.baidu.com/place/detail?uid=e240c34421d585e028d7ab9a&output=html&source=placeapi_v2,,,,,,,,,,,,,,,,,,,,0
373cf757b7fb6f774254d7e7,花溪王记牛肉粉店(霞辉路店),美食,小吃快餐店,贵州省,贵阳市,花溪区,贵州省贵阳市花溪区十字街花阁路137号,373cf757b7fb6f774254d7e7,1,0,106.683488,26.439517,13885143488,cater,http://api.map.baidu.com/place/detail?uid=373cf757b7fb6f774254d7e7&output=html&source=placeapi_v2,15.0,06:00-21:30,3.9,,,,,,,,14,,,,,,,106.6835927534,26.439327212434,0
bae59d24f499b2a82b201a32,稻食小吃店,美食,小吃快餐店,贵州省,贵阳市,花溪区,贵阳市花溪区甲秀南路吉麟农贸市场,,1,0,106.673276,26.443594,,cater,http://api.map.baidu.com/place/detail?uid=bae59d24f499b2a82b201a32&output=html&source=placeapi_v2,,,,,,,,,,,,,,,,,,,,0
bc2ea90741567aadb6f42f45,哑妹特色小吃店(分店),美食,小吃快餐店,贵州省,贵阳市,花溪区,贵州贵阳市花溪区成荫巷37号b栋126号,bc2ea90741567aadb6f42f45,1,0,106.683349,26.431716,,cater,http://api.map.baidu.com/place/detail?uid=bc2ea90741567aadb6f42f45&output=html&source=placeapi_v2,,,,,,,,,,,,,,,,,,,,0
76b266d08b6d02f06c3e1b9b,山姨妈丝娃娃(总店),美食,小吃快餐店,贵州省,贵阳市,花溪区,贵州省贵阳市花溪区霞辉路杨柳巷6号,76b266d08b6d02f06c3e1b9b,1,0,106.682828,26.429479,15519052932,cater,http://api.map.baidu.com/place/detail?uid=76b266d08b6d02f06c3e1b9b&output=html&source=placeapi_v2,40.0,11:00-20:30,3.3,,,,,,,,1,,,,,,,106.68267941923,26.42939933546,0
10d81504e41e6d0a3ce23149,正新鸡排(鑫祥店),美食,小吃快餐店,贵州省,贵阳市,花溪区,贵州省贵阳市花溪区霞辉路1号,10d81504e41e6d0a3ce23149,1,0,106.682401,26.436233,13885180957,cater,http://api.map.baidu.com/place/detail?uid=10d81504e41e6d0a3ce23149&output=html&source=placeapi_v2,12.0,09:00-01:00,3.6,,,,,,,,0,,,,,,,106.68237902857,26.436361390931,0
62a0c63b3bb8b18bca29158f,歪歪风味小吃,美食,小吃快餐店,贵州省,贵阳市,花溪区,贵州省贵阳市花溪区清溪路265号,62a0c63b3bb8b18bca29158f,1,0,106.684552,26.435926,(0851)88321009,cater,http://api.map.baidu.com/place/detail?uid=62a0c63b3bb8b18bca29158f&output=html&source=placeapi_v2,,,3.5,,,,,,,,0,,,,,,,106.6845503309,26.435823245513,0
750ec165fe6bd2324c3a5949,北方饺子(学士路店),美食,小吃快餐店,贵州省,贵阳市,花溪区,贵州省贵阳市花溪区学士路27号,750ec165fe6bd2324c3a5949,1,0,106.680618,26.429365,18085164516,cater,http://api.map.baidu.com/place/detail?uid=750ec165fe6bd2324c3a5949&output=html&source=placeapi_v2,11.0,11:30-21:00,3.5,,,,,,,17,6,,,,,,,106.68061950499,26.429295733015,0
a12f23b69d9ca1eeede4a5fd,天天小吃店,美食,小吃快餐店,贵州省,贵阳市,花溪区,贵阳市花溪区云碧路玉龙宾馆(吉麟路店),a12f23b69d9ca1eeede4a5fd,1,0,106.670501,26.43901,,cater,http://api.map.baidu.com/place/detail?uid=a12f23b69d9ca1eeede4a5fd&output=html&source=placeapi_v2,,,,,,,,,,,,,,,,,,106.67041253019,26.43896630251,0
629507bc1da99b9b018972f6,精武小吃店,美食,小吃快餐店,贵州省,贵阳市,花溪区,贵阳市花溪区清华路清华小区花溪国土分局,629507bc1da99b9b018972f6,1,0,106.684667,26.440709,13595101956,cater,http://api.map.baidu.com/place/detail?uid=629507bc1da99b9b018972f6&output=html&source=placeapi_v2,,,,,,,,,,,,,,,,,,,,0
ad9a28f009ea2fb77169d393,唐记牛肉粉(花溪店),美食,小吃快餐店,贵州省,贵阳市,花溪区,贵州省贵阳市花溪区徐家冲南路4号,ad9a28f009ea2fb77169d393,1,0,106.683066,26.434044,15285921688,cater,http://api.map.baidu.com/place/detail?uid=ad9a28f009ea2fb77169d393&output=html&source=placeapi_v2,12.0,08:00-19:00,3.4,,,,,,,,13,,,,,,,106.68324345808,26.434063664094,0
e982c67efad819403517dc2c,花溪王记牛肉粉(霞辉路店),美食,小吃快餐店,贵州省,贵阳市,花溪区,贵州省贵阳市花溪区霞晖路100号,e982c67efad819403517dc2c,1,0,106.681937,26.433734,18153112171,cater,http://api.map.baidu.com/place/detail?uid=e982c67efad819403517dc2c&output=html&source=placeapi_v2,15.0,06:30-21:00,4.0,,,,,,,,1,,,,,,,106.68188232311,26.43385696709,0
5b766bf864de0c41deee8bb8,水城原汤羊肉粉(学士路店),美食,小吃快餐店,贵州省,贵阳市,花溪区,贵阳市花溪区学士路麒鑫怡苑小区南侧约60米,5b766bf864de0c41deee8bb8,1,0,106.68031,26.429399,18786726589,cater,http://api.map.baidu.com/place/detail?uid=5b766bf864de0c41deee8bb8&output=html&source=placeapi_v2,14.0,08:00-21:00,0,,,,,,,,1,,,,,,,106.68029391955,26.429287047237,0
7a3fd335cd7e144deaf85386,煎百味(霞晖路店),美食,小吃快餐店,贵州省,贵阳市,花溪区,霞晖路17号,7a3fd335cd7e144deaf85386,1,0,106.682355,26.436933,18567936656,cater,http://api.map.baidu.com/place/detail?uid=7a3fd335cd7e144deaf85386&output=html&source=placeapi_v2,,,,,,,,,,,,,,,,,,106.68242611325,26.436937710127,0
094ed3f172a9330d4afc8dfc,公园美食站,美食,小吃快餐店,贵州省,贵阳市,花溪区,贵阳市花溪区花溪大道南段3108号花溪公园内,,1,0,106.678219,26.439697,,cater,http://api.map.baidu.com/place/detail?uid=094ed3f172a9330d4afc8dfc&output=html&source=placeapi_v2,,,,,,,,,,,,,,,,,,,,0
eb2c2c5d3315cb93b726552f,罗记小吃,美食,小吃快餐店,贵州省,贵阳市,花溪区,贵州省贵阳市花溪区朝阳村13号,,1,0,106.682807,26.446574,13984010860,cater,http://api.map.baidu.com/place/detail?uid=eb2c2c5d3315cb93b726552f&output=html&source=placeapi_v2,,10:30-21:00,,,,,,,,,,,,,,,,106.68258560739,26.446471017469,0
fc9ec06abd41c452725e80e0,高记水饺,美食,小吃快餐店,贵州省,贵阳市,花溪区,花溪区清溪路392号(阳光派出所对面),fc9ec06abd41c452725e80e0,1,0,106.683618,26.430776,15085921349,cater,http://api.map.baidu.com/place/detail?uid=fc9ec06abd41c452725e80e0&output=html&source=placeapi_v2,16.0,00:00-24:00,4.5,,,,,,,,2,,,,,,,106.68352460075,26.43077882854,0
5df198d2c67be70425d2bbf8,贞丰糯米饭(花溪店),美食,小吃快餐店,贵州省,贵阳市,花溪区,贵州省贵阳市花溪区花阁路99号,5df198d2c67be70425d2bbf8,1,0,106.683664,26.431505,15285966019,cater,http://api.map.baidu.com/place/detail?uid=5df198d2c67be70425d2bbf8&output=html&source=placeapi_v2,20.0,08:00-19:00,4,,,,,,,,1,,,,,,,106.68353212765,26.431424939608,0
d6c0af1071973f6fe5e965b1,六月红鸡辣角面馆(花溪店),美食,小吃快餐店,贵州省,贵阳市,花溪区,贵州省贵阳市花溪区徐家冲路58号,d6c0af1071973f6fe5e965b1,1,0,106.683804,26.43385,13985501561,cater,http://api.map.baidu.com/place/detail?uid=d6c0af1071973f6fe5e965b1&output=html&source=placeapi_v2,,,3.4,,,,,,,,0,,,,,,,106.68384910464,26.433851278683,0
1ddd207442683a5102294fb3,华莱士汉堡店(合力店),美食,小吃快餐店,贵州省,贵阳市,花溪区,花溪区徐家冲路贞丰特色糯米饭旁,,1,0,106.683171,26.43438,(0851)83636550,cater,http://api.map.baidu.com/place/detail?uid=1ddd207442683a5102294fb3&output=html&source=placeapi_v2,16.0,09:30-23:00,3.5,,,,,,,,6,,,,,,,106.68312850821,26.434297856704,0
17fcf68261f410c84afd3fe2,贵阳花溪优品小吃店,美食,小吃快餐店,贵州省,贵阳市,花溪区,贵州省贵阳市花溪区清溪路公园130号,,1,0,106.683418,26.441842,,cater,http://api.map.baidu.com/place/detail?uid=17fcf68261f410c84afd3fe2&output=html&source=placeapi_v2,,,,,,,,,,,,,,,,,,106.68362460192,26.441903653253,0
81abadd4c8a5083bfbf0cb4a,正新鸡排(万宜广场店),美食,小吃快餐店,贵州省,贵阳市,花溪区,贵阳市花溪区清溪路111号万宜广场F1,81abadd4c8a5083bfbf0cb4a,1,0,106.684705,26.43941,17584775568,cater,http://api.map.baidu.com/place/detail?uid=81abadd4c8a5083bfbf0cb4a&output=html&source=placeapi_v2,13.0,10:00-22:00,3.5,,,,,,,,0,,,,,,,106.68443498668,26.439373996522,0
103faf7c27db387b3ce23146,德克士(成泰餐厅),美食,小吃快餐店,贵州省,贵阳市,花溪区,贵州省贵阳市花溪区民主路23号2楼,103faf7c27db387b3ce23146,1,0,106.683541,26.439216,(0851)83855799,cater,http://api.map.baidu.com/place/detail?uid=103faf7c27db387b3ce23146&output=html&source=placeapi_v2,24.0,08:30-01:30,3.6,,,,,,,,1,,,,,,,,,0
345bdf583a289206ab059dfc,美味牛羊肉粉面,美食,小吃快餐店,贵州省,贵阳市,花溪区,贵州省贵阳市花溪区田园路623号,345bdf583a289206ab059dfc,1,0,106.678437,26.416958,,cater,http://api.map.baidu.com/place/detail?uid=345bdf583a289206ab059dfc&output=html&source=placeapi_v2,,,4,,,,,,,,2,,,,,,,106.6782948125,26.416959343042,0
1ee68527758fd0cd3f9a5e56,相约小粥潮汕砂锅粥,美食,小吃快餐店,贵州省,贵阳市,花溪区,花溪区朝阳村14栋一楼一号门面,,1,0,106.682583,26.446251,"13618500096,15285006519",cater,http://api.map.baidu.com/place/detail?uid=1ee68527758fd0cd3f9a5e56&output=html&source=placeapi_v2,,09:30-02:00,3.4,,,,,,,,0,,,,,,,106.68266219333,26.446274872563,0
e2db3cd0d21faf8dabf0cdd9,正宗重庆鸡公煲(北区店),美食,小吃快餐店,贵州省,贵阳市,花溪区,花溪区朝阳村1栋一单元3号,e2db3cd0d21faf8dabf0cdd9,1,0,106.68253,26.446468,17770177330,cater,http://api.map.baidu.com/place/detail?uid=e2db3cd0d21faf8dabf0cdd9&output=html&source=placeapi_v2,,"10:30-14:00,16:00-22:00",0,,,,,,,,0,,,,,,,106.68258502439,26.44646566441,0
83122a26a514c9e0e115f996,杨姨妈丝娃娃(花溪店),美食,小吃快餐店,贵州省,贵阳市,花溪区,贵阳市花溪区花溪大道南段2721号(花溪车站旁),83122a26a514c9e0e115f996,1,0,106.68369,26.442621,15008515063,cater,http://api.map.baidu.com/place/detail?uid=83122a26a514c9e0e115f996&output=html&source=placeapi_v2,46.0,10:30-21:30,3.6,,,,,,,,0,,,,,,,106.68354355051,26.442584404104,0
e2f12e0f80c2258a9e82ea8b,绝味鸭脖(贵大店),美食,小吃快餐店,贵州省,贵阳市,花溪区,贵阳市花溪区花溪大道朝阳村贵大校区5号,e2f12e0f80c2258a9e82ea8b,1,0,106.682587,26.44612,"13985466627,4009995917",cater,http://api.map.baidu.com/place/detail?uid=e2f12e0f80c2258a9e82ea8b&output=html&source=placeapi_v2,29.0,08:00-22:00,3.5,,,,,,,,2,,,,,,,106.68275505656,26.446175242074,0
f5e9535865a66a8b2cb908fd,天府棒棒鸡(花溪店),美食,小吃快餐店,贵州省,贵阳市,花溪区,贵州省贵阳市花溪区民主路19号,f5e9535865a66a8b2cb908fd,1,0,106.683758,26.439393,15285632202,cater,http://api.map.baidu.com/place/detail?uid=f5e9535865a66a8b2cb908fd&output=html&source=placeapi_v2,34.0,09:30-20:00,3.7,,,,,,,,30,,,,,,,106.68375649024,26.439335513698,0
e01f360cc39c52b2316212b2,正新鸡排(老朝阳店),美食,小吃快餐店,贵州省,贵阳市,花溪区,贵州省贵阳市花溪区朝阳村94号附1号门面,e01f360cc39c52b2316212b2,1,0,106.683016,26.446157,15519197700,cater,http://api.map.baidu.com/place/detail?uid=e01f360cc39c52b2316212b2&output=html&source=placeapi_v2,12.0,09:00-22:30,3.4,,,,,,,,3,,,,,,,106.68302585794,26.446062632583,0
cf4f65a9c7640db1ddee8b1b,饺饺者虾仁水饺(学子巷店),美食,小吃快餐店,贵州省,贵阳市,花溪区,贵阳市花溪区学子巷茗桂花园1号门面,cf4f65a9c7640db1ddee8b1b,1,0,106.682671,26.445883,15285554163,cater,http://api.map.baidu.com/place/detail?uid=cf4f65a9c7640db1ddee8b1b&output=html&source=placeapi_v2,,09:00-20:00,3.4,,,,,,,,,,,,,,,106.68265940858,26.44594241687,0
a0281da8bc17ddb0a4c756b8,沙县小吃,美食,小吃快餐店,贵州省,贵阳市,花溪区,贵阳市花溪区开发大道(中段)与清华路交叉路口往北约190米,,1,0,106.71738,26.439323,,cater,http://api.map.baidu.com/place/detail?uid=a0281da8bc17ddb0a4c756b8&output=html&source=placeapi_v2,,,,,,,,,,,,,,,,,,,,0
26ec9dbaff21e10907026ffb,兴贵小吃店,美食,小吃快餐店,贵州省,贵阳市,花溪区,孟关中心卫生院(01省道西),26ec9dbaff21e10907026ffb,1,0,106.755493,26.417993,18798632319,cater,http://api.map.baidu.com/place/detail?uid=26ec9dbaff21e10907026ffb&output=html&source=placeapi_v2,,,,,,,,,,,,,,,,,,106.75534757485,26.417953337402,0
e2500c5e2a0fceb671210b2a,贵阳市花溪区孟关小吃店,美食,小吃快餐店,贵州省,贵阳市,花溪区,贵阳市花溪区X100贵阳市花溪第五中学,,1,0,106.755174,26.420329,,cater,http://api.map.baidu.com/place/detail?uid=e2500c5e2a0fceb671210b2a&output=html&source=placeapi_v2,,,,,,,,,,,,,,,,,,,,0
68dfc6d1c3d8116db13c8198,境源小吃,美食,小吃快餐店,贵州省,贵阳市,花溪区,贵阳市花溪区孟关大道孟关乡农贸市场南侧约50米,,1,0,106.751809,26.417,,cater,http://api.map.baidu.com/place/detail?uid=68dfc6d1c3d8116db13c8198&output=html&source=placeapi_v2,,,,,,,,,,,,,,,,,,,,0
1fb835460caa3feb16c90567,特色牛羊肉粉面,美食,小吃快餐店,贵州省,贵阳市,花溪区,贵州省贵阳市花溪区X102孟关乡客运站东北侧,,1,0,106.752822,26.418419,15885004881,cater,http://api.map.baidu.com/place/detail?uid=1fb835460caa3feb16c90567&output=html&source=placeapi_v2,,10:00-22:00,,,,,,,,,,,,,,,,,,0
22d179b0b6652471e812e464,金沙小琳牛羊肉粉面馆,美食,小吃快餐店,贵州省,贵阳市,花溪区,贵阳市花溪区X100花溪区中心幼儿园东南侧约120米,22d179b0b6652471e812e464,1,0,106.755594,26.415021,13985400559,cater,http://api.map.baidu.com/place/detail?uid=22d179b0b6652471e812e464&output=html&source=placeapi_v2,,,,,,,,,,,,,,,,,,,,0
5bd5fd819ecbb583c7f50d1a,超级堡汉堡炸鸡,美食,小吃快餐店,贵州省,贵阳市,花溪区,贵阳市花溪区富源南路兴贵小吃店旁,,1,0,106.755455,26.418079,18886131665,cater,http://api.map.baidu.com/place/detail?uid=5bd5fd819ecbb583c7f50d1a&output=html&source=placeapi_v2,,09:00-22:00,,,,,,,,,,,,,,,,,,0
aec679390adf742943afe655,豆花烤鱼,美食,小吃快餐店,贵州省,贵阳市,花溪区,贵州省贵阳市花溪区聚缘宾馆孟关大道店豆花烤鱼,,1,0,106.752834,26.418146,,cater,http://api.map.baidu.com/place/detail?uid=aec679390adf742943afe655&output=html&source=placeapi_v2,,,,,,,,,,,,,,,,,,,,0
20a17f1c954515be2fb96d7e,陕甘风味小吃,美食,小吃快餐店,贵州省,贵阳市,花溪区,贵阳市花溪区X001湖潮乡农贸市场东南侧约170米,,1,0,106.539908,26.450873,13765828245,cater,http://api.map.baidu.com/place/detail?uid=20a17f1c954515be2fb96d7e&output=html&source=placeapi_v2,,,,,,,,,,,,,,,,,,,,0
898ef5a9c4750098ab0dd835,隆昌运林粉面馆,美食,小吃快餐店,贵州省,贵阳市,花溪区,贵阳市花溪区X001小博士双语幼儿园东北侧约80米,,1,0,106.595052,26.455224,,cater,http://api.map.baidu.com/place/detail?uid=898ef5a9c4750098ab0dd835&output=html&source=placeapi_v2,,,,,,,,,,,,,,,,,,,,0
7de5556d885eb2f19fec2be2,顺红粉面馆,美食,小吃快餐店,贵州省,贵阳市,花溪区,贵阳市花溪区X001中国石油(石板加油站)北侧约60米,,1,0,106.607658,26.463613,,cater,http://api.map.baidu.com/place/detail?uid=7de5556d885eb2f19fec2be2&output=html&source=placeapi_v2,,,,,,,,,,,,,,,,,,,,0
6284b5cd76548567c1f1cfc0,荣荣肠旺面馆,美食,小吃快餐店,贵州省,贵阳市,花溪区,贵阳市花溪区X001中国石油(石板加油站)东北侧约180米,,1,0,106.609437,26.463702,,cater,http://api.map.baidu.com/place/detail?uid=6284b5cd76548567c1f1cfc0&output=html&source=placeapi_v2,,,,,,,,,,,,,,,,,,,,0
e9ee7a5c7c693bd59e95de18,水城牛羊肉杂粉,美食,小吃快餐店,贵州省,贵阳市,花溪区,贵州省贵阳市花溪区未来星幼儿园,e9ee7a5c7c693bd59e95de18,1,0,106.612859,26.463343,15285532318,cater,http://api.map.baidu.com/place/detail?uid=e9ee7a5c7c693bd59e95de18&output=html&source=placeapi_v2,,06:30-20:00,,,,,,,,,,,,,,,,,,0
981a4f7ec54e08bb601809d6,三品三炸鸡汉堡,美食,小吃快餐店,贵州省,贵阳市,花溪区,贵州省贵阳市花溪区X001未来星幼儿园办公室西南侧约80米,,1,0,106.612434,26.463624,4000192088,cater,http://api.map.baidu.com/place/detail?uid=981a4f7ec54e08bb601809d6&output=html&source=placeapi_v2,,10:00-23:30,,,,,,,,,,,,,,,,,,0
1f3607a82b77eb6e4c6d4667,正宗沙县小吃,美食,小吃快餐店,贵州省,贵阳市,花溪区,石板镇黔丰物流港右边,1f3607a82b77eb6e4c6d4667,1,0,106.629088,26.467576,,cater,http://api.map.baidu.com/place/detail?uid=1f3607a82b77eb6e4c6d4667&output=html&source=placeapi_v2,,,,,,,,,,,,,,,,,,106.62922485786,26.467421744977,0
cddf9303eb8065e74d55470e,沙县小吃,美食,小吃快餐店,贵州省,贵阳市,花溪区,贵州省贵阳市花溪区环合朋金石汽配城17栋,cddf9303eb8065e74d55470e,1,0,106.635299,26.478464,,cater,http://api.map.baidu.com/place/detail?uid=cddf9303eb8065e74d55470e&output=html&source=placeapi_v2,17.0,,,,,,,,,,,,,,,,,106.63537595184,26.478361080921,0
749304ce73790f3ced74f825,包子馒头烧饼水饺,美食,小吃快餐店,贵州省,贵阳市,花溪区,贵阳市花溪区天河潭大道云凹花园幼儿园南侧约90米,,1,0,106.627,26.4677,,cater,http://api.map.baidu.com/place/detail?uid=749304ce73790f3ced74f825&output=html&source=placeapi_v2,,,,,,,,,,,,,,,,,,,,0
720eb389211d16c14c3a5906,正宗沙县小吃,美食,小吃快餐店,贵州省,贵阳市,花溪区,贵阳市花溪区天河潭大道黔丰智慧物流港东侧约170米,,1,0,106.633368,26.468813,,cater,http://api.map.baidu.com/place/detail?uid=720eb389211d16c14c3a5906&output=html&source=placeapi_v2,,,,,,,,,,,,,,,,,,106.63323374023,26.469116686854,0
ae386c29dd0ae989047ce85e,花溪天天贞秀肠旺粉面馆小吃店,美食,小吃快餐店,贵州省,贵阳市,花溪区,贵阳市花溪区天河潭大道云凹花园幼儿园东南侧约220米,ae386c29dd0ae989047ce85e,1,0,106.62912,26.467635,"13885067569,15885510668",cater,http://api.map.baidu.com/place/detail?uid=ae386c29dd0ae989047ce85e&output=html&source=placeapi_v2,,,,,,,,,,,,,,,,,,106.62925116923,26.467435748308,0
4e3a2e001bc10841a1046434,粤有黔粉面馆,美食,小吃快餐店,贵州省,贵阳市,花溪区,贵州省贵阳市花溪区石板镇合朋村合朋医院对面,4e3a2e001bc10841a1046434,1,0,106.638747,26.479267,"13984136557,18593849618",cater,http://api.map.baidu.com/place/detail?uid=4e3a2e001bc10841a1046434&output=html&source=placeapi_v2,,07:00-19:00,,,,,,,,,,,,,,,,,,0
29533f7ff4f038c13a13fdb1,蹄花粉面馆,美食,小吃快餐店,贵州省,贵阳市,花溪区,贵阳市花溪区X001红星美凯龙全球家居生活广场(金石国际建材城店)西南侧约240米,,1,0,106.630228,26.474689,18300867958,cater,http://api.map.baidu.com/place/detail?uid=29533f7ff4f038c13a13fdb1&output=html&source=placeapi_v2,,09:30-23:00,,,,,,,,,,,,,,,,106.63013410833,26.474845307025,0
2d0fdf8ba054d46649fd3f04,食百味小吃店,美食,小吃快餐店,贵州省,贵阳市,花溪区,贵阳市花溪区贵阳绕城高速贵州民族大学荟文苑东北侧约130米,,1,0,106.67748,26.465524,,cater,http://api.map.baidu.com/place/detail?uid=2d0fdf8ba054d46649fd3f04&output=html&source=placeapi_v2,,,,,,,,,,,,,,,,,,,,0
9f6f6b4cecc8345d4f3a5979,名嘴快餐店(都匀路店),美食,小吃快餐店,贵州省,贵阳市,花溪区,贵阳市花溪区都匀路贵州民族大学荟文苑东北侧约270米,,1,0,106.677523,26.467049,,cater,http://api.map.baidu.com/place/detail?uid=9f6f6b4cecc8345d4f3a5979&output=html&source=placeapi_v2,,,,,,,,,,,,,,,,,,,,0
d079b50b57403b3d7f29bdce,良谷包点,美食,小吃快餐店,贵州省,贵阳市,花溪区,贵阳市花溪区都匀路御林铭园西北侧约250米,,1,0,106.677903,26.466834,18275236228,cater,http://api.map.baidu.com/place/detail?uid=d079b50b57403b3d7f29bdce&output=html&source=placeapi_v2,,06:30-19:00,0,,,,,,,3,1,,,,,,,106.67790045638,26.466895146862,0
ed119b187ad8d7252911d153,丰源黄焖鸡米饭,美食,小吃快餐店,贵州省,贵阳市,花溪区,贵阳市花溪区都匀路贵州民族大学荟文苑东侧约50米,,1,0,106.676861,26.463876,18722788331,cater,http://api.map.baidu.com/place/detail?uid=ed119b187ad8d7252911d153&output=html&source=placeapi_v2,,,,,,,,,,,,,,,,,,,,0
698674a586850aa2c26c14dc,赵记特色卤味,美食,小吃快餐店,贵州省,贵阳市,花溪区,贵州省贵阳市花溪区溪北街道办事处董家堰村二组长聚乐街118号第一层,,1,0,106.677534,26.467028,15519564136,cater,http://api.map.baidu.com/place/detail?uid=698674a586850aa2c26c14dc&output=html&source=placeapi_v2,,11:00-23:30,,,,,,,,,,,,,,,,,,0
2a930632671e96be52e5c5d9,遵义豆花饭豆花面,美食,小吃快餐店,贵州省,贵阳市,花溪区,贵阳市花溪区贵阳绕城高速贵州民族大学荟文苑东北侧约40米,,1,0,106.676743,26.464501,15086301767,cater,http://api.map.baidu.com/place/detail?uid=2a930632671e96be52e5c5d9&output=html&source=placeapi_v2,,,,,,,,,,,,,,,,,,106.67723948319,26.464470096303,0
eb2c2c5d3315cb93b726552f,罗记小吃,美食,小吃快餐店,贵州省,贵阳市,花溪区,贵州省贵阳市花溪区朝阳村13号,,1,0,106.682807,26.446574,13984010860,cater,http://api.map.baidu.com/place/detail?uid=eb2c2c5d3315cb93b726552f&output=html&source=placeapi_v2,,10:30-21:00,,,,,,,,,,,,,,,,106.68258560739,26.446471017469,0
95b6130fea6d28479868b469,笨米拌饭小屋(民大总店),美食,小吃快餐店,贵州省,贵阳市,花溪区,贵阳市花溪区贵阳绕城高速贵州民族大学荟文苑北侧约150米,95b6130fea6d28479868b469,1,0,106.675851,26.466225,13078560658,cater,http://api.map.baidu.com/place/detail?uid=95b6130fea6d28479868b469&output=html&source=placeapi_v2,,,,,,,,,,,,,,,,,,,,0
def555a2d2ef4f38f603b893,桂林米粉川味麻辣烫,美食,小吃快餐店,贵州省,贵阳市,花溪区,贵州省贵阳市花溪区花溪大道民族大学北门,,1,0,106.675567,26.47188,15885527464,cater,http://api.map.baidu.com/place/detail?uid=def555a2d2ef4f38f603b893&output=html&source=placeapi_v2,10.0,09:00-21:00,3.7,,,,,,,,,,,,,,,106.67572857284,26.47185217171,0
d84cafa7039aea726318095e,成英粉面馆,美食,小吃快餐店,贵州省,贵阳市,花溪区,贵阳市花溪区大职路贵州民族大学,,1,0,106.675576,26.471766,,cater,http://api.map.baidu.com/place/detail?uid=d84cafa7039aea726318095e&output=html&source=placeapi_v2,,,,,,,,,,,,,,,,,,106.67570895026,26.471749138894,0
45c68ff1b52aa466b04c49b7,苗家砂锅酸辣烫(朝阳路店),美食,小吃快餐店,贵州省,贵阳市,花溪区,明珠社区服务中心民族大学北门,,1,0,106.682289,26.447631,18111977709,cater,http://api.map.baidu.com/place/detail?uid=45c68ff1b52aa466b04c49b7&output=html&source=placeapi_v2,,09:00-21:00,,,,,,,,,,,,,,,,,,0
440c5ecfdce099e52fb96daf,一口鲜牛羊粉面馆,美食,小吃快餐店,贵州省,贵阳市,花溪区,贵州省贵阳市花溪区大职路青春摄影旁,,1,0,106.675395,26.472987,15519138338,cater,http://api.map.baidu.com/place/detail?uid=440c5ecfdce099e52fb96daf&output=html&source=placeapi_v2,,,,,,,,,,,,,,,,,,,,0
1ee68527758fd0cd3f9a5e56,相约小粥潮汕砂锅粥,美食,小吃快餐店,贵州省,贵阳市,花溪区,花溪区朝阳村14栋一楼一号门面,,1,0,106.682583,26.446251,"13618500096,15285006519",cater,http://api.map.baidu.com/place/detail?uid=1ee68527758fd0cd3f9a5e56&output=html&source=placeapi_v2,,09:30-02:00,3.4,,,,,,,,0,,,,,,,106.68266219333,26.446274872563,0
68e8256bbda88f9ba20464ca,盖饭炒菜黄焖鸡米饭,美食,小吃快餐店,贵州省,贵阳市,花溪区,花溪区朝阳村12栋2层4号门面,,1,0,106.682347,26.446957,13985041169,cater,http://api.map.baidu.com/place/detail?uid=68e8256bbda88f9ba20464ca&output=html&source=placeapi_v2,,"10:30-14:00,16:30-20:00",3.5,,,,,,,,,,,,,,,,,0
02f02b5489bdc7f0f119373a,好口福牛羊肉粉面馆(大职路店),美食,小吃快餐店,贵州省,贵阳市,花溪区,花溪区贵州民族大学四合院E20号,,1,0,106.675414,26.472965,15180743848,cater,http://api.map.baidu.com/place/detail?uid=02f02b5489bdc7f0f119373a&output=html&source=placeapi_v2,,08:00-21:00,,,,,,,,,,,,,,,,,,0
e2db3cd0d21faf8dabf0cdd9,正宗重庆鸡公煲(北区店),美食,小吃快餐店,贵州省,贵阳市,花溪区,花溪区朝阳村1栋一单元3号,e2db3cd0d21faf8dabf0cdd9,1,0,106.68253,26.446468,17770177330,cater,http://api.map.baidu.com/place/detail?uid=e2db3cd0d21faf8dabf0cdd9&output=html&source=placeapi_v2,,"10:30-14:00,16:00-22:00",0,,,,,,,,0,,,,,,,106.68258502439,26.44646566441,0
e2f12e0f80c2258a9e82ea8b,绝味鸭脖(贵大店),美食,小吃快餐店,贵州省,贵阳市,花溪区,贵阳市花溪区花溪大道朝阳村贵大校区5号,e2f12e0f80c2258a9e82ea8b,1,0,106.682587,26.44612,"13985466627,4009995917",cater,http://api.map.baidu.com/place/detail?uid=e2f12e0f80c2258a9e82ea8b&output=html&source=placeapi_v2,29.0,08:00-22:00,3.5,,,,,,,,2,,,,,,,106.68275505656,26.446175242074,0
92c0e91be1c4d1e0a104645f,珊珊牛羊肉粉馆,美食,小吃快餐店,贵州省,贵阳市,花溪区,贵州省贵阳市花溪区大成路,,1,0,106.691748,26.47159,13312237066,cater,http://api.map.baidu.com/place/detail?uid=92c0e91be1c4d1e0a104645f&output=html&source=placeapi_v2,,,,,,,,,,,,,,,,,,106.69160120451,26.471594007284,0
1a70119c6b1ab22a17764377,陈记福建千里香馄饨,美食,小吃快餐店,贵州省,贵阳市,花溪区,贵州省贵阳市花溪区艺美家浴室柜东南100米,,1,0,106.689636,26.475295,,cater,http://api.map.baidu.com/place/detail?uid=1a70119c6b1ab22a17764377&output=html&source=placeapi_v2,,,,,,,,,,,,,,,,,,106.68981140713,26.47535890467,0
cf4f65a9c7640db1ddee8b1b,饺饺者虾仁水饺(学子巷店),美食,小吃快餐店,贵州省,贵阳市,花溪区,贵阳市花溪区学子巷茗桂花园1号门面,cf4f65a9c7640db1ddee8b1b,1,0,106.682671,26.445883,15285554163,cater,http://api.map.baidu.com/place/detail?uid=cf4f65a9c7640db1ddee8b1b&output=html&source=placeapi_v2,,09:00-20:00,3.4,,,,,,,,,,,,,,,106.68265940858,26.44594241687,0
e01f360cc39c52b2316212b2,正新鸡排(老朝阳店),美食,小吃快餐店,贵州省,贵阳市,花溪区,贵州省贵阳市花溪区朝阳村94号附1号门面,e01f360cc39c52b2316212b2,1,0,106.683016,26.446157,15519197700,cater,http://api.map.baidu.com/place/detail?uid=e01f360cc39c52b2316212b2&output=html&source=placeapi_v2,12.0,09:00-22:30,3.4,,,,,,,,3,,,,,,,106.68302585794,26.446062632583,0
dd4c701d81fb8884a4c756ab,沙县小吃,美食,小吃快餐店,贵州省,贵阳市,花溪区,贵阳市花溪区孟关苗族布依族乡开发大道翁岩小区富华购物广场恒8酒店旁边,,1,0,106.716516,26.458173,18859846621,cater,http://api.map.baidu.com/place/detail?uid=dd4c701d81fb8884a4c756ab&output=html&source=placeapi_v2,,07:00-22:00,4,,,,,,,,1,,,,,,,106.71619145456,26.458027343989,0
ab59afae2943c00fd92f286b,陈记粉面馆(开发大道店),美食,小吃快餐店,贵州省,贵阳市,花溪区,贵州省贵阳市花溪区开发大道翁岩小区b栋,,1,0,106.716436,26.458262,"15180831365,18275108717",cater,http://api.map.baidu.com/place/detail?uid=ab59afae2943c00fd92f286b&output=html&source=placeapi_v2,,,,,,,,,,,,,,,,,,106.71613707384,26.458125750713,0
221765529ddeffc9c61e51c8,黄焖鸡米饭(货车帮店),美食,小吃快餐店,贵州省,贵阳市,花溪区,贵州省贵阳市花溪区开发大道123号,,1,0,106.711763,26.470561,13799246827,cater,http://api.map.baidu.com/place/detail?uid=221765529ddeffc9c61e51c8&output=html&source=placeapi_v2,,07:00-22:00,4,,,,,,,,1,,,,,,,,,0
5f7967f687cf6f374f6d4684,正宗沙县小吃(布依新寨店),美食,小吃快餐店,贵州省,贵阳市,花溪区,贵州省贵阳市花溪区航空南路王宽布依新寨2期9号,,1,0,106.71192,26.476904,15859857188,cater,http://api.map.baidu.com/place/detail?uid=5f7967f687cf6f374f6d4684&output=html&source=placeapi_v2,,07:00-23:55,,,,,,,,,,,,,,,,106.71202133713,26.476900193766,0
7585ea24c34531fbad080f37,姐妹小吃店,美食,小吃快餐店,贵州省,贵阳市,花溪区,贵阳市花溪区孟关大道改貌小区东南侧约80米,,1,0,106.755428,26.450572,,cater,http://api.map.baidu.com/place/detail?uid=7585ea24c34531fbad080f37&output=html&source=placeapi_v2,,,,,,,,,,,,,,,,,,,,0
a7816d66099481ed9fec2b23,沙县小吃,美食,小吃快餐店,贵州省,贵阳市,花溪区,贵州省贵阳市花溪区乾朗路s001号,,1,0,106.747233,26.46644,15285130384,cater,http://api.map.baidu.com/place/detail?uid=a7816d66099481ed9fec2b23&output=html&source=placeapi_v2,,,,,,,,,,,,,,,,,,,,0
ee161c3f43cb46590b69d91c,川黔特色小吃,美食,小吃快餐店,贵州省,贵阳市,花溪区,富源南路附近,,1,0,106.752315,26.459487,,cater,http://api.map.baidu.com/place/detail?uid=ee161c3f43cb46590b69d91c&output=html&source=placeapi_v2,,,,,,,,,,,,,,,,,,,,0
8c2ce660369751f39e82eafa,正宗沙县小吃,美食,小吃快餐店,贵州省,贵阳市,花溪区,贵阳市花溪区孟关大道改毛小学西南侧约70米,8c2ce660369751f39e82eafa,1,0,106.753098,26.454356,15860899079,cater,http://api.map.baidu.com/place/detail?uid=8c2ce660369751f39e82eafa&output=html&source=placeapi_v2,,06:30-24:00,,,,,,,,,,,,,,,,106.75325154782,26.454355267943,0
959a03fd38ae2d565e17c312,黄焖鸡米饭,美食,小吃快餐店,贵州省,贵阳市,花溪区,贵阳市花溪区孟关大道改貌小区西北侧约130米,,1,0,106.752571,26.454004,,cater,http://api.map.baidu.com/place/detail?uid=959a03fd38ae2d565e17c312&output=html&source=placeapi_v2,,,,,,,,,,,,,,,,,,106.75259966997,26.453881570883,0
25c534bb22d3a84a88fc06e2,张记水城牛羊肉粉面,美食,小吃快餐店,贵州省,贵阳市,花溪区,贵阳市花溪区贵阳南环高速博源建材西北侧约160米,,1,0,106.750818,26.465993,18786474509,cater,http://api.map.baidu.com/place/detail?uid=25c534bb22d3a84a88fc06e2&output=html&source=placeapi_v2,,,,,,,,,,,,,,,,,,,,0
62e588a510ce2b336240a969,黔西牛肉粉面馆,美食,小吃快餐店,贵州省,贵阳市,花溪区,麦坪镇绿谷超市对面,,1,0,106.552311,26.485648,,cater,http://api.map.baidu.com/place/detail?uid=62e588a510ce2b336240a969&output=html&source=placeapi_v2,,,,,,,,,,,,,,,,,,106.55241679573,26.485663268966,0
628e693325f0dd1b0289723d,成都名小吃,美食,小吃快餐店,贵州省,贵阳市,花溪区,贵州省贵阳市花溪区贵安大道,,1,0,106.640529,26.498584,,cater,http://api.map.baidu.com/place/detail?uid=628e693325f0dd1b0289723d&output=html&source=placeapi_v2,,,,,,,,,,,,,,,,,,106.64059177324,26.498467557411,0
11d1438b5dd696a61b94c6eb,盛记牛肉粉(面)店,美食,小吃快餐店,贵州省,贵阳市,花溪区,贵阳市花溪区金勺路天利城B15-29号,11d1438b5dd696a61b94c6eb,1,0,106.641683,26.498525,"15180852503,15608505993",cater,http://api.map.baidu.com/place/detail?uid=11d1438b5dd696a61b94c6eb&output=html&source=placeapi_v2,,07:00-22:00,,,,,,,,,,,,,,,,106.64166946946,26.498598131116,0
cc6b53bc027dcc65a3acc48f,沙县小吃,美食,小吃快餐店,贵州省,贵阳市,花溪区,贵阳市花溪区石板镇001县道南金石钢材五金机电城对面,,1,0,106.646011,26.488799,,cater,http://api.map.baidu.com/place/detail?uid=cc6b53bc027dcc65a3acc48f&output=html&source=placeapi_v2,,,,,,,,,,,,,,,,,,,,0
cddf9303eb8065e74d55470e,沙县小吃,美食,小吃快餐店,贵州省,贵阳市,花溪区,贵州省贵阳市花溪区环合朋金石汽配城17栋,cddf9303eb8065e74d55470e,1,0,106.635299,26.478464,,cater,http://api.map.baidu.com/place/detail?uid=cddf9303eb8065e74d55470e&output=html&source=placeapi_v2,17.0,,,,,,,,,,,,,,,,,106.63537595184,26.478361080921,0
bc61c515b871f1152fe67b0a,雅轩居快餐炒菜,美食,小吃快餐店,贵州省,贵阳市,花溪区,贵州省贵阳市花溪区石板镇雅轩居北方饺子天利机电城店雅轩居北方饺子,,1,0,106.642004,26.49871,(0851)83815911,cater,http://api.map.baidu.com/place/detail?uid=bc61c515b871f1152fe67b0a&output=html&source=placeapi_v2,,09:30-22:00,5,,,,,,,,1,,,,,,,,,0
dedf9cc671d63ab2ad080fd5,叫了只炸鸡(合朋店),美食,小吃快餐店,贵州省,贵阳市,花溪区,贵阳市花溪区石板镇合朋村三农创业街奥莱文旅城一组团6号楼一层1-3号,,1,0,106.64058,26.486485,18108190580,cater,http://api.map.baidu.com/place/detail?uid=dedf9cc671d63ab2ad080fd5&output=html&source=placeapi_v2,,11:00-24:00,3.5,,,,,,,,1,,,,,,,,,0
016028730ccdedfe04fef595,四娘桂林米粉,美食,小吃快餐店,贵州省,贵阳市,花溪区,贵州省贵阳市花溪区贵州合朋摩托车城C栋西,,1,0,106.641416,26.486933,18275752153,cater,http://api.map.baidu.com/place/detail?uid=016028730ccdedfe04fef595&output=html&source=placeapi_v2,,,,,,,,,,,,,,,,,,106.6413506815,26.486879360845,0
528938c8163187a9210220dc,沙县小吃(金石・清水城南),美食,小吃快餐店,贵州省,贵阳市,花溪区,贵州省贵阳市花溪区001县道金鑫装饰部旁,528938c8163187a9210220dc,1,0,106.640619,26.480205,,cater,http://api.map.baidu.com/place/detail?uid=528938c8163187a9210220dc&output=html&source=placeapi_v2,,,,,,,,,,,,,,,,,,,,0
f89bc4bc89a7d536b64f543f,水城老牌带皮牛羊肉杂粉面,美食,小吃快餐店,贵州省,贵阳市,花溪区,贵州省贵阳市花溪区石板镇合朋中心广场老鬼水城羊肉粉,f89bc4bc89a7d536b64f543f,1,0,106.64621,26.488115,15286025960,cater,http://api.map.baidu.com/place/detail?uid=f89bc4bc89a7d536b64f543f&output=html&source=placeapi_v2,,,,,,,,,,,,,,,,,,,,0
87faef8dc4889c6bbe4842ba,老秋粉面馆,美食,小吃快餐店,贵州省,贵阳市,花溪区,贵阳市花溪区X001金石五金机电城西北侧约110米,,1,0,106.646253,26.488316,,cater,http://api.map.baidu.com/place/detail?uid=87faef8dc4889c6bbe4842ba&output=html&source=placeapi_v2,,,,,,,,,,,,,,,,,,106.64629147589,26.488206465387,0
4f37541cfd5182c9b23c81e2,水城黑山羊牛羊肉粉,美食,小吃快餐店,贵州省,贵阳市,花溪区,贵阳绕城高速(贵阳金石产业园汽车市场南侧),,1,0,106.64684,26.488153,13885122068,cater,http://api.map.baidu.com/place/detail?uid=4f37541cfd5182c9b23c81e2&output=html&source=placeapi_v2,,,,,,,,,,,,,,,,,,,,0
4e3a2e001bc10841a1046434,粤有黔粉面馆,美食,小吃快餐店,贵州省,贵阳市,花溪区,贵州省贵阳市花溪区石板镇合朋村合朋医院对面,4e3a2e001bc10841a1046434,1,0,106.638747,26.479267,"13984136557,18593849618",cater,http://api.map.baidu.com/place/detail?uid=4e3a2e001bc10841a1046434&output=html&source=placeapi_v2,,07:00-19:00,,,,,,,,,,,,,,,,,,0
04d83c7de17a990346572640,雷记原汤牛肉粉面(小河锦江路分店),美食,小吃快餐店,贵州省,贵阳市,花溪区,贵阳市花溪区石板镇合朋村金石清水城斜对面,04d83c7de17a990346572640,1,0,106.640397,26.480894,18798608876,cater,http://api.map.baidu.com/place/detail?uid=04d83c7de17a990346572640&output=html&source=placeapi_v2,,06:30-16:00,,,,,,,,,,,,,,,,106.64057515459,26.480831795361,0
b4cbb2671433e74c7c29bde8,桥头快餐店,美食,小吃快餐店,贵州省,贵阳市,花溪区,贵阳市花溪区贵安大道启明星幼儿园南侧约270米,b4cbb2671433e74c7c29bde8,1,0,106.66026,26.500771,13398506368,cater,http://api.map.baidu.com/place/detail?uid=b4cbb2671433e74c7c29bde8&output=html&source=placeapi_v2,,08:30-20:00,,,,,,,,,,,,,,,,,,0
8013d03857322ce902294f9a,沙县小吃,美食,小吃快餐店,贵州省,贵阳市,花溪区,贵阳市花溪区鑫中路金龙木材市场西南侧约240米,,1,0,106.674231,26.500058,,cater,http://api.map.baidu.com/place/detail?uid=8013d03857322ce902294f9a&output=html&source=placeapi_v2,,,,,,,,,,,,,,,,,,,,0
31c30e0605881124da2f2854,龙里野生菌肉饼鸡,美食,小吃快餐店,贵州省,贵阳市,花溪区,贵阳市花溪区花溪大道腾龙湾-A区,,1,0,106.682644,26.501444,18302599317,cater,http://api.map.baidu.com/place/detail?uid=31c30e0605881124da2f2854&output=html&source=placeapi_v2,,,,,,,,,,,,,,,,,,106.68259138303,26.501458008991,0
682a1f18f803abc18bf15df6,老面抄手(金竹镇店),美食,小吃快餐店,贵州省,贵阳市,花溪区,贵阳市花溪区贵安大道启明星幼儿园南侧约250米,,1,0,106.66017,26.500946,,cater,http://api.map.baidu.com/place/detail?uid=682a1f18f803abc18bf15df6&output=html&source=placeapi_v2,,,,,,,,,,,,,,,,,,,,0
5cac0457f0d5d77390114cee,黄记特色小吃店,美食,小吃快餐店,贵州省,贵阳市,花溪区,贵阳市花溪区花溪大道贵阳市花溪区红星小学东北侧,,1,0,106.684093,26.508391,,cater,http://api.map.baidu.com/place/detail?uid=5cac0457f0d5d77390114cee&output=html&source=placeapi_v2,,,,,,,,,,,,,,,,,,106.68400311822,26.508614427606,0
2ef8866bdf9287b788db739d,沙县小吃,美食,小吃快餐店,贵州省,贵阳市,花溪区,花溪区溪北社区服务中心竹林农贸市场对面,,1,0,106.675568,26.482458,13004897758,cater,http://api.map.baidu.com/place/detail?uid=2ef8866bdf9287b788db739d&output=html&source=placeapi_v2,,07:30-01:30,3.5,,,,,,,,,,,,,,,,,0
87750d254a1abce89f95de07,正新鸡排(鑫中路店),美食,小吃快餐店,贵州省,贵阳市,花溪区,贵州省贵阳市花溪区鑫中路9号,,1,0,106.660886,26.49855,18302605204,cater,http://api.map.baidu.com/place/detail?uid=87750d254a1abce89f95de07&output=html&source=placeapi_v2,13.0,09:00-22:30,,,,,,,,,,,,,,,,106.66073896921,26.498501228351,0
e6531b6b0cde4756deee8b00,正新鸡排(腾龙湾店),美食,小吃快餐店,贵州省,贵阳市,花溪区,贵州省贵阳市花溪区中曹司中曹路腾龙湾A3区3栋1-1号,,1,0,106.68614,26.503988,17308513492,cater,http://api.map.baidu.com/place/detail?uid=e6531b6b0cde4756deee8b00&output=html&source=placeapi_v2,12.0,09:30-21:30,3.5,,,,,,,1,,,,,,,,,,0
37a77847a52b79a3028972d1,沙县小吃,美食,小吃快餐店,贵州省,贵阳市,花溪区,贵州省贵阳市花溪区小河屯路221号,37a77847a52b79a3028972d1,1,0,106.684934,26.513006,,cater,http://api.map.baidu.com/place/detail?uid=37a77847a52b79a3028972d1&output=html&source=placeapi_v2,,10:00-22:00,,,,,,,,,,,,,,,,106.68497904092,26.513072723657,0
b6b9fc02f157ce52028972e6,馄饨大王,美食,小吃快餐店,贵州省,贵阳市,花溪区,贵阳市花溪区小屯路贵阳市花溪区红星小学东侧约130米,,1,0,106.685398,26.507869,,cater,http://api.map.baidu.com/place/detail?uid=b6b9fc02f157ce52028972e6&output=html&source=placeapi_v2,,,,,,,,,,,,,,,,,,,,0
506a5bb62f2f1e8822f017c5,福建千里香馄饨店,美食,小吃快餐店,贵州省,贵阳市,花溪区,贵阳市花溪区金溪路七色花双语幼儿园西侧约150米,506a5bb62f2f1e8822f017c5,1,0,106.660765,26.49834,15285083786,cater,http://api.map.baidu.com/place/detail?uid=506a5bb62f2f1e8822f017c5&output=html&source=placeapi_v2,,,,,,,,,,,,,,,,,,,,0
03e67046c58777685e0d02a9,老口味酸汤砂锅粉贵阳名优小吃鸡丝豆花面,美食,小吃快餐店,贵州省,贵阳市,花溪区,贵州省贵阳市花溪区小屯路9号楼,03e67046c58777685e0d02a9,1,0,106.685015,26.511898,18786672943,cater,http://api.map.baidu.com/place/detail?uid=03e67046c58777685e0d02a9&output=html&source=placeapi_v2,,07:00-24:00,,,,,,,,,,,,,,,,106.68500747857,26.511954673532,0
0376bb0c355db817c7f50db2,天津灌汤小笼包(中曹路店),美食,小吃快餐店,贵州省,贵阳市,花溪区,贵州贵阳市花溪区腾龙湾路4号,,1,0,106.686337,26.503991,18315566236,cater,http://api.map.baidu.com/place/detail?uid=0376bb0c355db817c7f50db2&output=html&source=placeapi_v2,,05:00-22:00,,,,,,,,,,,,,,,,,,0
b36287817deec2d78b2fb55e,织金砂锅粉,美食,小吃快餐店,贵州省,贵阳市,花溪区,贵阳市花溪区尖山街腾龙湾-A区东北侧约80米,,1,0,106.68693,26.504759,13618502429,cater,http://api.map.baidu.com/place/detail?uid=b36287817deec2d78b2fb55e&output=html&source=placeapi_v2,,,,,,,,,,,,,,,,,,,,0
08cb1a02e7858d846f476000,艳青粉面馆,美食,小吃快餐店,贵州省,贵阳市,花溪区,贵州省贵阳市花溪区鑫中路居美家铝合金门窗东北方向50米,08cb1a02e7858d846f476000,1,0,106.682208,26.507486,18302636013,cater,http://api.map.baidu.com/place/detail?uid=08cb1a02e7858d846f476000&output=html&source=placeapi_v2,,,,,,,,,,,,,,,,,,106.6822636565,26.5073729849,0
a10e6dfe2202c2a5fbf0cbf9,佳香粉面馆,美食,小吃快餐店,贵州省,贵阳市,花溪区,贵阳市花溪区大职路竹林综合农贸市场,,1,0,106.674994,26.483147,,cater,http://api.map.baidu.com/place/detail?uid=a10e6dfe2202c2a5fbf0cbf9&output=html&source=placeapi_v2,,,,,,,,,,,,,,,,,,,,0
74e28775444077001576438e,康利源放心石磨米线,美食,小吃快餐店,贵州省,贵阳市,花溪区,贵阳市花溪区小屯路东方小区南侧约60米,,1,0,106.685116,26.508596,,cater,http://api.map.baidu.com/place/detail?uid=74e28775444077001576438e&output=html&source=placeapi_v2,,,,,,,,,,,,,,,,,,,,0
4ff59736eb0577f8283a9f78,馋嘴花甲福建千里香馄饨王,美食,小吃快餐店,贵州省,贵阳市,花溪区,贵阳市花溪区大黔路竹林综合农贸市场东侧,,1,0,106.67551,26.482394,13985052545,cater,http://api.map.baidu.com/place/detail?uid=4ff59736eb0577f8283a9f78&output=html&source=placeapi_v2,,,,,,,,,,,,,,,,,,,,0
0d62fd92b0c15150c9fa5fa3,老陈豆花面,美食,小吃快餐店,贵州省,贵阳市,花溪区,贵州省贵阳市花溪区大职路557号,,1,0,106.674855,26.481774,,cater,http://api.map.baidu.com/place/detail?uid=0d62fd92b0c15150c9fa5fa3&output=html&source=placeapi_v2,,,5,,,,,,,,3,,,,,,,,,0
51546566a87fb98dc356ac6e,贵阳经开区李记羊肉粉面馆,美食,小吃快餐店,贵州省,贵阳市,花溪区,贵阳市花溪区花溪大道贵阳市花溪区红星小学北侧约40米,,1,0,106.684026,26.508652,,cater,http://api.map.baidu.com/place/detail?uid=51546566a87fb98dc356ac6e&output=html&source=placeapi_v2,,,,,,,,,,,,,,,,,,,,0
dbc3cd2c4ea207e840afe607,安顺清真原汤牛肉粉面馆,美食,小吃快餐店,贵州省,贵阳市,花溪区,贵州贵阳市花溪区南明中曹司小屯路733号,,1,0,106.684497,26.513017,,cater,http://api.map.baidu.com/place/detail?uid=dbc3cd2c4ea207e840afe607&output=html&source=placeapi_v2,,,,,,,,,,,,,,,,,,,,0
fed71432d703ddb022f017d9,正宗水城黑山羊牛羊肉粉面馆,美食,小吃快餐店,贵州省,贵阳市,花溪区,大职路539号,,1,0,106.675414,26.482891,15597725169,cater,http://api.map.baidu.com/place/detail?uid=fed71432d703ddb022f017d9&output=html&source=placeapi_v2,,,,,,,,,,,,,,,,,,,,0
f948af95f2aebc646c476004,福建千里香馄饨王(小屯路店),美食,小吃快餐店,贵州省,贵阳市,花溪区,贵州省贵阳市花溪区小屯路41号,f948af95f2aebc646c476004,1,0,106.685062,26.51146,15519097713,cater,http://api.map.baidu.com/place/detail?uid=f948af95f2aebc646c476004&output=html&source=placeapi_v2,10.0,06:30-20:00,,,,,,,,,,,,,,,,,,0
4aed28d78925c9121a11d5ad,蔡记水城牛羊肉杂粉,美食,小吃快餐店,贵州省,贵阳市,花溪区,贵阳市花溪区小屯路东方小区,4aed28d78925c9121a11d5ad,1,0,106.68498,26.512412,(0851)95100416,cater,http://api.map.baidu.com/place/detail?uid=4aed28d78925c9121a11d5ad&output=html&source=placeapi_v2,9.0,,3.5,,,,,,,,0,,,,,,,106.68510558431,26.512440655917,0
a94e275dda625cab0e3ddadd,享哆味(鑫中路店),美食,小吃快餐店,贵州省,贵阳市,花溪区,贵州省贵阳市花溪区鑫中路142号,,1,0,106.660506,26.498454,18096068442,cater,http://api.map.baidu.com/place/detail?uid=a94e275dda625cab0e3ddadd&output=html&source=placeapi_v2,8.0,08:00-24:00,3.0,,,,,,,,,,,,,,,,,0
11be647f26988d1f2e473377,王记便利蛋糕店,美食,小吃快餐店,贵州省,贵阳市,花溪区,贵阳市花溪区乌江路红林小区东北侧约30米,11be647f26988d1f2e473377,1,0,106.721135,26.492571,13984402571,cater,http://api.map.baidu.com/place/detail?uid=11be647f26988d1f2e473377&output=html&source=placeapi_v2,15.0,07:00-13:00,3.5,,,,,,,,0,,,,,,,106.72115797193,26.492751083786,0
e31f0838e849ceed8515417c,罗记粉面馆,美食,小吃快餐店,贵州省,贵阳市,花溪区,贵阳市花溪区乌江路贵阳市花溪第五幼儿园东北侧约80米,,1,0,106.719468,26.492638,,cater,http://api.map.baidu.com/place/detail?uid=e31f0838e849ceed8515417c&output=html&source=placeapi_v2,,,,,,,,,,,,,,,,,,106.7194645895,26.492764477808,0
9ec4a2ba669dc5f34251c063,贵阳小河陈明书米粉加工店,美食,小吃快餐店,贵州省,贵阳市,花溪区,贵阳市花溪区松花江路红林小区北侧约200米,,1,0,106.720593,26.494163,,cater,http://api.map.baidu.com/place/detail?uid=9ec4a2ba669dc5f34251c063&output=html&source=placeapi_v2,,,,,,,,,,,,,,,,,,,,0
7a9f06f03af52cefa80dd847,大田妹小吃,美食,小吃快餐店,贵州省,贵阳市,花溪区,贵阳市花溪区红河路龙湖园(开发大道北段)东南侧约50米,,1,0,106.706716,26.50525,,cater,http://api.map.baidu.com/place/detail?uid=7a9f06f03af52cefa80dd847&output=html&source=placeapi_v2,,,,,,,,,,,,,,,,,,,,0
6ea9db4f07a65e5275e5b622,晨春小吃,美食,小吃快餐店,贵州省,贵阳市,花溪区,贵阳市花溪区新业路贵阳大数据安全产业园东南侧约210米,,1,0,106.702245,26.496166,18212974653,cater,http://api.map.baidu.com/place/detail?uid=6ea9db4f07a65e5275e5b622&output=html&source=placeapi_v2,,,,,,,,,,,,,,,,,,,,0
e338f218bf01abee1d58005c,回味再想黄焖鸡米饭餐饮店,美食,小吃快餐店,贵州省,贵阳市,花溪区,贵阳市花溪区松花江路枫阳小区南侧约30米,,1,0,106.718461,26.507521,,cater,http://api.map.baidu.com/place/detail?uid=e338f218bf01abee1d58005c&output=html&source=placeapi_v2,,,,,,,,,,,,,,,,,,,,0
50872b55749ea0b5a6da399d,大众粉面店,美食,小吃快餐店,贵州省,贵阳市,花溪区,贵阳市花溪区红河路龙湖园(开发大道北段)东南侧约60米,50872b55749ea0b5a6da399d,1,0,106.706934,26.505249,,cater,http://api.map.baidu.com/place/detail?uid=50872b55749ea0b5a6da399d&output=html&source=placeapi_v2,,,0,,,,,,,,1,,,,,,,106.70707068923,26.505305499274,0
2bbc9d4a379adff438e4a65e,织金烙锅原汤牛肉粉,美食,小吃快餐店,贵州省,贵阳市,花溪区,贵州贵阳市花溪区浦江路190号中兴世家叠翠轩b栋1层16号,2bbc9d4a379adff438e4a65e,1,0,106.716908,26.509203,,cater,http://api.map.baidu.com/place/detail?uid=2bbc9d4a379adff438e4a65e&output=html&source=placeapi_v2,,,,,,,,,,,,,,,,,,,,0
cba1cc6098067484c42ba189,正宗沙县小吃,美食,小吃快餐店,贵州省,贵阳市,南明区,贵阳市南明区孟关大道东方现代钢材市场东南侧约40米,cba1cc6098067484c42ba189,1,0,106.746118,26.49481,,cater,http://api.map.baidu.com/place/detail?uid=cba1cc6098067484c42ba189&output=html&source=placeapi_v2,11.0,,,,,,,,,,,,,,,,,106.74602574449,26.494757806733,0
b7518bd9a9556812abf0cd93,牛魔王牛羊肉粉面馆,美食,小吃快餐店,贵州省,贵阳市,南明区,贵阳市南明区富源南路萌萌哒幼儿园西侧约60米,b7518bd9a9556812abf0cd93,1,0,106.747004,26.491409,,cater,http://api.map.baidu.com/place/detail?uid=b7518bd9a9556812abf0cd93&output=html&source=placeapi_v2,,,,,,,,,,,,,,,,,,,,0
aa22440a35c9dace4afc8d5f,沙县小吃,美食,小吃快餐店,贵州省,贵阳市,南明区,贵阳市南明区贵龙大道,,1,0,106.807003,26.506594,,cater,http://api.map.baidu.com/place/detail?uid=aa22440a35c9dace4afc8d5f&output=html&source=placeapi_v2,,,,,,,,,,,,,,,,,,,,0
c9b545e7949559ac9f82eaa0,马三回民小吃店,美食,小吃快餐店,贵州省,贵阳市,清镇市,贵州省贵阳市清镇市S102(东平路),,1,0,106.492848,26.53444,18785031899,cater,http://api.map.baidu.com/place/detail?uid=c9b545e7949559ac9f82eaa0&output=html&source=placeapi_v2,,,,,,,,,,,,,,,,,,106.49298842996,26.53446999205,0
0f376082db0e731a3586f48b,水城老城辣鸡粉面,美食,小吃快餐店,贵州省,贵阳市,清镇市,贵阳市清镇市中医院(巢凤院区)西北侧,,1,0,106.493279,26.532736,18786769736,cater,http://api.map.baidu.com/place/detail?uid=0f376082db0e731a3586f48b&output=html&source=placeapi_v2,,,,,,,,,,,,,,,,,,,,0
be5de188d9a60092f4eafc19,福建千里香馄饨,美食,小吃快餐店,贵州省,贵阳市,清镇市,贵州省贵阳市清镇市百马大道华丰国际食品城18-5号,,1,0,106.503495,26.543212,"13850207199,18159039177",cater,http://api.map.baidu.com/place/detail?uid=be5de188d9a60092f4eafc19&output=html&source=placeapi_v2,,,,,,,,,,,,,,,,,,106.50353200791,26.543143386429,0
de07e1d0202ce20151e5c513,福建千里香馄饨,美食,小吃快餐店,贵州省,贵阳市,清镇市,贵阳市清镇市东平路贵州省清镇市第四中学西北侧,,1,0,106.493417,26.534983,,cater,http://api.map.baidu.com/place/detail?uid=de07e1d0202ce20151e5c513&output=html&source=placeapi_v2,,,,,,,,,,,,,,,,,,,,0
e97eaab6cdd1d1e479f796fd,一棵树小吃店,美食,小吃快餐店,贵州省,贵阳市,南明区,贵阳市南明区花溪大道光华小区东侧约50米,e97eaab6cdd1d1e479f796fd,1,0,106.683532,26.528469,,cater,http://api.map.baidu.com/place/detail?uid=e97eaab6cdd1d1e479f796fd&output=html&source=placeapi_v2,,,,,,,,,,,,,,,,,,,,0
6735ee6d26b5d0eac61e51fb,实惠快餐店,美食,小吃快餐店,贵州省,贵阳市,南明区,贵阳市南明区花溪大道甘荫塘农贸市场南侧,,1,0,106.684307,26.530587,18786647233,cater,http://api.map.baidu.com/place/detail?uid=6735ee6d26b5d0eac61e51fb&output=html&source=placeapi_v2,,,,,,,,,,,,,,,,,,,,0
05085d4e0ed699a5e5073816,李妹葵花花生南瓜子胡豆豌豆,美食,小吃快餐店,贵州省,贵阳市,南明区,贵阳市南明区五湖巷南明区甘荫塘小学北侧,,1,0,106.686013,26.529097,13628516455,cater,http://api.map.baidu.com/place/detail?uid=05085d4e0ed699a5e5073816&output=html&source=placeapi_v2,,,,,,,,,,,,,,,,,,,,0
460ff9a61af2db24626858f5,甘萌塘小吃店,美食,小吃快餐店,贵州省,贵阳市,南明区,贵州省贵阳市南明区花溪大道中段65号,460ff9a61af2db24626858f5,1,0,106.685233,26.532817,13984890706,cater,http://api.map.baidu.com/place/detail?uid=460ff9a61af2db24626858f5&output=html&source=placeapi_v2,,10:30-22:00,3.5,,,,,,,,,,,,,,,,,0
f38b81bdbac4f769c61e51f2,莉莉小吃,美食,小吃快餐店,贵州省,贵阳市,南明区,贵州省贵阳市南明区五福巷1号,f38b81bdbac4f769c61e51f2,1,0,106.684662,26.529894,15285138391,cater,http://api.map.baidu.com/place/detail?uid=f38b81bdbac4f769c61e51f2&output=html&source=placeapi_v2,,,,,,,,,,,,,,,,,,106.68470541346,26.530045184738,0
991c4fd8af42b947db1318ef,文记特色小吃,美食,小吃快餐店,贵州省,贵阳市,南明区,贵阳市南明区上坝巷中坝公租房幸福小区东侧,,1,0,106.676881,26.523553,,cater,http://api.map.baidu.com/place/detail?uid=991c4fd8af42b947db1318ef&output=html&source=placeapi_v2,,,,,,,,,,,,,,,,,,106.67686493201,26.52346109386,0
84e4135ff7bd41832dfaa7ec,敖家秘制牛肉粉面馆,美食,小吃快餐店,贵州省,贵阳市,南明区,贵阳市南明区花溪大道光华小区东北侧约60米,,1,0,106.68357,26.528801,13698564359,cater,http://api.map.baidu.com/place/detail?uid=84e4135ff7bd41832dfaa7ec&output=html&source=placeapi_v2,,,,,,,,,,,,,,,,,,,,0
ff3921405b86dad7d0ff23d7,唐记小吃店,美食,小吃快餐店,贵州省,贵阳市,南明区,贵州贵阳市南明区甘荫塘倒牌坊1号,,1,0,106.683077,26.520727,,cater,http://api.map.baidu.com/place/detail?uid=ff3921405b86dad7d0ff23d7&output=html&source=placeapi_v2,,,,,,,,,,,,,,,,,,,,0
29ac9973ea46cb997ab55c10,山里土家快餐(花溪大道中段店),美食,小吃快餐店,贵州省,贵阳市,南明区,贵州省贵阳市南明区花溪大道中段152号,29ac9973ea46cb997ab55c10,1,0,106.683549,26.521292,18185159141,cater,http://api.map.baidu.com/place/detail?uid=29ac9973ea46cb997ab55c10&output=html&source=placeapi_v2,,,,,,,,,,,,,,,,,,,,0
a6a9fb9f2569188d3ce23170,满口香粉面饭馆,美食,小吃快餐店,贵州省,贵阳市,南明区,贵阳市南明区四喜路甘荫塘农贸市场东北侧约130米,a6a9fb9f2569188d3ce23170,1,0,106.686218,26.531854,13985563149,cater,http://api.map.baidu.com/place/detail?uid=a6a9fb9f2569188d3ce23170&output=html&source=placeapi_v2,,,,,,,,,,,,,,,,,,106.6862551315,26.531831316582,0
15629202d7ee0d9e0b69d938,福建千里香馄饨王(上坝路店),美食,小吃快餐店,贵州省,贵阳市,南明区,贵阳市南明区上坝路中坝公租房幸福小区东侧约40米,,1,0,106.677051,26.523343,,cater,http://api.map.baidu.com/place/detail?uid=15629202d7ee0d9e0b69d938&output=html&source=placeapi_v2,,,,,,,,,,,,,,,,,,,,0
cc694adf07cd3d195fbe86f8,阿哈湖湿地公园小吃店,美食,小吃快餐店,贵州省,贵阳市,南明区,贵州省贵阳市南明区G212(小车河大桥),,1,0,106.674832,26.546304,,cater,http://api.map.baidu.com/place/detail?uid=cc694adf07cd3d195fbe86f8&output=html&source=placeapi_v2,,,,,,,,,,,,,,,,,,106.67507776038,26.546335647427,0
37a77847a52b79a3028972d1,沙县小吃,美食,小吃快餐店,贵州省,贵阳市,花溪区,贵州省贵阳市花溪区小河屯路221号,37a77847a52b79a3028972d1,1,0,106.684934,26.513006,,cater,http://api.map.baidu.com/place/detail?uid=37a77847a52b79a3028972d1&output=html&source=placeapi_v2,,10:00-22:00,,,,,,,,,,,,,,,,106.68497904092,26.513072723657,0
ee833e1fd71b2d48c1f1cf42,赵记牛羊肉粉面馆,美食,小吃快餐店,贵州省,贵阳市,南明区,贵阳市南明区上坝路中坝公租房幸福小区东侧约50米,,1,0,106.677426,26.523265,,cater,http://api.map.baidu.com/place/detail?uid=ee833e1fd71b2d48c1f1cf42&output=html&source=placeapi_v2,,,,,,,,,,,,,,,,,,,,0
78bb4d5986423c6c5d17c341,溢香居羊肉粉肠旺面,美食,小吃快餐店,贵州省,贵阳市,南明区,贵阳市南明区花溪大道菊花洞路社区西侧约40米,78bb4d5986423c6c5d17c341,1,0,106.68349,26.520963,15285092339,cater,http://api.map.baidu.com/place/detail?uid=78bb4d5986423c6c5d17c341&output=html&source=placeapi_v2,,,,,,,,,,,,,,,,,,,,0
5d2946051ec84b178bf15d81,姊妹粉面馆,美食,小吃快餐店,贵州省,贵阳市,南明区,贵阳市南明区菊花洞路菊花洞路社区西北侧,,1,0,106.684932,26.521025,13765837286,cater,http://api.map.baidu.com/place/detail?uid=5d2946051ec84b178bf15d81&output=html&source=placeapi_v2,,,,,,,,,,,,,,,,,,106.68491496478,26.520937627732,0
46e86fdd8ae96a76d03ce3e4,周记满香苑牛肉粉,美食,小吃快餐店,贵州省,贵阳市,南明区,贵州省贵阳市南明区花溪大道中段154号,46e86fdd8ae96a76d03ce3e4,1,0,106.683515,26.520975,13984140746,cater,http://api.map.baidu.com/place/detail?uid=46e86fdd8ae96a76d03ce3e4&output=html&source=placeapi_v2,12.0,,3.6,,,,,,,,31,,,,,,,106.68360495957,26.520975719617,0
c886842552cc18f03be4a6fc,林城粉面馆,美食,小吃快餐店,贵州省,贵阳市,花溪区,贵阳市花溪区西南环线东方小区北侧约130米,c886842552cc18f03be4a6fc,1,0,106.684716,26.515196,,cater,http://api.map.baidu.com/place/detail?uid=c886842552cc18f03be4a6fc&output=html&source=placeapi_v2,,,,,,,,,,,,,,,,,,,,0
e2d87e6a6e214c258936eee7,福建千里香馄饨王(四方河路店),美食,小吃快餐店,贵州省,贵阳市,南明区,贵阳市南明区四方河路128号,,1,0,106.691954,26.534619,18150133892,cater,http://api.map.baidu.com/place/detail?uid=e2d87e6a6e214c258936eee7&output=html&source=placeapi_v2,11.0,,,,,,,,,,,,,,,,,106.69197580509,26.534676058094,0
dbc3cd2c4ea207e840afe607,安顺清真原汤牛肉粉面馆,美食,小吃快餐店,贵州省,贵阳市,花溪区,贵州贵阳市花溪区南明中曹司小屯路733号,,1,0,106.684497,26.513017,,cater,http://api.map.baidu.com/place/detail?uid=dbc3cd2c4ea207e840afe607&output=html&source=placeapi_v2,,,,,,,,,,,,,,,,,,,,0
c2bccfcf3a5d0b4821f0172e,福建千里香馄饨,美食,小吃快餐店,贵州省,贵阳市,花溪区,贵州省贵阳市花溪区干平路山水黔城一组团2栋18号,c2bccfcf3a5d0b4821f0172e,1,0,106.693368,26.525804,13249392296,cater,http://api.map.baidu.com/place/detail?uid=c2bccfcf3a5d0b4821f0172e&output=html&source=placeapi_v2,,,,,,,,,,,,,,,,,,,,0
748097ef648e5d99b74f5491,安顺黄焖牛肉粉(第三分店),美食,小吃快餐店,贵州省,贵阳市,花溪区,贵州省贵阳市花溪区干平路山水黔城一组团2号楼,748097ef648e5d99b74f5491,1,0,106.694125,26.525688,13984879207,cater,http://api.map.baidu.com/place/detail?uid=748097ef648e5d99b74f5491&output=html&source=placeapi_v2,,,,,,,,,,,,,,,,,,106.69424782364,26.525437805509,0
7cd7b251528bc4798d77271d,肠旺面豆花面,美食,小吃快餐店,贵州省,贵阳市,南明区,贵阳市南明区四方河路安东公司对面,7cd7b251528bc4798d77271d,1,0,106.695417,26.535858,"13385101586,18212027605",cater,http://api.map.baidu.com/place/detail?uid=7cd7b251528bc4798d77271d&output=html&source=placeapi_v2,,,3.4,,,,,,,,1,,,,,,,106.6952841466,26.535987100825,0
4aed28d78925c9121a11d5ad,蔡记水城牛羊肉杂粉,美食,小吃快餐店,贵州省,贵阳市,花溪区,贵阳市花溪区小屯路东方小区,4aed28d78925c9121a11d5ad,1,0,106.68498,26.512412,(0851)95100416,cater,http://api.map.baidu.com/place/detail?uid=4aed28d78925c9121a11d5ad&output=html&source=placeapi_v2,9.0,,3.5,,,,,,,,0,,,,,,,106.68510558431,26.512440655917,0
7819c52e472357c4c37da227,草包豆品(十分店),美食,小吃快餐店,贵州省,贵阳市,花溪区,贵阳市花溪区瑞华社区服务中心瑞华社区服务中心金域华府12栋一层,,1,0,106.722232,26.526261,15885016031,cater,http://api.map.baidu.com/place/detail?uid=7819c52e472357c4c37da227&output=html&source=placeapi_v2,,08:00-19:00,5,,,,,,,2,1,,,,,,,,,0
9852306b16d9707ed518b7b4,聚众快餐店,美食,小吃快餐店,贵州省,贵阳市,花溪区,贵阳市花溪区珠江路贵阳格兰云天国际酒店东侧,,1,0,106.71764,26.536217,,cater,http://api.map.baidu.com/place/detail?uid=9852306b16d9707ed518b7b4&output=html&source=placeapi_v2,,,,,,,,,,,,,,,,,,106.71777787736,26.536062285587,0
25b11cc86123c3a8246e980f,兄弟快餐店,美食,小吃快餐店,贵州省,贵阳市,南明区,贵阳市南明区关田巷贵阳南明区宏宇小学东南侧约140米,,1,0,106.724502,26.541954,,cater,http://api.map.baidu.com/place/detail?uid=25b11cc86123c3a8246e980f&output=html&source=placeapi_v2,,,,,,,,,,,,,,,,,,,,0
cd9ac5a5f569fb2d3be4a6e1,周记特色小吃店,美食,小吃快餐店,贵州省,贵阳市,花溪区,贵阳市花溪区盘江路珠江公寓西北侧约40米,,1,0,106.715884,26.526509,,cater,http://api.map.baidu.com/place/detail?uid=cd9ac5a5f569fb2d3be4a6e1&output=html&source=placeapi_v2,,,,,,,,,,,1,,,,,,,,,0
cf0a3ff6e3b37d5b8605bfb0,吴家小吃(长江路店),美食,小吃快餐店,贵州省,贵阳市,花溪区,贵州省贵阳市花溪区盘江路282号,cf0a3ff6e3b37d5b8605bfb0,1,0,106.711591,26.528896,"15285139883,18984130887",cater,http://api.map.baidu.com/place/detail?uid=cf0a3ff6e3b37d5b8605bfb0&output=html&source=placeapi_v2,,,,,,,,,,,,,,,,,,,,0
2473657a079593824e2fdf8f,天府棒棒鸡(万科店),美食,小吃快餐店,贵州省,贵阳市,花溪区,贵阳市花溪区长江路万科大都会步行街北区S12-138号,2473657a079593824e2fdf8f,1,0,106.719657,26.526556,4006891887,cater,http://api.map.baidu.com/place/detail?uid=2473657a079593824e2fdf8f&output=html&source=placeapi_v2,30.0,09:00-21:00,3.7,,,,,,,,1,,,,,,,,,0
6e71d79f1d6b95135fd4fe6b,正新鸡排(盘江南路店),美食,小吃快餐店,贵州省,贵阳市,花溪区,贵州省贵阳市花溪区清浦社区服务中心黄河路北,,1,0,106.711647,26.525474,18786646764,cater,http://api.map.baidu.com/place/detail?uid=6e71d79f1d6b95135fd4fe6b&output=html&source=placeapi_v2,13.0,09:30-23:30,3.4,,,,,,,,,,,,,,,106.71147161548,26.525281613897,0
ec5de4aca4701381220220f2,华莱士(长江路店),美食,小吃快餐店,贵州省,贵阳市,花溪区,贵州省贵阳市花溪区长江路与珠江路交叉处华榕大厦A栋337号,ec5de4aca4701381220220f2,1,0,106.716602,26.52898,18285197968,cater,http://api.map.baidu.com/place/detail?uid=ec5de4aca4701381220220f2&output=html&source=placeapi_v2,22.0,09:00-21:00,3.5,,,,,,,31,30,,,,,,,106.716619993,26.528863088462,0
76d936abdc57e987e015f987,杨铭宇黄焖鸡米饭(恒大店),美食,小吃快餐店,贵州省,贵阳市,花溪区,贵州省贵阳市花溪区珠江路70号恒大翡翠华庭3栋1层9号,,1,0,106.718341,26.524347,13595020947,cater,http://api.map.baidu.com/place/detail?uid=76d936abdc57e987e015f987&output=html&source=placeapi_v2,19.0,09:00-22:00,3.4,,,,,,,,,,,,,,,,,0
e474fe9d0fb23f04343a712d,饿大头糯米饭(小河店),美食,小吃快餐店,贵州省,贵阳市,花溪区,贵州省贵阳市花溪区长江路274号,,1,0,106.71411,26.5283,13518517321,cater,http://api.map.baidu.com/place/detail?uid=e474fe9d0fb23f04343a712d&output=html&source=placeapi_v2,16.0,07:00-19:00,3.8,,,,,,,,0,,,,,,,106.71408915108,26.528430381266,0
bd631b3c70a19dcc734b87ec,李记小吃店,美食,小吃快餐店,贵州省,贵阳市,花溪区,贵州省贵阳市花溪区响水巷4-5号,bd631b3c70a19dcc734b87ec,1,0,106.708215,26.523181,,cater,http://api.map.baidu.com/place/detail?uid=bd631b3c70a19dcc734b87ec&output=html&source=placeapi_v2,14.0,,0,,,,,,,,0,,,,,,,106.70814330643,26.523201122073,0
f6403fd057959bf370455ba7,残疾人水果烙锅小吃店,美食,小吃快餐店,贵州省,贵阳市,花溪区,珠江路与长江路交叉口东200米万科大都会北区龙门阵后面的小吃街,,1,0,106.719177,26.528758,"13984147113,18267561280",cater,http://api.map.baidu.com/place/detail?uid=f6403fd057959bf370455ba7&output=html&source=placeapi_v2,,,,,,,,,,1,,,,,,,,106.71911728232,26.529070677781,0
39021f306464ed1b932ca3dc,丝恋红汤丝娃娃(海纳广场店),美食,小吃快餐店,贵州省,贵阳市,花溪区,黄河路42号海纳广场F1,39021f306464ed1b932ca3dc,1,0,106.708609,26.527158,(0851)83877397,cater,http://api.map.baidu.com/place/detail?uid=39021f306464ed1b932ca3dc&output=html&source=placeapi_v2,49.0,11:30-21:00,4.5,,,,,,,,3,,,,,,,106.70845676206,26.527132157496,0
928e5571c06e93bcbfa8220e,正宗哈尔滨饺子店(长江路店),美食,小吃快餐店,贵州省,贵阳市,花溪区,贵州省贵阳市花溪区长江路302号,928e5571c06e93bcbfa8220e,1,0,106.71464,26.52833,18084366797,cater,http://api.map.baidu.com/place/detail?uid=928e5571c06e93bcbfa8220e&output=html&source=placeapi_v2,22.0,09:30-19:30,0.0,,,,,,,,,,,,,,,,,0
0f67f91f9f8175f13617dc7c,正新鸡排(鑫达店),美食,小吃快餐店,贵州省,贵阳市,花溪区,贵阳市花溪区长江路20号,0f67f91f9f8175f13617dc7c,1,0,106.709403,26.52894,18275235141,cater,http://api.map.baidu.com/place/detail?uid=0f67f91f9f8175f13617dc7c&output=html&source=placeapi_v2,12.0,08:30-23:30,3.7,,,,,,,,0,,,,,,,106.70939154596,26.529069353296,0
100a41463082e5b83f9a5e26,朱记脆哨燃面馆,美食,小吃快餐店,贵州省,贵阳市,花溪区,贵州省贵阳市花溪区珠江路珠江公寓门西1-8号,100a41463082e5b83f9a5e26,1,0,106.717173,26.526177,18785039525,cater,http://api.map.baidu.com/place/detail?uid=100a41463082e5b83f9a5e26&output=html&source=placeapi_v2,,10:00-21:00,3.5,,,,,,,,5,,,,,,,,,0
b7b98f1f2d6dc2fb2b201a55,煎饼王(浦江路店),美食,小吃快餐店,贵州省,贵阳市,花溪区,贵阳市花溪区经济开发区浦江路阳光嘉园1层8号,,1,0,106.715819,26.519547,17685010530,cater,http://api.map.baidu.com/place/detail?uid=b7b98f1f2d6dc2fb2b201a55&output=html&source=placeapi_v2,,07:00-19:30,3.5,,,,,,,,1,,,,,,,,,0
ced4fc7aaaec31ecfb22135f,胖妹面庄(贵阳总店),美食,小吃快餐店,贵州省,贵阳市,花溪区,贵州省贵阳市花溪区珠江路金珠湾大酒店对面,ced4fc7aaaec31ecfb22135f,1,0,106.717288,26.534455,15508518978,life,http://api.map.baidu.com/place/detail?uid=ced4fc7aaaec31ecfb22135f&output=html&source=placeapi_v2,,,,,,,,,,19,1,,,,,,,106.7174221394,26.534415711991,0
b942fa76596b568c9e95ded7,贞丰特色糯米饭(长江路店),美食,小吃快餐店,贵州省,贵阳市,花溪区,贵阳市花溪区长江路148号,b942fa76596b568c9e95ded7,1,0,106.711005,26.528304,18786083134,cater,http://api.map.baidu.com/place/detail?uid=b942fa76596b568c9e95ded7&output=html&source=placeapi_v2,,08:00-22:00,3.7,,,,,,,,0,,,,,,,106.71095203018,26.52832003023,0
1eb4c66dbef7812ba1a93424,疯狂薯条(海纳广场店),美食,小吃快餐店,贵州省,贵阳市,花溪区,黄河路42号海纳广场F3,1eb4c66dbef7812ba1a93424,1,0,106.709126,26.527939,18185025582,cater,http://api.map.baidu.com/place/detail?uid=1eb4c66dbef7812ba1a93424&output=html&source=placeapi_v2,11.0,12:00-21:35,0,,,,,,,,0,,,,,,,106.70903154104,26.525873457211,0
ab9f93ef7dd55fa6f7eafcf3,菌满园肉饼鸡(小河店),美食,小吃快餐店,贵州省,贵阳市,花溪区,贵州省贵阳市花溪区盘江路71号大唐果2号楼,ab9f93ef7dd55fa6f7eafcf3,1,0,106.710863,26.525877,(0851)85100001,cater,http://api.map.baidu.com/place/detail?uid=ab9f93ef7dd55fa6f7eafcf3&output=html&source=placeapi_v2,61.0,10:00-22:00,3.6,,,,,,,,1,,,,,,,106.71075325314,26.525712087705,0
1360877afc84c1d05b10934a,广东肠粉(缤纷广场店),美食,小吃快餐店,贵州省,贵阳市,花溪区,贵阳市花溪区浦江路缤纷广场负2-23号,,1,0,106.704179,26.522454,"13714100547,18586829705",cater,http://api.map.baidu.com/place/detail?uid=1360877afc84c1d05b10934a&output=html&source=placeapi_v2,,08:00-21:00,,,,,,,,,,,,,,,,,,0
a728bf9824d972e6d6b74ed2,旺相羊肉粉馆(浦江路店),美食,小吃快餐店,贵州省,贵阳市,花溪区,贵州省贵阳市花溪区浦江路115号,a728bf9824d972e6d6b74ed2,1,0,106.710647,26.522185,15086036898,cater,http://api.map.baidu.com/place/detail?uid=a728bf9824d972e6d6b74ed2&output=html&source=placeapi_v2,13.0,05:00-18:00,3.7,,,,,,,,0,,,,,,,106.71049724685,26.522084859058,0
fc2607b724ceec93c51e516c,张氏面馆(淮河路店),美食,小吃快餐店,贵州省,贵阳市,花溪区,贵州省贵阳市花溪区经济技术开发区淮河路199号附2号淮河路商业街D栋1层31号,fc2607b724ceec93c51e516c,1,0,106.701996,26.524232,"13312206881,13639055543,13968087802",cater,http://api.map.baidu.com/place/detail?uid=fc2607b724ceec93c51e516c&output=html&source=placeapi_v2,16.0,06:30-16:00,3.7,,,,,,,,12,,,,,,,106.70200908892,26.524278526529,0
b6b8878cf070fd89ca291539,福吧豆米火锅(海纳广场店),美食,小吃快餐店,贵州省,贵阳市,花溪区,贵州省贵阳市花溪区经济技术开发区黄河路42号碧园花城10号楼负1层7号门面,b6b8878cf070fd89ca291539,1,0,106.709751,26.527788,13984815959,cater,http://api.map.baidu.com/place/detail?uid=b6b8878cf070fd89ca291539&output=html&source=placeapi_v2,58.0,11:00-21:00,3.6,,,,,,,,0,,,,,,,106.70979235999,26.527804281653,0
cb1e628aa1922681f50e7791,水城羊肉粉(长江路店),美食,小吃快餐店,贵州省,贵阳市,花溪区,贵州省贵阳市花溪区黔江社区服务中心小河盘江路72号大唐果对面,cb1e628aa1922681f50e7791,1,0,106.714063,26.528294,18985196375,cater,http://api.map.baidu.com/place/detail?uid=cb1e628aa1922681f50e7791&output=html&source=placeapi_v2,,07:00-20:00,3.5,,,,,,,,7,,,,,,,,,0
5aef9886b759f16896f08c7c,天府棒棒鸡(长江路店),美食,小吃快餐店,贵州省,贵阳市,花溪区,贵州省贵阳市花溪区长江路25号,5aef9886b759f16896f08c7c,1,0,106.710164,26.528749,13984325207,cater,http://api.map.baidu.com/place/detail?uid=5aef9886b759f16896f08c7c&output=html&source=placeapi_v2,10.0,10:00-20:00,4.4,,,,,,,,24,,,,,,,106.7101826396,26.528892409488,0
ca4d5018b9ac55e0d618b73b,叫了只炸鸡(小河店),美食,小吃快餐店,贵州省,贵阳市,花溪区,贵州省贵阳市花溪区黄河路42号碧园花城c4栋1-38号,,1,0,106.710024,26.526752,15086020605,cater,http://api.map.baidu.com/place/detail?uid=ca4d5018b9ac55e0d618b73b&output=html&source=placeapi_v2,,09:30-24:00,3.5,,,,,,,,,,,,,,,,,0
05dd7d5f33193818ac080fe5,乡村基(万达广场贵阳龙湾店),美食,小吃快餐店,贵州省,贵阳市,花溪区,贵州省贵阳市花溪区黄河路2号万达广场F1,05dd7d5f33193818ac080fe5,1,0,106.708591,26.53001,4006789977,cater,http://api.map.baidu.com/place/detail?uid=05dd7d5f33193818ac080fe5&output=html&source=placeapi_v2,25.0,10:30-20:30,4.6,,,,,,,,8,,,,,,,106.70842086307,26.529784661142,0
27680409cbf938c31911d578,肯德基(海纳广场餐厅),美食,小吃快餐店,贵州省,贵阳市,花溪区,黄河路42号海纳广场F2,27680409cbf938c31911d578,1,0,106.708488,26.526351,(0851)83838959,cater,http://api.map.baidu.com/place/detail?uid=27680409cbf938c31911d578&output=html&source=placeapi_v2,31.0,07:00-23:00,3.8,,,,,,,,6,,,,,,,106.70903154104,26.525873457211,0
ebdbc1ae88e8df4f715e80a7,禾味老字号肠旺粉面,美食,小吃快餐店,贵州省,贵阳市,花溪区,贵州省贵阳市花溪区麦兆巷3号,ebdbc1ae88e8df4f715e80a7,1,0,106.706698,26.519446,15085934788,cater,http://api.map.baidu.com/place/detail?uid=ebdbc1ae88e8df4f715e80a7&output=html&source=placeapi_v2,,00:00-24:00,3.4,,,,,,,,1,,,,,,,106.70667254945,26.519410517702,0
ecc8ec93040174fb17948e04,秦云老太婆摊摊面(小河店),美食,小吃快餐店,贵州省,贵阳市,花溪区,贵州省贵阳市花溪区长江路95号,ecc8ec93040174fb17948e04,1,0,106.711566,26.528748,18984817696,cater,http://api.map.baidu.com/place/detail?uid=ecc8ec93040174fb17948e04&output=html&source=placeapi_v2,12.0,06:00-20:00,3.5,,,,,,,,1,,,,,,,106.71154957762,26.528689544853,0
cbeee782323c4f28c51b758b,余千味饭团(海纳广场店),美食,小吃快餐店,贵州省,贵阳市,花溪区,贵州省贵阳市花溪区黄河路42号碧园花城9号楼负一层A-4号(电影院城),cbeee782323c4f28c51b758b,1,0,106.708871,26.527864,18798639959,cater,http://api.map.baidu.com/place/detail?uid=cbeee782323c4f28c51b758b&output=html&source=placeapi_v2,13.0,10:30-21:00,3.8,,,,,,,,47,,,,,,,106.70903154104,26.525873457211,0
1f3cf9f1326f4a413913fda1,绝味鸭脖(清水江店),美食,小吃快餐店,贵州省,贵阳市,花溪区,贵州省贵阳市花溪区清水江路85号,1f3cf9f1326f4a413913fda1,1,0,106.705107,26.51972,13885089577,cater,http://api.map.baidu.com/place/detail?uid=1f3cf9f1326f4a413913fda1&output=html&source=placeapi_v2,30.0,10:00-23:00,3.5,,,,,,,,4,,,,,,,106.70500916971,26.519633995519,0
3d2f44819a8d8f315abbbc8d,董记牛肉粉(贵阳小河店),美食,小吃快餐店,贵州省,贵阳市,花溪区,贵州省贵阳市花溪区清水江路144号,3d2f44819a8d8f315abbbc8d,1,0,106.709796,26.515219,13765072049,cater,http://api.map.baidu.com/place/detail?uid=3d2f44819a8d8f315abbbc8d&output=html&source=placeapi_v2,,07:00-16:00,3.7,,,,,,,,3,,,,,,,106.7097588532,26.515249086556,0
0cdabf994059963c6240a9b2,天天老素粉(大唐果店),美食,小吃快餐店,贵州省,贵阳市,花溪区,贵州省贵阳市花溪区小河盘江路2-1-17号大唐果第1-2号楼1层17号,0cdabf994059963c6240a9b2,1,0,106.710413,26.526033,18685448415,cater,http://api.map.baidu.com/place/detail?uid=0cdabf994059963c6240a9b2&output=html&source=placeapi_v2,10.0,07:30-15:00,3.6,,,,,,,,15,,,,,,,,,0
9ab6191b4df3536c96ca0729,功夫卤味(大唐果店),美食,小吃快餐店,贵州省,贵阳市,花溪区,贵州省贵阳市花溪区盘江路大唐果小区3栋1单元1号,9ab6191b4df3536c96ca0729,1,0,106.710127,26.527202,13098514443,cater,http://api.map.baidu.com/place/detail?uid=9ab6191b4df3536c96ca0729&output=html&source=placeapi_v2,28.0,09:00-21:00,3.7,,,,,,,,0,,,,,,,106.71005090759,26.527182277528,0
5a1b9612dddfeabcf4b91612,各类名优小吃超市,美食,小吃快餐店,贵州省,贵阳市,南明区,贵阳市南明区小碧路贵阳龙洞堡汽车客运站西南侧约90米,5a1b9612dddfeabcf4b91612,1,0,106.781627,26.526507,,cater,http://api.map.baidu.com/place/detail?uid=5a1b9612dddfeabcf4b91612&output=html&source=placeapi_v2,,07:30-23:30,,,,,,,,,,,,,,,,106.78138151055,26.526774456587,0
df0b8cc1cb950f535bf6be06,贵阳名小吃,美食,小吃快餐店,贵州省,贵阳市,南明区,贵州省贵阳市南明区机场路龙洞堡机场t2航站楼,,1,0,106.806637,26.547008,,cater,http://api.map.baidu.com/place/detail?uid=df0b8cc1cb950f535bf6be06&output=html&source=placeapi_v2,58.0,06:30-22:00,3.3,,,,,,,,8,,,,,,,106.80573929714,26.547270719172,0
d310b277e061ea6643afe67d,沙县小吃,美食,小吃快餐店,贵州省,贵阳市,清镇市,贵阳市清镇市巢东路贵州马上到公路港,d310b277e061ea6643afe67d,1,0,106.510065,26.555904,18302675113,cater,http://api.map.baidu.com/place/detail?uid=d310b277e061ea6643afe67d&output=html&source=placeapi_v2,,08:00-03:30,,,,,,,,,,,,,,,,,,0
d6bd98b13214bc42cc06a49c,贵林快餐店,美食,小吃快餐店,贵州省,贵阳市,清镇市,贵阳市清镇市东山大道贵州运东综合市场西侧约190米,,1,0,106.507177,26.549238,15985154131,cater,http://api.map.baidu.com/place/detail?uid=d6bd98b13214bc42cc06a49c&output=html&source=placeapi_v2,,,,,,,,,,,,,,,,,,,,0
8729437024580b1bd7851fbe,川渝粉面馆,美食,小吃快餐店,贵州省,贵阳市,清镇市,贵阳市清镇市巢东路贵州马上到公路港,,1,0,106.510752,26.555433,,cater,http://api.map.baidu.com/place/detail?uid=8729437024580b1bd7851fbe&output=html&source=placeapi_v2,,,,,,,,,,,,,,,,,,,,0
83b0ec2bf4872680ae31e5fe,马场王记辣鸡肠旺粉面馆,美食,小吃快餐店,贵州省,贵阳市,清镇市,贵阳市清镇市巢凤大道铂斯曼酒店东侧约150米,,1,0,106.498271,26.560215,15285903152,cater,http://api.map.baidu.com/place/detail?uid=83b0ec2bf4872680ae31e5fe&output=html&source=placeapi_v2,,,,,,,,,,,,,,,,,,106.49826683092,26.560115209913,0
5005aef2ad5a40ffafee7a02,野山椒牛羊肉粉面(栗山路店),美食,小吃快餐店,贵州省,贵阳市,清镇市,贵州省贵阳市清镇市栗山路167号,5005aef2ad5a40ffafee7a02,1,0,106.509612,26.570697,18208513108,cater,http://api.map.baidu.com/place/detail?uid=5005aef2ad5a40ffafee7a02&output=html&source=placeapi_v2,,06:30-22:00,,,,,,,,,,,,,,,,106.50969840722,26.570629119597,0
ba65a46dc04b1c5284330430,米粉销售,美食,小吃快餐店,贵州省,贵阳市,清镇市,贵阳市清镇市盘江路星宇幼儿园南侧,,1,0,106.500912,26.571427,,cater,http://api.map.baidu.com/place/detail?uid=ba65a46dc04b1c5284330430&output=html&source=placeapi_v2,,,,,,,,,,1,,,,,,,,,,0
8e0f1bf58a1274512afc489f,安顺杨记小吃(云岭东路店),美食,小吃快餐店,贵州省,贵阳市,清镇市,贵阳市清镇市云岭东路东门广场,,1,0,106.492393,26.562146,,cater,http://api.map.baidu.com/place/detail?uid=8e0f1bf58a1274512afc489f&output=html&source=placeapi_v2,,,,,,,,,,,,,,,,,,,,0
8306a2cc78fad895725e80bf,习水鲜带皮牛羊肉粉面馆,美食,小吃快餐店,贵州省,贵阳市,清镇市,清镇市源兴二巷东门桥小学西北侧约150米,,1,0,106.493832,26.567382,18798447638,cater,http://api.map.baidu.com/place/detail?uid=8306a2cc78fad895725e80bf&output=html&source=placeapi_v2,,,,,,,,,,,,,,,,,,106.49383776435,26.567475374462,0
50ff2271d7435a9ff33cbadf,发妹黑山羊清香牛羊肉粉面,美食,小吃快餐店,贵州省,贵阳市,清镇市,贵州贵阳市清镇市曹家坡路9号,,1,0,106.491939,26.564719,18302524315,cater,http://api.map.baidu.com/place/detail?uid=50ff2271d7435a9ff33cbadf&output=html&source=placeapi_v2,,,,,,,,,,,,,,,,,,106.4919859812,26.564795228222,0
0ce47df9a106d49796f08c74,金沙沙土原汤牛羊肉粉,美食,小吃快餐店,贵州省,贵阳市,观山湖区,贵阳市观山湖区春晖路长城小区西侧约50米,,1,0,106.551185,26.564735,,cater,http://api.map.baidu.com/place/detail?uid=0ce47df9a106d49796f08c74&output=html&source=placeapi_v2,,,3.4,,,,,,,,,,,,,,,106.55106122308,26.564714796037,0
1eb857e7834c539b2806ceef,王二妹小吃,美食,小吃快餐店,贵州省,贵阳市,观山湖区,贵阳市观山湖区春晖路今朝幼儿园东北侧约50米,,1,0,106.551873,26.569653,"13885024939,17785938612",cater,http://api.map.baidu.com/place/detail?uid=1eb857e7834c539b2806ceef&output=html&source=placeapi_v2,,09:00-21:00,,,,,,,,,,,,,,,,,,0
90a724c0e84fd62572210b80,豆花面,美食,小吃快餐店,贵州省,贵阳市,观山湖区,贵阳市观山湖区悦城三期22栋14号,,1,0,106.56021,26.574834,15985000421,cater,http://api.map.baidu.com/place/detail?uid=90a724c0e84fd62572210b80&output=html&source=placeapi_v2,,,,,,,,,,,,,,,,,,,,0
81cae952ba6e0a6dc9e33cfa,R区沙县小吃店(沙县小吃财富广场6号楼店),美食,小吃快餐店,贵州省,贵阳市,南明区,贵阳市南明区花果园财富广场6号楼一楼104号,,1,0,106.677795,26.564828,,cater,http://api.map.baidu.com/place/detail?uid=81cae952ba6e0a6dc9e33cfa&output=html&source=placeapi_v2,,,,,,,,,,,,,,,,,,,,0
35e0e166af2c7a3c2b06ce05,卤人甲卤炸鸡爪(财富广场店),美食,小吃快餐店,贵州省,贵阳市,南明区,花果园财富广场5号楼平台玻璃房子,,1,0,106.677657,26.56395,,cater,http://api.map.baidu.com/place/detail?uid=35e0e166af2c7a3c2b06ce05&output=html&source=placeapi_v2,,11:00-02:00,4.0,,,,,,,,2,,,,,,,106.67851839355,26.563694599152,0
759a47a0126133542811d10f,申记粥铺,美食,小吃快餐店,贵州省,贵阳市,南明区,贵州省贵阳市南明区五里冲花果园五里冲项目Q区第5栋1层59号房(花果园社区),,1,0,106.679829,26.563368,,cater,http://api.map.baidu.com/place/detail?uid=759a47a0126133542811d10f&output=html&source=placeapi_v2,,,,,,,,,,,,,,,,,,,,0
98325d145346bb9f8f1a89ad,正新鸡排(小车河路店),美食,小吃快餐店,贵州省,贵阳市,南明区,贵州省贵阳市南明区小车河路花果园r区1栋,,1,0,106.677721,26.565286,18684143645,cater,http://api.map.baidu.com/place/detail?uid=98325d145346bb9f8f1a89ad&output=html&source=placeapi_v2,13.0,09:00-22:30,3.5,,,,,,,,,,,,,,,106.67759652729,26.565839720393,0
c81362037b241999ce06a44c,但家香酥鸭NO.1021(财富广场店),美食,小吃快餐店,贵州省,贵阳市,南明区,贵州省贵阳市南明区延安南路1号贵阳花果园t区6栋负1层DSD-03A号铺,,1,0,106.679127,26.568082,18985362032,cater,http://api.map.baidu.com/place/detail?uid=c81362037b241999ce06a44c&output=html&source=placeapi_v2,33.0,09:00-21:30,3.8,,,,,,,,0,,,,,,,,,0
1482cdc0f56b61a0fc0eb083,味多美小吃,美食,小吃快餐店,贵州省,贵阳市,南明区,贵阳市南明区花果园大街贵阳国际中心-3号,,1,0,106.691926,26.568216,,cater,http://api.map.baidu.com/place/detail?uid=1482cdc0f56b61a0fc0eb083&output=html&source=placeapi_v2,,,5,,,,,,,,2,,,,,,,106.69191376542,26.568307501669,0
0d94797dd24943f7f90cad25,学吧小食堂,美食,小吃快餐店,贵州省,贵阳市,南明区,贵阳市南明区都会大道花果园-J区,,1,0,106.691027,26.565563,18798759235,cater,http://api.map.baidu.com/place/detail?uid=0d94797dd24943f7f90cad25&output=html&source=placeapi_v2,,,,,,,,,,,,,,,,,,,,0
9130841574854d02a7c756c5,怀粮生煎(南明区店),美食,小吃快餐店,贵州省,贵阳市,南明区,贵州省贵阳市南明区花果园M区9栋3单元124号,,1,0,106.686946,26.565578,"13595016332,13985508441",cater,http://api.map.baidu.com/place/detail?uid=9130841574854d02a7c756c5&output=html&source=placeapi_v2,9.0,07:00-20:00,4.0,,,,,,,,21,,,,,,,,,0
7c4c590d0c7a2e62c42ba136,妈妈小吃,美食,小吃快餐店,贵州省,贵阳市,南明区,贵州省贵阳市南明区花果园大街花果园国际中心3号楼52号,,1,0,106.692383,26.568089,16608512658,cater,http://api.map.baidu.com/place/detail?uid=7c4c590d0c7a2e62c42ba136&output=html&source=placeapi_v2,,08:00-20:00,3.5,,,,,,,,,,,,,,,106.69191273057,26.568235204447,0
6afab2a55cf5d90dd0ff2353,遵义虾子众味羊肉粉,美食,小吃快餐店,贵州省,贵阳市,南明区,贵州省贵阳市南明区花果园路花果园r1区6号楼,6afab2a55cf5d90dd0ff2353,1,0,106.677774,26.56526,(0851)85113800,cater,http://api.map.baidu.com/place/detail?uid=6afab2a55cf5d90dd0ff2353&output=html&source=placeapi_v2,13.0,00:00-24:00,3.9,,,,,,,,0,,,,,,,106.67715367704,26.565411626202,0
10b2ae948308d8f471455bf9,姐妹洋芋小吃店,美食,小吃快餐店,贵州省,贵阳市,南明区,贵州省贵阳市南明区凤凰109号,,1,0,106.6963,26.556185,15180863860,cater,http://api.map.baidu.com/place/detail?uid=10b2ae948308d8f471455bf9&output=html&source=placeapi_v2,9.0,12:00-20:00,3.7,,,,,,,,0,,,,,,,106.69674022977,26.557010824529,0
2b183bd7397e17ee1d1d115e,安顺特色小吃,美食,小吃快餐店,贵州省,贵阳市,南明区,贵阳市南明区小车河路贵阳花果园-北区,,1,0,106.679387,26.569879,15772329879,cater,http://api.map.baidu.com/place/detail?uid=2b183bd7397e17ee1d1d115e&output=html&source=placeapi_v2,,,,,,,,,,,,,,,,,,106.67914862763,26.570065585286,0
df67d71b51afa86d5af6be54,沙县小吃(花果园店),美食,小吃快餐店,贵州省,贵阳市,南明区,贵州省贵阳市南明区花果园后街彭家湾花果园项目C区第18栋1层1号房,df67d71b51afa86d5af6be54,1,0,106.693901,26.568877,17750671218,cater,http://api.map.baidu.com/place/detail?uid=df67d71b51afa86d5af6be54&output=html&source=placeapi_v2,13.0,09:30-24:00,3.5,,,,,,,,0,,,,,,,106.69382248317,26.568863551282,0
43d0c2d17b9c014dc9fa5fb5,正新鸡排(栖凤路店),美食,小吃快餐店,贵州省,贵阳市,云岩区,蔡关社区下坝路87号,,1,0,106.666362,26.56127,18302578808,cater,http://api.map.baidu.com/place/detail?uid=43d0c2d17b9c014dc9fa5fb5&output=html&source=placeapi_v2,,,,,,,,,,,,,,,,,,,,0
4af14567eaa0d87538221ca8,菌满园肉饼鸡(花果园店),美食,小吃快餐店,贵州省,贵阳市,南明区,贵州省贵阳市南明区中山南路花果园一期18栋3-2号,4af14567eaa0d87538221ca8,1,0,106.692251,26.573326,(0851)85981811,cater,http://api.map.baidu.com/place/detail?uid=4af14567eaa0d87538221ca8&output=html&source=placeapi_v2,81.0,11:00-21:30,3.8,,,,,,,,1,,,,,,,106.69234017038,26.573210864025,0
abe3e3649a30d143b020a84e,正新鸡排(青山路店),美食,小吃快餐店,贵州省,贵阳市,南明区,贵阳市南明区青山路艺景春天,,1,0,106.69483,26.561437,15085981034,cater,http://api.map.baidu.com/place/detail?uid=abe3e3649a30d143b020a84e&output=html&source=placeapi_v2,,09:00-22:30,,,,,,,,,,,,,,,,,,0
71d000a1bf4bfc9ef503b8ef,康家脆哨面(花果园店),美食,小吃快餐店,贵州省,贵阳市,南明区,贵阳市南明区花果园C区3栋附二楼206号,71d000a1bf4bfc9ef503b8ef,1,0,106.694267,26.567838,13595198962,cater,http://api.map.baidu.com/place/detail?uid=71d000a1bf4bfc9ef503b8ef&output=html&source=placeapi_v2,13.0,09:00-17:30,3.8,,,,,,,,4,,,,,,,,,0
467bcf55a9dceff0aa175aad,鸭溪凉粉(花果园店),美食,小吃快餐店,贵州省,贵阳市,南明区,中山南路60号花果园金融街1号楼2楼步行街49号,467bcf55a9dceff0aa175aad,1,0,106.692886,26.574159,18076049998,cater,http://api.map.baidu.com/place/detail?uid=467bcf55a9dceff0aa175aad&output=html&source=placeapi_v2,7.5,09:00-22:00,,,,,,,,,,,,,,,,,,0
472f37c13007592c0869d920,遵义豆花面(花溪大道店),美食,小吃快餐店,贵州省,贵阳市,南明区,贵阳市南明区花溪大道融创・九Z湾西北侧约70米,472f37c13007592c0869d920,1,0,106.695528,26.56146,17784179825,cater,http://api.map.baidu.com/place/detail?uid=472f37c13007592c0869d920&output=html&source=placeapi_v2,25.0,06:00-16:00,,,,,,,,,,,,,,,,,,0
818e12c0ac8bd195c1f1cff8,慕缤尼斯炸鸡汉堡(花果园店),美食,小吃快餐店,贵州省,贵阳市,南明区,南明区小车河路花果园T1区128号,,1,0,106.679691,26.569957,15285529881,cater,http://api.map.baidu.com/place/detail?uid=818e12c0ac8bd195c1f1cff8&output=html&source=placeapi_v2,,10:00-22:00,3.5,,,,,,,,,,,,,,,106.67936207131,26.570251616426,0
cce298f11f4a02b2c72ba1bc,人剧无名卤味(L区店),美食,小吃快餐店,贵州省,贵阳市,南明区,贵阳市南明区花果园L1区1栋三单元404号,cce298f11f4a02b2c72ba1bc,1,0,106.685974,26.568637,15180740699,cater,http://api.map.baidu.com/place/detail?uid=cce298f11f4a02b2c72ba1bc&output=html&source=placeapi_v2,,10:00-22:00,,,,,,,,,,,,,,,,,,0
7f6635c4a48a7e9b4f6d46d2,沙县小吃(上楼店),美食,小吃快餐店,贵州省,贵阳市,云岩区,贵州省贵阳市云岩区蔡家关下坝路1号1层附1号,7f6635c4a48a7e9b4f6d46d2,1,0,106.66653,26.56133,17606088699,cater,http://api.map.baidu.com/place/detail?uid=7f6635c4a48a7e9b4f6d46d2&output=html&source=placeapi_v2,13.0,08:00-23:30,,,,,,,,,,,,,,,,,,0
36ea1cc58ec50f9d4251c09b,疯狂薯条(阿哈湖国家湿地公园店),美食,小吃快餐店,贵州省,贵阳市,南明区,贵阳市南明区小车河路6号贵阳阿哈湖国家湿地公园内,,1,0,106.672538,26.547038,,cater,http://api.map.baidu.com/place/detail?uid=36ea1cc58ec50f9d4251c09b&output=html&source=placeapi_v2,,,,,,,,,,,,,,,,,,,,0
2060cdc7db9a6a409d95dec0,"龙胡子卤汤馆(卤味,小吃,烫菜花果园店)",美食,小吃快餐店,贵州省,贵阳市,南明区,贵州省贵阳市南明区青山路花果园国际中心c区3号楼负1层,,1,0,106.692437,26.567874,13984316280,cater,http://api.map.baidu.com/place/detail?uid=2060cdc7db9a6a409d95dec0&output=html&source=placeapi_v2,34.0,11:00-21:00,4.5,,,,,,,,27,,,,,,,106.69202598174,26.567231161586,0
ebfb2f89d45363f4ad080ffd,绝味鸭脖(青山小区店),美食,小吃快餐店,贵州省,贵阳市,南明区,青山路万商人家7号门面AB幢1层15号,ebfb2f89d45363f4ad080ffd,1,0,106.693715,26.561003,4009995917,cater,http://api.map.baidu.com/place/detail?uid=ebfb2f89d45363f4ad080ffd&output=html&source=placeapi_v2,29.0,08:00-22:00,3.5,,,,,,,,5,,,,,,,,,0
a94c83d5f3c8f67c2afc48f6,知味园老凯里鹅肉粉(左藏店),美食,小吃快餐店,贵州省,贵阳市,南明区,贵阳市南明区五里冲路众福家园,a94c83d5f3c8f67c2afc48f6,1,0,106.695511,26.565612,18111802091,cater,http://api.map.baidu.com/place/detail?uid=a94c83d5f3c8f67c2afc48f6&output=html&source=placeapi_v2,,10:00-21:00,0,,,,,,,,0,,,,,,,106.69562528621,26.565523360956,0
c4a94449425b5532a0046461,周记酱香饼,美食,小吃快餐店,贵州省,贵阳市,南明区,贵州省贵阳市南明区花果园一期18栋,c4a94449425b5532a0046461,1,0,106.692009,26.573441,18786095712,cater,http://api.map.baidu.com/place/detail?uid=c4a94449425b5532a0046461&output=html&source=placeapi_v2,13.0,,,,,,,,,,,,,,,,,106.69227210308,26.57316675426,0
18de04972743a30571210b40,舌尖拌饭(花果园店),美食,小吃快餐店,贵州省,贵阳市,南明区,贵阳市南明区花果园E区商业步行街1楼,,1,0,106.692247,26.574286,18985119097,cater,http://api.map.baidu.com/place/detail?uid=18de04972743a30571210b40&output=html&source=placeapi_v2,,10:00-20:00,,,,,,,,,,,,,,,,106.69204353463,26.574601021551,0
c21db9e5fbb7d29a01ff2de9,周四馒头(湘雅村店),美食,小吃快餐店,贵州省,贵阳市,南明区,贵州省贵阳市南明区遵义路街道花果园C区3栋,c21db9e5fbb7d29a01ff2de9,1,0,106.698002,26.56782,"13639100117,18786671584",cater,http://api.map.baidu.com/place/detail?uid=c21db9e5fbb7d29a01ff2de9&output=html&source=placeapi_v2,,09:30-21:00,3.4,,,,,,,,2,,,,,,,106.69783717218,26.567937168646,0
41c7f9d9e1f505d99e09f707,好妈咪卤肉卷手抓饼,美食,小吃快餐店,贵州省,贵阳市,南明区,贵州省贵阳市南明区彭家湾花果园项目一期第18幢2层51号(花果园社区),41c7f9d9e1f505d99e09f707,1,0,106.69193,26.573127,18984554365,cater,http://api.map.baidu.com/place/detail?uid=41c7f9d9e1f505d99e09f707&output=html&source=placeapi_v2,11.0,08:30-20:00,4.4,,,,,,,,18,,,,,,,,,0
4770c31bd9a501c5dbeced7f,猫猫坡小吃快餐店,美食,小吃快餐店,贵州省,贵阳市,南明区,贵阳市南明区解放路科佳大厦,,1,0,106.720581,26.565605,,cater,http://api.map.baidu.com/place/detail?uid=4770c31bd9a501c5dbeced7f&output=html&source=placeapi_v2,,,,,,,,,,,,,,,,,,,,0
341c35de873ff7a7e70738e6,南粥北面(市南路店),美食,小吃快餐店,贵州省,贵阳市,南明区,贵州省贵阳市南明区市南路22号,341c35de873ff7a7e70738e6,1,0,106.727031,26.569574,(0851)85520999,cater,http://api.map.baidu.com/place/detail?uid=341c35de873ff7a7e70738e6&output=html&source=placeapi_v2,90.0,09:30-21:30,3.6,,,,,,,,33,,,,,,,106.72708299385,26.56966810997,0
0341d700dcf2294c0b69d9e3,南门口肠旺面(护国路店),美食,小吃快餐店,贵州省,贵阳市,南明区,贵州省贵阳市南明区护国路153号,0341d700dcf2294c0b69d9e3,1,0,106.723716,26.578777,18685100928,cater,http://api.map.baidu.com/place/detail?uid=0341d700dcf2294c0b69d9e3&output=html&source=placeapi_v2,18.0,"07:00-15:00,18:00-03:00",4.3,,,,,,,,51,,,,,,,106.72378662944,26.5787518716,0
8777fd55879834476c3e1b98,包整贵州小吃研究中心(甲秀路店),美食,小吃快餐店,贵州省,贵阳市,南明区,贵州省贵阳市南明区西湖路甲秀新村1栋1单元(西湖社区),8777fd55879834476c3e1b98,1,0,106.726049,26.578374,(0851)85608092,cater,http://api.map.baidu.com/place/detail?uid=8777fd55879834476c3e1b98&output=html&source=placeapi_v2,58.0,"11:30-16:30,17:00-21:00",4.5,,,,,,,,3,,,,,,,106.72604348639,26.578318099444,0
390d76421261fade0c0e6b76,杨阿姨丝娃娃店(都司路店),美食,小吃快餐店,贵州省,贵阳市,南明区,贵州省贵阳市南明区博爱路2号纽约大厦12楼,390d76421261fade0c0e6b76,1,0,106.718104,26.578905,17785124945,cater,http://api.map.baidu.com/place/detail?uid=390d76421261fade0c0e6b76&output=html&source=placeapi_v2,38.0,10:30-20:30,3.7,,,,,,,,20,,,,,,,106.71814658686,26.578787301922,0
41dfde65f02fea76aeb22a33,陈记绿色肉饼王,美食,小吃快餐店,贵州省,贵阳市,南明区,贵州省贵阳市南明区兴关路176号,,1,0,106.718415,26.567483,18290462895,cater,http://api.map.baidu.com/place/detail?uid=41dfde65f02fea76aeb22a33&output=html&source=placeapi_v2,7.0,06:30-19:30,4.1,,,,,,,,2,,,,,,,106.71857133715,26.567466816532,0
a08a1826baf703e7e5e96542,姊妹快餐店,美食,小吃快餐店,贵州省,贵阳市,南明区,贵州省贵阳市南明区青云路234号,,1,0,106.717653,26.571598,,cater,http://api.map.baidu.com/place/detail?uid=a08a1826baf703e7e5e96542&output=html&source=placeapi_v2,,,,,,,,,,,,,,,,,,,,0
cfcea53dc503089328201a48,王记百姓小吃店,美食,小吃快餐店,贵州省,贵阳市,南明区,贵州省贵阳市南明区沙冲北路169号,,1,0,106.716493,26.561566,13511907767,cater,http://api.map.baidu.com/place/detail?uid=cfcea53dc503089328201a48&output=html&source=placeapi_v2,,,,,,,,,,,,,,,,,,,,0
208ea5553c4b0f3e8a36ee61,勤琴小吃店,美食,小吃快餐店,贵州省,贵阳市,南明区,贵州省贵阳市南明区沙冲北路贵铁新苑1层7号,,1,0,106.715004,26.563216,,cater,http://api.map.baidu.com/place/detail?uid=208ea5553c4b0f3e8a36ee61&output=html&source=placeapi_v2,,,,,,,,,,,,,,,,,,,,0
704be3f15f54b0cbc5effbfa,遵义特色小吃,美食,小吃快餐店,贵州省,贵阳市,南明区,贵阳市南明区解放路贵棉小区西南侧约40米,704be3f15f54b0cbc5effbfa,1,0,106.716084,26.565808,13336778481,cater,http://api.map.baidu.com/place/detail?uid=704be3f15f54b0cbc5effbfa&output=html&source=placeapi_v2,,,,,,,,,,,,,,,,,,,,0
dab9bf562de96bf4704b8733,彭瑞明个体小吃店,美食,小吃快餐店,贵州省,贵阳市,南明区,贵阳市南明区二七路鸿通城购物中心,,1,0,106.71258,26.562502,,cater,http://api.map.baidu.com/place/detail?uid=dab9bf562de96bf4704b8733&output=html&source=placeapi_v2,,,,,,,,,,,,,,,,,,,,0
03de15a3ff17d2c25d0d02a8,徐记小吃,美食,小吃快餐店,贵州省,贵阳市,南明区,贵阳市南明区八达巷二七小区西南侧,,1,0,106.713493,26.564427,"13985220402,13985591870",cater,http://api.map.baidu.com/place/detail?uid=03de15a3ff17d2c25d0d02a8&output=html&source=placeapi_v2,,,,,,,,,,,,,,,,,,,,0
a1418eb4f1ae0f66eae582e9,逍魂炒饭,美食,小吃快餐店,贵州省,贵阳市,南明区,贵州省贵阳市南明区正谊路4号,a1418eb4f1ae0f66eae582e9,1,0,106.723159,26.579332,18685040559,cater,http://api.map.baidu.com/place/detail?uid=a1418eb4f1ae0f66eae582e9&output=html&source=placeapi_v2,17.0,11:00-20:00,3.9,,,,,,,,3,,,,,,,106.72288428874,26.578772531461,0
0384a68dec42e44f4251c01e,雅婷快餐店,美食,小吃快餐店,贵州省,贵阳市,南明区,贵阳市南明区陈庄巷沙冲南路93号院东侧约100米,0384a68dec42e44f4251c01e,1,0,106.710903,26.551886,15286003349,cater,http://api.map.baidu.com/place/detail?uid=0384a68dec42e44f4251c01e&output=html&source=placeapi_v2,,,,,,,,,,,,,,,,,,106.71082952916,26.551881969546,0
41b826ad6cd844520af5eb86,鸿源快餐店,美食,小吃快餐店,贵州省,贵阳市,南明区,贵阳市南明区达高路博泰花园,,1,0,106.710806,26.563181,,cater,http://api.map.baidu.com/place/detail?uid=41b826ad6cd844520af5eb86&output=html&source=placeapi_v2,,,,,,,,,,,,,,,,,,106.71076457269,26.563202671465,0
becd58d73f5fae23b04c4952,花溪牛羊肉粉(八达巷),美食,小吃快餐店,贵州省,贵阳市,南明区,贵州省贵阳市南明区二七路96号,becd58d73f5fae23b04c4952,1,0,106.714072,26.564096,18111954723,cater,http://api.map.baidu.com/place/detail?uid=becd58d73f5fae23b04c4952&output=html&source=placeapi_v2,,07:30-19:00,3.4,,,,,,,,2,,,,,,,106.71409752598,26.564146040153,0
fd007c5e6f1e6475a9f729e7,德克士(沙冲餐厅),美食,小吃快餐店,贵州省,贵阳市,南明区,贵州省贵阳市南明区沙冲北路贵铁新苑负1楼,fd007c5e6f1e6475a9f729e7,1,0,106.715043,26.562677,(0851)85766195,cater,http://api.map.baidu.com/place/detail?uid=fd007c5e6f1e6475a9f729e7&output=html&source=placeapi_v2,24.0,08:00-02:30,4.2,,,,,,,,5,,,,,,,,,0
61085211210cfbb8c41b75e6,富南小吃酒楼,美食,小吃快餐店,贵州省,贵阳市,南明区,贵州省贵阳市南明区富水南路89号中南办事处第1~3层,61085211210cfbb8c41b75e6,1,0,106.72212,26.579006,(0851)85825838,cater,http://api.map.baidu.com/place/detail?uid=61085211210cfbb8c41b75e6&output=html&source=placeapi_v2,48.0,10:00-21:00,3.7,,,,,,,,16,,,,,,,106.7221265393,26.578961809112,0
039d15542b3db9824207c18f,碳烧蛋冰杨梅(枣山路店),美食,小吃快餐店,贵州省,贵阳市,南明区,贵州省贵阳市南明区兴关路99号,039d15542b3db9824207c18f,1,0,106.719166,26.568248,18798834717,cater,http://api.map.baidu.com/place/detail?uid=039d15542b3db9824207c18f&output=html&source=placeapi_v2,26.0,18:00-04:00,3.8,,,,,,,,0,,,,,,,106.7190584496,26.568288838624,0
35debf292832c345a7da39b3,公共厕所,美食,小吃快餐店,贵州省,贵阳市,南明区,贵阳市南明区八达巷87号,,1,0,106.71383,26.564322,,cater,http://api.map.baidu.com/place/detail?uid=35debf292832c345a7da39b3&output=html&source=placeapi_v2,,,,,,,,,,,14,,,,,,,106.71380202119,26.564268337968,0
d305db1fa4c17f27922ca3e7,老七肠旺面(青云路店),美食,小吃快餐店,贵州省,贵阳市,南明区,贵州省贵阳市南明区青云路10号,d305db1fa4c17f27922ca3e7,1,0,106.724191,26.570128,,cater,http://api.map.baidu.com/place/detail?uid=d305db1fa4c17f27922ca3e7&output=html&source=placeapi_v2,13.0,06:00-15:30,3.7,,,,,,,,14,,,,,,,106.72423926223,26.570179715706,0
1e1d1ebcc4c7b07d471a32fc,川贵味麻辣牛筋米皮面馆,美食,小吃快餐店,贵州省,贵阳市,南明区,贵州省贵阳市南明区南厂路177号,1e1d1ebcc4c7b07d471a32fc,1,0,106.724772,26.558862,13638508447,cater,http://api.map.baidu.com/place/detail?uid=1e1d1ebcc4c7b07d471a32fc&output=html&source=placeapi_v2,,,3.6,,,,,,,,0,,,,,,,106.72486824138,26.55900827691,0
76bbf8eba27b32e59f09f7d7,绝味鸭脖(兴关路店),美食,小吃快餐店,贵州省,贵阳市,南明区,贵州省贵阳市南明区青云路44号商住办综合楼一楼22号门面,76bbf8eba27b32e59f09f7d7,1,0,106.720721,26.571467,13037812221,cater,http://api.map.baidu.com/place/detail?uid=76bbf8eba27b32e59f09f7d7&output=html&source=placeapi_v2,23.0,10:00-22:30,3.4,,,,,,,,1,,,,,,,106.72065090362,26.571501127604,0
3a9a61e0cfb9875f9cf77936,成都名小吃(兴隆街店),美食,小吃快餐店,贵州省,贵阳市,南明区,贵州省贵阳市南明区兴隆街22号,3a9a61e0cfb9875f9cf77936,1,0,106.722785,26.573472,15285510615,cater,http://api.map.baidu.com/place/detail?uid=3a9a61e0cfb9875f9cf77936&output=html&source=placeapi_v2,,10:00-22:00,3.5,,,,,,,,,,,,,,,106.72282489548,26.573437596862,0
e80923df0257484f0c0a7033,美一杯鲜榨果汁(鸿通城购物中心店),美食,小吃快餐店,贵州省,贵阳市,南明区,贵阳市南明区解放路100号鸿通城购物中心F4,e80923df0257484f0c0a7033,1,0,106.714282,26.563436,18208311115,cater,http://api.map.baidu.com/place/detail?uid=e80923df0257484f0c0a7033&output=html&source=placeapi_v2,14.0,10:00-21:00,3.5,,,,,,,,3,,,,,,,106.71302658591,26.562180761538,0
b1c556e85faf0b15b52655e6,王家丝娃娃(南明南门店),美食,小吃快餐店,贵州省,贵阳市,南明区,贵州省贵阳市南明区曹状元街43号,b1c556e85faf0b15b52655e6,1,0,106.721692,26.578959,(0851)85813716,cater,http://api.map.baidu.com/place/detail?uid=b1c556e85faf0b15b52655e6&output=html&source=placeapi_v2,36.0,10:00-20:00,3.7,,,,,,,,59,,,,,,,,,0
33cb0c3d013a3282cac3db85,智兰饺子家常菜,美食,小吃快餐店,贵州省,贵阳市,南明区,贵州省贵阳市南明区兴关路15号,33cb0c3d013a3282cac3db85,1,0,106.71984,26.569348,13511969053,cater,http://api.map.baidu.com/place/detail?uid=33cb0c3d013a3282cac3db85&output=html&source=placeapi_v2,,,0.0,,,,,,,,,,,,,,,106.71989126055,26.569379291672,0
c69b91f79f777ae9d8eced3f,名优小吃遵义刘姨妈米皮粉面,美食,小吃快餐店,贵州省,贵阳市,南明区,贵州省贵阳市南明区南横街7号16号,c69b91f79f777ae9d8eced3f,1,0,106.722918,26.578716,13639074203,cater,http://api.map.baidu.com/place/detail?uid=c69b91f79f777ae9d8eced3f&output=html&source=placeapi_v2,13.0,07:30-21:30,3.7,,,,,,,,27,,,,,,,106.72283167409,26.578782282959,0
301c763a9939369ed0ff2316,付晓琴名小吃,美食,小吃快餐店,贵州省,贵阳市,南明区,贵阳市南明区新华路国恩大厦,,1,0,106.725889,26.571146,,cater,http://api.map.baidu.com/place/detail?uid=301c763a9939369ed0ff2316&output=html&source=placeapi_v2,,,,,,,,,,,,,,,,,,106.72603257827,26.571242422655,0
f6def92c082b00d54e776ef4,胖子餐馆(蓑草路店),美食,小吃快餐店,贵州省,贵阳市,南明区,贵州省贵阳市南明区蓑草路102号,f6def92c082b00d54e776ef4,1,0,106.732833,26.565881,13984393815,cater,http://api.map.baidu.com/place/detail?uid=f6def92c082b00d54e776ef4&output=html&source=placeapi_v2,,10:30-20:30,4,,,,,,,,2,,,,,,,,,0
5e87d379937331a516c90525,老素粉(青云路店),美食,小吃快餐店,贵州省,贵阳市,南明区,青云路54号,5e87d379937331a516c90525,1,0,106.72299,26.570307,15285629994,cater,http://api.map.baidu.com/place/detail?uid=5e87d379937331a516c90525&output=html&source=placeapi_v2,,10:00-22:00,0,,,,,,,,1,,,,,,,,,0
437c6aa794e1555809b93acf,朱记老字号湖南面馆,美食,小吃快餐店,贵州省,贵阳市,南明区,贵州省贵阳市南明区兴隆街7号,437c6aa794e1555809b93acf,1,0,106.723019,26.574085,13595069241,cater,http://api.map.baidu.com/place/detail?uid=437c6aa794e1555809b93acf&output=html&source=placeapi_v2,,07:00-14:00,3.5,,,,,,,,3,,,,,,,106.72321435134,26.573980786078,0
12e8006fd236f52e0f0a703f,好再来肠旺面馆(老南门店),美食,小吃快餐店,贵州省,贵阳市,南明区,贵州省贵阳市南明区兴隆西巷51号,12e8006fd236f52e0f0a703f,1,0,106.721704,26.572777,,cater,http://api.map.baidu.com/place/detail?uid=12e8006fd236f52e0f0a703f&output=html&source=placeapi_v2,11.0,,3.7,,,,,,,,0,,,,,,,106.7217773428,26.572689564298,0
c19b96bb0299d2682efaa7b7,绝味鸭脖(都司路店),美食,小吃快餐店,贵州省,贵阳市,南明区,贵州省贵阳市南明区都司路40号,c19b96bb0299d2682efaa7b7,1,0,106.717437,26.57919,17785599819,cater,http://api.map.baidu.com/place/detail?uid=c19b96bb0299d2682efaa7b7&output=html&source=placeapi_v2,36.0,09:30-23:00,3.4,,,,,,,,16,,,,,,,106.71743847688,26.579189949495,0
76c194e091ebdb6fbea24039,乡村锅巴饭(兴隆街店),美食,小吃快餐店,贵州省,贵阳市,南明区,贵州省贵阳市南明区兴隆西巷146号1层2号,76c194e091ebdb6fbea24039,1,0,106.723071,26.57399,18286148422,cater,http://api.map.baidu.com/place/detail?uid=76c194e091ebdb6fbea24039&output=html&source=placeapi_v2,15.0,11:00-14:30,3.7,,,,,,,,2,,,,,,,106.72318205367,26.573931635707,0
3f45db0c5d24964617b54bf2,蔡家街袁师肠旺面(四通街店),美食,小吃快餐店,贵州省,贵阳市,南明区,贵州省贵阳市南明区玉溪路玉田小区26栋6-1,3f45db0c5d24964617b54bf2,1,0,106.710299,26.558984,,cater,http://api.map.baidu.com/place/detail?uid=3f45db0c5d24964617b54bf2&output=html&source=placeapi_v2,,,3,,,,,,,,4,,,,,,,106.71014124478,26.559059435386,0
689b807ce4be0208343a7145,花溪泡椒牛肉粉,美食,小吃快餐店,贵州省,贵阳市,南明区,贵阳市南明区朝阳洞路香榭枫林南侧,689b807ce4be0208343a7145,1,0,106.716294,26.55148,18585424206,cater,http://api.map.baidu.com/place/detail?uid=689b807ce4be0208343a7145&output=html&source=placeapi_v2,10.0,,0.0,,,,,,,,,,,,,,,,,0
b3aa435dc7fb0312147643ea,遵义刘二妈米皮(博爱路店),美食,小吃快餐店,贵州省,贵阳市,南明区,贵州省贵阳市南明区博爱路51号,b3aa435dc7fb0312147643ea,1,0,106.718281,26.577352,18685649970,cater,http://api.map.baidu.com/place/detail?uid=b3aa435dc7fb0312147643ea&output=html&source=placeapi_v2,8.0,07:00-18:00,3.4,,,,,,,,0,,,,,,,106.7183641295,26.577391150308,0
e82a975b2782425cf4eafc17,渝福轩(蓝波湾商业街店),美食,小吃快餐店,贵州省,贵阳市,南明区,都司路128号乡镇企业贸易城负1号1楼,e82a975b2782425cf4eafc17,1,0,106.714655,26.579003,18786333339,cater,http://api.map.baidu.com/place/detail?uid=e82a975b2782425cf4eafc17&output=html&source=placeapi_v2,42.0,09:00-21:00,5,,,,,,,,3,,,,,,,,,0
5ac4d0023d4ea4c986420e53,天府棒棒鸡(富水南路店),美食,小吃快餐店,贵州省,贵阳市,南明区,贵州省贵阳市南明区富水南路203号,5ac4d0023d4ea4c986420e53,1,0,106.72228,26.578823,13639055415,cater,http://api.map.baidu.com/place/detail?uid=5ac4d0023d4ea4c986420e53&output=html&source=placeapi_v2,38.0,09:30-21:30,3.8,,,,,,,,2,,,,,,,106.72237575889,26.578867523798,0
c482ce1c6be87db2f4eafc08,遵义肉片米皮粉(博爱路店),美食,小吃快餐店,贵州省,贵阳市,南明区,贵州省贵阳市南明区博爱路53号,c482ce1c6be87db2f4eafc08,1,0,106.718266,26.577341,,cater,http://api.map.baidu.com/place/detail?uid=c482ce1c6be87db2f4eafc08&output=html&source=placeapi_v2,,,3.5,,,,,,,,1,,,,,,,106.71835005755,26.577406380484,0
1816533441ecd21dfa2d61e8,北方肉饼王(博爱路店),美食,小吃快餐店,贵州省,贵阳市,南明区,贵州省贵阳市南明区博爱路25号,1816533441ecd21dfa2d61e8,1,0,106.717985,26.578109,15885003678,cater,http://api.map.baidu.com/place/detail?uid=1816533441ecd21dfa2d61e8&output=html&source=placeapi_v2,13.0,,3.4,,,,,,,14,18,,,,,,,,,0
f95d945e729d7318d5b74ec7,京城肉饼王(观水路店),美食,小吃快餐店,贵州省,贵阳市,南明区,贵州省贵阳市南明区观水路53号,f95d945e729d7318d5b74ec7,1,0,106.731285,26.577531,13595075645,cater,http://api.map.baidu.com/place/detail?uid=f95d945e729d7318d5b74ec7&output=html&source=placeapi_v2,,07:00-20:00,3.5,,,,,,,,0,,,,,,,,,0
1a9b4ea6057448b0cb213dd5,彭姐辣鸡粉面馆,美食,小吃快餐店,贵州省,贵阳市,南明区,贵州省贵阳市南明区油榨街114号,1a9b4ea6057448b0cb213dd5,1,0,106.745107,26.566067,18275030551,cater,http://api.map.baidu.com/place/detail?uid=1a9b4ea6057448b0cb213dd5&output=html&source=placeapi_v2,,,,,,,,,,,,,,,,,,,,0
995cd339c2bfd08bf8f0cb07,叶记素粉辣鸡面,美食,小吃快餐店,贵州省,贵阳市,南明区,贵州省贵阳市南明区油榨街澜山壹号对面,995cd339c2bfd08bf8f0cb07,1,0,106.745852,26.566193,13639094858,cater,http://api.map.baidu.com/place/detail?uid=995cd339c2bfd08bf8f0cb07&output=html&source=placeapi_v2,15.0,06:00-18:00,3.8,,,,,,,,2,,,,,,,106.74582208965,26.566324124288,0
df0b8cc1cb950f535bf6be06,贵阳名小吃,美食,小吃快餐店,贵州省,贵阳市,南明区,贵州省贵阳市南明区机场路龙洞堡机场t2航站楼,,1,0,106.806637,26.547008,,cater,http://api.map.baidu.com/place/detail?uid=df0b8cc1cb950f535bf6be06&output=html&source=placeapi_v2,58.0,06:30-22:00,3.3,,,,,,,,8,,,,,,,106.80573929714,26.547270719172,0
45848b70506830ac8bdb73de,沙县小吃・咖啡店,美食,小吃快餐店,贵州省,贵阳市,南明区,贵州省贵阳市南明区二福路5号龙洞社区服务中心1栋101室,,1,0,106.796959,26.552795,15285469667,cater,http://api.map.baidu.com/place/detail?uid=45848b70506830ac8bdb73de&output=html&source=placeapi_v2,,09:00-22:00,,,,,,,,,,,,,,,,106.79680799878,26.552512524539,0
6b9a3842523e025fc03644f2,瑞膳坊贵州小吃,美食,小吃快餐店,贵省,贵阳市,南明区,贵省贵阳市南明区贵阳龙洞堡国际机场-T2航站楼2楼207档口,,1,0,106.807076,26.549843,,cater,http://api.map.baidu.com/place/detail?uid=6b9a3842523e025fc03644f2&output=html&source=placeapi_v2,,,0,,,,,,,,1,,,,,,,,,0
8ce39312a36b174046e274f6,南粉北面(贵阳龙洞堡国际机场店),美食,小吃快餐店,贵州省,贵阳市,南明区,贵阳市南明区机场路1号贵阳龙洞堡国际机场2号航站楼F3,8ce39312a36b174046e274f6,1,0,106.807155,26.549486,,cater,http://api.map.baidu.com/place/detail?uid=8ce39312a36b174046e274f6&output=html&source=placeapi_v2,62.0,06:30-21:00,2,,,,,,,,5,,,,,,,,,0
edd528dffa8f777dc4f0254a,仙姆莱克(贵阳龙洞堡国际机场店),美食,小吃快餐店,贵州省,贵阳市,南明区,贵州贵阳市南明区机场路1号龙洞堡国际机场cf-59号,edd528dffa8f777dc4f0254a,1,0,106.808025,26.552621,,cater,http://api.map.baidu.com/place/detail?uid=edd528dffa8f777dc4f0254a&output=html&source=placeapi_v2,,08:00-24:00,3.4,,,,,,,,3,,,,,,,,,0
09b646f2dd982fbe715e8007,快港(贵阳龙洞堡国际机场店),美食,小吃快餐店,贵州省,贵阳市,南明区,贵阳市南明区机场路1号贵阳龙洞堡国际机场2号航站楼F2,09b646f2dd982fbe715e8007,1,0,106.807521,26.551296,,cater,http://api.map.baidu.com/place/detail?uid=09b646f2dd982fbe715e8007&output=html&source=placeapi_v2,,06:00-21:30,2.3,,,,,,,,3,,,,,,,,,0
bb2293085bc7a970ad0457e5,宋记重庆鸡公煲(贵州医科大学神奇民族医药学院店),美食,小吃快餐店,贵州省,贵阳市,南明区,贵州省贵阳市南明区G60(汤巴关路),,1,0,106.788266,26.567911,,cater,http://api.map.baidu.com/place/detail?uid=bb2293085bc7a970ad0457e5&output=html&source=placeapi_v2,,,,,,,,,,,1,,,,,,,106.78848921905,26.567782416274,0
5a2c1539d265c0306140a9b8,天津灌汤小笼包(观清路店),美食,小吃快餐店,贵州省,贵阳市,清镇市,贵州省贵阳市清镇市金清路银河世纪小区3栋1~3号,5a2c1539d265c0306140a9b8,1,0,106.511051,26.585919,17755576559,cater,http://api.map.baidu.com/place/detail?uid=5a2c1539d265c0306140a9b8&output=html&source=placeapi_v2,,,,,,,,,,,,,,,,,,,,0
7e85a49744a20d4880a00cfe,成都名小吃刀削面拉面,美食,小吃快餐店,贵州省,贵阳市,观山湖区,贵州省贵阳市观山湖区金清路,,1,0,106.567609,26.599837,,cater,http://api.map.baidu.com/place/detail?uid=7e85a49744a20d4880a00cfe&output=html&source=placeapi_v2,,,,,,,,,,,,,,,,,,,,0
be26db2a1ec5b19e6c4760d4,自助快餐店,美食,小吃快餐店,贵州省,贵阳市,观山湖区,贵阳市观山湖区苏州路西南国际商贸城3号广场,,1,0,106.588453,26.611853,,cater,http://api.map.baidu.com/place/detail?uid=be26db2a1ec5b19e6c4760d4&output=html&source=placeapi_v2,,,,,,,,,,,,,,,,,,106.58830973265,26.611874364989,0
29c8f64fd4edca72266e9818,天天小吃店,美食,小吃快餐店,贵州省,贵阳市,观山湖区,贵阳市观山湖区阁楼路贵阳市观山湖区金华小学东北侧约240米,,1,0,106.582065,26.591687,,cater,http://api.map.baidu.com/place/detail?uid=29c8f64fd4edca72266e9818&output=html&source=placeapi_v2,,,,,,,,,,,,,,,,,,106.58223333604,26.591736450266,0
3aa3f8bf73e7f26714c8f6e3,胡学俊小吃店,美食,小吃快餐店,贵州省,贵阳市,观山湖区,贵阳市观山湖区阁楼路贵阳市观山湖区金华小学东侧约230米,,1,0,106.582981,26.590163,13639081547,cater,http://api.map.baidu.com/place/detail?uid=3aa3f8bf73e7f26714c8f6e3&output=html&source=placeapi_v2,,,,,,,,,,,,,,,,,,106.58294088009,26.59008062973,0
9da9ecbc79ca093c43e192f3,超友缘牛羊肉粉面馆,美食,小吃快餐店,贵州省,贵阳市,观山湖区,贵阳市观山湖区沪昆高速与S102交叉路口往东北约230米,,1,0,106.602608,26.603227,,cater,http://api.map.baidu.com/place/detail?uid=9da9ecbc79ca093c43e192f3&output=html&source=placeapi_v2,,,,,,,,,,,,,,,,,,106.60341687923,26.603440392831,0
7b45c7ccdf9db2b804026fb2,沙县小吃(阁楼路店),美食,小吃快餐店,贵州省,贵阳市,观山湖区,贵州省贵阳市观山湖区金龙路5号,7b45c7ccdf9db2b804026fb2,1,0,106.583619,26.59015,,cater,http://api.map.baidu.com/place/detail?uid=7b45c7ccdf9db2b804026fb2&output=html&source=placeapi_v2,,,,,,,,,,,,,,,,,,,,0
807d0fb89b8b4a5e4054d77e,三姐豆花面,美食,小吃快餐店,贵州省,贵阳市,观山湖区,贵州省贵阳市观山湖区杭州路西南国际商贸城b区1号楼13号,,1,0,106.588528,26.606189,13618505882,cater,http://api.map.baidu.com/place/detail?uid=807d0fb89b8b4a5e4054d77e&output=html&source=placeapi_v2,,,,,,,,,,,,,,,,,,106.58871591374,26.606372595311,0
64a73d97f20c1bdd3f9a5e17,食佰味,美食,小吃快餐店,贵州省,贵阳市,观山湖区,商城西路酸汤丝娃娃对面,,1,0,106.588502,26.606126,18708389992,cater,http://api.map.baidu.com/place/detail?uid=64a73d97f20c1bdd3f9a5e17&output=html&source=placeapi_v2,,,,,,,,,,,,,,,,,,,,0
19021a03ecb309998af15dc9,湖南邵阳米粉盖饭,美食,小吃快餐店,贵州省,贵阳市,观山湖区,贵州省贵阳市观山湖区商城西路西南商贸城四号广场2楼,,1,0,106.585934,26.611028,15902680272,cater,http://api.map.baidu.com/place/detail?uid=19021a03ecb309998af15dc9&output=html&source=placeapi_v2,,08:30-17:00,,,,,,,,1,,,,,,,,,,0
f49b2dc4bf500923c51b75ac,姚记粉面馆,美食,小吃快餐店,贵州省,贵阳市,观山湖区,贵阳市观山湖区沪昆高速与S102交叉路口往东南约290米,,1,0,106.603744,26.59928,,cater,http://api.map.baidu.com/place/detail?uid=f49b2dc4bf500923c51b75ac&output=html&source=placeapi_v2,,,,,,,,,,,,,,,,,,,,0
85b60120f3d5cce852e5c5b0,正新鸡排(湘邵店),美食,小吃快餐店,贵州省,贵阳市,观山湖区,贵州省贵阳市观山湖区阁楼路25号,,1,0,106.582589,26.591102,17585578224,cater,http://api.map.baidu.com/place/detail?uid=85b60120f3d5cce852e5c5b0&output=html&source=placeapi_v2,,09:00-22:30,5,,,,,,,,2,,,,,,,,,0
57edb407fc941aa2932ca33c,金华镇彭家肠旺面粉馆(狗场店),美食,小吃快餐店,贵州省,贵阳市,观山湖区,贵州省贵阳市观山湖区金龙路10号,,1,0,106.583488,26.590186,"17784137582,17785154539",cater,http://api.map.baidu.com/place/detail?uid=57edb407fc941aa2932ca33c&output=html&source=placeapi_v2,,07:00-18:00,,,,,,,,,,,,,,,,106.58353652581,26.590154246234,0
fff47ba054957aadb75f1e6f,千里香馄饨,美食,小吃快餐店,贵州省,贵阳市,观山湖区,贵阳市观山湖区北京西路贵阳西南国际商贸城,,1,0,106.588153,26.605933,,cater,http://api.map.baidu.com/place/detail?uid=fff47ba054957aadb75f1e6f&output=html&source=placeapi_v2,,,,,,,,,,,,,,,,,,,,0
60f007161d92069d8bf15deb,哆味炸鸡,美食,小吃快餐店,贵州省,贵阳市,观山湖区,贵阳市观山湖区文化路贵阳市观山湖区金华小学东侧约200米,,1,0,106.582632,26.590241,,cater,http://api.map.baidu.com/place/detail?uid=60f007161d92069d8bf15deb&output=html&source=placeapi_v2,,,,,,,,,,,,,,,,,,,,0
683872e4eaec3668e31103b7,福建千里香馄饨,美食,小吃快餐店,贵州省,贵阳市,观山湖区,贵州省贵阳市观山湖区淮河路二组1栋11号,,1,0,106.582521,26.587535,,cater,http://api.map.baidu.com/place/detail?uid=683872e4eaec3668e31103b7&output=html&source=placeapi_v2,,,,,,,,,,1,,,,,,,,106.58237027733,26.587561336187,0
a4c7a38e95283687d6b74e5a,水城羊肉粉(杭州路店),美食,小吃快餐店,贵州省,贵阳市,观山湖区,贵阳市观山湖区杭州路观山湖大酒店,,1,0,106.587867,26.609826,,cater,http://api.map.baidu.com/place/detail?uid=a4c7a38e95283687d6b74e5a&output=html&source=placeapi_v2,,,,,,,,,,,,,,,,,,,,0
9d4c25a62d0ab28feb56fa69,天天快餐店,美食,小吃快餐店,贵州省,贵阳市,云岩区,贵州省贵阳市云岩区马王街53号,,1,0,106.655607,26.592103,,cater,http://api.map.baidu.com/place/detail?uid=9d4c25a62d0ab28feb56fa69&output=html&source=placeapi_v2,,,,,,,,,,,,,,,,,,106.65565027691,26.592165712049,0
8a17a4c539b34ff7bd48425d,安顺屯堡特色小吃(白云区步行街分店),美食,小吃快餐店,贵州省,贵阳市,观山湖区,贵阳市观山湖区金源街龙祥苑,,1,0,106.638735,26.603435,,cater,http://api.map.baidu.com/place/detail?uid=8a17a4c539b34ff7bd48425d&output=html&source=placeapi_v2,,,,,,,,,,,,,,,,,,,,0
ac05eaea6ba84fed24e0a0d7,老济南黄焖鸡米饭(野鸭街店),美食,小吃快餐店,贵州省,贵阳市,云岩区,贵阳市云岩区野鸭街茶园幸福小区东侧约150米,,1,0,106.632274,26.598028,,cater,http://api.map.baidu.com/place/detail?uid=ac05eaea6ba84fed24e0a0d7&output=html&source=placeapi_v2,,,,,,,,,,,,,,,,,,,,0
f87d6e3a6468d9882bb97c58,蒋家肠旺面馆(龙瑞路店),美食,小吃快餐店,贵州省,贵阳市,观山湖区,贵州省贵阳市观山湖区福州街世纪城B组团B区沿街商铺幢1层31C号,f87d6e3a6468d9882bb97c58,1,0,106.632318,26.608522,"17785808197,18798790093",cater,http://api.map.baidu.com/place/detail?uid=f87d6e3a6468d9882bb97c58&output=html&source=placeapi_v2,17.0,07:00-21:00,3.9,,,,,,,,13,,,,,,,106.63233844405,26.608601110236,0
ff46a34a2aa8065cf82d615d,黔牧一品(牛羊肉粉火锅),美食,小吃快餐店,贵州省,贵阳市,观山湖区,贵州省贵阳市观山湖区世纪城B组团沿街商铺1层86号（福州街177号）,ff46a34a2aa8065cf82d615d,1,0,106.633296,26.611925,(0851)84390797,cater,http://api.map.baidu.com/place/detail?uid=ff46a34a2aa8065cf82d615d&output=html&source=placeapi_v2,23.0,00:00-24:00,3.2,,,,,,,,0,,,,,,,,,0
07d98b32257670f20b69d9b7,李记黄焖鸡米饭(龙贤苑店),美食,小吃快餐店,贵州省,贵阳市,观山湖区,贵州省贵阳市观山湖区石龙西路33号龙贤苑南区30幢底商（乐贝思宠物店旁）,,1,0,106.639194,26.609074,15285054207,cater,http://api.map.baidu.com/place/detail?uid=07d98b32257670f20b69d9b7&output=html&source=placeapi_v2,14.0,10:30-21:30,3.7,,,,,,,,1,,,,,,,,,0
e891efcc1a68b32f00ff2dcb,绝味鸭脖(兰州路店),美食,小吃快餐店,贵州省,贵阳市,观山湖区,贵州省贵阳市观山湖区兰州路金阳世纪城Z组团3段幢1层11号,e891efcc1a68b32f00ff2dcb,1,0,106.647346,26.610161,18166700716,cater,http://api.map.baidu.com/place/detail?uid=e891efcc1a68b32f00ff2dcb&output=html&source=placeapi_v2,29.0,08:00-22:00,3.7,,,,,,,,0,,,,,,,106.6473601127,26.610139868166,0
cb206f0a1b3f0ad3220262da,天府棒棒鸡(福州街店),美食,小吃快餐店,贵州省,贵阳市,观山湖区,贵州省贵阳市观山湖区福州街18号,cb206f0a1b3f0ad3220262da,1,0,106.631992,26.607306,15519088440,cater,http://api.map.baidu.com/place/detail?uid=cb206f0a1b3f0ad3220262da&output=html&source=placeapi_v2,22.0,09:00-21:00,3.7,,,,,,,,0,,,,,,,106.63189160713,26.607358544319,0
fc5db9b34103a496ede4a5e3,秦西府腊汁肉夹馍二分店(金源街店),美食,小吃快餐店,贵州省,贵阳市,观山湖区,贵州省贵阳市观山湖区金源街世纪城0组团第商业1幢1层38号,fc5db9b34103a496ede4a5e3,1,0,106.638449,26.611278,13008400149,cater,http://api.map.baidu.com/place/detail?uid=fc5db9b34103a496ede4a5e3&output=html&source=placeapi_v2,20.0,08:30-21:00,3.7,,,,,,,,1,,,,,,,106.63834414279,26.611378819284,0
3a4b4e140f92be4ad4851fc7,何氏牛肉粉面馆,美食,小吃快餐店,贵州省,贵阳市,云岩区,贵州省贵阳市云岩区金燕路与杨惠路交叉口西南540米,3a4b4e140f92be4ad4851fc7,1,0,106.630909,26.579375,18108502328,cater,http://api.map.baidu.com/place/detail?uid=3a4b4e140f92be4ad4851fc7&output=html&source=placeapi_v2,,,,,,,,,,,,,,,,,,,,0
983601b939091f0903294f91,花溪牛肉粉(金阳分店),美食,小吃快餐店,贵州省,贵阳市,观山湖区,贵阳市观山湖区福州街小龙坎下楼(近世纪金源),,1,0,106.629982,26.605026,18984053816,cater,http://api.map.baidu.com/place/detail?uid=983601b939091f0903294f91&output=html&source=placeapi_v2,,,3.4,,,,,,,,1,,,,,,,106.63018430744,26.604912966551,0
c719d9773973f3bba7c756b8,天府棒棒鸡(金源街店),美食,小吃快餐店,贵州省,贵阳市,观山湖区,贵州省贵阳市观山湖区龙泉苑街72号70号,c719d9773973f3bba7c756b8,1,0,106.638449,26.611782,18798778801,cater,http://api.map.baidu.com/place/detail?uid=c719d9773973f3bba7c756b8&output=html&source=placeapi_v2,33.0,09:30-20:00,3.6,,,,,,,,26,,,,,,,106.63840479817,26.611787715883,0
2b488d65d21f0813c9c3dbd6,六广门毛阿姨糯米饭(金阳店),美食,小吃快餐店,贵州省,贵阳市,观山湖区,贵州省贵阳市观山湖区福州街157号世纪城社区服务中心世纪城77号,,1,0,106.633182,26.611324,18188006023,cater,http://api.map.baidu.com/place/detail?uid=2b488d65d21f0813c9c3dbd6&output=html&source=placeapi_v2,8.0,06:00-14:00,3.6,,,,,,,,0,,,,,,,106.63327602976,26.611314981834,0
04a53171f2ef922e45e274f1,老东北水饺(世纪城店),美食,小吃快餐店,贵州省,贵阳市,观山湖区,贵州省贵阳市观山湖区贵阳世纪城G、F组团第G组团沿街商业幢1层22号（福州街104号）,04a53171f2ef922e45e274f1,1,0,106.633387,26.610649,18786060580,cater,http://api.map.baidu.com/place/detail?uid=04a53171f2ef922e45e274f1&output=html&source=placeapi_v2,,09:00-22:00,3.5,,,,,,,,1,,,,,,,106.63329893655,26.610677922579,0
39cb75a2a485e7ab2b11d17e,美粥皇特色砂锅粥(世纪城店),美食,小吃快餐店,贵州省,贵阳市,观山湖区,贵州省贵阳市观山湖区金阳南路6号贵阳世纪城R2组团商业一幢1层2号,,1,0,106.644974,26.607239,18984034405,cater,http://api.map.baidu.com/place/detail?uid=39cb75a2a485e7ab2b11d17e&output=html&source=placeapi_v2,,08:00-20:00,3.5,,,,,,,,0,,,,,,,,,0
3e1f4fc5932802258e772729,煲掌柜(金源街店),美食,小吃快餐店,贵州省,贵阳市,观山湖区,观山湖区金源街370号(龙禧苑东门斜对面),,1,0,106.638604,26.613166,18302536348,cater,http://api.map.baidu.com/place/detail?uid=3e1f4fc5932802258e772729&output=html&source=placeapi_v2,,,,,,,,,,,,,,,,,,106.63852838974,26.613162212678,0
6714335ac33cfce91d58003c,绝味鸭脖(北京西路店),美食,小吃快餐店,贵州省,贵阳市,观山湖区,贵州省贵阳市观山湖区世纪城B组团30号楼1层3号,6714335ac33cfce91d58003c,1,0,106.62959,26.607592,18685057397,cater,http://api.map.baidu.com/place/detail?uid=6714335ac33cfce91d58003c&output=html&source=placeapi_v2,24.0,08:00-22:00,3.5,,,,,,,,9,,,,,,,106.62950928025,26.60733571939,0
8f80b7954a4193e484154177,叫了个炸鸡(世纪城店),美食,小吃快餐店,贵州省,贵阳市,观山湖区,金阳南路6号贵阳世纪城S2组团商业四幢1层15号,,1,0,106.642707,26.604588,18584447350,cater,http://api.map.baidu.com/place/detail?uid=8f80b7954a4193e484154177&output=html&source=placeapi_v2,,10:00-21:00,,,,,,,,,,,,,,,,,,0
91e8c5acae991e1036b06cf7,绝味鸭脖(金关店),美食,小吃快餐店,贵州省,贵阳市,云岩区,贵州省贵阳市云岩区百花大道1号,91e8c5acae991e1036b06cf7,1,0,106.650754,26.586181,18198269836,cater,http://api.map.baidu.com/place/detail?uid=91e8c5acae991e1036b06cf7&output=html&source=placeapi_v2,29.0,09:00-21:00,3.5,,,,,,,,2,,,,,,,106.65072300022,26.586234979805,0
aca82a519ad4b3631df74d06,老城豆花面馆(世纪城总店),美食,小吃快餐店,贵州省,贵阳市,观山湖区,贵州省贵阳市观山湖区福州街世纪城一期64号,aca82a519ad4b3631df74d06,1,0,106.632819,26.608533,(0851)84393177,life,http://api.map.baidu.com/place/detail?uid=aca82a519ad4b3631df74d06&output=html&source=placeapi_v2,,06:30-21:30,,,,,,,,40,7,,,,,,,106.63267353895,26.608596697037,0
