uid,name,cat_L1,cat_L2,province,city,area,address,street_id,detail,child_num,loc_lng,loc_lat,telephone,type,detail_url,price,shop_hours,overall_rating,taste_rating,service_rating,environment_rating,facility_rating,hygiene_rating,technology_rating,image_num,comment_num,groupon_num,discount_num,favorite_num,checkin_num,brand,content_tag,naviloc_lng,naviloc_lat,child_num
87e990953fa069be6fc02cc4,水上森林营地,旅游景点,游乐园,上海市,上海市,奉贤区,上海市奉贤区随塘河路1677号,,1,0,121.686117,30.867405,,scope,http://api.map.baidu.com/place/detail?uid=87e990953fa069be6fc02cc4&output=html&source=placeapi_v2,,09:00-22:00,,,,,,,,1,,,,,,,,,,0
77c81a150f0fbdc64e776eec,棒果(平高世贸中心商城店),旅游景点,游乐园,上海市,上海市,松江区,上海市松江区中山中路71号平高世贸中心商城F3,,1,0,121.241991,31.012274,(021)57895278,scope,http://api.map.baidu.com/place/detail?uid=77c81a150f0fbdc64e776eec&output=html&source=placeapi_v2,,10:00-22:00,,,,,,,,,,,,,,,,121.2421966101,31.012686284237,0
5c2dc21dfe95f57a6fc02c6f,亲清水生园,旅游景点,游乐园,上海市,上海市,闵行区,上海市闵行区江川西路3800号,5c2dc21dfe95f57a6fc02c6f,1,0,121.336,30.9923,,scope,http://api.map.baidu.com/place/detail?uid=5c2dc21dfe95f57a6fc02c6f&output=html&source=placeapi_v2,,09:00-18:00,0,,,,,,,,1,,,,,,,121.33602336748,30.992144762586,0
514fb2046cbea95d8bf15df7,儿童乐园,旅游景点,游乐园,上海市,上海市,闵行区,上海市闵行区新闵路闵行分局华坪路派出所南侧约40米,514fb2046cbea95d8bf15df7,1,0,121.432036,31.008893,,life,http://api.map.baidu.com/place/detail?uid=514fb2046cbea95d8bf15df7&output=html&source=placeapi_v2,,,,,,,,,,1,0,,,,,,,,,0
9c6291f5acfb5e4a6ca3cc30,WINOMILL大风车(连城商业广场店),旅游景点,游乐园,上海市,上海市,奉贤区,上海市奉贤区沪杭公路228号连城商业广场F3,,1,0,121.437772,30.995429,,scope,http://api.map.baidu.com/place/detail?uid=9c6291f5acfb5e4a6ca3cc30&output=html&source=placeapi_v2,,,,,,,,,,,,,,,,,,121.43848721466,30.99570471343,0
91e033afbdb875ac6168588f,繁昌儿童乐园,旅游景点,游乐园,上海市,上海市,浦东新区,上海市浦东新区沪南公路航卫集贸市场东侧约120米,,1,0,121.604422,31.031831,,life,http://api.map.baidu.com/place/detail?uid=91e033afbdb875ac6168588f&output=html&source=placeapi_v2,,,,,,,,,,,,,,,,,,121.60463197717,31.032113512959,0
cac5fc76735bee8d2cb96d1c,上海欢乐谷,旅游景点,游乐园,上海市,上海市,松江区,上海市松江区林湖路888号,cac5fc76735bee8d2cb96d1c,1,9,121.222777,31.10273,(0213)3552222,scope,http://api.map.baidu.com/place/detail?uid=cac5fc76735bee8d2cb96d1c&output=html&source=placeapi_v2,,09:30-21:00,4.5,,,,,,,,200,,,,,,,121.228195,31.096842852044,9
c52c53655941eba5283a9f95,玛雅海滩水公园,旅游景点,游乐园,上海市,上海市,松江区,上海市松江区佘山镇林荫新路1222号,c52c53655941eba5283a9f95,1,7,121.217086,31.101182,(021)37792222,scope,http://api.map.baidu.com/place/detail?uid=c52c53655941eba5283a9f95&output=html&source=placeapi_v2,,10:00-19:00,4.3,,,,,,,,200,,,,,,,121.21521651255,31.100314022517,7
0dc5e49e13a760203a13fd68,欢乐海洋,旅游景点,游乐园,上海市,上海市,松江区,上海市松江区佘山林湖路888号欢乐谷内,,1,0,121.219706,31.102169,(021)37792222,scope,http://api.map.baidu.com/place/detail?uid=0dc5e49e13a760203a13fd68&output=html&source=placeapi_v2,,,3.2,,,,,,,3,1,,,,,,,121.21949901608,31.102200447427,0
e65be4de8e0c237b43afe6cc,大摆锤,旅游景点,游乐园,上海市,上海市,松江区,上海市松江区佘山林湖路888号上海欢乐谷内,e65be4de8e0c237b43afe6cc,1,0,121.222747,31.104157,,scope,http://api.map.baidu.com/place/detail?uid=e65be4de8e0c237b43afe6cc&output=html&source=placeapi_v2,,10:30-20:00,4.9,,,,,,,4,8,,,,,,,121.22294494387,31.104070163531,0
cd37ed9f5f13f36a931fc936,矿山历险,旅游景点,游乐园,上海市,上海市,松江区,上海市松江区佘山林湖路888号欢乐谷内,,1,0,121.220771,31.102301,(021)33552222,scope,http://api.map.baidu.com/place/detail?uid=cd37ed9f5f13f36a931fc936&output=html&source=placeapi_v2,,10:30-17:00,4.8,,,,,,,1,5,,,,,,,,,0
9297a8ced56b7f5bf8dc8512,神奇草帽,旅游景点,游乐园,上海市,上海市,松江区,上海市松江区佘山林湖路888号欢乐谷内,,1,0,121.222143,31.101093,,scope,http://api.map.baidu.com/place/detail?uid=9297a8ced56b7f5bf8dc8512&output=html&source=placeapi_v2,,,4,,,,,,,4,3,,,,,,,,,0
205482d0e80de7d3882fb55e,完美风暴,旅游景点,游乐园,上海市,上海市,松江区,上海市松江区佘山林湖路888号欢乐谷内,,1,0,121.222908,31.101175,,scope,http://api.map.baidu.com/place/detail?uid=205482d0e80de7d3882fb55e&output=html&source=placeapi_v2,,,5,,,,,,,,1,,,,,,,,,0
c4467f15d0ddc6b5c16c1457,暴风之旅,旅游景点,游乐园,上海市,上海市,松江区,上海市松江区佘山林湖路888号欢乐谷内,c4467f15d0ddc6b5c16c1457,1,0,121.223467,31.10032,,scope,http://api.map.baidu.com/place/detail?uid=c4467f15d0ddc6b5c16c1457&output=html&source=placeapi_v2,,,0,,,,,,,1,0,,,,,,,,,0
1f1428f8ec48f2daf90cadce,异度空间(欢乐时光店),旅游景点,游乐园,上海市,上海市,松江区,上海市松江区佘山林湖路888号欢乐谷内,1f1428f8ec48f2daf90cadce,1,0,121.225397,31.1022,,life,http://api.map.baidu.com/place/detail?uid=1f1428f8ec48f2daf90cadce&output=html&source=placeapi_v2,,,,,,,,,,1,1,,,,,,,,,0
5fa486747fab91b8932ca39b,蓝月飞车,旅游景点,游乐园,上海市,上海市,松江区,上海市松江区佘山林湖路888号欢乐谷内,,1,0,121.219504,31.104848,,scope,http://api.map.baidu.com/place/detail?uid=5fa486747fab91b8932ca39b&output=html&source=placeapi_v2,,10:00-18:00,4.5,,,,,,,12,12,,,,,,,121.22656123798,31.099546313696,0
d250e59fcb55353c725e80c0,大洋历险,旅游景点,游乐园,上海市,上海市,松江区,上海市松江区佘山林湖路888号欢乐谷欢乐海洋内,,1,0,121.219753,31.10176,(021)37792222,scope,http://api.map.baidu.com/place/detail?uid=d250e59fcb55353c725e80c0&output=html&source=placeapi_v2,,13:00-18:30,4.3,,,,,,,3,6,,,,,,,121.21947439622,31.101415595181,0
fe191a854938ed734c6d4627,绝顶雄风,旅游景点,游乐园,上海市,上海市,松江区,上海市松江区佘山旅游度假区林湖路888号上海欢乐谷上海滩区域内,fe191a854938ed734c6d4627,1,0,121.22286,31.105833,(021)33552222,scope,http://api.map.baidu.com/place/detail?uid=fe191a854938ed734c6d4627&output=html&source=placeapi_v2,,09:00-21:00,3.0,,,,,,,14,9,,,,,,,121.22657529647,31.09954508194,0
08c9a69d9cd332cbb5147fe9,旋转摇摆伞,旅游景点,游乐园,上海市,上海市,松江区,上海市松江区佘山林湖路888号欢乐谷内,,1,0,121.224459,31.102078,,scope,http://api.map.baidu.com/place/detail?uid=08c9a69d9cd332cbb5147fe9&output=html&source=placeapi_v2,,,5,,,,,,,,3,,,,,,,,,0
00761d8450248083220262c5,游乐园,旅游景点,游乐园,上海市,上海市,松江区,上海市松江区开江中路334号,00761d8450248083220262c5,1,0,121.283243,31.117328,,scope,http://api.map.baidu.com/place/detail?uid=00761d8450248083220262c5&output=html&source=placeapi_v2,,10:00-22:00,,,,,,,,,,,,,,,,121.2833080702,31.117295961551,0
15e1e85e976fa5dc58109357,热带风暴水上乐园,旅游景点,游乐园,上海市,上海市,闵行区,上海市闵行区新镇路78号,15e1e85e976fa5dc58109357,1,3,121.379273,31.145169,(021)64783333,scope,http://api.map.baidu.com/place/detail?uid=15e1e85e976fa5dc58109357&output=html&source=placeapi_v2,,,3.9,,,,,,,59,178,,,,,,,121.378347,31.142886856224,3
f4b721390fb2db3e4d776e09,快乐体验服务区,旅游景点,游乐园,上海市,上海市,闵行区,上海市闵行区黎安路莘吴之星大厦东侧,f4b721390fb2db3e4d776e09,1,0,121.36455,31.130318,,scope,http://api.map.baidu.com/place/detail?uid=f4b721390fb2db3e4d776e09&output=html&source=placeapi_v2,,,,,,,,,,,,,,,,,,121.36461043028,31.130210500848,0
60cc6ea386fb300c1d1d1199,锦江乐园,旅游景点,游乐园,上海市,上海市,闵行区,上海市闵行区虹梅路201号,60cc6ea386fb300c1d1d1199,1,8,121.415479,31.145542,(021)54216858,scope,http://api.map.baidu.com/place/detail?uid=60cc6ea386fb300c1d1d1199&output=html&source=placeapi_v2,,09:00-17:30,4.5,,,,,,,,200,,,,,,,121.41708347792,31.147635646432,8
bcbdacd099951591e31103b7,超级碰碰车,旅游景点,游乐园,上海市,上海市,闵行区,上海市闵行区虹梅路201号锦江乐园内,bcbdacd099951591e31103b7,1,0,121.414801,31.145177,,scope,http://api.map.baidu.com/place/detail?uid=bcbdacd099951591e31103b7&output=html&source=placeapi_v2,,,1,,,,,,,1,1,,,,,,,,,0
3fdf1e89be96868987154112,急流勇进,旅游景点,游乐园,上海市,上海市,闵行区,上海市闵行区虹梅路201号锦江乐园内,,1,0,121.415158,31.146122,,scope,http://api.map.baidu.com/place/detail?uid=3fdf1e89be96868987154112&output=html&source=placeapi_v2,,,,,,,,,,1,,,,,,,,,,0
ecf26b58780017804c3a590a,COCO乐园,旅游景点,游乐园,上海市,上海市,闵行区,上海市闵行区芦恒路128弄附近,,1,0,121.498963,31.121383,,scope,http://api.map.baidu.com/place/detail?uid=ecf26b58780017804c3a590a&output=html&source=placeapi_v2,,,5,,,,,,,1,1,,,,,,,,,0
39cb5890c16e43a794031909,中国BOSS名人俱乐部,旅游景点,游乐园,上海市,上海市,浦东新区,上海市浦东新区秀康路100号,39cb5890c16e43a794031909,1,0,121.579939,31.149656,,scope,http://api.map.baidu.com/place/detail?uid=39cb5890c16e43a794031909&output=html&source=placeapi_v2,,,2,,,,,,,,1,,,,,,,,,0
90111a66647bd700a11de9e8,玩偶遇到爱(秀沿路店),旅游景点,游乐园,上海市,上海市,浦东新区,上海市浦东新区地铁11号线秀沿路站秀沿路站F1,,1,0,121.60497,31.143811,,scope,http://api.map.baidu.com/place/detail?uid=90111a66647bd700a11de9e8&output=html&source=placeapi_v2,,,,,,,,,,,,,,,,,,,,0
81ad5716b2c9c7fbe8e58272,上海迪士尼度假区,旅游景点,游乐园,上海市,上海市,浦东新区,上海市浦东新区川沙镇黄赵路310号,81ad5716b2c9c7fbe8e58272,1,0,121.671964,31.148267,"(021)31580000,4001800000",scope,http://api.map.baidu.com/place/detail?uid=81ad5716b2c9c7fbe8e58272&output=html&source=placeapi_v2,,10:00-20:30,3.4,,,,,,,199,200,,,,,,,121.661964,31.139988855934,0
a606bb9eec22e2084d2fdff2,探险岛,旅游景点,游乐园,上海市,上海市,浦东新区,上海市浦东新区川沙镇黄赵路310号上海迪士尼乐园内,a606bb9eec22e2084d2fdff2,1,0,121.669473,31.14947,"(021)20998001,(021)31580000",scope,http://api.map.baidu.com/place/detail?uid=a606bb9eec22e2084d2fdff2&output=html&source=placeapi_v2,,09:00-20:00,4.5,,,,,,,,21,,,,,,,121.66095785624,31.1484751019,0
a2739e1c4ae4ba24100daad2,翱翔飞越地平线,旅游景点,游乐园,上海市,上海市,浦东新区,上海市浦东新区川沙镇黄赵路310号上海迪士尼乐园,a2739e1c4ae4ba24100daad2,1,0,121.671599,31.149779,4001800000,scope,http://api.map.baidu.com/place/detail?uid=a2739e1c4ae4ba24100daad2&output=html&source=placeapi_v2,,09:00-21:00,4,,,,,,,15,22,,,,,,,,,0
9470774b4f92fddb5b10937c,爱丽丝梦游仙境迷宫,旅游景点,游乐园,上海市,上海市,浦东新区,上海市浦东新区川沙镇黄赵路310号上海迪士尼乐园梦幻世界内,,1,0,121.665922,31.150702,"(021)20998001,4001800000",scope,http://api.map.baidu.com/place/detail?uid=9470774b4f92fddb5b10937c&output=html&source=placeapi_v2,,09:00-18:30,4.5,,,,,,,1,25,,,,,,,,,0
e6f3c31e240d5f11b13c81c7,'哈库拉玛塔塔'乐苑,旅游景点,游乐园,上海市,上海市,浦东新区,上海市浦东新区申迪西路1009号上海迪士尼乐园酒店内,e6f3c31e240d5f11b13c81c7,1,0,121.671775,31.141857,,scope,http://api.map.baidu.com/place/detail?uid=e6f3c31e240d5f11b13c81c7&output=html&source=placeapi_v2,,00:00-24:00,0,,,,,,,3,1,,,,,,,,,0
946b20e767781a7ac72ba10d,明日世界,旅游景点,游乐园,上海市,上海市,浦东新区,上海市浦东新区川沙镇黄赵路310号上海迪士尼乐园,946b20e767781a7ac72ba10d,1,0,121.663723,31.147675,,scope,http://api.map.baidu.com/place/detail?uid=946b20e767781a7ac72ba10d&output=html&source=placeapi_v2,,09:00-20:00,4.8,,,,,,,,28,,,,,,,121.66237652139,31.140188313454,0
d623056ca4ccd2c471455b05,七个小矮人矿山车,旅游景点,游乐园,上海市,上海市,浦东新区,上海市浦东新区川沙镇黄赵路310号上海迪士尼乐园,d623056ca4ccd2c471455b05,1,0,121.666083,31.151215,,scope,http://api.map.baidu.com/place/detail?uid=d623056ca4ccd2c471455b05&output=html&source=placeapi_v2,,08:30-22:00,4.7,,,,,,,,31,,,,,,,121.66654611691,31.150914750179,0
8f5fb9a393f163a8df1e5244,奇幻童话城堡,旅游景点,游乐园,上海市,上海市,浦东新区,上海市浦东新区川沙镇黄赵路310号上海迪士尼乐园,8f5fb9a393f163a8df1e5244,1,0,121.666147,31.149846,"(021)20998001,4001800000",scope,http://api.map.baidu.com/place/detail?uid=8f5fb9a393f163a8df1e5244&output=html&source=placeapi_v2,,09:00-20:00,4.7,,,,,,,36,44,,,,,,,,,0
833756bb3545554eab059d7a,小熊维尼历险记,旅游景点,游乐园,上海市,上海市,浦东新区,上海市浦东新区川沙镇黄赵路310号上海迪士尼乐园,833756bb3545554eab059d7a,1,0,121.665127,31.151779,,scope,http://api.map.baidu.com/place/detail?uid=833756bb3545554eab059d7a&output=html&source=placeapi_v2,,09:00-21:00,4.8,,,,,,,3,26,,,,,,,,,0
0ba7fa66420e9c0b9122e068,抱抱龙冲天赛车,旅游景点,游乐园,上海市,上海市,浦东新区,上海市浦东新区迪士尼乐园,,1,0,121.662743,31.149644,,scope,http://api.map.baidu.com/place/detail?uid=0ba7fa66420e9c0b9122e068&output=html&source=placeapi_v2,,08:00-22:00,4.9,,,,,,,3,38,,,,,,,121.66292580197,31.149284147288,0
101588771fb8cfa014948ea3,加勒比海盗沉落宝藏之战,旅游景点,游乐园,上海市,上海市,浦东新区,上海市浦东新区黄赵路310号上海迪士尼乐园内,101588771fb8cfa014948ea3,1,0,121.668229,31.151726,"(021)31580000,4001800000",scope,http://api.map.baidu.com/place/detail?uid=101588771fb8cfa014948ea3&output=html&source=placeapi_v2,,09:00-19:00,4.9,,,,,,,,30,,,,,,,,,0
52815a2537dcc3df72210be1,宝藏湾,旅游景点,游乐园,上海市,上海市,浦东新区,上海市浦东新区川沙镇黄赵路310号上海迪士尼乐园,52815a2537dcc3df72210be1,1,0,121.669354,31.151372,"(021)20998001,4001800000",scope,http://api.map.baidu.com/place/detail?uid=52815a2537dcc3df72210be1&output=html&source=placeapi_v2,,08:00-22:00,4.5,,,,,,,24,33,,,,,,,121.66942603945,31.151415072846,0
0d666133848d183494ec842b,上海迪士尼乐园,旅游景点,游乐园,上海市,上海市,浦东新区,上海市浦东新区川沙镇申迪西路753号上海迪士尼度假区,,1,0,121.667027,31.148817,(021)31580000,scope,http://api.map.baidu.com/place/detail?uid=0d666133848d183494ec842b&output=html&source=placeapi_v2,,,,,,,,,,1,61,,,,,,,,,0
2a05a526b33be53bf02d830e,巴斯光年星际营救,旅游景点,游乐园,上海市,上海市,浦东新区,上海市浦东新区川沙镇黄赵路310号上海迪士尼乐园,2a05a526b33be53bf02d830e,1,0,121.664241,31.147227,(021)31580000,scope,http://api.map.baidu.com/place/detail?uid=2a05a526b33be53bf02d830e&output=html&source=placeapi_v2,,09:00-21:00,4.3,,,,,,,10,34,,,,,,,,,0
370e3db0691d0cb6aeb22aca,奇想花园,旅游景点,游乐园,上海市,上海市,浦东新区,上海市浦东新区川沙镇黄赵路310号上海迪士尼乐园,370e3db0691d0cb6aeb22aca,1,0,121.666965,31.148937,,scope,http://api.map.baidu.com/place/detail?uid=370e3db0691d0cb6aeb22aca&output=html&source=placeapi_v2,,08:00-20:30,4.7,,,,,,,46,47,,,,,,,,,0
932b79471cc936312fe67b9f,米奇大街,旅游景点,游乐园,上海市,上海市,浦东新区,上海市浦东新区川沙镇黄赵路310号上海迪士尼乐园,932b79471cc936312fe67b9f,1,0,121.668029,31.148036,(021)31580000,scope,http://api.map.baidu.com/place/detail?uid=932b79471cc936312fe67b9f&output=html&source=placeapi_v2,,08:30-20:00,4.7,,,,,,,23,30,,,,,,,,,0
e549ab500c5018793904b17f,迪士尼乐园玩具总动员园区,旅游景点,游乐园,上海市,上海市,浦东新区,上海市浦东新区川沙新镇唐黄路180号上海迪士尼度假区,,1,0,121.663231,31.149708,,scope,http://api.map.baidu.com/place/detail?uid=e549ab500c5018793904b17f&output=html&source=placeapi_v2,,,,,,,,,,1,1,,,,,,,,,0
68fdae158e99e71a0b1cc770,人猿泰山:丛林的呼唤,旅游景点,游乐园,上海市,上海市,浦东新区,上海市浦东新区黄赵路310号上海迪士尼乐园内,,1,0,121.670868,31.150831,,scope,http://api.map.baidu.com/place/detail?uid=68fdae158e99e71a0b1cc770&output=html&source=placeapi_v2,,13:00-19:00,4.7,,,,,,,1,10,,,,,,,,,0
f7ee5ea30dabf0499b68b406,喷气背包飞行器,旅游景点,游乐园,上海市,上海市,浦东新区,上海市浦东新区川沙镇黄赵路310号上海迪士尼乐园,f7ee5ea30dabf0499b68b406,1,0,121.665069,31.14767,4001800000,scope,http://api.map.baidu.com/place/detail?uid=f7ee5ea30dabf0499b68b406&output=html&source=placeapi_v2,,09:00-21:00,4.4,,,,,,,8,73,,,,,,,,,0
a063e250b314194bcae33cdf,小飞侠天空奇遇,旅游景点,游乐园,上海市,上海市,浦东新区,上海市浦东新区川沙镇黄赵路310号上海迪士尼乐园,a063e250b314194bcae33cdf,1,0,121.664331,31.1496,(021)20998001,scope,http://api.map.baidu.com/place/detail?uid=a063e250b314194bcae33cdf&output=html&source=placeapi_v2,,09:00-21:00,4.7,,,,,,,2,29,,,,,,,,,0
c5a4355d5926c33d81a12e23,漫游童话时光,旅游景点,游乐园,上海市,上海市,浦东新区,上海市浦东新区川沙镇黄赵路310号上海迪士尼乐园,c5a4355d5926c33d81a12e23,1,0,121.665937,31.149877,(021)20998001,scope,http://api.map.baidu.com/place/detail?uid=c5a4355d5926c33d81a12e23&output=html&source=placeapi_v2,,09:00-21:00,4.3,,,,,,,4,92,,,,,,,,,0
e9b184931ed0a45eb34c49a4,弹簧狗团团转,旅游景点,游乐园,上海市,上海市,浦东新区,上海市浦东新区迪士尼乐园玩具总动员内,,1,0,121.663548,31.149566,(021)20998001,scope,http://api.map.baidu.com/place/detail?uid=e9b184931ed0a45eb34c49a4&output=html&source=placeapi_v2,,08:00-22:00,4.8,,,,,,,6,5,,,,,,,,,0
776d87a6e6b71e24c9c3db47,玩偶遇到爱(生态园路店),旅游景点,游乐园,上海市,上海市,浦东新区,上海市浦东新区地铁11号线迪士尼站迪士尼站F1,,1,0,121.674375,31.147434,,life,http://api.map.baidu.com/place/detail?uid=776d87a6e6b71e24c9c3db47&output=html&source=placeapi_v2,,,,,,,,,,,,,,,,,,,,0
80012d8bbc89688840afe6f4,胡迪牛仔嘉年华,旅游景点,游乐园,上海市,上海市,浦东新区,上海市浦东新区上海迪士尼度假区玩具总动员园区内,,1,0,121.663728,31.150009,,scope,http://api.map.baidu.com/place/detail?uid=80012d8bbc89688840afe6f4&output=html&source=placeapi_v2,,08:00-22:00,4,,,,,,,1,20,,,,,,,,,0
e7d7d722e56d3015a8f0cdd9,幻想曲旋转木马,旅游景点,游乐园,上海市,上海市,浦东新区,上海市浦东新区川沙镇黄赵路310号上海迪士尼乐园,e7d7d722e56d3015a8f0cdd9,1,0,121.667777,31.148743,(021)31580000,scope,http://api.map.baidu.com/place/detail?uid=e7d7d722e56d3015a8f0cdd9&output=html&source=placeapi_v2,,09:00-20:30,4.6,,,,,,,,31,,,,,,,,,0
d815a7a6e008e00f32870a6c,米奇俱乐部,旅游景点,游乐园,上海市,上海市,浦东新区,上海市浦东新区川沙镇黄赵路310号上海迪士尼乐园,d815a7a6e008e00f32870a6c,1,0,121.665732,31.148545,4001800000,scope,http://api.map.baidu.com/place/detail?uid=d815a7a6e008e00f32870a6c&output=html&source=placeapi_v2,,09:00-21:00,4.7,,,,,,,2,25,,,,,,,,,0
304b6449b2d9ca476c4760ff,上海奥特莱斯玛雅水世界欢乐谷复式(沪青平公路店),旅游景点,游乐园,上海市,上海市,青浦区,上海市青浦区沪青平公路2799弄珠江国际商贸中心悦公馆60号1504A号,,1,0,121.238709,31.157338,,scope,http://api.map.baidu.com/place/detail?uid=304b6449b2d9ca476c4760ff&output=html&source=placeapi_v2,,,,,,,,,,,,,,,,,,,,0
762f8f5d6f1b12199cec2b44,扭蛋机(爱琴海购物公园店),旅游景点,游乐园,上海市,上海市,闵行区,上海市闵行区吴中路1588号爱琴海购物公园F4,,1,0,121.379922,31.180991,,scope,http://api.map.baidu.com/place/detail?uid=762f8f5d6f1b12199cec2b44&output=html&source=placeapi_v2,,,,,,,,,,,,,,,,,,121.37778787952,31.179967149809,0
f30e48e415863dbce60738e6,扭蛋机(爱琴海购物公园店),旅游景点,游乐园,上海市,上海市,闵行区,上海市闵行区吴中路1588号爱琴海购物公园F3,,1,0,121.379931,31.180991,,scope,http://api.map.baidu.com/place/detail?uid=f30e48e415863dbce60738e6&output=html&source=placeapi_v2,,,,,,,,,,,,,,,,,,121.37778787952,31.179967149809,0
620a0b0f9ebe96e3940319db,欢乐场,旅游景点,游乐园,上海市,上海市,闵行区,上海市闵行区吴中路1075号,620a0b0f9ebe96e3940319db,1,0,121.393177,31.181796,,scope,http://api.map.baidu.com/place/detail?uid=620a0b0f9ebe96e3940319db&output=html&source=placeapi_v2,,,0.0,,,,,,,1,,,,,,,,121.39247268361,31.181679223692,0
f520e692023d1136cf06a446,上海植物园-儿童游乐场,旅游景点,游乐园,上海市,上海市,徐汇区,上海市徐汇区龙吴路1111号(近百色路)上海植物园内,f520e692023d1136cf06a446,1,1,121.452657,31.155465,(021)54363369,scope,http://api.map.baidu.com/place/detail?uid=f520e692023d1136cf06a446&output=html&source=placeapi_v2,,,0,,,,,,,2,0,,,,,,,,,1
2ccb28dd780e6080ed74f8ab,斯马兰魔幻森林,旅游景点,游乐园,上海市,上海市,徐汇区,上海市徐汇区漕溪路126号,,1,0,121.441042,31.184165,,scope,http://api.map.baidu.com/place/detail?uid=2ccb28dd780e6080ed74f8ab&output=html&source=placeapi_v2,,,0,,,,,,,,0,,,,,,,,,0
33cf31a2b3349f01626858d5,激光彩打,旅游景点,游乐园,上海市,上海市,徐汇区,上海市徐汇区龙吴路聚龙新苑西北侧约70米,33cf31a2b3349f01626858d5,1,0,121.456692,31.163522,,scope,http://api.map.baidu.com/place/detail?uid=33cf31a2b3349f01626858d5&output=html&source=placeapi_v2,,,,,,,,,,2,,,,,,,,,,0
33294cce784b183c581093ba,扭蛋机,旅游景点,游乐园,上海市,上海市,徐汇区,上海市徐汇区11号线12号线换乘龙华站龙华站B1,,1,0,121.459258,31.179125,,life,http://api.map.baidu.com/place/detail?uid=33294cce784b183c581093ba&output=html&source=placeapi_v2,,,,,,,,,,,,,,,,,,,,0
285670b8c50bb7211b11d5b4,浦东新区61主题乐园,旅游景点,游乐园,上海市,上海市,浦东新区,上海市浦东新区科农路715号,285670b8c50bb7211b11d5b4,1,1,121.642897,31.175862,,scope,http://api.map.baidu.com/place/detail?uid=285670b8c50bb7211b11d5b4&output=html&source=placeapi_v2,,00:00-24:00,0,,,,,,,,1,,,,,,,121.64347596595,31.175830974846,1
833756bb3545554eab059d7a,小熊维尼历险记,旅游景点,游乐园,上海市,上海市,浦东新区,上海市浦东新区川沙镇黄赵路310号上海迪士尼乐园,833756bb3545554eab059d7a,1,0,121.665127,31.151779,,scope,http://api.map.baidu.com/place/detail?uid=833756bb3545554eab059d7a&output=html&source=placeapi_v2,,09:00-21:00,4.8,,,,,,,3,26,,,,,,,,,0
597ab747b8774f64e6e965cf,抓娃娃机(新华联购物中心店),旅游景点,游乐园,上海市,上海市,闵行区,上海市闵行区申滨路473号新华联购物中心B1,,1,0,121.31526,31.207744,,scope,http://api.map.baidu.com/place/detail?uid=597ab747b8774f64e6e965cf&output=html&source=placeapi_v2,,,,,,,,,,,,,,,,,,121.31488106279,31.206383351558,0
e4af37079aca4ea17dc876a7,抓娃娃机(百联西郊购物中心店),旅游景点,游乐园,上海市,上海市,长宁区,上海市长宁区仙霞西路88号百联西郊购物中心B2,,1,0,121.377363,31.214633,,scope,http://api.map.baidu.com/place/detail?uid=e4af37079aca4ea17dc876a7&output=html&source=placeapi_v2,,,,,,,,,,,,,,,,,,121.37570690001,31.215210247669,0
80dfbf2e4e9414ff71455ba0,抓娃娃机(金虹桥商场店),旅游景点,游乐园,上海市,上海市,长宁区,上海市长宁区茅台路179号金虹桥商场B1,,1,0,121.408495,31.214725,18918555285,scope,http://api.map.baidu.com/place/detail?uid=80dfbf2e4e9414ff71455ba0&output=html&source=placeapi_v2,,10:00-22:00,,,,,,,,,,,,,,,,121.40795369988,31.215593410956,0
76e8bb7d2ab4fa2b902ca304,儿童游乐场,旅游景点,游乐园,上海市,上海市,徐汇区,上海市徐汇区肇嘉浜路986号徐家汇公园内,76e8bb7d2ab4fa2b902ca304,1,0,121.449115,31.20364,,scope,http://api.map.baidu.com/place/detail?uid=76e8bb7d2ab4fa2b902ca304&output=html&source=placeapi_v2,,,3.9,,,,,,,1,14,,,,,,,,,0
cda048c849b328c525d2bb5c,扭蛋机,旅游景点,游乐园,上海市,上海市,徐汇区,上海市徐汇区地铁1号线7号线换乘站常熟路地铁站常熟路站B1,,1,0,121.457589,31.219655,,life,http://api.map.baidu.com/place/detail?uid=cda048c849b328c525d2bb5c&output=html&source=placeapi_v2,,,,,,,,,,,,,,,,,,,,0
bbc0e00bc8eeccd322022003,扭蛋机,旅游景点,游乐园,上海市,上海市,徐汇区,上海市徐汇区地铁4号线12号线换乘站大木桥路站大木桥路站B1,,1,0,121.470037,31.200248,,life,http://api.map.baidu.com/place/detail?uid=bbc0e00bc8eeccd322022003&output=html&source=placeapi_v2,,,,,,,,,,,,,,,,,,,,0
6b5c8a0b388eff72364aae6f,扭蛋机,旅游景点,游乐园,上海市,上海市,徐汇区,上海市徐汇区地铁9号线12号线换乘站嘉善路站嘉善路站B1,,1,0,121.467184,31.208733,,scope,http://api.map.baidu.com/place/detail?uid=6b5c8a0b388eff72364aae6f&output=html&source=placeapi_v2,,,,,,,,,,,,,,,,,,,,0
794426b250d7a1bad2f49e08,世博源-观光小火车,旅游景点,游乐园,上海市,上海市,浦东新区,上海市浦东新区世博大道1368号世博源F2,794426b250d7a1bad2f49e08,1,0,121.498063,31.192271,,scope,http://api.map.baidu.com/place/detail?uid=794426b250d7a1bad2f49e08&output=html&source=placeapi_v2,,10:00-22:00,,,,,,,,,,,,,,,,,,0
1e329e7f11c0cb6ac9c3db32,扭蛋机,旅游景点,游乐园,上海市,上海市,黄浦区,上海市黄浦区9号线地铁站小南门站小南门站B1,,1,0,121.494071,31.218702,13761265938,life,http://api.map.baidu.com/place/detail?uid=1e329e7f11c0cb6ac9c3db32&output=html&source=placeapi_v2,,10:00-22:00,,,,,,,,,,,,,,,,,,0
72bbbb37daa0b43a430245b7,陶艺手工DIY(巴黎春天店),旅游景点,游乐园,上海市,上海市,浦东新区,上海市浦东新区浦建路118号巴黎春天F5,72bbbb37daa0b43a430245b7,1,0,121.526692,31.214315,(021)50650197,cater,http://api.map.baidu.com/place/detail?uid=72bbbb37daa0b43a430245b7&output=html&source=placeapi_v2,,10:00-21:30,0,,,,,,,,0,,,,,,,,,0
5f274632b528c73214c9055d,扭蛋机,旅游景点,游乐园,上海市,上海市,浦东新区,上海市浦东新区地铁4号线塘桥路站塘桥站B2,,1,0,121.525563,31.215446,,life,http://api.map.baidu.com/place/detail?uid=5f274632b528c73214c9055d&output=html&source=placeapi_v2,,,,,,,,,,,,,,,,,,,,0
e8be037f1091bb50157643c7,VR主题乐园,旅游景点,游乐园,上海市,上海市,浦东新区,上海市浦东新区川沙新镇绿地东海岸川沙路5558弄2号,e8be037f1091bb50157643c7,1,0,121.705091,31.19009,,scope,http://api.map.baidu.com/place/detail?uid=e8be037f1091bb50157643c7&output=html&source=placeapi_v2,,,,,,,,,,,,,,,,,,,,0
f88fb3a6cf7c95002efaa7d4,麦其(百联川沙购物中心店),旅游景点,游乐园,上海市,上海市,浦东新区,上海市浦东新区川沙路5398号百联川沙购物中心F3,,1,0,121.70456,31.191663,,life,http://api.map.baidu.com/place/detail?uid=f88fb3a6cf7c95002efaa7d4&output=html&source=placeapi_v2,,10:00-21:30,3.8,,,,,,,7,52,,,,,,,121.70474430846,31.192072083591,0
1f1ed511671878d8601c6788,BAIDAI,旅游景点,游乐园,上海市,上海市,嘉定区,上海市嘉定区13号线地铁站丰庄站丰庄站B1,1f1ed511671878d8601c6788,1,0,121.362389,31.248103,,life,http://api.map.baidu.com/place/detail?uid=1f1ed511671878d8601c6788&output=html&source=placeapi_v2,,,,,,,,,,,,,,,,,,,,0
36ff29d3537eef3c2eb90855,神奇的水母,旅游景点,游乐园,上海市,上海市,普陀区,上海市普陀区武宁路528号,36ff29d3537eef3c2eb90855,1,0,121.426183,31.244048,,scope,http://api.map.baidu.com/place/detail?uid=36ff29d3537eef3c2eb90855&output=html&source=placeapi_v2,,,,,,,,,,,,,,,,,,,,0
638a6ce608ca93ad5abbbcd9,扭蛋机,旅游景点,游乐园,上海市,上海市,普陀区,上海市普陀区地铁3号线4号线11号线换乘站曹杨路站曹杨路站B1,638a6ce608ca93ad5abbbcd9,1,0,121.423993,31.244266,,life,http://api.map.baidu.com/place/detail?uid=638a6ce608ca93ad5abbbcd9&output=html&source=placeapi_v2,,,,,,,,,,,,,,,,,,,,0
77af17116026b67ef603b83a,玩偶遇到爱(南京西路店),旅游景点,游乐园,上海市,上海市,静安区,上海市静安区2号线vs7号线地铁站静安寺站静安寺站B1,,1,0,121.452434,31.22928,18017847861,life,http://api.map.baidu.com/place/detail?uid=77af17116026b67ef603b83a&output=html&source=placeapi_v2,,08:30-21:00,,,,,,,,,,,,,,,,,,0
6282904686a1cf352b11d191,星方汇广场-扶梯,旅游景点,游乐园,上海市,上海市,普陀区,上海市普陀区长寿路1118号星方汇广场F5,,1,0,121.433671,31.236915,,life,http://api.map.baidu.com/place/detail?uid=6282904686a1cf352b11d191&output=html&source=placeapi_v2,,,,,,,,,,,,,,,,,,121.43381742377,31.236396360465,0
aa4460017c60cf6b8b2fb5fa,人民公园-儿童游乐园,旅游景点,游乐园,上海市,上海市,黄浦区,上海市黄浦区南京西路231号(近黄陂北路)人民公园游乐园内,aa4460017c60cf6b8b2fb5fa,1,0,121.480076,31.238609,13636466697,scope,http://api.map.baidu.com/place/detail?uid=aa4460017c60cf6b8b2fb5fa&output=html&source=placeapi_v2,,05:00-19:00,4.5,,,,,,,,2,,,,,,,121.47797426173,31.238760192869,0
9197b2089702554c725e80b1,263米主观光层,旅游景点,游乐园,上海市,上海市,浦东新区,世纪大道1号,77a68c685e1c082fc51b753d,1,0,121.506421,31.245302,,scope,http://api.map.baidu.com/place/detail?uid=9197b2089702554c725e80b1&output=html&source=placeapi_v2,,,4.8,,,,,,,,6,,,,,,,,,0
e85e2527b0741b5395f08c7b,电动木马盘,旅游景点,游乐园,上海市,上海市,黄浦区,上海市黄浦区九江路人民公园,e85e2527b0741b5395f08c7b,1,0,121.480164,31.23854,,scope,http://api.map.baidu.com/place/detail?uid=e85e2527b0741b5395f08c7b&output=html&source=placeapi_v2,,,0.0,,,,,,,,,,,,,,,,,0
dced36f7725fcd638f55ec89,Bar-SG・MiniKTV(上海大悦城北座店),旅游景点,游乐园,上海市,上海市,静安区,上海市静安区西藏北路198号上海大悦城北座F7,,1,0,121.478832,31.24966,,scope,http://api.map.baidu.com/place/detail?uid=dced36f7725fcd638f55ec89&output=html&source=placeapi_v2,,,,,,,,,,,,,,,,,,,,0
963f5c32a481d3c12bd7ab73,扭蛋机,旅游景点,游乐园,上海市,上海市,黄浦区,上海市黄浦区地铁1号线黄陂南路地铁站黄陂南路站B1,,1,0,121.47948,31.228681,,scope,http://api.map.baidu.com/place/detail?uid=963f5c32a481d3c12bd7ab73&output=html&source=placeapi_v2,,,,,,,,,,,,,,,,,,,,0
1e329e7f11c0cb6ac9c3db32,扭蛋机,旅游景点,游乐园,上海市,上海市,黄浦区,上海市黄浦区9号线地铁站小南门站小南门站B1,,1,0,121.494071,31.218702,13761265938,life,http://api.map.baidu.com/place/detail?uid=1e329e7f11c0cb6ac9c3db32&output=html&source=placeapi_v2,,10:00-22:00,,,,,,,,,,,,,,,,,,0
807ebf1129feddc7316212c3,游乐场,旅游景点,游乐园,上海市,上海市,嘉定区,上海市嘉定区新黄路黄渡公园东南侧,,1,0,121.224081,31.273975,,scope,http://api.map.baidu.com/place/detail?uid=807ebf1129feddc7316212c3&output=html&source=placeapi_v2,,,,,,,,,,,,,,,,,,,,0
672ec1151f61ff2bdc1e5233,嘉莲华儿童游乐园(嘉莲华国际商业广场店),旅游景点,游乐园,上海市,上海市,嘉定区,上海市嘉定区曹安公路2666号嘉莲华国际商业广场F1,672ec1151f61ff2bdc1e5233,1,2,121.351004,31.266412,(021)69119288,shopping,http://api.map.baidu.com/place/detail?uid=672ec1151f61ff2bdc1e5233&output=html&source=placeapi_v2,,,,,,,,,,,14,,,,,,,121.35090849549,31.266267996076,2
23ecf749518e4f9b6118096c,儿童主题厅,旅游景点,游乐园,上海市,上海市,静安区,沪太路785号19幢附近,23ecf749518e4f9b6118096c,1,0,121.451052,31.272618,,scope,http://api.map.baidu.com/place/detail?uid=23ecf749518e4f9b6118096c&output=html&source=placeapi_v2,,,,,,,,,,1,,,,,,,,,,0
7950029abf68e5cbc61b7576,迷你穿梭,旅游景点,游乐园,上海市,上海市,静安区,上海市静安区洛川东路闸北公园,7950029abf68e5cbc61b7576,1,0,121.46862,31.277424,,scope,http://api.map.baidu.com/place/detail?uid=7950029abf68e5cbc61b7576&output=html&source=placeapi_v2,,,,,,,,,,,,,,,,,,,,0
6b26889cf0bf66114bcc4a4a,抓娃娃机(大宁国际商业广场店),旅游景点,游乐园,上海市,上海市,静安区,上海市静安区共和新路1878~2008号大宁国际商业广场F4,,1,0,121.458201,31.280295,,scope,http://api.map.baidu.com/place/detail?uid=6b26889cf0bf66114bcc4a4a&output=html&source=placeapi_v2,,,,,,,,,,,,,,,,,,121.46005344768,31.280235281349,0
faf8a8131c0c9d43adb22aba,抓娃娃机(大宁国际商业广场店),旅游景点,游乐园,上海市,上海市,静安区,上海市静安区共和新路1878~2008号大宁国际商业广场F5,,1,0,121.457654,31.280826,(021)66315367,scope,http://api.map.baidu.com/place/detail?uid=faf8a8131c0c9d43adb22aba&output=html&source=placeapi_v2,,10:00-22:00,,,,,,,,,,,,,,,,121.46005344768,31.280235281349,0
e389bca32a9854fef03cba02,扭蛋机(大宁国际商业广场店),旅游景点,游乐园,上海市,上海市,静安区,上海市静安区共和新路1878~2008号大宁国际商业广场F5,,1,0,121.45768,31.280845,,scope,http://api.map.baidu.com/place/detail?uid=e389bca32a9854fef03cba02&output=html&source=placeapi_v2,,10:00-21:00,,,,,,,,,,,,,,,,121.46005344768,31.280235281349,0
855920a8a8c72d73dbecedfd,扭蛋机(大宁国际商业广场店),旅游景点,游乐园,上海市,上海市,静安区,上海市静安区共和新路1878~2008号大宁国际商业广场F2,,1,0,121.459128,31.279684,,life,http://api.map.baidu.com/place/detail?uid=855920a8a8c72d73dbecedfd&output=html&source=placeapi_v2,,,,,,,,,,,,,,,,,,121.46005344768,31.280235281349,0
ab16cdd30e68975ab7265591,扭蛋机,旅游景点,游乐园,上海市,上海市,静安区,上海市静安区地铁1号线延长路站延长路站B1,,1,0,121.46158,31.277873,,life,http://api.map.baidu.com/place/detail?uid=ab16cdd30e68975ab7265591&output=html&source=placeapi_v2,,,,,,,,,,,,,,,,,,,,0
f4d948b5c22489b76f3e1b63,扭蛋机,旅游景点,游乐园,上海市,上海市,虹口区,上海市虹口区10号线4号线地铁站换乘线海伦路站海伦路站B1,,1,0,121.496092,31.264921,18930931746,scope,http://api.map.baidu.com/place/detail?uid=f4d948b5c22489b76f3e1b63&output=html&source=placeapi_v2,,,,,,,,,,,,,,,,,,,,0
19857568ab1df69ea3acc4c5,七彩虹动漫乐园,旅游景点,游乐园,上海市,上海市,虹口区,上海市虹口区大连路1131号和平公园内,19857568ab1df69ea3acc4c5,1,0,121.509072,31.276807,,scope,http://api.map.baidu.com/place/detail?uid=19857568ab1df69ea3acc4c5&output=html&source=placeapi_v2,,,0,,,,,,,1,1,,,,,,,121.50913050164,31.276787356687,0
54127081a8c15514d8d891b6,摇头转椅,旅游景点,游乐园,上海市,上海市,虹口区,上海市虹口区大连路1131号和平公园欢乐城内,54127081a8c15514d8d891b6,1,0,121.508212,31.277713,,scope,http://api.map.baidu.com/place/detail?uid=54127081a8c15514d8d891b6&output=html&source=placeapi_v2,,,,,,,,,,,,,,,,,,,,0
d4943cd6d1f6056c94ec84f9,立环跑车,旅游景点,游乐园,上海市,上海市,虹口区,上海市虹口区大连路1131号和平公园欢乐城内,d4943cd6d1f6056c94ec84f9,1,0,121.508412,31.277858,,scope,http://api.map.baidu.com/place/detail?uid=d4943cd6d1f6056c94ec84f9&output=html&source=placeapi_v2,,,,,,,,,,,,,,,,,,,,0
6075a121508eaec8ab059dc9,友唱・M-Bar(久金广场店),旅游景点,游乐园,上海市,上海市,浦东新区,上海市浦东新区张杨路3918号久金广场F2,,1,0,121.588336,31.261753,(021)50838388,scope,http://api.map.baidu.com/place/detail?uid=6075a121508eaec8ab059dc9&output=html&source=placeapi_v2,,10:00-22:00,,,,,,,,,,,,,,,,121.58909759526,31.261628114844,0
f26deeb5605b11b8eb12e443,金苗儿童乐园,旅游景点,游乐园,上海市,上海市,浦东新区,上海市浦东新区巨峰路868号,f26deeb5605b11b8eb12e443,1,1,121.612286,31.285532,"(021)50187009,(021)50187186",life,http://api.map.baidu.com/place/detail?uid=f26deeb5605b11b8eb12e443&output=html&source=placeapi_v2,650,10:00-19:00,3.8,,,,,,,15,22,,,,,,,121.61214780832,31.28587324464,1
14c09b144f4a7903b34c499e,龚华路游乐场,旅游景点,游乐园,上海市,上海市,浦东新区,上海市浦东新区龚华路龚路新城,,1,0,121.693636,31.266246,18817666067,scope,http://api.map.baidu.com/place/detail?uid=14c09b144f4a7903b34c499e&output=html&source=placeapi_v2,,08:00-22:00,,,,,,,,,,,,,,,,,,0
c563baf6c3c56600cae33c21,周氏快乐大本营,旅游景点,游乐园,上海市,上海市,杨浦区,上海市杨浦区延吉东路115弄24号,c563baf6c3c56600cae33c21,1,0,121.552249,31.301831,,scope,http://api.map.baidu.com/place/detail?uid=c563baf6c3c56600cae33c21&output=html&source=placeapi_v2,,,0,,,,,,,21,1,,,,,,,121.55228208812,31.301768406689,0
69eefdb4c21a3a31f8f0cb00,游乐世界,旅游景点,游乐园,上海市,上海市,嘉定区,上海市嘉定区马陆镇宝安公路3548号,,1,0,121.28099,31.333228,,scope,http://api.map.baidu.com/place/detail?uid=69eefdb4c21a3a31f8f0cb00&output=html&source=placeapi_v2,,,,,,,,,,,,,,,,,,,,0
778215df07f910d56fa3cc94,恐龙世界,旅游景点,游乐园,上海市,上海市,宝山区,上海市宝山区沪太路4788号,,1,0,121.380268,31.348972,(021)66012185,scope,http://api.map.baidu.com/place/detail?uid=778215df07f910d56fa3cc94&output=html&source=placeapi_v2,,,0,,,,,,,,1,,,,,,,,,0
13412cc5c7a8e7e7b4265541,安徒生童话乐园,旅游景点,游乐园,上海市,上海市,杨浦区,新江湾城国泓路200号,13412cc5c7a8e7e7b4265541,1,8,121.517837,31.329548,(021)65570303,scope,http://api.map.baidu.com/place/detail?uid=13412cc5c7a8e7e7b4265541&output=html&source=placeapi_v2,,09:30-17:30,3.6,,,,,,,39,189,,,,,,,121.51934853279,31.330493075361,8
d1d6c215400ae0e8b35c6a99,6号包厢(中原城市广场店),旅游景点,游乐园,上海市,上海市,杨浦区,上海市杨浦区国和路701号中原城市广场F1,d1d6c215400ae0e8b35c6a99,1,0,121.528137,31.321559,,life,http://api.map.baidu.com/place/detail?uid=d1d6c215400ae0e8b35c6a99&output=html&source=placeapi_v2,,,,,,,,,,1,,,,,,,,,,0
246061ef531e219122022095,新江湾城公园-亲水平台,旅游景点,游乐园,上海市,上海市,杨浦区,上海市杨浦区政和路与国秀路交叉口北200米新江湾城公园,,1,0,121.518365,31.338998,,scope,http://api.map.baidu.com/place/detail?uid=246061ef531e219122022095&output=html&source=placeapi_v2,,,,,,,,,,,,,,,,,,121.5187890762,31.339258490134,0
e1e5847c15a3f092bea24045,儿童活动林,旅游景点,游乐园,上海市,上海市,嘉定区,上海市嘉定区开心农庄(沪宜公路南),,1,0,121.209933,31.372433,,scope,http://api.map.baidu.com/place/detail?uid=e1e5847c15a3f092bea24045&output=html&source=placeapi_v2,,,,,,,,,,,,,,,,,,,,0
8ebc92c6c7ac003f57bfffcb,泰迪熊森林主题乐园,旅游景点,游乐园,上海市,上海市,嘉定区,上海市嘉定区白银路288弄台北风情街2楼217铺,,1,0,121.267552,31.359295,18121452110,scope,http://api.map.baidu.com/place/detail?uid=8ebc92c6c7ac003f57bfffcb&output=html&source=placeapi_v2,,09:30-20:00,,,,,,,,,,,,,,,,,,0
3f773ec7803c85634f3a5917,绿色森林主题乐园,旅游景点,游乐园,上海市,上海市,宝山区,上海市宝山区罗店镇年喜路737号(台润美罗生活广场)二楼,,1,0,121.340667,31.403634,,scope,http://api.map.baidu.com/place/detail?uid=3f773ec7803c85634f3a5917&output=html&source=placeapi_v2,,,,,,,,,,,,,,,,,,,,0
1bd2bacb6ad46ddf593ac80f,玩偶遇到爱(沪太公路店),旅游景点,游乐园,上海市,上海市,宝山区,上海市宝山区地铁7号线美兰湖站美兰湖站F2,1bd2bacb6ad46ddf593ac80f,1,0,121.356658,31.407915,,life,http://api.map.baidu.com/place/detail?uid=1bd2bacb6ad46ddf593ac80f&output=html&source=placeapi_v2,,,,,,,,,,,,,,,,,,,,0
171bf4eab2b88fa7e9f853cb,儿童乐园,旅游景点,游乐园,上海市,上海市,宝山区,上海市宝山区塘后路206号(近双城路),171bf4eab2b88fa7e9f853cb,1,1,121.51644,31.400792,,scope,http://api.map.baidu.com/place/detail?uid=171bf4eab2b88fa7e9f853cb&output=html&source=placeapi_v2,,,,,,,,,,,,,,,,,,121.51643910988,31.400791418483,1
b248d96e1de6cae7a7c75657,儿童游乐区,旅游景点,游乐园,上海市,上海市,浦东新区,上海市浦东新区高桥镇凌桥高沙滩3号上海滨江森林公园特色植物观赏区内,b248d96e1de6cae7a7c75657,1,0,121.538213,31.389396,,scope,http://api.map.baidu.com/place/detail?uid=b248d96e1de6cae7a7c75657&output=html&source=placeapi_v2,,,0.0,,,,,,,,,,,,,,,,,0
6d6413a066a43dad3b221cab,儿童游乐场,旅游景点,游乐园,上海市,上海市,宝山区,上海市宝山区潘泾路2888号闻道园内,,1,0,121.360606,31.44295,,scope,http://api.map.baidu.com/place/detail?uid=6d6413a066a43dad3b221cab&output=html&source=placeapi_v2,,,0,,,,,,,,0,,,,,,,,,0
