uid,name,cat_L1,cat_L2,province,city,area,address,street_id,detail,child_num,loc_lng,loc_lat,telephone,type,detail_url,price,shop_hours,overall_rating,taste_rating,service_rating,environment_rating,facility_rating,hygiene_rating,technology_rating,image_num,comment_num,groupon_num,discount_num,favorite_num,checkin_num,brand,content_tag,naviloc_lng,naviloc_lat,child_num
b98c149e9e5a007ec7f50d46,上海市农业科学院金山果树试验站,教育培训,科研机构,上海市,上海市,金山区,廊华路5002号,,1,0,121.147997,30.792118,13501617524,education,http://api.map.baidu.com/place/detail?uid=b98c149e9e5a007ec7f50d46&output=html&source=placeapi_v2,,,5,,,,,,,,2,,,,,,,121.14779960479,30.792237493932,0
c42ddfef3ad52a216ca3ccde,上海金山区枇杷研发中心,教育培训,科研机构,上海市,上海市,金山区,上海市金山区朱平公路1799号,,1,0,121.154123,30.812882,,education,http://api.map.baidu.com/place/detail?uid=c42ddfef3ad52a216ca3ccde&output=html&source=placeapi_v2,,,,,,,,,,,,,,,,,,121.1544916305,30.812838619598,0
cec11b3a4244f2f56240a9c5,申漕特种水产开发公司上海水产大学产学研基地,教育培训,科研机构,上海市,上海市,金山区,上海市金山区漕廊公路8888号,cec11b3a4244f2f56240a9c5,1,0,121.170959,30.793354,,education,http://api.map.baidu.com/place/detail?uid=cec11b3a4244f2f56240a9c5&output=html&source=placeapi_v2,,,,,,,,,,,,,,,,,,121.17095515944,30.793218365236,0
31b90f053b76f8e3276e9878,金山草莓研发中心,教育培训,科研机构,上海市,上海市,金山区,上海市金山区廊下镇漕廊公路8388号,31b90f053b76f8e3276e9878,1,0,121.184607,30.793378,13162565893,education,http://api.map.baidu.com/place/detail?uid=31b90f053b76f8e3276e9878&output=html&source=placeapi_v2,,,3.8,,,,,,,,20,,,,,,,121.18452922044,30.793346937126,0
5351a9c68ee7e3a42dfaa729,技术研发中心,教育培训,科研机构,上海市,上海市,金山区,上海市金山区振康路上海起帆电缆股份有限公司,,1,0,121.269729,30.803957,,education,http://api.map.baidu.com/place/detail?uid=5351a9c68ee7e3a42dfaa729&output=html&source=placeapi_v2,,,,,,,,,,,,,,,,,,121.26966653837,30.803963116152,0
e70425246455bb822ad7ab1c,集成电路研发中心,教育培训,科研机构,上海市,上海市,金山区,上海市金山区亭卫公路与月工路交叉路口往北约110米,,1,0,121.359285,30.815855,,education,http://api.map.baidu.com/place/detail?uid=e70425246455bb822ad7ab1c&output=html&source=placeapi_v2,,,,,,,,,,,,,,,,,,121.35946595769,30.815880946844,0
aa9840c007f2849cf11937e4,科学补硒养生工程工作站,教育培训,科研机构,上海市,上海市,金山区,上海市金山区海创路金山区漕泾幼儿园东侧,,1,0,121.417199,30.801094,,education,http://api.map.baidu.com/place/detail?uid=aa9840c007f2849cf11937e4&output=html&source=placeapi_v2,,,,,,,,,,,,,,,,,,,,0
96b6cf23482164c840e192b2,上海迅昌化工装备技术研究所,教育培训,科研机构,上海市,上海市,金山区,上海市金山区开拓东路与天华路交叉路口往东北约170米,96b6cf23482164c840e192b2,1,0,121.443517,30.812324,,education,http://api.map.baidu.com/place/detail?uid=96b6cf23482164c840e192b2&output=html&source=placeapi_v2,,,,,,,,,,,,,,,,,,121.44358405909,30.81236083473,0
08742306f86e9881afee7ab4,上海闰申净化技术中心,教育培训,科研机构,上海市,上海市,金山区,上海市金山区夏宁路666弄南区53号,,1,0,121.32399,30.839177,,education,http://api.map.baidu.com/place/detail?uid=08742306f86e9881afee7ab4&output=html&source=placeapi_v2,,,,,,,,,,,,,,,,,,,,0
6d5f51a4a6b755fe5e0d02b6,全丽研发创新中心,教育培训,科研机构,上海市,上海市,金山区,上海市金山区九工路华纺和成未来派北侧约50米,,1,0,121.326029,30.838519,,education,http://api.map.baidu.com/place/detail?uid=6d5f51a4a6b755fe5e0d02b6&output=html&source=placeapi_v2,,,,,,,,,,,,,,,,,,,,0
c2e42b55291885b86cc02c4d,庆强金山研发中心,教育培训,科研机构,上海市,上海市,金山区,月工路(群力紧固件公司东南侧约50米),,1,0,121.360911,30.81889,,education,http://api.map.baidu.com/place/detail?uid=c2e42b55291885b86cc02c4d&output=html&source=placeapi_v2,,,,,,,,,,,,,,,,,,121.36078847166,30.818808856916,0
dcae95aa0dbb891528d7abff,中国国能技术中心,教育培训,科研机构,上海市,上海市,奉贤区,上海市奉贤区楚华北路859号,dcae95aa0dbb891528d7abff,1,0,121.456238,30.832521,,education,http://api.map.baidu.com/place/detail?uid=dcae95aa0dbb891528d7abff&output=html&source=placeapi_v2,,,0.0,,,,,,,,,,,,,,,121.45627228216,30.832474715361,0
2f8a97c826ad46c6badf8fd4,柘林镇食品安全快速检测公共实验室,教育培训,科研机构,上海市,上海市,奉贤区,上海市奉贤区苍工路奉贤分局临海派出所东侧约80米,,1,0,121.470236,30.831288,,education,http://api.map.baidu.com/place/detail?uid=2f8a97c826ad46c6badf8fd4&output=html&source=placeapi_v2,,,,,,,,,,,,,,,,,,121.4704748489,30.831020071652,0
2cc3c8e889c07ad54d2fdfef,上海师范大学-汽车与动力技术研究所,教育培训,科研机构,上海市,上海市,奉贤区,海湾镇学海路上师大剧院东北200米,2cc3c8e889c07ad54d2fdfef,1,0,121.530118,30.846427,,education,http://api.map.baidu.com/place/detail?uid=2cc3c8e889c07ad54d2fdfef&output=html&source=placeapi_v2,,,,,,,,,,,,,,,,,,121.5300457641,30.846561773025,0
4b283fe4edb6d4d708f5eb67,上海师范大学植物种质资源开发中心,教育培训,科研机构,上海市,上海市,奉贤区,上海市奉贤区新院东北侧约130米,,1,1,121.531157,30.846836,,education,http://api.map.baidu.com/place/detail?uid=4b283fe4edb6d4d708f5eb67&output=html&source=placeapi_v2,,,,,,,,,,,,,,,,,,121.53109169804,30.846929299718,1
176f103bb9e36ca9b817e73e,上海师范大学生命与环境科学学院-蔬菜花卉研究所,教育培训,科研机构,上海市,上海市,奉贤区,上海市奉贤区海思路100号上海师范大学奉贤校区,,1,0,121.522273,30.845462,,education,http://api.map.baidu.com/place/detail?uid=176f103bb9e36ca9b817e73e&output=html&source=placeapi_v2,,,0,,,,,,,,0,,,,,,,121.52240074943,30.845497198099,0
5743d331e72a6a9bc356ac11,华东理工大学奉贤校区机械与动力工程学院机械实验教学中心,教育培训,科研机构,上海市,上海市,奉贤区,上海市奉贤区海思路999号,,1,0,121.514115,30.837259,,education,http://api.map.baidu.com/place/detail?uid=5743d331e72a6a9bc356ac11&output=html&source=placeapi_v2,,,,,,,,,,,,,,,,,,,,0
c8e92c94e14863c2077ce8d8,摩梦植物研究所,教育培训,科研机构,上海市,上海市,奉贤区,上海市奉贤区海乐路上海绿地香颂,,1,0,121.515457,30.832133,,education,http://api.map.baidu.com/place/detail?uid=c8e92c94e14863c2077ce8d8&output=html&source=placeapi_v2,,,5.0,,,,,,,,2,,,,,,,,,0
db6fa44777f730e7bd4842ff,上海市金山哈密瓜研发中心,教育培训,科研机构,上海市,上海市,金山区,白漾村3108-51号,db6fa44777f730e7bd4842ff,1,0,121.240818,30.859339,13661517844,education,http://api.map.baidu.com/place/detail?uid=db6fa44777f730e7bd4842ff&output=html&source=placeapi_v2,,,0.0,,,,,,,,,,,,,,,,,0
8fca710268a37a37cc06a419,上海市蟠桃研究所,教育培训,科研机构,上海市,上海市,金山区,上海市金山区吕巷镇漾平路6008号,8fca710268a37a37cc06a419,1,1,121.235566,30.858498,(021)57201293,education,http://api.map.baidu.com/place/detail?uid=8fca710268a37a37cc06a419&output=html&source=placeapi_v2,,,,,,,,,,,,,,,,,,121.23549114035,30.85855396181,1
f8b515f2f6208c70fa42b27c,子创研发管理中心,教育培训,科研机构,上海市,上海市,金山区,上海市金山区金飞路与亭南路交叉路口往北约110米,f8b515f2f6208c70fa42b27c,1,0,121.330199,30.873416,,education,http://api.map.baidu.com/place/detail?uid=f8b515f2f6208c70fa42b27c&output=html&source=placeapi_v2,,,,,,,,,,,,,,,,,,,,0
49713dd290ae491ca4da3966,上海市色织科学技术研究所工场,教育培训,科研机构,上海市,上海市,奉贤区,上海市奉贤区庄良路1738号,49713dd290ae491ca4da3966,1,0,121.403532,30.874123,,education,http://api.map.baidu.com/place/detail?uid=49713dd290ae491ca4da3966&output=html&source=placeapi_v2,,,,,,,,,,,,,,,,,,121.40377341446,30.873996846415,0
a718808e72fb085a2811d10f,中国质量认证中心华东实验室电机检测中心,教育培训,科研机构,上海市,上海市,奉贤区,上海市奉贤区城宅路65-1号,,1,1,121.48939,30.868312,,education,http://api.map.baidu.com/place/detail?uid=a718808e72fb085a2811d10f&output=html&source=placeapi_v2,,,,,,,,,,,,,,,,,,121.48931647281,30.868506900507,1
88c0d077590a06e42a06ce5a,上海市水产研究所,教育培训,科研机构,上海市,上海市,奉贤区,上海市奉贤区海湾镇海华路(靠东头)星火农场34连,,1,0,121.617433,30.852922,,education,http://api.map.baidu.com/place/detail?uid=88c0d077590a06e42a06ce5a&output=html&source=placeapi_v2,,,,,,,,,,,,,,,,,,,,0
95e252b2246a16de80a00cd7,上海水产研究所,教育培训,科研机构,上海市,上海市,奉贤区,上海市奉贤区海湾镇五四农场中港水闸路(中港水闸向东200米),,1,0,121.746843,30.85899,,education,http://api.map.baidu.com/place/detail?uid=95e252b2246a16de80a00cd7&output=html&source=placeapi_v2,,,,,,,,,,,,,,,,,,,,0
9568046a85b5d429bea240b9,国家中药制药工程技术研究中心,教育培训,科研机构,上海市,上海市,浦东新区,上海市浦东新区,9568046a85b5d429bea240b9,1,0,121.785466,30.86814,(021)50800238,education,http://api.map.baidu.com/place/detail?uid=9568046a85b5d429bea240b9&output=html&source=placeapi_v2,,,,,,,,,,,,,,,,,,121.78489548464,30.868180980591,0
8eabb4282f6059ce100daa4b,金山区花木实验站,教育培训,科研机构,上海市,上海市,金山区,上海市金山区朱泾镇亭枫公路4588号,,1,0,121.1482,30.897096,,education,http://api.map.baidu.com/place/detail?uid=8eabb4282f6059ce100daa4b&output=html&source=placeapi_v2,,,,,,,,,,,,,,,,,,121.1482276267,30.896965313942,0
fd13a3f22554d5fbb1077d2a,金山农民画院-陶艺研究所,教育培训,科研机构,上海市,上海市,金山区,上海市金山区健康路300号金山农民画院内,,1,0,121.16536,30.902049,(021)57321363,education,http://api.map.baidu.com/place/detail?uid=fd13a3f22554d5fbb1077d2a&output=html&source=placeapi_v2,,,0.0,,,,,,,,,,,,,,,121.16520342065,30.902014266012,0
246f3162730297e39e82ea9f,金山区农业科技教育信息中心,教育培训,科研机构,上海市,上海市,金山区,上海市金山区南圩路255号,,1,0,121.169439,30.910647,(021)57317986,education,http://api.map.baidu.com/place/detail?uid=246f3162730297e39e82ea9f&output=html&source=placeapi_v2,,,,,,,,,,,,,,,,,,121.16957279482,30.910648115935,0
a3f21eeeeffc4c452fb17e2a,金山区农业科学研究所,教育培训,科研机构,上海市,上海市,金山区,上海市金山区南圩路245号,,1,0,121.169208,30.910446,,education,http://api.map.baidu.com/place/detail?uid=a3f21eeeeffc4c452fb17e2a&output=html&source=placeapi_v2,,,0.0,,,,,,,,,,,,,,,,,0
a0a0da1ef9e68441a2d23033,机灵豆STEM创意实验室,教育培训,科研机构,上海市,上海市,金山区,上海市金山区塘园路597号机灵豆stem创意实验室,a0a0da1ef9e68441a2d23033,1,0,121.168181,30.895835,17749797823,education,http://api.map.baidu.com/place/detail?uid=a0a0da1ef9e68441a2d23033&output=html&source=placeapi_v2,,,0,,,,,,,,0,,,,,,,,,0
6835e3a7c0a9a34fe311032a,上海轻工业研究所,教育培训,科研机构,上海市,上海市,金山区,上海市金山区中旺路900号,,1,0,121.197321,30.902644,,education,http://api.map.baidu.com/place/detail?uid=6835e3a7c0a9a34fe311032a&output=html&source=placeapi_v2,,,,,,,,,,,,,,,,,,,,0
0bfe6c5bf06fc834d42ce280,上海市金山区东林文史研究会,教育培训,科研机构,上海市,上海市,金山区,上海市金山区东林东街200号2楼,,1,0,121.177087,30.89981,,education,http://api.map.baidu.com/place/detail?uid=0bfe6c5bf06fc834d42ce280&output=html&source=placeapi_v2,,,,,,,,,,,,,,,,,,,,0
435d7aeaa1c2f2365abbbc69,上海农林职业技术学院(金山分院),教育培训,科研机构,上海市,上海市,金山区,上海市金山区万安街395号,,1,0,121.178275,30.901445,(021)57311137,education,http://api.map.baidu.com/place/detail?uid=435d7aeaa1c2f2365abbbc69&output=html&source=placeapi_v2,,,0.0,,,,,,,,,,,,,,,,,0
414d69bfcbcbc7eaf503b81b,上海金山复创特种设备中心,教育培训,科研机构,上海市,上海市,金山区,上海市金山区朱泾镇金龙新街436弄43号,,1,0,121.176814,30.892742,(021)57331609,education,http://api.map.baidu.com/place/detail?uid=414d69bfcbcbc7eaf503b81b&output=html&source=placeapi_v2,,,,,,,,,,,,,,,,,,121.17666972006,30.892711209475,0
a0b376f055bd14e96a49f3da,上海金山区水产研发中心,教育培训,科研机构,上海市,上海市,金山区,亭枫公路与松腾路交叉口西北50米,a0b376f055bd14e96a49f3da,1,0,121.274973,30.897857,,education,http://api.map.baidu.com/place/detail?uid=a0b376f055bd14e96a49f3da&output=html&source=placeapi_v2,,,0.0,,,,,,,,1,,,,,,,121.27493384256,30.897688200744,0
926aa1c7855613d1f7b916d5,上海市农业科学院-庄行综合实验基地,教育培训,科研机构,上海市,上海市,奉贤区,上海市奉贤区庄行镇叶庄公路888号,926aa1c7855613d1f7b916d5,1,1,121.391656,30.894515,,education,http://api.map.baidu.com/place/detail?uid=926aa1c7855613d1f7b916d5&output=html&source=placeapi_v2,,,0,,,,,,,,0,,,,,,,121.39167948433,30.894431754872,1
c31a8fc1703541ab7dc87601,上海市华宇复合材料研究所,教育培训,科研机构,上海市,上海市,奉贤区,上海市奉贤区庄利路119号,,1,1,121.405038,30.913695,,education,http://api.map.baidu.com/place/detail?uid=c31a8fc1703541ab7dc87601&output=html&source=placeapi_v2,,,,,,,,,,,,,,,,,,,,1
8ee422b79573bfdfddee8b08,上海市农业科学院,教育培训,科研机构,上海市,上海市,奉贤区,上海市奉贤区庄行镇叶庄公路888号,8ee422b79573bfdfddee8b08,1,1,121.391759,30.894378,(021)62201164,education,http://api.map.baidu.com/place/detail?uid=8ee422b79573bfdfddee8b08&output=html&source=placeapi_v2,,,,,,,,,,,,,,,,,,121.39167964693,30.894409249094,1
d04b6f8a12c16f64dbecedd2,上海开艺规划建筑设计研究院,教育培训,科研机构,上海市,上海市,奉贤区,上海市奉贤区南亭公路898号4楼,d04b6f8a12c16f64dbecedd2,1,0,121.444563,30.911296,(021)57102876,education,http://api.map.baidu.com/place/detail?uid=d04b6f8a12c16f64dbecedd2&output=html&source=placeapi_v2,,,0.0,,,,,,,,1,,,,,,,121.44459649881,30.911275247501,0
589c87eb8e2e88c408f5eb0b,联创交规理论强化服务中心,教育培训,科研机构,上海市,上海市,奉贤区,上海市奉贤区江南路389号,589c87eb8e2e88c408f5eb0b,1,0,121.46216,30.906748,,education,http://api.map.baidu.com/place/detail?uid=589c87eb8e2e88c408f5eb0b&output=html&source=placeapi_v2,,,,,,,,,,,,,,,,,,,,0
982ff96d37ff06bc4e6d46e6,南桥镇食品安全快速检测公共实验室,教育培训,科研机构,上海市,上海市,奉贤区,上海市奉贤区南星路230号,982ff96d37ff06bc4e6d46e6,1,0,121.463886,30.911808,,education,http://api.map.baidu.com/place/detail?uid=982ff96d37ff06bc4e6d46e6&output=html&source=placeapi_v2,,,,,,,,,,,,,,,,,,121.46378680808,30.911781068773,0
d7cb38531c6cf1eaf82d617a,思尔腾设计研究院,教育培训,科研机构,上海市,上海市,奉贤区,上海市奉贤区浦星公路漫也东南侧约80米,,1,0,121.5319,30.899206,,education,http://api.map.baidu.com/place/detail?uid=d7cb38531c6cf1eaf82d617a&output=html&source=placeapi_v2,,,,,,,,,,,,,,,,,,,,0
d88f59d7428126b271455b36,上海城建市政二公司预制装配式建筑研发中心,教育培训,科研机构,上海市,上海市,奉贤区,上海市奉贤区海旗路平南新苑南侧约200米,d88f59d7428126b271455b36,1,0,121.754399,30.90083,,education,http://api.map.baidu.com/place/detail?uid=d88f59d7428126b271455b36&output=html&source=placeapi_v2,,,,,,,,,,,,,,,,,,,,0
5b38401c6ca532aa1d580039,宜家测试中心,教育培训,科研机构,上海市,上海市,奉贤区,上海市奉贤区港文路399号,5b38401c6ca532aa1d580039,1,0,121.760464,30.903699,,education,http://api.map.baidu.com/place/detail?uid=5b38401c6ca532aa1d580039&output=html&source=placeapi_v2,,,,,,,,,,,,,,,,,,,,0
7565f2800a3353f53904b17a,上海市农业科学院松江现代农业园区五厍示范区特种蔬菜研发中心,教育培训,科研机构,上海市,上海市,松江区,朱定公路与齐心路交叉口南100米,,1,0,121.157743,30.934741,,education,http://api.map.baidu.com/place/detail?uid=7565f2800a3353f53904b17a&output=html&source=placeapi_v2,,,,,,,,,,,,,,,,,,,,0
da10e967e4afd375c1f1cfb3,中国科学院上海生命科学研究院植物生理生态研究所作物栽培与育种基地-西南门,教育培训,科研机构,上海市,上海市,松江区,上海市松江区叶新公路与水产公路交叉路口东北侧,,1,0,121.133605,30.940755,,education,http://api.map.baidu.com/place/detail?uid=da10e967e4afd375c1f1cfb3&output=html&source=placeapi_v2,,,,,,,,,,,,,,,,,,121.13354427877,30.940553821696,0
757c5ad919f263c82b06ce43,中国科学院上海生命科学研究院植物生理生态研究所作物栽培与育种基地,教育培训,科研机构,上海市,上海市,松江区,上海市松江区叶新公路6956号,,1,1,121.133703,30.940757,,education,http://api.map.baidu.com/place/detail?uid=757c5ad919f263c82b06ce43&output=html&source=placeapi_v2,,,,,,,,,,,,,,,,,,121.13363617991,30.940532544834,1
de7c185863b7e65f6fc02c8c,上海市松江农田水利试验站,教育培训,科研机构,上海市,上海市,松江区,上海市松江区腰泾公路1580号,,1,0,121.185671,30.940376,,education,http://api.map.baidu.com/place/detail?uid=de7c185863b7e65f6fc02c8c&output=html&source=placeapi_v2,,,,,,,,,,,,,,,,,,,,0
38deffad74c7fb7bf82d6117,上海凯达-龙孚道路工程联合研发中心,教育培训,科研机构,上海市,上海市,松江区,上海市松江区新艳路1188号,38deffad74c7fb7bf82d6117,1,0,121.203599,30.932875,,education,http://api.map.baidu.com/place/detail?uid=38deffad74c7fb7bf82d6117&output=html&source=placeapi_v2,,,,,,,,,,,,,,,,,,121.20360019791,30.932706057723,0
2f35962cab7aaaafb2077dde,上海建工基础集团非开挖设备研发中心,教育培训,科研机构,上海市,上海市,奉贤区,上海市奉贤区钜庭路1385号,,1,0,121.420592,30.935298,13701721092,education,http://api.map.baidu.com/place/detail?uid=2f35962cab7aaaafb2077dde&output=html&source=placeapi_v2,,,,,,,,,,,,,,,,,,,,0
ad4e2fb76fcbe165b6f42fdb,上海真静传统木作研究所,教育培训,科研机构,上海市,上海市,奉贤区,上海市奉贤区南桥路839号,ad4e2fb76fcbe165b6f42fdb,1,0,121.460119,30.932574,18117378509,education,http://api.map.baidu.com/place/detail?uid=ad4e2fb76fcbe165b6f42fdb&output=html&source=placeapi_v2,,,0.0,,,,,,,,,,,,,,,121.46004083098,30.932630444599,0
d202b9c332a92ce53a221c9f,上海奉华精细化工研究所,教育培训,科研机构,上海市,上海市,奉贤区,上海市奉贤区南桥运河北路东明旺苑东侧,,1,0,121.465998,30.929885,,education,http://api.map.baidu.com/place/detail?uid=d202b9c332a92ce53a221c9f&output=html&source=placeapi_v2,,,,,,,,,,,,,,,,,,,,0
90e8ab579f72b416cc06a483,中国煤炭科工集团上海研究院生产基地,教育培训,科研机构,上海市,上海市,奉贤区,上海市奉贤区沪杭公路1589号,90e8ab579f72b416cc06a483,1,0,121.454956,30.951563,,education,http://api.map.baidu.com/place/detail?uid=90e8ab579f72b416cc06a483&output=html&source=placeapi_v2,,,,,,,,,,,1,,,,,,,121.45484548196,30.951460697663,0
5535d02f219b95f3d4851f52,上海市奉贤区乡村治理研究会,教育培训,科研机构,上海市,上海市,奉贤区,上海市奉贤区新建中路新建中路540弄小区南侧,,1,0,121.464896,30.923332,,education,http://api.map.baidu.com/place/detail?uid=5535d02f219b95f3d4851f52&output=html&source=placeapi_v2,,,,,,,,,,,,,,,,,,121.464940951,30.923241281429,0
26b0484add84326f4afc8dea,中共上海市奉贤区委党史研究室,教育培训,科研机构,上海市,上海市,奉贤区,上海市奉贤区远东路2670号,,1,0,121.482075,30.926205,(021)37537123,education,http://api.map.baidu.com/place/detail?uid=26b0484add84326f4afc8dea&output=html&source=placeapi_v2,,,,,,,,,,,,,,,,,,121.48217517037,30.925820855013,0
7c0dcdbbe0ccd967b45f1ecb,上海市奉贤黄桃研究所,教育培训,科研机构,上海市,上海市,奉贤区,上海市奉贤区工张路张弄富苑东南侧约200米,,1,0,121.531306,30.924646,,education,http://api.map.baidu.com/place/detail?uid=7c0dcdbbe0ccd967b45f1ecb&output=html&source=placeapi_v2,,,,,,,,,,,,,,,,,,121.53140747039,30.924678468136,0
76e789f69b9564b5f423107e,上海大学产学研研究基地,教育培训,科研机构,上海市,上海市,奉贤区,上海市奉贤区青村镇青灵路281号,,1,0,121.564433,30.927221,,education,http://api.map.baidu.com/place/detail?uid=76e789f69b9564b5f423107e&output=html&source=placeapi_v2,,,,,,,,,,,,,,,,,,121.56442659741,30.92736792526,0
6113ef777c02a0178f772791,上海华江仪表研究所,教育培训,科研机构,上海市,上海市,奉贤区,上海市奉贤区青村镇林东路185号,6113ef777c02a0178f772791,1,0,121.557839,30.930303,,education,http://api.map.baidu.com/place/detail?uid=6113ef777c02a0178f772791&output=html&source=placeapi_v2,,,,,,,,,,,,,,,,,,121.55779654919,30.930500053067,0
a1c72ca134e0831643ab9afe,上海市小水果研究所,教育培训,科研机构,上海市,上海市,奉贤区,上海市奉贤区仁宝路与大卫路交叉口西北50米,a1c72ca134e0831643ab9afe,1,0,121.611032,30.917906,,education,http://api.map.baidu.com/place/detail?uid=a1c72ca134e0831643ab9afe&output=html&source=placeapi_v2,,,,,,,,,,,,,,,,,,121.61094703886,30.917872542938,0
78617e2686641824eedfca7b,上海宏翔实验室装备有限公司,教育培训,科研机构,上海市,上海市,奉贤区,上海市奉贤区川南奉公路9589号,78617e2686641824eedfca7b,1,0,121.661726,30.919611,(021)37582213,education,http://api.map.baidu.com/place/detail?uid=78617e2686641824eedfca7b&output=html&source=placeapi_v2,,,,,,,,,,,,,,,,,,121.66193103013,30.919835706763,0
7e4c3c7dd428fd276f3e1bc9,上海师范大学劲马产学研研究所,教育培训,科研机构,上海市,上海市,奉贤区,上海市奉贤区川南奉公路9650号,7e4c3c7dd428fd276f3e1bc9,1,1,121.658816,30.919323,,education,http://api.map.baidu.com/place/detail?uid=7e4c3c7dd428fd276f3e1bc9&output=html&source=placeapi_v2,,,0.0,,,,,,,,1,,,,,,,121.65900407859,30.91930925362,1
6abaeff407c6dfdc4251c099,迪桢瑟(上海研究所),教育培训,科研机构,上海市,上海市,松江区,上海市松江区贵南路889号10栋,,1,0,121.193612,30.97933,(021)31838513,education,http://api.map.baidu.com/place/detail?uid=6abaeff407c6dfdc4251c099&output=html&source=placeapi_v2,,,,,,,,,,,,,,,,,,,,0
34059f973b63dd2971455b35,上海市梨研究所,教育培训,科研机构,上海市,上海市,松江区,上海市松江区富永路2000号,34059f973b63dd2971455b35,1,0,121.2308,30.969301,4006198618,education,http://api.map.baidu.com/place/detail?uid=34059f973b63dd2971455b35&output=html&source=placeapi_v2,,,4,,,,,,,,1,,,,,,,121.23120462586,30.969305408737,0
dafbd6d36dad54b372455b5a,上海市环境监测中心(松浦大桥实验室),教育培训,科研机构,上海市,上海市,松江区,亭联公路与引水路交叉口西南150米,dafbd6d36dad54b372455b5a,1,1,121.326552,30.984907,,education,http://api.map.baidu.com/place/detail?uid=dafbd6d36dad54b372455b5a&output=html&source=placeapi_v2,,,,,,,,,,,,,,,,,,121.32646838399,30.985080275468,1
b065ddacf51b531432870ad8,上海市园林科学规划研究院,教育培训,科研机构,上海市,上海市,奉贤区,上海市奉贤区大叶公路2578号,,1,0,121.423129,30.966278,,education,http://api.map.baidu.com/place/detail?uid=b065ddacf51b531432870ad8&output=html&source=placeapi_v2,,,,,,,,,,,,,,,,,,,,0
cd5f44ac3ffe78b4130daa07,上海舒泽生物科技研究所,教育培训,科研机构,上海市,上海市,奉贤区,上海市奉贤区北环路与浦卫公路交叉路口往东约170米,,1,0,121.398436,30.967923,,education,http://api.map.baidu.com/place/detail?uid=cd5f44ac3ffe78b4130daa07&output=html&source=placeapi_v2,,,,,,,,,,,,,,,,,,,,0
af4224ffb8f8e96babf729ce,上海诺贝儿童营养保健研究中心,教育培训,科研机构,上海市,上海市,奉贤区,上海市奉贤区大叶公路25号2058弄25号,af4224ffb8f8e96babf729ce,1,0,121.393244,30.957193,(021)57404958,education,http://api.map.baidu.com/place/detail?uid=af4224ffb8f8e96babf729ce&output=html&source=placeapi_v2,,,,,,,,,,,,,,,,,,121.39309835773,30.957210516165,0
37cf0f9650c9338ead31e562,邑通道具・设计研发中心,教育培训,科研机构,上海市,上海市,奉贤区,上海市奉贤区大叶公路2058弄12号,37cf0f9650c9338ead31e562,1,1,121.391134,30.957565,,education,http://api.map.baidu.com/place/detail?uid=37cf0f9650c9338ead31e562&output=html&source=placeapi_v2,,,,,,,,,,,,,,,,,,121.39111219362,30.95744983168,1
9f11a704f9a971d29f09f751,煤科实验室,教育培训,科研机构,上海市,上海市,奉贤区,上海市奉贤区吴塘路369号,,1,0,121.45606,30.968103,,education,http://api.map.baidu.com/place/detail?uid=9f11a704f9a971d29f09f751&output=html&source=placeapi_v2,,,,,,,,,,,,,,,,,,121.45602341111,30.968316319255,0
d991e1161716e62b1f389459,中国煤炭科工集团上海研究院检测中心,教育培训,科研机构,上海市,上海市,奉贤区,上海市奉贤区吴塘路369号,d991e1161716e62b1f389459,1,1,121.45596,30.968059,(021)57437068,education,http://api.map.baidu.com/place/detail?uid=d991e1161716e62b1f389459&output=html&source=placeapi_v2,,,0.0,,,,,,,,,,,,,,,121.45591148529,30.968298518905,1
6ed5d50a78bcdef99cf77937,优卡化学亚太技术中心,教育培训,科研机构,上海市,上海市,奉贤区,上海市奉贤区同谊路66号2号楼5层,,1,0,121.460563,30.959623,(021)54336481,education,http://api.map.baidu.com/place/detail?uid=6ed5d50a78bcdef99cf77937&output=html&source=placeapi_v2,,,,,,,,,,,,,,,,,,,,0
b8a15c7e8d1d4a3ad52ce252,东方美谷药妆研究院,教育培训,科研机构,上海市,上海市,奉贤区,上海市奉贤区陈桥路1979号4组4幢,b8a15c7e8d1d4a3ad52ce252,1,0,121.457591,30.962027,(021)51086802-6530,education,http://api.map.baidu.com/place/detail?uid=b8a15c7e8d1d4a3ad52ce252&output=html&source=placeapi_v2,,,0.0,,,,,,,,,,,,,,,121.45773053204,30.96205623317,0
881a28e7ed59c646f942b238,先锋高科技(上海)有限公司(FDC奉贤配送中心),教育培训,科研机构,上海市,上海市,奉贤区,上海市奉贤区环城北路1号,881a28e7ed59c646f942b238,1,0,121.467624,30.965449,,education,http://api.map.baidu.com/place/detail?uid=881a28e7ed59c646f942b238&output=html&source=placeapi_v2,,,,,,,,,,,1,,,,,,,121.46758020852,30.965606713921,0
90e8ab579f72b416cc06a483,中国煤炭科工集团上海研究院生产基地,教育培训,科研机构,上海市,上海市,奉贤区,上海市奉贤区沪杭公路1589号,90e8ab579f72b416cc06a483,1,0,121.454956,30.951563,,education,http://api.map.baidu.com/place/detail?uid=90e8ab579f72b416cc06a483&output=html&source=placeapi_v2,,,,,,,,,,,1,,,,,,,121.45484548196,30.951460697663,0
45c23e654fe5c6c37adbd240,上海涵印医学检验室验室,教育培训,科研机构,上海市,上海市,奉贤区,上海市奉贤区高丰路聚惠领域,,1,0,121.482364,30.966926,(021)56610750,education,http://api.map.baidu.com/place/detail?uid=45c23e654fe5c6c37adbd240&output=html&source=placeapi_v2,,,,,,,,,,,0,,,,,,,121.48213006915,30.966869899285,0
71c83452d5e8481d1288247b,上海启甄同位素标记合成研究中心,教育培训,科研机构,上海市,上海市,奉贤区,上海市奉贤区茂园路659号科创大楼12层,,1,0,121.483585,30.966028,,education,http://api.map.baidu.com/place/detail?uid=71c83452d5e8481d1288247b&output=html&source=placeapi_v2,,,0.0,,,,,,,,1,,,,,,,,,0
834c9cb9c716082c74026928,上海市农科院质标所,教育培训,科研机构,上海市,上海市,奉贤区,上海市奉贤区金齐路1000号质标所3号楼,,1,0,121.487672,30.95538,,education,http://api.map.baidu.com/place/detail?uid=834c9cb9c716082c74026928&output=html&source=placeapi_v2,,,,,,,,,,,,,,,,,,,,0
c3e40de76c3838ee49fd3fe8,上创上大超导工程联合研发中心,教育培训,科研机构,上海市,上海市,奉贤区,上海市奉贤区望园路百村创业园A区,,1,0,121.478556,30.974154,,education,http://api.map.baidu.com/place/detail?uid=c3e40de76c3838ee49fd3fe8&output=html&source=placeapi_v2,,,,,,,,,,,,,,,,,,,,0
3f9337d645dcddb2f723100a,上海市农业科学院(奉浦院区),教育培训,科研机构,上海市,上海市,奉贤区,上海市奉贤区金齐路1000号3号楼,3f9337d645dcddb2f723100a,1,4,121.484838,30.957668,(021)37196375,education,http://api.map.baidu.com/place/detail?uid=3f9337d645dcddb2f723100a&output=html&source=placeapi_v2,0.0,,5,,,,,,,,4,,,,,,,121.48603765769,30.954268262849,4
295efd067c15f2633a13fda5,上海东方美谷产业研究院,教育培训,科研机构,上海市,上海市,奉贤区,上海市奉贤区金海公路6055号23号楼3~4层,,1,0,121.489881,30.957299,,education,http://api.map.baidu.com/place/detail?uid=295efd067c15f2633a13fda5&output=html&source=placeapi_v2,,,,,,,,,,,,,,,,,,121.48975447489,30.957357323777,0
f26831340ff42afa260bd0cc,上海市农业科学院农业科技信息研究所,教育培训,科研机构,上海市,上海市,奉贤区,上海市奉贤区金齐路1018号3号楼,f26831340ff42afa260bd0cc,1,0,121.485885,30.95416,,education,http://api.map.baidu.com/place/detail?uid=f26831340ff42afa260bd0cc&output=html&source=placeapi_v2,,,,,,,,,,,,,,,,,,121.48605333043,30.954203741442,0
d641a47ba9cb42a9a2a9340a,上海和卓医学检验实验室有限公司,教育培训,科研机构,上海市,上海市,奉贤区,上海市奉贤区望园路2066弄6号楼,,1,0,121.478973,30.973198,,education,http://api.map.baidu.com/place/detail?uid=d641a47ba9cb42a9a2a9340a&output=html&source=placeapi_v2,,,,,,,,,,,,,,,,,,,,0
55fa2c0b6cb1c4531ce9996b,上海市农业科学院-食用菌研究所,教育培训,科研机构,上海市,上海市,奉贤区,上海市奉贤区金齐路1000号,55fa2c0b6cb1c4531ce9996b,1,0,121.48308,30.9578,(021)62201337,education,http://api.map.baidu.com/place/detail?uid=55fa2c0b6cb1c4531ce9996b&output=html&source=placeapi_v2,,,5,,,,,,,,2,,,,,,,121.48348017292,30.957953821568,0
fbfac3d05ac542a094ec84e8,上海市辰业科学院,教育培训,科研机构,上海市,上海市,奉贤区,上海市奉贤区金齐路上海市农业科学院奉浦院区东南门西南侧,fbfac3d05ac542a094ec84e8,1,0,121.485965,30.954219,,education,http://api.map.baidu.com/place/detail?uid=fbfac3d05ac542a094ec84e8&output=html&source=placeapi_v2,,,,,,,,,,,,,,,,,,121.48602276289,30.954036429321,0
58a6f19d36219f673fe231a2,林木果树研究所,教育培训,科研机构,上海市,上海市,奉贤区,上海市奉贤区金齐路1000号,58a6f19d36219f673fe231a2,1,0,121.483006,30.957823,,education,http://api.map.baidu.com/place/detail?uid=58a6f19d36219f673fe231a2&output=html&source=placeapi_v2,,,,,,,,,,,,,,,,,,,,0
80f053e47a240040e81e9718,中国科学院(上海硅酸盐研究所),教育培训,科研机构,上海市,上海市,奉贤区,上海市奉贤区小荡中心路西200米,,1,0,121.70456,30.970444,,education,http://api.map.baidu.com/place/detail?uid=80f053e47a240040e81e9718&output=html&source=placeapi_v2,,,,,,,,,,,,,,,,,,,,0
704b52713883f135e60738b5,一只鼎年糕研发中心,教育培训,科研机构,上海市,上海市,奉贤区,上海市奉贤区海翔路466号1幢,,1,0,121.73753,30.956104,,education,http://api.map.baidu.com/place/detail?uid=704b52713883f135e60738b5&output=html&source=placeapi_v2,,,,,,,,,,,,,,,,,,,,0
0a3aeeec9a4c16cd8505bfe7,UL认可目击测试实验室,教育培训,科研机构,上海市,上海市,奉贤区,上海市奉贤区新四平公路与海翔路交叉路口往东约110米,,1,0,121.738336,30.955806,,education,http://api.map.baidu.com/place/detail?uid=0a3aeeec9a4c16cd8505bfe7&output=html&source=placeapi_v2,,,,,,,,,,,,,,,,,,,,0
98f8ece016159d13a104640c,上海市南汇区大团镇水稻机械化育插秧技术指导办公室,教育培训,科研机构,上海市,上海市,浦东新区,川南奉公路7753号附近,,1,0,121.771555,30.967336,,education,http://api.map.baidu.com/place/detail?uid=98f8ece016159d13a104640c&output=html&source=placeapi_v2,,,,,,,,,,,,,,,,,,,,0
d48f88fcca758f313010afd1,上海国泰网布研究所,教育培训,科研机构,上海市,上海市,松江区,上海市松江区港兴路68号,,1,0,121.160411,31.006282,(021)57850806,education,http://api.map.baidu.com/place/detail?uid=d48f88fcca758f313010afd1&output=html&source=placeapi_v2,,,,,,,,,,,,,,,,,,121.16045744357,31.00609990146,0
32c1ed35aedffb4a1e1d11af,国家石墨烯应用产业技术创新战略联盟,教育培训,科研机构,上海市,上海市,松江区,上海市松江区松汇西路永春商贸广场,,1,0,121.191718,31.006848,,education,http://api.map.baidu.com/place/detail?uid=32c1ed35aedffb4a1e1d11af&output=html&source=placeapi_v2,,,,,,,,,,,,,,,,,,,,0
afe0dfc7828d060f6c4760c9,上海市松江区环境科学研究所,教育培训,科研机构,上海市,上海市,松江区,上海市健康西路119室,afe0dfc7828d060f6c4760c9,1,0,121.243672,31.014906,,education,http://api.map.baidu.com/place/detail?uid=afe0dfc7828d060f6c4760c9&output=html&source=placeapi_v2,,,,,,,,,,,,,,,,,,,,0
01a0866348e87cda04026fef,上海松江顾绣研究所,教育培训,科研机构,上海市,上海市,松江区,西林南路100弄67号西60米,01a0866348e87cda04026fef,1,0,121.228339,31.012147,,education,http://api.map.baidu.com/place/detail?uid=01a0866348e87cda04026fef&output=html&source=placeapi_v2,,,,,,,,,,,,,,,,,,121.22861934664,31.012157681285,0
e681f6e74fa6cc6680a00c07,上海热能协会研究所,教育培训,科研机构,上海市,上海市,松江区,上海市松江区荣福路松南城华乐苑北侧约180米,,1,0,121.277784,31.007385,,education,http://api.map.baidu.com/place/detail?uid=e681f6e74fa6cc6680a00c07&output=html&source=placeapi_v2,,,,,,,,,,,,,,,,,,,,0
a0229ff2cd7748b1be4842d3,设计研发中心,教育培训,科研机构,上海市,上海市,松江区,上海市松江区业东路莘园公寓西侧约30米,,1,0,121.303969,31.01079,,education,http://api.map.baidu.com/place/detail?uid=a0229ff2cd7748b1be4842d3&output=html&source=placeapi_v2,,,,,,,,,,,,,,,,,,,,0
dafbd6d36dad54b372455b5a,上海市环境监测中心(松浦大桥实验室),教育培训,科研机构,上海市,上海市,松江区,亭联公路与引水路交叉口西南150米,dafbd6d36dad54b372455b5a,1,1,121.326552,30.984907,,education,http://api.map.baidu.com/place/detail?uid=dafbd6d36dad54b372455b5a&output=html&source=placeapi_v2,,,,,,,,,,,,,,,,,,121.32646838399,30.985080275468,1
0800b6a9019c90bf43e192f1,上海交大环境学院上海秦缘生物科技环境修复联合工程技术中心,教育培训,科研机构,上海市,上海市,松江区,上海市松江区北闵路莘园公寓东侧约40米,0800b6a9019c90bf43e192f1,1,0,121.306654,31.011518,,education,http://api.map.baidu.com/place/detail?uid=0800b6a9019c90bf43e192f1&output=html&source=placeapi_v2,,,,,,,,,,,,,,,,,,,,0
768438aafb7b19174d6d466b,上重设计院,教育培训,科研机构,上海市,上海市,闵行区,上海市闵行区东川路3988号,,1,0,121.365638,31.003442,,education,http://api.map.baidu.com/place/detail?uid=768438aafb7b19174d6d466b&output=html&source=placeapi_v2,,,,,,,,,,,,,,,,,,121.3656722265,31.003375619223,0
3c400f13a462fd128605bfad,上海大型铸锻件研究所,教育培训,科研机构,上海市,上海市,闵行区,上海市闵行区江川路1800号,3c400f13a462fd128605bfad,1,0,121.371475,30.998596,,education,http://api.map.baidu.com/place/detail?uid=3c400f13a462fd128605bfad&output=html&source=placeapi_v2,,,,,,,,,,,,,,,,,,,,0
34a73ba49ce5dafbfda778a7,中国船舶科学研究中心(闵行园区),教育培训,科研机构,上海市,上海市,闵行区,上海市闵行区祥云路88号,,1,0,121.373916,30.99276,,education,http://api.map.baidu.com/place/detail?uid=34a73ba49ce5dafbfda778a7&output=html&source=placeapi_v2,,,,,,,,,,,,,,,,,,,,0
50384829c73d88106fc02c97,上海马桥人工智能创新试验区,教育培训,科研机构,上海市,上海市,闵行区,上海闵行区马桥镇昆阳路1508号,50384829c73d88106fc02c97,1,0,121.374515,31.016832,(021)51161098,education,http://api.map.baidu.com/place/detail?uid=50384829c73d88106fc02c97&output=html&source=placeapi_v2,,,,,,,,,,,,,,,,,,121.37486300846,31.016522870831,0
c0a0f882ddd8109faecb667e,研究基地,教育培训,科研机构,上海市,上海市,闵行区,上海市闵行区西畴路355号,c0a0f882ddd8109faecb667e,1,0,121.360448,30.988933,,education,http://api.map.baidu.com/place/detail?uid=c0a0f882ddd8109faecb667e&output=html&source=placeapi_v2,,,,,,,,,,,,,,,,,,121.36070520698,30.988916660489,0
494a4aa1ce1ffd8acae33c5e,上海空间电源研究所,教育培训,科研机构,上海市,上海市,闵行区,上海市闵行区东川路2965号,,1,2,121.396091,31.009973,,education,http://api.map.baidu.com/place/detail?uid=494a4aa1ce1ffd8acae33c5e&output=html&source=placeapi_v2,,,,,,,,,,,1,,,,,,,121.39602003796,31.010180648423,2
d2d5f969bb3c2540a6da391f,电源系统实验室,教育培训,科研机构,上海市,上海市,闵行区,上海市闵行区东川路2965号9号楼,d2d5f969bb3c2540a6da391f,1,0,121.395516,31.011198,,education,http://api.map.baidu.com/place/detail?uid=d2d5f969bb3c2540a6da391f&output=html&source=placeapi_v2,,,,,,,,,,,,,,,,,,121.39546970028,31.011320110891,0
9c74c1a628968aa1c72ba123,上海电机学院-新能源设备自动化技术研究所,教育培训,科研机构,上海市,上海市,闵行区,上海市闵行区江川路690号,,1,0,121.407188,31.01009,,education,http://api.map.baidu.com/place/detail?uid=9c74c1a628968aa1c72ba123&output=html&source=placeapi_v2,,,,,,,,,,,,,,,,,,,,0
2b737ecd182f44d79e82ea8f,Fairy皮肤研究所,教育培训,科研机构,上海市,上海市,闵行区,上海市闵行区东川路2617号,,1,0,121.410709,31.015313,13671706038,education,http://api.map.baidu.com/place/detail?uid=2b737ecd182f44d79e82ea8f&output=html&source=placeapi_v2,,,,,,,,,,,1,,,,,,,121.41068630752,31.015375466549,0
0dc1dc1fe836b39e88b9885b,上海安德盘扣科技发展中心,教育培训,科研机构,上海市,上海市,奉贤区,上海市奉贤区金汇工业路85号,,1,0,121.541946,30.99915,"13968362688,15921037688",education,http://api.map.baidu.com/place/detail?uid=0dc1dc1fe836b39e88b9885b&output=html&source=placeapi_v2,,,,,,,,,,,,,,,,,,,,0
d6c5d991abbd359530169b31,上海玻璃钢研究院公司,教育培训,科研机构,上海市,上海市,奉贤区,上海市奉贤区浦星公路5200号,d6c5d991abbd359530169b31,1,1,121.520876,31.004317,(021)57485588,education,http://api.map.baidu.com/place/detail?uid=d6c5d991abbd359530169b31&output=html&source=placeapi_v2,,,,,,,,,,,,,,,,,,121.5206673351,31.003395753164,1
caa2abc4eab5f148e9f853c9,中交第一公路勘察设计研究院有限公司,教育培训,科研机构,上海市,上海市,奉贤区,上海市奉贤区奉城镇大叶公路蔡家桥村863号喜乐多超市隔壁,caa2abc4eab5f148e9f853c9,1,0,121.64783,30.99091,,education,http://api.map.baidu.com/place/detail?uid=caa2abc4eab5f148e9f853c9&output=html&source=placeapi_v2,,,,,,,,,,,,,,,,,,121.64782817171,30.990874144654,0
840aa9c7efe18b74f8221350,帐篷客魔立方联合研发中心,教育培训,科研机构,上海市,上海市,浦东新区,大治河路北50米,,1,0,121.784464,31.015111,,education,http://api.map.baidu.com/place/detail?uid=840aa9c7efe18b74f8221350&output=html&source=placeapi_v2,,,,,,,,,,,,,,,,,,,,0
66d8f8b5b529407ca1046446,机器人研发中心,教育培训,科研机构,上海市,上海市,松江区,上海市松江区鼎源路时尚谷创意园9号楼1层,,1,0,121.175395,31.03692,,education,http://api.map.baidu.com/place/detail?uid=66d8f8b5b529407ca1046446&output=html&source=placeapi_v2,,,,,,,,,,,,,,,,,,,,0
2dc45f5dc13cc94c1f1d11ac,恒大恒驰新能源汽车研究院(上海)有限公司,教育培训,科研机构,上海市,上海市,松江区,上海市松江区鼎源路300号15栋,,1,0,121.178286,31.030015,,education,http://api.map.baidu.com/place/detail?uid=2dc45f5dc13cc94c1f1d11ac&output=html&source=placeapi_v2,,,,,,,,,,,6,,,,,,,121.17857411517,31.030103895635,0
1e5b4fd8134f9fae4151c060,企福产业研究院,教育培训,科研机构,上海市,上海市,松江区,上海市松江区三新北路900弄682号,1e5b4fd8134f9fae4151c060,1,0,121.203629,31.039862,,education,http://api.map.baidu.com/place/detail?uid=1e5b4fd8134f9fae4151c060&output=html&source=placeapi_v2,,,,,,,,,,,,,,,,,,,,0
b2393602944e59a8fda778e0,广东博艺设计院,教育培训,科研机构,上海市,上海市,松江区,上海市松江区三新北路900弄668号楼2楼,b2393602944e59a8fda778e0,1,0,121.204019,31.042545,,education,http://api.map.baidu.com/place/detail?uid=b2393602944e59a8fda778e0&output=html&source=placeapi_v2,,,,,,,,,,,,,,,,,,,,0
41afdfb386cc55f39e82ea52,恒大汽车研究总院,教育培训,科研机构,上海市,上海市,松江区,上海市松江区鼎源路正泰科沁苑西北侧约190米,,1,1,121.176845,31.029777,,education,http://api.map.baidu.com/place/detail?uid=41afdfb386cc55f39e82ea52&output=html&source=placeapi_v2,,,1,,,,,,,,2,,,,,,,121.17597274727,31.030780624776,1
90982f2483c23ce8cc06a489,中国流行色协会色彩创新中心,教育培训,科研机构,上海市,上海市,松江区,上海市松江区鼎源路618弄1号楼801室,90982f2483c23ce8cc06a489,1,0,121.173777,31.03668,,education,http://api.map.baidu.com/place/detail?uid=90982f2483c23ce8cc06a489&output=html&source=placeapi_v2,,,,,,,,,,,,,,,,,,121.17375910152,31.036816925254,0
be9056d49626e9560482c234,陆瘦燕针灸传承研究中心(松江分中心),教育培训,科研机构,上海市,上海市,松江区,上海市松江区文诚路805号,,1,0,121.213898,31.037575,,education,http://api.map.baidu.com/place/detail?uid=be9056d49626e9560482c234&output=html&source=placeapi_v2,,,,,,,,,,,,,,,,,,,,0
2b8954cece29343f621c67a4,烘焙研究所(平高广场店),教育培训,科研机构,上海市,上海市,松江区,上海市松江区九峰路118号,,1,0,121.237588,31.022253,,education,http://api.map.baidu.com/place/detail?uid=2b8954cece29343f621c67a4&output=html&source=placeapi_v2,,,,,,,,,,,,,,,,,,,,0
a224b23868c6a9d114b54bd8,超细粉末国家工程研究中心,教育培训,科研机构,上海市,上海市,松江区,繁华路881号,a224b23868c6a9d114b54bd8,1,1,121.251179,31.030117,(021)54822222,education,http://api.map.baidu.com/place/detail?uid=a224b23868c6a9d114b54bd8&output=html&source=placeapi_v2,,,,,,,,,,,,,,,,,,121.25110097274,31.030080765798,1
511c6e3239ef5fa8f01937b6,上海市第一人民医院南院-临床转化研究院,教育培训,科研机构,上海市,上海市,松江区,上海市松江区新松江路650号第一人民医院南院,,1,0,121.235317,31.047478,(021)63240090,education,http://api.map.baidu.com/place/detail?uid=511c6e3239ef5fa8f01937b6&output=html&source=placeapi_v2,,,,,,,,,,,,,,,,,,121.23554516624,31.047400695867,0
27cbe466fa038bd1b817e7c1,复旦大学公共卫生学院教学科研基地,教育培训,科研机构,上海市,上海市,松江区,上海市松江区西林北路松江分局方松派出所南侧约30米,,1,0,121.225298,31.031464,,education,http://api.map.baidu.com/place/detail?uid=27cbe466fa038bd1b817e7c1&output=html&source=placeapi_v2,,,,,,,,,,,,,,,,,,121.22526260083,31.031509803854,0
7dd6d873dccc20bc84154108,上外全球文明史研究所,教育培训,科研机构,上海市,上海市,松江区,上海市松江区文翔路1550号上外小别墅25号楼24号,,1,0,121.235476,31.052854,,education,http://api.map.baidu.com/place/detail?uid=7dd6d873dccc20bc84154108&output=html&source=placeapi_v2,,,,,,,,,,,,,,,,,,,,0
87e483a54c50cbeb8f55ec44,上海交大昂立股份有限公司科研生产基地,教育培训,科研机构,上海市,上海市,松江区,上海市松江区明南路453号,,1,0,121.27296,31.05126,,education,http://api.map.baidu.com/place/detail?uid=87e483a54c50cbeb8f55ec44&output=html&source=placeapi_v2,,,,,,,,,,,,,,,,,,,,0
fd5fa2ccb671c202b34c49d9,雷兹盾上海研发中心,教育培训,科研机构,上海市,上海市,松江区,上海市松江区文翔东路58号14幢601室,,1,0,121.27551,31.043788,(021)60709499,education,http://api.map.baidu.com/place/detail?uid=fd5fa2ccb671c202b34c49d9&output=html&source=placeapi_v2,,,,,,,,,,,,,,,,,,,,0
27c4a6a37714c3518f1a8986,中国水产科学研究院渔业机械仪器研究所实验中试基地-西南门,教育培训,科研机构,上海市,上海市,松江区,上海市松江区曹农路270号,27c4a6a37714c3518f1a8986,1,0,121.296024,31.041361,,education,http://api.map.baidu.com/place/detail?uid=27c4a6a37714c3518f1a8986&output=html&source=placeapi_v2,,,,,,,,,,,,,,,,,,121.29607572325,31.041329143396,0
b6b91b91b8121204c51b750a,G60农创科技转化示范中心,教育培训,科研机构,上海市,上海市,松江区,上海市松江区沪松路881号g60,,1,0,121.26166,31.037692,,education,http://api.map.baidu.com/place/detail?uid=b6b91b91b8121204c51b750a&output=html&source=placeapi_v2,,,,,,,,,,,,,,,,,,,,0
c013d5acceebd4ac8b2fb560,中国水产科学研究院渔业机械仪器研究所实验中试基地,教育培训,科研机构,上海市,上海市,松江区,上海市松江区曹农路270号,,1,1,121.296003,31.041335,,education,http://api.map.baidu.com/place/detail?uid=c013d5acceebd4ac8b2fb560&output=html&source=placeapi_v2,,,,,,,,,,,,,,,,,,121.29605450527,31.041303588636,1
c4364fcf1b25658143e192d3,第七0五研究所(上海),教育培训,科研机构,上海市,上海市,松江区,上海市松江区茸华路与通巨路交叉路口往南约180米,,1,0,121.309248,31.042995,,education,http://api.map.baidu.com/place/detail?uid=c4364fcf1b25658143e192d3&output=html&source=placeapi_v2,,,,,,,,,,,,,,,,,,121.3090816662,31.043070841776,0
5b58c5ec1590344f02294f5f,南京工业大学建工综合实验室(上海分部),教育培训,科研机构,上海市,上海市,松江区,上海市松江区三浜路上海国际中小企业城(三浜路),,1,0,121.305245,31.034714,,education,http://api.map.baidu.com/place/detail?uid=5b58c5ec1590344f02294f5f&output=html&source=placeapi_v2,,,,,,,,,,,,,,,,,,121.30530286772,31.034809189158,0
fc767524e1c2d1fb4e776e17,上海发电设备成套设计研究院,教育培训,科研机构,上海市,上海市,闵行区,闵行区剑川路1115号,fc767524e1c2d1fb4e776e17,1,1,121.420727,31.030254,(021)64358710,education,http://api.map.baidu.com/place/detail?uid=fc767524e1c2d1fb4e776e17&output=html&source=placeapi_v2,,,1.8,,,,,,,,8,,,,,,,121.42051198486,31.030856646298,1
39bb2ea7c513c144fd0eb00d,艾荻环境技术(上海)有限公司北桥实验室,教育培训,科研机构,上海市,上海市,闵行区,上海市闵行区银春路799号3号,,1,0,121.414599,31.036997,,education,http://api.map.baidu.com/place/detail?uid=39bb2ea7c513c144fd0eb00d&output=html&source=placeapi_v2,,,,,,,,,,,,,,,,,,,,0
1c38e8a2cd64e3ea6168584d,上海人工智能研究院有限公司,教育培训,科研机构,上海市,上海市,闵行区,上海市闵行区剑川路930号a区a栋,,1,0,121.428332,31.034031,(021)64190185,education,http://api.map.baidu.com/place/detail?uid=1c38e8a2cd64e3ea6168584d&output=html&source=placeapi_v2,,,,,,,,,,,,,,,,,,121.4283579352,31.033980762082,0
45ea8e6f52f8d318deee8bbd,上海实朴中春路实验室,教育培训,科研机构,上海市,上海市,闵行区,上海市闵行区中春路1288号,45ea8e6f52f8d318deee8bbd,1,0,121.40529,31.050244,,education,http://api.map.baidu.com/place/detail?uid=45ea8e6f52f8d318deee8bbd&output=html&source=placeapi_v2,,,,,,,,,,,,,,,,,,121.40511198496,31.050333443097,0
8dc1b7149aaa89e20f0e6b11,天文与天体物理中心,教育培训,科研机构,上海市,上海市,闵行区,上海市闵行区剑川路955号我享我家大厦2楼,8dc1b7149aaa89e20f0e6b11,1,0,121.426893,31.032521,,education,http://api.map.baidu.com/place/detail?uid=8dc1b7149aaa89e20f0e6b11&output=html&source=placeapi_v2,,,0,,,,,,,,0,,,,,,,121.4268533121,31.032654030573,0
bd502f3f7886051c932ca33b,上海交通大学-生命科学实验教学中心(闵行校区),教育培训,科研机构,上海市,上海市,闵行区,上海市闵行区东川路800号上海交通大学闵行校区4号楼,bd502f3f7886051c932ca33b,1,0,121.450069,31.035926,(021)62932779,education,http://api.map.baidu.com/place/detail?uid=bd502f3f7886051c932ca33b&output=html&source=placeapi_v2,,,,,,,,,,,,,,,,,,121.44996826335,31.035879767599,0
255d9dfc63e948e479b55c92,上海交通大学闵行校区-智源研究院,教育培训,科研机构,上海市,上海市,闵行区,上海市闵行区东川路800号上海交通大学闵行校区,,1,0,121.451131,31.036055,,education,http://api.map.baidu.com/place/detail?uid=255d9dfc63e948e479b55c92&output=html&source=placeapi_v2,,,,,,,,,,,,,,,,,,,,0
dc58153c574f2d686949f378,上海交通大学-代谢与发育科学国际合作联合实验室,教育培训,科研机构,上海市,上海市,闵行区,上海市闵行区东川路800号上海交通大学闵行校区,dc58153c574f2d686949f378,1,0,121.449746,31.036301,,education,http://api.map.baidu.com/place/detail?uid=dc58153c574f2d686949f378&output=html&source=placeapi_v2,,,,,,,,,,,,,,,,,,121.44978981047,31.036100532737,0
8ce8402cadff6d4b88db7336,上海交通大学转化医学研究院,教育培训,科研机构,上海市,上海市,闵行区,上海市闵行区东川路800号,,1,0,121.447826,31.035564,,education,http://api.map.baidu.com/place/detail?uid=8ce8402cadff6d4b88db7336&output=html&source=placeapi_v2,,,,,,,,,,,,,,,,,,121.44783878073,31.034920991496,0
803708f1df78ca7801897217,上海交通大学-微纳科学技术研究院(闵行校区),教育培训,科研机构,上海市,上海市,闵行区,上海市闵行区东川路800号,803708f1df78ca7801897217,1,0,121.451857,31.035032,,education,http://api.map.baidu.com/place/detail?uid=803708f1df78ca7801897217&output=html&source=placeapi_v2,,,0,,,,,,,,0,,,,,,,121.4516014699,31.034669458056,0
d531f0b813963b2d2fb9087a,上海交通大学-完美微生态健康联合研究中心,教育培训,科研机构,上海市,上海市,闵行区,上海市闵行区东川路800号,a92fdce25676c29678f796f7,1,0,121.449769,31.036235,,education,http://api.map.baidu.com/place/detail?uid=d531f0b813963b2d2fb9087a&output=html&source=placeapi_v2,,,,,,,,,,,,,,,,,,121.44978981047,31.036100532737,0
1e7849cadb0cd08e3904b1b9,转化医学国家重大科技基础设施(上海),教育培训,科研机构,上海市,上海市,闵行区,上海市闵行区东川路800号,,1,0,121.448318,31.035079,,education,http://api.map.baidu.com/place/detail?uid=1e7849cadb0cd08e3904b1b9&output=html&source=placeapi_v2,,,,,,,,,,,,,,,,,,121.44839197087,31.034909631375,0
465d00903f21ad67eaf85301,上海交通大学-燃料电池研究所(闵行校区),教育培训,科研机构,上海市,上海市,闵行区,上海市闵行区东川路800号,465d00903f21ad67eaf85301,1,0,121.4512,31.035979,,education,http://api.map.baidu.com/place/detail?uid=465d00903f21ad67eaf85301&output=html&source=placeapi_v2,,,,,,,,,,,,,,,,,,121.45114052599,31.035840758542,0
345ebeeb0bb431b28e7727e2,上海交通大学-BIO-X研究院,教育培训,科研机构,上海市,上海市,闵行区,上海市闵行区东川路800号上海交通大学闵行校区1号楼2楼101室,345ebeeb0bb431b28e7727e2,1,0,121.450223,31.035685,(021)62932779,education,http://api.map.baidu.com/place/detail?uid=345ebeeb0bb431b28e7727e2&output=html&source=placeapi_v2,,,0.0,,,,,,,,,,,,,,,,,0
e8d8d7cacb3e9349f21937b3,网络安全技术研究院,教育培训,科研机构,上海市,上海市,闵行区,上海市闵行区思源东路上海交通大学(闵行校区),e8d8d7cacb3e9349f21937b3,1,0,121.451875,31.035017,,education,http://api.map.baidu.com/place/detail?uid=e8d8d7cacb3e9349f21937b3&output=html&source=placeapi_v2,,,,,,,,,,,,,,,,,,,,0
0bac5b0487a01e4d9d82ea6a,中国科学院上海分院上海交通大学生命科学技术学院(东南门),教育培训,科研机构,上海市,上海市,闵行区,上海市闵行区东川路800号上海交通大学闵行校区,,1,0,121.449772,31.036278,,education,http://api.map.baidu.com/place/detail?uid=0bac5b0487a01e4d9d82ea6a&output=html&source=placeapi_v2,,,,,,,,,,,,,,,,,,,,0
f22bab1cb141ac153904b1d1,上海交通大学-系统控制与信息处理教育部重点实验室,教育培训,科研机构,上海市,上海市,闵行区,上海市闵行区东川路800号204室,f22bab1cb141ac153904b1d1,1,0,121.447016,31.031707,,education,http://api.map.baidu.com/place/detail?uid=f22bab1cb141ac153904b1d1&output=html&source=placeapi_v2,,,,,,,,,,,,,,,,,,121.44694249012,31.031825516564,0
928c09d3b9e91fd09e82ea57,中国海洋石油集团有限公司新能源工程技术研究中心,教育培训,科研机构,上海市,上海市,闵行区,上海市闵行区东川路800号交通大学生命科学院1号楼201a室,928c09d3b9e91fd09e82ea57,1,0,121.4512,31.035981,,education,http://api.map.baidu.com/place/detail?uid=928c09d3b9e91fd09e82ea57&output=html&source=placeapi_v2,,,,,,,,,,,,,,,,,,121.4510770625,31.036192899248,0
f2989ddfc1fdd207f6231084,上海交通大学(闵行校区)-实验动物中心,教育培训,科研机构,上海市,上海市,闵行区,上海市闵行区东川路800号101室,,1,0,121.445237,31.035748,"(021)34207514,(021)34208044",education,http://api.map.baidu.com/place/detail?uid=f2989ddfc1fdd207f6231084&output=html&source=placeapi_v2,,,,,,,,,,,,,,,,,,,,0
19fc3b2cd7c14cba0bf5ebfc,上海交通大学闵行校区水下工程研究所,教育培训,科研机构,上海市,上海市,闵行区,上海市闵行区东川路800号,19fc3b2cd7c14cba0bf5ebfc,1,0,121.453176,31.037504,,education,http://api.map.baidu.com/place/detail?uid=19fc3b2cd7c14cba0bf5ebfc&output=html&source=placeapi_v2,,,,,,,,,,,,,,,,,,,,0
7b4689101ce88265bfa8224a,上海交通大学农业与生物学院(食品风味创新新实验室),教育培训,科研机构,上海市,上海市,闵行区,上海市闵行区剑川路583号,,1,0,121.448461,31.039439,,education,http://api.map.baidu.com/place/detail?uid=7b4689101ce88265bfa8224a&output=html&source=placeapi_v2,,,,,,,,,,,1,,,,,,,,,0
aeedafe6acc7d5c10accdd2e,上海交通大学-机器人研究所,教育培训,科研机构,上海市,上海市,闵行区,上海市闵行区东川路800号,aeedafe6acc7d5c10accdd2e,1,0,121.453455,31.03157,(021)54740000,education,http://api.map.baidu.com/place/detail?uid=aeedafe6acc7d5c10accdd2e&output=html&source=placeapi_v2,,,,,,,,,,,,,,,,,,,,0
53a09caf96114a2d8bfc061e,上海交通大学农业与生物学院实验与实践教学中心(闵行校区),教育培训,科研机构,上海市,上海市,闵行区,上海市闵行区剑川路601号,53a09caf96114a2d8bfc061e,1,0,121.451609,31.039695,,education,http://api.map.baidu.com/place/detail?uid=53a09caf96114a2d8bfc061e&output=html&source=placeapi_v2,,,,,,,,,,,,,,,,,,121.45163508629,31.039614217771,0
d258c403ac5c22dc9d9d680f,上海交通大学上海电气环保集团-固体废弃物处理与污染控制联合实验室,教育培训,科研机构,上海市,上海市,闵行区,上海市闵行区东川路800号,d258c403ac5c22dc9d9d680f,1,0,121.453718,31.033154,,education,http://api.map.baidu.com/place/detail?uid=d258c403ac5c22dc9d9d680f&output=html&source=placeapi_v2,,,,,,,,,,,,,,,,,,,,0
a2d15f7c1a83b719abf72918,上海交通大学-国家能源智能电网研发中心,教育培训,科研机构,上海市,上海市,闵行区,上海市闵行区东川路800号,a2d15f7c1a83b719abf72918,1,0,121.44621,31.028978,,education,http://api.map.baidu.com/place/detail?uid=a2d15f7c1a83b719abf72918&output=html&source=placeapi_v2,,,,,,,,,,,,,,,,,,121.44613511738,31.029155409444,0
58eca9ea43dee76a8c1a89c6,上海交通大学-研究生院,教育培训,科研机构,上海市,上海市,闵行区,上海市闵行区东川路800号上海交通大学研究生院c区,58eca9ea43dee76a8c1a89c6,1,1,121.444429,31.03088,(021)34206059,education,http://api.map.baidu.com/place/detail?uid=58eca9ea43dee76a8c1a89c6&output=html&source=placeapi_v2,,,,,,,,,,,,,,,,,,121.44459882452,31.030421614985,1
280b0d9181ce4cf00e3dda1b,先进推进技术研究中心,教育培训,科研机构,上海市,上海市,闵行区,上海市闵行区南洋东路上海交通大学(闵行校区),,1,0,121.453797,31.030259,,education,http://api.map.baidu.com/place/detail?uid=280b0d9181ce4cf00e3dda1b&output=html&source=placeapi_v2,,,,,,,,,,,,,,,,,,,,0
b04843a0898ef167018972b3,中科侨昌研发中心,教育培训,科研机构,上海市,上海市,闵行区,上海市闵行区紫月路1299号,,1,1,121.445849,31.020924,,education,http://api.map.baidu.com/place/detail?uid=b04843a0898ef167018972b3&output=html&source=placeapi_v2,,,,,,,,,,,,,,,,,,121.4458021829,31.021027474178,1
259f120229a62db37f29bd0c,上海交通大学中国航空无线电电子研究所-飞机环境监视系统联合实验室,教育培训,科研机构,上海市,上海市,闵行区,上海市闵行区东川路800号,259f120229a62db37f29bd0c,1,0,121.452288,31.029885,,education,http://api.map.baidu.com/place/detail?uid=259f120229a62db37f29bd0c&output=html&source=placeapi_v2,,,,,,,,,,,,,,,,,,,,0
3c3788ac0c5cf26a00ff2df3,上海交通大学-中国航空无线电电子研究所机航空电子综合技术联合研究中心,教育培训,科研机构,上海市,上海市,闵行区,上海市闵行区东川路800号,3c3788ac0c5cf26a00ff2df3,1,0,121.452288,31.029886,,education,http://api.map.baidu.com/place/detail?uid=3c3788ac0c5cf26a00ff2df3&output=html&source=placeapi_v2,,,,,,,,,,,,,,,,,,,,0
c466d8c3f630eee0bea24086,全球城市生态与可持续发展研究所(闵行校区),教育培训,科研机构,上海市,上海市,闵行区,上海市闵行区光华路华东师范大学(闵行校区),,1,0,121.457189,31.037651,,education,http://api.map.baidu.com/place/detail?uid=c466d8c3f630eee0bea24086&output=html&source=placeapi_v2,,,,,,,,,,,,,,,,,,,,0
2ca6014eff42962cdc1e5282,上海交通大学人工智能研究院数学基础研究中心,教育培训,科研机构,上海市,上海市,闵行区,上海市闵行区东川路800号上海交通大学闵行校区软件大楼,,1,0,121.448697,31.028687,,education,http://api.map.baidu.com/place/detail?uid=2ca6014eff42962cdc1e5282&output=html&source=placeapi_v2,,,,,,,,,,,,,,,,,,,,0
a292e2e4b26d4f4a52e5c5ee,上海交通大学-激光等离子体教育部重点实验室(闵行校区),教育培训,科研机构,上海市,上海市,闵行区,上海市闵行区东川路800号,a292e2e4b26d4f4a52e5c5ee,1,0,121.446687,31.028011,,education,http://api.map.baidu.com/place/detail?uid=a292e2e4b26d4f4a52e5c5ee&output=html&source=placeapi_v2,,,,,,,,,,,,,,,,,,121.44645204765,31.028127110056,0
b171437708b49ee94f6d464c,智慧城市联合创新中心,教育培训,科研机构,上海市,上海市,闵行区,上海市闵行区宣怀大道上海交通大学(闵行校区),,1,0,121.443476,31.032015,,education,http://api.map.baidu.com/place/detail?uid=b171437708b49ee94f6d464c&output=html&source=placeapi_v2,,,,,,,,,,,,,,,,,,,,0
1f8a20eca4ac9758bbbd63bf,上海交通大学-上海交通大学民机发展与技术联合研究中心,教育培训,科研机构,上海市,上海市,闵行区,上海市闵行区东川路800号上海交通大学闵行校区4楼407室,1f8a20eca4ac9758bbbd63bf,1,0,121.452269,31.030065,,education,http://api.map.baidu.com/place/detail?uid=1f8a20eca4ac9758bbbd63bf&output=html&source=placeapi_v2,,,0.0,,,,,,,,,,,,,,,,,0
55cf1fc5ae34053cb35c6ac4,河口海岸科学研究院,教育培训,科研机构,上海市,上海市,闵行区,上海市闵行区东川路500号,,1,0,121.457687,31.031303,,education,http://api.map.baidu.com/place/detail?uid=55cf1fc5ae34053cb35c6ac4&output=html&source=placeapi_v2,,,,,,,,,,,,,,,,,,,,0
73ee86714743d1214bcc4a7c,电院实验室(上海交通大学闵行校区微电子学院大楼),教育培训,科研机构,上海市,上海市,闵行区,上海市闵行区东川路800号上海交通大学闵行校区5号楼100室,73ee86714743d1214bcc4a7c,1,0,121.450996,31.029652,,education,http://api.map.baidu.com/place/detail?uid=73ee86714743d1214bcc4a7c&output=html&source=placeapi_v2,,,0,,,,,,,,0,,,,,,,121.45090951954,31.029308338281,0
aef7f3b40c1db7f9c4f025cb,华东师范大学闵行校区-古籍研究所,教育培训,科研机构,上海市,上海市,闵行区,上海市闵行区东川路500号3311室,aef7f3b40c1db7f9c4f025cb,1,0,121.4617,31.035045,,education,http://api.map.baidu.com/place/detail?uid=aef7f3b40c1db7f9c4f025cb&output=html&source=placeapi_v2,,,,,,,,,,,,,,,,,,121.46155296661,31.03509156422,0
150ab79da42153dd78f796af,上海交通大学媒体与设计学院媒体与新闻研究中心,教育培训,科研机构,上海市,上海市,闵行区,上海市闵行区东川路800号,150ab79da42153dd78f796af,1,0,121.445484,31.029289,,education,http://api.map.baidu.com/place/detail?uid=150ab79da42153dd78f796af&output=html&source=placeapi_v2,,,,,,,,,,,,,,,,,,,,0
9a4652f7bdf37904f8dc85e0,大数据技术与应用创新中心,教育培训,科研机构,上海市,上海市,闵行区,上海市闵行区东川路800号上海交通大学软件大楼4号楼3楼,9a4652f7bdf37904f8dc85e0,1,0,121.449108,31.028977,,education,http://api.map.baidu.com/place/detail?uid=9a4652f7bdf37904f8dc85e0&output=html&source=placeapi_v2,,,0.0,,,,,,,,0,,,,,,,121.4486388736,31.029024996364,0
81f499432d104909bd4842dd,上海交通大学(闵行校区)-中意绿色能源实验室,教育培训,科研机构,上海市,上海市,闵行区,上海市闵行区东川路800号,81f499432d104909bd4842dd,1,0,121.446009,31.027106,(021)54740000,education,http://api.map.baidu.com/place/detail?uid=81f499432d104909bd4842dd&output=html&source=placeapi_v2,,,3.0,,,,,,,,1,,,,,,,,,0
4ea3f2f1c84c93d7aecb6624,中国农业科学院上海兽医研究所,教育培训,科研机构,上海市,上海市,闵行区,上海市闵行区吴泾镇紫月路518号,4ea3f2f1c84c93d7aecb6624,1,1,121.461506,31.024516,(021)54081818,education,http://api.map.baidu.com/place/detail?uid=4ea3f2f1c84c93d7aecb6624&output=html&source=placeapi_v2,,,,,,,,,,,,,,,,,,121.46153249268,31.024366210619,1
d44de7d05998416c704b8754,世界历史研究院,教育培训,科研机构,上海市,上海市,闵行区,上海市闵行区汇通路华东师范大学西南门东北侧约50米,,1,0,121.461102,31.035194,,education,http://api.map.baidu.com/place/detail?uid=d44de7d05998416c704b8754&output=html&source=placeapi_v2,,,,,,,,,,,,,,,,,,,,0
f980a37f374f1800d23ce3cc,上海交通大学-欧洲文化高等研究院,教育培训,科研机构,上海市,上海市,闵行区,上海市闵行区元培路上海交通大学南门北侧约70米,,1,0,121.445695,31.028195,,education,http://api.map.baidu.com/place/detail?uid=f980a37f374f1800d23ce3cc&output=html&source=placeapi_v2,,,,,,,,,,,,,,,,,,121.44538133126,31.027978822518,0
1b93181c0eefff4f2e47331e,紫竹信息数码港-工程研发中心,教育培训,科研机构,上海市,上海市,闵行区,上海市闵行区东川路555号上海紫竹信息数码港3号楼4层8层,1b93181c0eefff4f2e47331e,1,0,121.456801,31.028265,,education,http://api.map.baidu.com/place/detail?uid=1b93181c0eefff4f2e47331e&output=html&source=placeapi_v2,,,,,,,,,,,,,,,,,,,,0
6668e9310df442399fec2be8,紫竹新兴产业技术研究院,教育培训,科研机构,上海市,上海市,闵行区,上海市闵行区园美路58号1号楼,6668e9310df442399fec2be8,1,3,121.445859,31.048219,,education,http://api.map.baidu.com/place/detail?uid=6668e9310df442399fec2be8&output=html&source=placeapi_v2,,,0,,,,,,,,0,,,,,,,121.44582106625,31.048075088605,3
fb46260838331c689d82eae0,华东师范大学地理信息科学教育部重点实验室,教育培训,科研机构,上海市,上海市,闵行区,上海市闵行区东川路542号,,1,0,121.458091,31.030752,,education,http://api.map.baidu.com/place/detail?uid=fb46260838331c689d82eae0&output=html&source=placeapi_v2,,,,,,,,,,,,,,,,,,,,0
13d369370d5170244151c0ed,上海交通大学-科学工程计算教育部重点实验室,教育培训,科研机构,上海市,上海市,闵行区,上海市闵行区东川路800号,13d369370d5170244151c0ed,1,0,121.436358,31.028346,,education,http://api.map.baidu.com/place/detail?uid=13d369370d5170244151c0ed&output=html&source=placeapi_v2,,,,,,,,,,,,,,,,,,121.43654174364,31.028445464786,0
5ffb1816c68315226f476024,上海太阳能工程技术研究中心,教育培训,科研机构,上海市,上海市,闵行区,上海市闵行区吴泾镇紫月路880号紫竹科学园区4号楼,5ffb1816c68315226f476024,1,1,121.454427,31.023866,(021)61679880,education,http://api.map.baidu.com/place/detail?uid=5ffb1816c68315226f476024&output=html&source=placeapi_v2,,,4,,,,,,,,2,,,,,,,121.45505510066,31.023683282623,1
cd9ff3aeeb707e2eaeb22a73,天津研发中心,教育培训,科研机构,上海市,上海市,闵行区,上海市闵行区紫月路1188号3楼,,1,0,121.448365,31.022132,,education,http://api.map.baidu.com/place/detail?uid=cd9ff3aeeb707e2eaeb22a73&output=html&source=placeapi_v2,,,,,,,,,,,,,,,,,,121.44831295938,31.022236478229,0
37d60a4682aefb611e1d1102,组织工程国家工程研究中心,教育培训,科研机构,上海市,上海市,闵行区,上海市闵行区江川东路68号,,1,0,121.462873,31.022603,,education,http://api.map.baidu.com/place/detail?uid=37d60a4682aefb611e1d1102&output=html&source=placeapi_v2,,,5.0,,,,,,,,1,,,,,,,121.46292452372,31.022380754186,0
b5e086132e84360c95ca07bd,上海交通大学-自然科学研究院,教育培训,科研机构,上海市,上海市,闵行区,上海市闵行区东川路800号上海交通大学闵行校区理科楼6号楼,,1,0,121.431757,31.031372,(021)54740000,education,http://api.map.baidu.com/place/detail?uid=b5e086132e84360c95ca07bd&output=html&source=placeapi_v2,,,,,,,,,,,,,,,,,,,,0
ad62fa9b47c479798b2fb5b0,微软研发中心,教育培训,科研机构,上海市,上海市,闵行区,上海市闵行区紫星路999号,ad62fa9b47c479798b2fb5b0,1,0,121.456919,31.026344,,education,http://api.map.baidu.com/place/detail?uid=ad62fa9b47c479798b2fb5b0&output=html&source=placeapi_v2,,,5,,,,,,,,1,,,,,,,121.4568193098,31.026397488039,0
4812215ecf988be2b320a8ff,欧姆龙上海研究开发协创中心,教育培训,科研机构,上海市,上海市,闵行区,上海市闵行区东川路555号6号楼304a,4812215ecf988be2b320a8ff,1,0,121.460081,31.029767,,education,http://api.map.baidu.com/place/detail?uid=4812215ecf988be2b320a8ff&output=html&source=placeapi_v2,,,,,,,,,,,,,,,,,,121.46036204168,31.029587520414,0
1141ff2f9b1a0a626140a9a3,中金国际广场-研发中心,教育培训,科研机构,上海市,上海市,闵行区,上海市闵行区紫月路1188号3楼,,1,0,121.444414,31.024404,(021)23508001,education,http://api.map.baidu.com/place/detail?uid=1141ff2f9b1a0a626140a9a3&output=html&source=placeapi_v2,,,,,,,,,,,,,,,,,,,,0
e39bb7f5601b54519c09f7c4,新能源与环境工程研究院,教育培训,科研机构,上海市,上海市,闵行区,上海市闵行区紫月路880号2号楼2楼,,1,0,121.455011,31.024048,,education,http://api.map.baidu.com/place/detail?uid=e39bb7f5601b54519c09f7c4&output=html&source=placeapi_v2,,,,,,,,,,,,,,,,,,,,0
b3e22434f7dc002c8605bf56,上海交通大学-土木建筑工程实验中心(闵行校区),教育培训,科研机构,上海市,上海市,闵行区,上海市闵行区东川路800号,b3e22434f7dc002c8605bf56,1,0,121.436504,31.030398,,education,http://api.map.baidu.com/place/detail?uid=b3e22434f7dc002c8605bf56&output=html&source=placeapi_v2,,,0.0,,,,,,,,,,,,,,,121.43670372519,31.030365112085,0
f4907c188ac7b0684207c1b5,上海交通大学焊接与激光制造研究所(闵行校区),教育培训,科研机构,上海市,上海市,闵行区,上海市闵行区东川路800号上海交通大学闵行校区e楼,,1,0,121.43341,31.029546,,education,http://api.map.baidu.com/place/detail?uid=f4907c188ac7b0684207c1b5&output=html&source=placeapi_v2,,,0.0,,,,,,,,,,,,,,,,,0
9e1257e8f3e943bcd13ce3ee,中聚研究院,教育培训,科研机构,上海市,上海市,闵行区,上海市闵行区紫月路1299号,,1,0,121.446306,31.020742,,education,http://api.map.baidu.com/place/detail?uid=9e1257e8f3e943bcd13ce3ee&output=html&source=placeapi_v2,,,,,,,,,,,,,,,,,,,,0
f1e125717905cc712fb90825,上海交通大学材料科学与工程学院-特种材料研究所,教育培训,科研机构,上海市,上海市,闵行区,上海市闵行区东川路800号,f1e125717905cc712fb90825,1,0,121.435111,31.030312,(021)34202540,education,http://api.map.baidu.com/place/detail?uid=f1e125717905cc712fb90825&output=html&source=placeapi_v2,,,,,,,,,,,,,,,,,,121.43516874026,31.030144751034,0
e7ffa2f06293902bb4265544,粒子宇宙研究所,教育培训,科研机构,上海市,上海市,闵行区,上海市闵行区东川路800号,e7ffa2f06293902bb4265544,1,0,121.437223,31.028141,(021)54748061,education,http://api.map.baidu.com/place/detail?uid=e7ffa2f06293902bb4265544&output=html&source=placeapi_v2,,,,,,,,,,,,,,,,,,,,0
0980302db600bcefa1a934e3,上海交通大学-金属基复合材料国家重点实验室,教育培训,科研机构,上海市,上海市,闵行区,上海市闵行区东川路800号交通大学闵行校区d楼,,1,0,121.431996,31.029121,,education,http://api.map.baidu.com/place/detail?uid=0980302db600bcefa1a934e3&output=html&source=placeapi_v2,,,,,,,,,,,,,,,,,,,,0
9cdce850ba2fda5331f71ddb,上海交通大学-上海市电气绝缘与热老化重点实验室,教育培训,科研机构,上海市,上海市,闵行区,上海市闵行区东川路800号,9cdce850ba2fda5331f71ddb,1,0,121.435448,31.029886,,education,http://api.map.baidu.com/place/detail?uid=9cdce850ba2fda5331f71ddb&output=html&source=placeapi_v2,,,,,,,,,,,,,,,,,,121.43532340062,31.029769676681,0
90ff8d2b2f074b195fd4febb,上海交通大学(闵行校区)-超快科学中心,教育培训,科研机构,上海市,上海市,闵行区,上海市闵行区东川路800号,,1,0,121.433972,31.027521,,education,http://api.map.baidu.com/place/detail?uid=90ff8d2b2f074b195fd4febb&output=html&source=placeapi_v2,,,0,,,,,,,,2,,,,,,,,,0
2d528a93e97841706ca3cc3a,上海交通大学材化环分析测试中心,教育培训,科研机构,上海市,上海市,闵行区,上海市闵行区东川路800号,,1,0,121.433702,31.029961,,education,http://api.map.baidu.com/place/detail?uid=2d528a93e97841706ca3cc3a&output=html&source=placeapi_v2,,,0.0,,,,,,,,1,,,,,,,,,0
5728b088110c56b7bda2404e,上海交通大学-轻合金精密成型国家工程研究中心(闵行校区),教育培训,科研机构,上海市,上海市,闵行区,上海市闵行区东川路800号交通大学闵行校区d楼,5728b088110c56b7bda2404e,1,0,121.43188,31.029214,,education,http://api.map.baidu.com/place/detail?uid=5728b088110c56b7bda2404e&output=html&source=placeapi_v2,,,,,,,,,,,,,,,,,,121.43186085239,31.029377243677,0
a37909adea79d5e4a6da3999,国粹研究苑(闸航路店),教育培训,科研机构,上海市,上海市,闵行区,上海市闵行区闸航路2830号3楼,a37909adea79d5e4a6da3999,1,0,121.53567,31.026176,(021)34799588,education,http://api.map.baidu.com/place/detail?uid=a37909adea79d5e4a6da3999&output=html&source=placeapi_v2,,,,,,,,,,,0,,,,,,,121.53573357858,31.026155108229,0
864c2a67c1a6657a3f9a5e6a,国粹研究,教育培训,科研机构,上海市,上海市,闵行区,永跃路550弄18号,864c2a67c1a6657a3f9a5e6a,1,0,121.516887,31.036992,(021)54843268,education,http://api.map.baidu.com/place/detail?uid=864c2a67c1a6657a3f9a5e6a&output=html&source=placeapi_v2,,,0,,,,,,,,0,,,,,,,121.51670126867,31.036991513374,0
e7a4902ca89a32a3aeb22a45,上海浦东索思美文化艺术研究院,教育培训,科研机构,上海市,上海市,浦东新区,上海市浦东新区航头路1528弄12号,,1,0,121.595232,31.039797,,education,http://api.map.baidu.com/place/detail?uid=e7a4902ca89a32a3aeb22a45&output=html&source=placeapi_v2,,,,,,,,,,,,,,,,,,,,0
962c7a9e4f186314db1318f3,上海乔芝工程技术中心地磅,教育培训,科研机构,上海市,上海市,浦东新区,上海市浦东新区航南公路488号,,1,0,121.590551,31.02189,,education,http://api.map.baidu.com/place/detail?uid=962c7a9e4f186314db1318f3&output=html&source=placeapi_v2,,,,,,,,,,,,,,,,,,,,0
84aacd80b72aa372c51e51d1,上海浦东古艺文化研究服务中心,教育培训,科研机构,上海市,上海市,浦东新区,上海市浦东新区新场大街41号a栋1室,,1,0,121.654632,31.023049,,education,http://api.map.baidu.com/place/detail?uid=84aacd80b72aa372c51e51d1&output=html&source=placeapi_v2,,,,,,,,,,,,,,,,,,,,0
0a15c7ec2c698182ed74f859,普罗新能源有限公司普罗光伏研究所,教育培训,科研机构,上海市,上海市,浦东新区,上海市浦东新区南汇工业园区宣黄公路2455弄6号,0a15c7ec2c698182ed74f859,1,0,121.73939,31.03129,(021)58186968,education,http://api.map.baidu.com/place/detail?uid=0a15c7ec2c698182ed74f859&output=html&source=placeapi_v2,,,,,,,,,,,,,,,,,,,,0
9d0bb78dcdefc091a2a93492,上海食文化研究会,教育培训,科研机构,上海市,上海市,浦东新区,区城南路168号绿地峰汇商务广场12层,9d0bb78dcdefc091a2a93492,1,0,121.756713,31.04553,,education,http://api.map.baidu.com/place/detail?uid=9d0bb78dcdefc091a2a93492&output=html&source=placeapi_v2,,,,,,,,,,,,,,,,,,121.75691494514,31.045769660962,0
7acaa7f86c0fc0922fb908c2,上海电缆研究所,教育培训,科研机构,上海市,上海市,浦东新区,上海市浦东新区园顺路99号,7acaa7f86c0fc0922fb908c2,1,0,121.729411,31.027632,,education,http://api.map.baidu.com/place/detail?uid=7acaa7f86c0fc0922fb908c2&output=html&source=placeapi_v2,,,,,,,,,,,,,,,,,,121.729535044,31.027625701672,0
4234f3c9f84f280251e5c50d,辰山植物园逆境科研中心,教育培训,科研机构,上海市,上海市,松江区,上海市松江区辰花路3888号,,1,0,121.195614,31.084094,,education,http://api.map.baidu.com/place/detail?uid=4234f3c9f84f280251e5c50d&output=html&source=placeapi_v2,,,,,,,,,,,,,,,,,,,,0
c76e0da63aa09506e5e965b5,华东政法大学-文物艺术品市场与文化产业管理研究中心,教育培训,科研机构,上海市,上海市,松江区,上海市松江区龙源路555号华东政法大学松江校区,,1,0,121.20209,31.05972,,education,http://api.map.baidu.com/place/detail?uid=c76e0da63aa09506e5e965b5&output=html&source=placeapi_v2,,,,,,,,,,,,,,,,,,,,0
630fe40ada8159ccdf1e5288,法制新闻研究中心,教育培训,科研机构,上海市,上海市,松江区,上海市松江区怀德路华东政法大学(松江校区),,1,0,121.202149,31.059891,,education,http://api.map.baidu.com/place/detail?uid=630fe40ada8159ccdf1e5288&output=html&source=placeapi_v2,,,,,,,,,,,,,,,,,,,,0
bd175771d892efce32870a73,上海市公安局松江分局刑事科学技术研究所,教育培训,科研机构,上海市,上海市,松江区,上海市公安局松江区辰塔路2700号,,1,0,121.185528,31.055808,,education,http://api.map.baidu.com/place/detail?uid=bd175771d892efce32870a73&output=html&source=placeapi_v2,,,,,,,,,,,,,,,,,,121.18537244725,31.055728169966,0
2c9ebfcec6a9bbea2fb17ed2,社会治安综合治理研究所,教育培训,科研机构,上海市,上海市,松江区,上海市松江区龙源路555号华东政法大学松江校区,2c9ebfcec6a9bbea2fb17ed2,1,0,121.204959,31.063818,,education,http://api.map.baidu.com/place/detail?uid=2c9ebfcec6a9bbea2fb17ed2&output=html&source=placeapi_v2,,,0.0,,,,,,,,,,,,,,,,,0
87999d30e0a14b5a0289723e,华东政法大学-政治学研究所(松江校区),教育培训,科研机构,上海市,上海市,松江区,上海市松江区龙源路555号,,1,0,121.197667,31.059793,,education,http://api.map.baidu.com/place/detail?uid=87999d30e0a14b5a0289723e&output=html&source=placeapi_v2,,,,,,,,,,,,,,,,,,,,0
bfce273af17717b6250bd06c,华东政法大学-法治新闻研究中心,教育培训,科研机构,上海市,上海市,松江区,上海市松江区龙源路555号华东政法大学松江校区,,1,0,121.20209,31.05972,,education,http://api.map.baidu.com/place/detail?uid=bfce273af17717b6250bd06c&output=html&source=placeapi_v2,,,,,,,,,,,,,,,,,,,,0
a1568b842e3ef879f60e774c,上海工程技术大学松江校区-城市交通规划与控制智能化实验室,教育培训,科研机构,上海市,上海市,松江区,上海市松江区广富林路2793号5号楼,,1,0,121.210725,31.065204,,education,http://api.map.baidu.com/place/detail?uid=a1568b842e3ef879f60e774c&output=html&source=placeapi_v2,,,,,,,,,,,,,,,,,,121.21094178564,31.065215276153,0
a3ad12dcae97e873b34c49b6,现代交通工程中心,教育培训,科研机构,上海市,上海市,松江区,上海市松江区龙腾路333号,,1,0,121.208527,31.065551,,education,http://api.map.baidu.com/place/detail?uid=a3ad12dcae97e873b34c49b6&output=html&source=placeapi_v2,,,,,,,,,,,,,,,,,,,,0
a27c42c61d8ab92deedfca36,上海工程技术大学电动汽车充(换)电研究所,教育培训,科研机构,上海市,上海市,松江区,上海市松江区腾飞北路上海工程技术大学(松江校区),a27c42c61d8ab92deedfca36,1,0,121.210752,31.065486,,education,http://api.map.baidu.com/place/detail?uid=a27c42c61d8ab92deedfca36&output=html&source=placeapi_v2,,,,,,,,,,,,,,,,,,,,0
d27b9f13db079fa040e1921b,上海市阳光康复中心发展研究中心,教育培训,科研机构,上海市,上海市,松江区,上海市松江区光星路2209号7号楼,d27b9f13db079fa040e1921b,1,0,121.246215,31.07095,,education,http://api.map.baidu.com/place/detail?uid=d27b9f13db079fa040e1921b&output=html&source=placeapi_v2,,,,,,,,,,,,,,,,,,121.24648433728,31.070993152097,0
e1d05d81dcf6ac6bb64f5421,上海市残疾人康复事业发展研究中心,教育培训,科研机构,上海市,上海市,松江区,上海市松江区光星路2209号7号楼3楼22床,,1,0,121.246255,31.070922,,education,http://api.map.baidu.com/place/detail?uid=e1d05d81dcf6ac6bb64f5421&output=html&source=placeapi_v2,,,0.0,,,,,,,,,,,,,,,121.24650283788,31.070907992101,0
7dd6d873dccc20bc84154108,上外全球文明史研究所,教育培训,科研机构,上海市,上海市,松江区,上海市松江区文翔路1550号上外小别墅25号楼24号,,1,0,121.235476,31.052854,,education,http://api.map.baidu.com/place/detail?uid=7dd6d873dccc20bc84154108&output=html&source=placeapi_v2,,,,,,,,,,,,,,,,,,,,0
dfb944c7d8d81aa36fa3ccf5,东华大学松江校区纤维材料先进技术与科学创新引智基地,教育培训,科研机构,上海市,上海市,松江区,上海市松江区人民北路2999号东华大学松江校区,,1,0,121.222641,31.064626,,education,http://api.map.baidu.com/place/detail?uid=dfb944c7d8d81aa36fa3ccf5&output=html&source=placeapi_v2,,,,,,,,,,,,,,,,,,,,0
ae6f6b97269d09b5c4f025ce,上海外国语大学语料库研究院,教育培训,科研机构,上海市,上海市,松江区,上海市松江区文汇路800弄三期2号楼,,1,0,121.233009,31.05327,(021)67705180,education,http://api.map.baidu.com/place/detail?uid=ae6f6b97269d09b5c4f025ce&output=html&source=placeapi_v2,,,,,,,,,,,,,,,,,,,,0
772e1c8161d75aac74026936,上海外国语大学语言数据与智慧教育研究中心,教育培训,科研机构,上海市,上海市,松江区,上海市松江区文翔路1550号上海外国语大学松江校区五教楼,,1,0,121.232982,31.053255,(021)67705180,education,http://api.map.baidu.com/place/detail?uid=772e1c8161d75aac74026936&output=html&source=placeapi_v2,,,,,,,,,,,,,,,,,,,,0
c221db4708f068052fb90851,东华大学松江校区非线性科学研究所,教育培训,科研机构,上海市,上海市,松江区,上海市松江区人民北路2999号,,1,0,121.21749,31.063006,,education,http://api.map.baidu.com/place/detail?uid=c221db4708f068052fb90851&output=html&source=placeapi_v2,,,,,,,,,,,,,,,,,,,,0
3a96c6e6e7ba9e30276e9832,上海闵行机械工程技术研究所,教育培训,科研机构,上海市,上海市,松江区,上海市松江区新庙三路1068号5号楼,3a96c6e6e7ba9e30276e9832,1,0,121.292814,31.066783,13801696769,education,http://api.map.baidu.com/place/detail?uid=3a96c6e6e7ba9e30276e9832&output=html&source=placeapi_v2,,,,,,,,,,,,,,,,,,121.29269710819,31.066768653936,0
6a1cb4a207f5dddc0bccdde0,屺盛科研中心,教育培训,科研机构,上海市,上海市,松江区,上海市松江区新格路388号,,1,0,121.287307,31.056553,,education,http://api.map.baidu.com/place/detail?uid=6a1cb4a207f5dddc0bccdde0&output=html&source=placeapi_v2,,,,,,,,,,,,,,,,,,121.28714893711,31.05656529138,0
21b702543eb9344b902ca369,阳狮生物研发中心,教育培训,科研机构,上海市,上海市,松江区,上海市松江区泗砖南路255弄91号楼,,1,0,121.291447,31.074551,,education,http://api.map.baidu.com/place/detail?uid=21b702543eb9344b902ca369&output=html&source=placeapi_v2,,,,,,,,,,,,,,,,,,,,0
ce4f1cd976500723ad31e527,海纳云国际院士工作站,教育培训,科研机构,上海市,上海市,松江区,上海市松江区中创路,,1,0,121.282669,31.057408,,education,http://api.map.baidu.com/place/detail?uid=ce4f1cd976500723ad31e527&output=html&source=placeapi_v2,,,,,,,,,,,,,,,,,,121.2818727343,31.057559016919,0
e726e4fab76b509f8bdb7322,百全毫米波疗法推广中心,教育培训,科研机构,上海市,上海市,松江区,上海市松江区新育路828号29号2楼,,1,0,121.328309,31.079177,,education,http://api.map.baidu.com/place/detail?uid=e726e4fab76b509f8bdb7322&output=html&source=placeapi_v2,,,0.0,,,,,,,,1,,,,,,,,,0
2b8226cd972209db80a00c0e,上海市建筑科学研究院,教育培训,科研机构,上海市,上海市,松江区,上海市松江区申徐路39号4幢,,1,0,121.359269,31.069156,,education,http://api.map.baidu.com/place/detail?uid=2b8226cd972209db80a00c0e&output=html&source=placeapi_v2,,,,,,,,,,,,,,,,,,121.35942033815,31.06920346089,0
a267d6cc1f7c1ec11ef74d02,液化空气(中国)研发有限公司,教育培训,科研机构,上海市,上海市,闵行区,上海市闵行区光华路1820号,a267d6cc1f7c1ec11ef74d02,1,0,121.368763,31.06707,(021)80355000,education,http://api.map.baidu.com/place/detail?uid=a267d6cc1f7c1ec11ef74d02&output=html&source=placeapi_v2,,,,,,,,,,,,,,,,,,121.36877259232,31.067054148173,0
b9d5625c8d0a0a4a9b68b483,上海市建筑科技研究院机械生产基地,教育培训,科研机构,上海市,上海市,松江区,上海市松江区申徐路39号4幢,,1,0,121.359275,31.069194,,education,http://api.map.baidu.com/place/detail?uid=b9d5625c8d0a0a4a9b68b483&output=html&source=placeapi_v2,,,,,,,,,,,,,,,,,,121.35940656802,31.06923587424,0
3f826ed379df3c47d1f49eff,仙泰研发中心,教育培训,科研机构,上海市,上海市,闵行区,上海市闵行区颛桥镇颛兴路1688号莘庄工业区h栋,3f826ed379df3c47d1f49eff,1,1,121.377888,31.064408,,education,http://api.map.baidu.com/place/detail?uid=3f826ed379df3c47d1f49eff&output=html&source=placeapi_v2,,,,,,,,,,,,,,,,,,121.37794663076,31.064266659559,1
082a5d05b055c0fc94031955,Sieyuan研发中心,教育培训,科研机构,上海市,上海市,闵行区,上海市闵行区华宁路与申富路交叉路口往西南约180米,,1,0,121.371805,31.080937,,education,http://api.map.baidu.com/place/detail?uid=082a5d05b055c0fc94031955&output=html&source=placeapi_v2,,,,,,,,,,,,,,,,,,,,0
9bbe48eaad5e6dc34bcc4a5c,上海莘泉实业有限公司互联网数据中心技术研发服务总部项目部,教育培训,科研机构,上海市,上海市,闵行区,华宁路3740弄111号附近,,1,0,121.378386,31.066291,,education,http://api.map.baidu.com/place/detail?uid=9bbe48eaad5e6dc34bcc4a5c&output=html&source=placeapi_v2,,,,,,,,,,,,,,,,,,,,0
cee502a6f8c58114a21de961,中国航天控制技术研究精加工,教育培训,科研机构,上海市,上海市,闵行区,上海市闵行区中春路1555号,,1,0,121.397617,31.058569,,education,http://api.map.baidu.com/place/detail?uid=cee502a6f8c58114a21de961&output=html&source=placeapi_v2,,,,,,,,,,,,,,,,,,121.39787860352,31.058659699331,0
f034d8723b7925f48bf15d2d,上海广厦建筑设计院,教育培训,科研机构,上海市,上海市,闵行区,上海市闵行区都会路2338号62栋3楼,f034d8723b7925f48bf15d2d,1,0,121.424349,31.078357,,education,http://api.map.baidu.com/place/detail?uid=f034d8723b7925f48bf15d2d&output=html&source=placeapi_v2,,,0,,,,,,,,1,,,,,,,121.42430225291,31.078452330694,0
89c46f9956151bf3eb1e9725,浙江秉鹏自动化科技有限公司上海研发中心,教育培训,科研机构,上海市,上海市,闵行区,上海市闵行区光中路133弄19号a座,,1,0,121.401612,31.079691,,education,http://api.map.baidu.com/place/detail?uid=89c46f9956151bf3eb1e9725&output=html&source=placeapi_v2,,,,,,,,,,,,,,,,,,,,0
d1cb5af0208b70ba9222e0cf,articolle研究中心(上海维琪文化),教育培训,科研机构,上海市,上海市,闵行区,上海市闵行区光华路335号,,1,0,121.398875,31.075448,,education,http://api.map.baidu.com/place/detail?uid=d1cb5af0208b70ba9222e0cf&output=html&source=placeapi_v2,,,,,,,,,,,,,,,,,,,,0
5718cfe54acec803cd04effb,北斗万方测绘工程研究院,教育培训,科研机构,上海市,上海市,闵行区,上海市闵行区光华路3号,,1,0,121.404438,31.078061,18516171210,education,http://api.map.baidu.com/place/detail?uid=5718cfe54acec803cd04effb&output=html&source=placeapi_v2,,,,,,,,,,,,,,,,,,,,0
6f0d063b980364992bb97c61,中门生物技术研发中心,教育培训,科研机构,上海市,上海市,闵行区,上海市闵行区光华路598号,,1,0,121.393359,31.074538,,education,http://api.map.baidu.com/place/detail?uid=6f0d063b980364992bb97c61&output=html&source=placeapi_v2,,,,,,,,,,,,,,,,,,,,0
98ef3cfa39e11478e91e97e4,国家绿色建筑质量监督检验中心上海市建筑科学研究院,教育培训,科研机构,上海市,上海市,闵行区,上海市闵行区颛兴东路1421弄美惠园水果市场西南侧约30米,,1,0,121.421377,31.075868,,education,http://api.map.baidu.com/place/detail?uid=98ef3cfa39e11478e91e97e4&output=html&source=placeapi_v2,,,,,,,,,,,,,,,,,,,,0
a6307e780f751c7f841541e7,安琪面包研究院,教育培训,科研机构,上海市,上海市,闵行区,上海市闵行区新源路1356号正珏商务园区A幢4层,,1,0,121.405074,31.054186,,education,http://api.map.baidu.com/place/detail?uid=a6307e780f751c7f841541e7&output=html&source=placeapi_v2,,,,,,,,,,,,,,,,,,121.40519602504,31.054032842617,0
880ca862bc6607c0adcb66ea,上海新力动力设备研究所,教育培训,科研机构,上海市,上海市,闵行区,上海市闵行区中春路1777号,880ca862bc6607c0adcb66ea,1,0,121.396252,31.061392,,education,http://api.map.baidu.com/place/detail?uid=880ca862bc6607c0adcb66ea&output=html&source=placeapi_v2,,,,,,,,,,,,,,,,,,121.39634468578,31.061357672226,0
fe4c726e4b4c04610c0e6b6c,杰事杰新材料集团研发测试中心,教育培训,科研机构,上海市,上海市,闵行区,上海市闵行区光中路388号,fe4c726e4b4c04610c0e6b6c,1,1,121.394637,31.07815,,education,http://api.map.baidu.com/place/detail?uid=fe4c726e4b4c04610c0e6b6c&output=html&source=placeapi_v2,,,,,,,,,,,,,,,,,,121.39467754304,31.078165051729,1
1043dbd7068834cad12dd62f,上海斯典化工有限公司研发中心,教育培训,科研机构,上海市,上海市,闵行区,上海市闵行区向阳路501弄附近,1043dbd7068834cad12dd62f,1,0,121.440475,31.076851,,education,http://api.map.baidu.com/place/detail?uid=1043dbd7068834cad12dd62f&output=html&source=placeapi_v2,,,,,,,,,,,,,,,,,,,,0
dd4958cc4fed7345a3acc48d,上海化学工业压力容器检验站安全阀检验吴泾分站,教育培训,科研机构,上海市,上海市,闵行区,上海市闵行区景东路与墨江路交叉路口北侧,dd4958cc4fed7345a3acc48d,1,0,121.462224,31.078994,,education,http://api.map.baidu.com/place/detail?uid=dd4958cc4fed7345a3acc48d&output=html&source=placeapi_v2,,,,,,,,,,,,,,,,,,,,0
8a0727e5935f35562811d1ea,上海传真通信设备技术研究所有限公司,教育培训,科研机构,上海市,上海市,闵行区,上海市闵行区召楼路3286号,8a0727e5935f35562811d1ea,1,0,121.538489,31.082941,(021)34902250,education,http://api.map.baidu.com/place/detail?uid=8a0727e5935f35562811d1ea&output=html&source=placeapi_v2,,,,,,,,,,,,,,,,,,121.53882574467,31.083213678932,0
229d311f37858b2bd0ff2353,上海市浦艺盆景研究所,教育培训,科研机构,上海市,上海市,浦东新区,上海市浦东新区坦仁路,,1,0,121.63288,31.066867,(021)38208286,education,http://api.map.baidu.com/place/detail?uid=229d311f37858b2bd0ff2353&output=html&source=placeapi_v2,,,,,,,,,,,,,,,,,,,,0
2d35869b2e258418e6e965e7,上海市环境保护产业研究院塑料工业应用技术研究所,教育培训,科研机构,上海市,上海市,浦东新区,上海市浦东新区申江南路6288号,2d35869b2e258418e6e965e7,1,0,121.652045,31.057857,,education,http://api.map.baidu.com/place/detail?uid=2d35869b2e258418e6e965e7&output=html&source=placeapi_v2,,,,,,,,,,,,,,,,,,121.65200893136,31.057915118778,0
fbe8240a9a4d14aac8213dbe,强荣建设,教育培训,科研机构,上海市,上海市,浦东新区,上海市浦东新区新场镇古丹路15弄二号楼二层,fa7bec5a154e7c2bc4f50d3a,1,0,121.649595,31.081103,(021)68309799,education,http://api.map.baidu.com/place/detail?uid=fbe8240a9a4d14aac8213dbe&output=html&source=placeapi_v2,,,5,,,,,,,,2,,,,,,,121.64965925071,31.081197572002,0
06b2e6d443e2447544e2747b,天马射电天文望远镜,教育培训,科研机构,上海市,上海市,松江区,上海市松江区九江公路1365号,,1,0,121.147152,31.095807,,education,http://api.map.baidu.com/place/detail?uid=06b2e6d443e2447544e2747b&output=html&source=placeapi_v2,,,4.9,,,,,,,,17,,,,,,,121.14719451518,31.096025202466,0
759aca08f30cc579c4f50d5b,上海交通大学特种稻米研究所,教育培训,科研机构,上海市,上海市,松江区,上海市松江区环山路58号,,1,0,121.196401,31.097671,,education,http://api.map.baidu.com/place/detail?uid=759aca08f30cc579c4f50d5b&output=html&source=placeapi_v2,,,,,,,,,,,,,,,,,,,,0
a90f09111bcf736174026944,洞泾其灵公寓-居住中心,教育培训,科研机构,上海市,上海市,松江区,上海市松江区仕秀路洞泾其灵公寓北侧约40米,,1,0,121.245588,31.092371,,education,http://api.map.baidu.com/place/detail?uid=a90f09111bcf736174026944&output=html&source=placeapi_v2,,,,,,,,,,,,,,,,,,121.24555703716,31.09236187377,0
829866bd218e83c88733041b,阿里巴巴科创中心,教育培训,科研机构,上海市,上海市,松江区,上海市松江区莘砖公路668号双子楼a幢,829866bd218e83c88733041b,1,0,121.3228,31.099253,,education,http://api.map.baidu.com/place/detail?uid=829866bd218e83c88733041b&output=html&source=placeapi_v2,,,,,,,,,,,,,,,,,,,,0
70c7ce2c6723fcd413293557,上海江燕电梯配件研究所,教育培训,科研机构,上海市,上海市,松江区,上海市松江区顺庆路650号5栋103室,,1,0,121.325134,31.1026,(021)33363337,education,http://api.map.baidu.com/place/detail?uid=70c7ce2c6723fcd413293557&output=html&source=placeapi_v2,,,,,,,,,,,1,,,,,,,,,0
3f46bbcfd7be92f079f7969b,ALINX研发中心,教育培训,科研机构,上海市,上海市,松江区,上海市松江区顺庆路650号9栋,,1,0,121.326977,31.100545,,education,http://api.map.baidu.com/place/detail?uid=3f46bbcfd7be92f079f7969b&output=html&source=placeapi_v2,,,,,,,,,,,,,,,,,,,,0
3ac7bdb0a228b4a1f6c59c07,闰觉智能研发中心,教育培训,科研机构,上海市,上海市,松江区,上海市松江区云振路410号创智中心5号楼,,1,0,121.329786,31.103251,(021)64273361,education,http://api.map.baidu.com/place/detail?uid=3ac7bdb0a228b4a1f6c59c07&output=html&source=placeapi_v2,,,,,,,,,,,,,,,,,,,,0
0b73c9d322fb590ec056acc0,上海鼎泰丰DENBA生物科技研发中心,教育培训,科研机构,上海市,上海市,松江区,上海市松江区莘砖公路561号G60科创大厦,,1,0,121.323051,31.09932,,education,http://api.map.baidu.com/place/detail?uid=0b73c9d322fb590ec056acc0&output=html&source=placeapi_v2,,,0.0,,,,,,,,1,,,,,,,121.32294736388,31.099660912883,0
0a80ec6ecfa6a1e331f71de6,长三角G60工业互联网创新应用体验中心,教育培训,科研机构,上海市,上海市,松江区,上海市松江区莘砖公路239号,,1,0,121.330093,31.096663,,education,http://api.map.baidu.com/place/detail?uid=0a80ec6ecfa6a1e331f71de6&output=html&source=placeapi_v2,,,,,,,,,,,,,,,,,,,,0
1d9a3b158e412d108bfc063e,上海普恩海汇医学检验所,教育培训,科研机构,上海市,上海市,松江区,上海市松江区中心路1158号7号楼5楼,1d9a3b158e412d108bfc063e,1,0,121.333968,31.107685,(021)57077999,education,http://api.map.baidu.com/place/detail?uid=1d9a3b158e412d108bfc063e&output=html&source=placeapi_v2,,,,,,,,,,,,,,,,,,121.33433395036,31.107601579555,0
850815e126c8259a43e1920e,上海闵衡建筑检测研究所有限公司,教育培训,科研机构,上海市,上海市,闵行区,上海市闵行区93弄88号,850815e126c8259a43e1920e,1,0,121.379137,31.097117,(021)54429193,education,http://api.map.baidu.com/place/detail?uid=850815e126c8259a43e1920e&output=html&source=placeapi_v2,,,,,,,,,,,,,,,,,,121.37900610306,31.097067764922,0
620b4903aaaeaf63b54f54d9,MTMACR引擎动力研发中心,教育培训,科研机构,上海市,上海市,松江区,上海市松江区场西路歆翱创新园,,1,0,121.346109,31.101744,,education,http://api.map.baidu.com/place/detail?uid=620b4903aaaeaf63b54f54d9&output=html&source=placeapi_v2,,,,,,,,,,,,,,,,,,,,0
68ab03a5e90e2f7d4e776e81,MISSJIU手工美学研究所,教育培训,科研机构,上海市,上海市,闵行区,上海市闵行区银都路2755号福克斯商务大厦A座206室(银都路与都庄路交叉口),68ab03a5e90e2f7d4e776e81,1,0,121.417057,31.103282,13381697665,education,http://api.map.baidu.com/place/detail?uid=68ab03a5e90e2f7d4e776e81&output=html&source=placeapi_v2,,,0,,,,,,,,0,,,,,,,,,0
a311169c41c446dd5abbbcd7,上海泰山石文化研究院展览中心,教育培训,科研机构,上海市,上海市,闵行区,上海市闵行区畹町路99弄250号,a311169c41c446dd5abbbcd7,1,0,121.410117,31.107227,,education,http://api.map.baidu.com/place/detail?uid=a311169c41c446dd5abbbcd7&output=html&source=placeapi_v2,,,,,,,,,,,,,,,,,,121.41014954392,31.107127579318,0
3edbb6f921742473d2ff23b9,国际职业能力实训与测评上海中心,教育培训,科研机构,上海市,上海市,闵行区,上海市闵行区老沪闵路天元大厦,,1,0,121.427172,31.104714,,education,http://api.map.baidu.com/place/detail?uid=3edbb6f921742473d2ff23b9&output=html&source=placeapi_v2,,,,,,,,,,,,,,,,,,121.42725504421,31.104736952131,0
2b0125851bbbb6886240a992,神奇科学,教育培训,科研机构,上海市,上海市,闵行区,上海市闵行区珠城路158号解放大厦南区3座11楼1101室,,1,0,121.395103,31.109866,,education,http://api.map.baidu.com/place/detail?uid=2b0125851bbbb6886240a992&output=html&source=placeapi_v2,,,,,,,,,,,,,,,,,,,,0
14bc7ceaf6f84bd4940319e7,上海晏卓生物研发中心,教育培训,科研机构,上海市,上海市,闵行区,上海市闵行区沪闵公路上海市莘庄工业区光中工业小区东南侧约180米,14bc7ceaf6f84bd4940319e7,1,0,121.400295,31.086286,,education,http://api.map.baidu.com/place/detail?uid=14bc7ceaf6f84bd4940319e7&output=html&source=placeapi_v2,,,,,,,,,,,,,,,,,,,,0
103c28ba26d2ec8ab45f1eea,上海汉实文化青铜器科普基地,教育培训,科研机构,上海市,上海市,闵行区,上海市闵行区双柏路玉灿(上海)鞋业有限公司,,1,0,121.43601,31.092706,,education,http://api.map.baidu.com/place/detail?uid=103c28ba26d2ec8ab45f1eea&output=html&source=placeapi_v2,,,,,,,,,,,,,,,,,,121.43598920131,31.092765137388,0
9ef561e1c7fe99b995ca0786,伟巴斯特车顶供暖系统有限公司研发中心,教育培训,科研机构,上海市,上海市,闵行区,上海市闵行区银都路4弄33号,,1,0,121.451075,31.113611,,education,http://api.map.baidu.com/place/detail?uid=9ef561e1c7fe99b995ca0786&output=html&source=placeapi_v2,,,,,,,,,,,,,,,,,,121.45074571623,31.113531201013,0
ec8779015c21df39ce04efa2,国家钢铁材料测试中心上海实验室,教育培训,科研机构,上海市,上海市,徐汇区,上海市徐汇区银都路218号国家钢铁材料测试中心三期1号楼,ec8779015c21df39ce04efa2,1,0,121.459574,31.114435,,education,http://api.map.baidu.com/place/detail?uid=ec8779015c21df39ce04efa2&output=html&source=placeapi_v2,,,,,,,,,,,,,,,,,,121.45940052241,31.114496028482,0
d04c5caddd5071c2f7eafceb,全球炭基肥料(上海)研究中心,教育培训,科研机构,上海市,上海市,闵行区,上海市闵行区大V路,,1,0,121.437692,31.088483,,education,http://api.map.baidu.com/place/detail?uid=d04c5caddd5071c2f7eafceb&output=html&source=placeapi_v2,,,5.0,,,,,,,,3,,,,,,,,,0
a472bfd68550189d9de32168,神华集团,教育培训,科研机构,上海市,上海市,闵行区,上海市闵行区双柏路368号,a472bfd68550189d9de32168,1,0,121.460723,31.097461,,education,http://api.map.baidu.com/place/detail?uid=a472bfd68550189d9de32168&output=html&source=placeapi_v2,,,,,,,,,,,,,,,,,,121.46075212006,31.09729825695,0
5a9ebfce082bfba171210bca,仁济南院心内科重症监护室(CCU),教育培训,科研机构,上海市,上海市,闵行区,上海市闵行区江月路2000号仁济医院南院4楼,,1,0,121.50527,31.087855,,education,http://api.map.baidu.com/place/detail?uid=5a9ebfce082bfba171210bca&output=html&source=placeapi_v2,,,,,,,,,,,,,,,,,,,,0
1663e7148141b950c27da231,国粹研究苑,教育培训,科研机构,上海市,上海市,闵行区,上海市闵行区浦江镇浦晓路298弄64号,1663e7148141b950c27da231,1,0,121.508173,31.105356,(021)34799278,education,http://api.map.baidu.com/place/detail?uid=1663e7148141b950c27da231&output=html&source=placeapi_v2,,,,,,,,,,,,,,,,,,121.50805657381,31.105324290702,0
02529425558a7ca796ca078a,上海水产大学生命科学与技术学院产学研基地,教育培训,科研机构,上海市,上海市,浦东新区,上海市浦东新区红临路与林浦南路交叉路口往南约180米,,1,0,121.486087,31.118492,,education,http://api.map.baidu.com/place/detail?uid=02529425558a7ca796ca078a&output=html&source=placeapi_v2,,,,,,,,,,,,,,,,,,,,0
d773c14e12f34013c9c3dbca,上海建工集团工程研究总院,教育培训,科研机构,上海市,上海市,闵行区,上海市闵行区新骏环路700号,d773c14e12f34013c9c3dbca,1,1,121.534086,31.098743,(021)52965588,education,http://api.map.baidu.com/place/detail?uid=d773c14e12f34013c9c3dbca&output=html&source=placeapi_v2,,,3,,,,,,,,1,,,,,,,121.53342327335,31.097886676477,1
a35e1e67aaa80213b020a8f8,上海空间推进研究所,教育培训,科研机构,上海市,上海市,闵行区,上海市闵行区万芳路801号,a35e1e67aaa80213b020a8f8,1,1,121.540873,31.090418,,education,http://api.map.baidu.com/place/detail?uid=a35e1e67aaa80213b020a8f8&output=html&source=placeapi_v2,,,5,,,,,,,,3,,,,,,,121.54083754747,31.09087129599,1
9cc5a4024446d01a58bbbc58,上海市质量监督检验技术研究院(江月路),教育培训,科研机构,上海市,上海市,闵行区,上海市闵行区江月路900号1号楼,9cc5a4024446d01a58bbbc58,1,1,121.530912,31.093581,(021)54336399,education,http://api.map.baidu.com/place/detail?uid=9cc5a4024446d01a58bbbc58&output=html&source=placeapi_v2,,,0.0,,,,,,,,,,,,,,,121.53090827483,31.093348014715,1
567a4921f8423f6d8bb98853,华测检测金属实验室,教育培训,科研机构,上海市,上海市,闵行区,上海市浦江镇闵行区新骏环路777号5号楼,567a4921f8423f6d8bb98853,1,0,121.532994,31.097422,(021)31073900,education,http://api.map.baidu.com/place/detail?uid=567a4921f8423f6d8bb98853&output=html&source=placeapi_v2,,,,,,,,,,,,,,,,,,121.53283306045,31.097930406698,0
017f5d80029502639f09f70f,上海市政工程设计研究总院(集团)有限公司研究院-西南门,教育培训,科研机构,上海市,上海市,闵行区,上海市闵行区新骏环路700号,017f5d80029502639f09f70f,1,0,121.533559,31.097925,,education,http://api.map.baidu.com/place/detail?uid=017f5d80029502639f09f70f&output=html&source=placeapi_v2,,,,,,,,,,,,,,,,,,121.53349333848,31.097959549255,0
290576d1346ab146c6effb52,中交上航水环境治理与生态修复研究中心陈行基地,教育培训,科研机构,上海市,上海市,闵行区,上海市浦江镇闵行区万芳路1337号,,1,0,121.539081,31.097821,,education,http://api.map.baidu.com/place/detail?uid=290576d1346ab146c6effb52&output=html&source=placeapi_v2,,,,,,,,,,,,,,,,,,121.53908854754,31.097771999061,0
9ea0c9596f1529c2b7265564,海厦维医学检验实验室有限公司,教育培训,科研机构,上海市,上海市,闵行区,上海市闵行区新骏环路138号3号楼2楼202室,,1,0,121.528149,31.09291,,education,http://api.map.baidu.com/place/detail?uid=9ea0c9596f1529c2b7265564&output=html&source=placeapi_v2,,,,,,,,,,,,,,,,,,,,0
5e2942c4c5f8c825af080f46,上海空间推进研究所新区(2期),教育培训,科研机构,上海市,上海市,闵行区,上海市闵行区联航路与万芳路交叉路口往西北约280米,,1,0,121.540873,31.090418,,education,http://api.map.baidu.com/place/detail?uid=5e2942c4c5f8c825af080f46&output=html&source=placeapi_v2,,,,,,,,,,,,,,,,,,121.54083754747,31.09087129599,0
104d051ef5896be8d7851f87,上海工业锅炉研究所有限公司,教育培训,科研机构,上海市,上海市,闵行区,上海市闵行区浦江镇新骏环路138号4幢101室,,1,0,121.527066,31.092283,(021)34781959,education,http://api.map.baidu.com/place/detail?uid=104d051ef5896be8d7851f87&output=html&source=placeapi_v2,,,,,,,,,,,,,,,,,,,,0
f4b2b447e265815279b55c14,硕世生物上海研发中心,教育培训,科研机构,上海市,上海市,闵行区,上海市闵行区新骏环路170号10号楼2楼,,1,0,121.526987,31.095276,,education,http://api.map.baidu.com/place/detail?uid=f4b2b447e265815279b55c14&output=html&source=placeapi_v2,,,,,,,,,,,,,,,,,,121.52705803142,31.095014220272,0
1641664713525c081fe99965,上海新华东光电技术研究所,教育培训,科研机构,上海市,上海市,闵行区,上海市闵行区新骏环路115号1号楼,1641664713525c081fe99965,1,0,121.529152,31.095347,(021)54323780,education,http://api.map.baidu.com/place/detail?uid=1641664713525c081fe99965&output=html&source=placeapi_v2,,,0,,,,,,,,0,,,,,,,121.52906952251,31.095014546896,0
01340a56ad01dbd43310afb7,II-VI高意上海研发中心,教育培训,科研机构,上海市,上海市,闵行区,上海市闵行区陈行公路2168号11幢,,1,0,121.520197,31.106865,,education,http://api.map.baidu.com/place/detail?uid=01340a56ad01dbd43310afb7&output=html&source=placeapi_v2,,,,,,,,,,,1,,,,,,,,,0
74110f88f3cf66d6d2f49e4d,潍柴动力股份有限公司上海研发中心,教育培训,科研机构,上海市,上海市,闵行区,上海市闵行区陈行公路2388号浦江科技广场9号楼901室,74110f88f3cf66d6d2f49e4d,1,0,121.515943,31.105083,(021)34788396,education,http://api.map.baidu.com/place/detail?uid=74110f88f3cf66d6d2f49e4d&output=html&source=placeapi_v2,,,,,,,,,,,,,,,,,,121.51560956876,31.105069356504,0
e9eab3bbb91c052cb13c81a4,百事亚洲研发中心PepsiCo Asia R&D Center,教育培训,科研机构,上海市,上海市,闵行区,上海市闵行区江月路与万芳路交叉路口往西约100米(百事亚洲研发中心有限公司东南侧),,1,0,121.538652,31.09544,,education,http://api.map.baidu.com/place/detail?uid=e9eab3bbb91c052cb13c81a4&output=html&source=placeapi_v2,,,,,,,,,,,,,,,,,,121.53870392186,31.095296272783,0
37bed6a5ffad5d7bb35c6ab8,上海剑桥科技股份有限公司研发中心,教育培训,科研机构,上海市,上海市,闵行区,上海市闵行区陈行公路2388号8号楼5楼,37bed6a5ffad5d7bb35c6ab8,1,0,121.516427,31.104055,(021)80233300,education,http://api.map.baidu.com/place/detail?uid=37bed6a5ffad5d7bb35c6ab8&output=html&source=placeapi_v2,,,,,,,,,,,,,,,,,,,,0
2724a07bc071cd59c1f1cfa5,试验基地,教育培训,科研机构,上海市,上海市,闵行区,上海市闵行区召楼路3836号,,1,0,121.534264,31.09237,,education,http://api.map.baidu.com/place/detail?uid=2724a07bc071cd59c1f1cfa5&output=html&source=placeapi_v2,,,,,,,,,,,,,,,,,,,,0
763f1bc7eebc6bd9c909f09a,华泰汽车上海研究院,教育培训,科研机构,上海市,上海市,闵行区,上海市闵行区浦江镇浦江科技广场2号楼,,1,0,121.513955,31.102765,,education,http://api.map.baidu.com/place/detail?uid=763f1bc7eebc6bd9c909f09a&output=html&source=placeapi_v2,,,,,,,,,,,,,,,,,,,,0
c2a12086920e3718102935f7,扬子江药业集团上海学术科研中心,教育培训,科研机构,上海市,上海市,浦东新区,上海市浦东新区周祝公路与周康路交叉口,,1,0,121.581286,31.105616,,education,http://api.map.baidu.com/place/detail?uid=c2a12086920e3718102935f7&output=html&source=placeapi_v2,,,,,,,,,,,,,,,,,,,,0
d7354fc18f464123b1077d35,石药集团上海研发中心,教育培训,科研机构,上海市,上海市,浦东新区,上海市浦东新区青黛路500号,,1,1,121.627211,31.102165,,education,http://api.map.baidu.com/place/detail?uid=d7354fc18f464123b1077d35&output=html&source=placeapi_v2,,,,,,,,,,,,,,,,,,121.62737704663,31.101844609787,1
c6fcf91711616ea9373a717b,上海联合电生理与康复技术创新研究中心,教育培训,科研机构,上海市,上海市,浦东新区,上海市浦东新区青黛路555号,,1,0,121.624983,31.100529,,education,http://api.map.baidu.com/place/detail?uid=c6fcf91711616ea9373a717b&output=html&source=placeapi_v2,,,,,,,,,,,,,,,,,,,,0
064e6e01a1bb4d5704fef57b,上海研发中心格诺生物科技(中国)有限公司,教育培训,科研机构,上海市,上海市,浦东新区,上海市浦东新区紫萍路908弄26号楼,064e6e01a1bb4d5704fef57b,1,0,121.629677,31.097295,(021)61066776,education,http://api.map.baidu.com/place/detail?uid=064e6e01a1bb4d5704fef57b&output=html&source=placeapi_v2,,,,,,,,,,,,,,,,,,,,0
c5110707ab0c66a5c03644a8,上海津熙医学检验实验室有限公司,教育培训,科研机构,上海市,上海市,浦东新区,上海市浦东新区芙蓉花路500弄9号1楼,,1,0,121.624018,31.110032,,education,http://api.map.baidu.com/place/detail?uid=c5110707ab0c66a5c03644a8&output=html&source=placeapi_v2,,,,,,,,,,,,,,,,,,,,0
0f96015ac9bf3d5a09a8d449,上海歌特维医学检验所,教育培训,科研机构,上海市,上海市,浦东新区,上海市浦东新区芙蓉花路500弄3号4楼,,1,0,121.622554,31.110529,,education,http://api.map.baidu.com/place/detail?uid=0f96015ac9bf3d5a09a8d449&output=html&source=placeapi_v2,,,,,,,,,,,,,,,,,,,,0
657aaa1c7d82c2a3373a71ce,中国科学院上海药物研究所周浦园区,教育培训,科研机构,上海市,上海市,浦东新区,上海市浦东新区半夏路100弄周浦园区19号楼,657aaa1c7d82c2a3373a71ce,1,0,121.625956,31.096512,,education,http://api.map.baidu.com/place/detail?uid=657aaa1c7d82c2a3373a71ce&output=html&source=placeapi_v2,,,,,,,,,,,,,,,,,,121.62553993821,31.096425242172,0
ec0fe0d263b199ebde1e52e7,上海麦克林生化科技有限公司(张江研发中心),教育培训,科研机构,上海市,上海市,浦东新区,上海市浦东新区蓝靛路1199号1号楼301室,,1,0,121.628218,31.098563,,education,http://api.map.baidu.com/place/detail?uid=ec0fe0d263b199ebde1e52e7&output=html&source=placeapi_v2,,,,,,,,,,,,,,,,,,,,0
5505038289fbfc69c91b95f7,军科正源(北京)药物研究有限责任公司(上海分公司),教育培训,科研机构,上海市,上海市,浦东新区,上海市浦东新区紫萍路908弄30号,,1,0,121.628507,31.096929,(021)38016688,education,http://api.map.baidu.com/place/detail?uid=5505038289fbfc69c91b95f7&output=html&source=placeapi_v2,,,0.0,,,,,,,,,,,,,,,,,0
545f5a1fc1faf9b8ae045764,上海华大实验室,教育培训,科研机构,上海市,上海市,浦东新区,上海市浦东新区康新公路3399弄26号楼7楼3399弄26号,545f5a1fc1faf9b8ae045764,1,0,121.634491,31.108119,,education,http://api.map.baidu.com/place/detail?uid=545f5a1fc1faf9b8ae045764&output=html&source=placeapi_v2,,,,,,,,,,,,,,,,,,121.63444955144,31.108225137385,0
f79e41b543693e18a9175ad5,上海焊接技术研究所,教育培训,科研机构,上海市,上海市,浦东新区,上海市浦东新区申江南路3888号2幢1~2层,f79e41b543693e18a9175ad5,1,0,121.650997,31.099178,,education,http://api.map.baidu.com/place/detail?uid=f79e41b543693e18a9175ad5&output=html&source=placeapi_v2,,,0,,,,,,,,1,,,,,,,121.65116644117,31.099212533425,0
6c9fac942642390b871541f5,上海精文观赏植物研发中心,教育培训,科研机构,上海市,上海市,浦东新区,上海市浦东新区南六公路朱明连路朱店683号,6c9fac942642390b871541f5,1,1,121.712241,31.100329,,education,http://api.map.baidu.com/place/detail?uid=6c9fac942642390b871541f5&output=html&source=placeapi_v2,,,,,,,,,,,,,,,,,,121.71216810372,31.100383595206,1
1619ee889a9b1fdb1c389475,上海市联运有限公司浦东研发基地,教育培训,科研机构,上海市,上海市,浦东新区,上海市浦东新区宣秋路WISDOMROSE HOTEL上海智微世纪丽呈酒店西南侧约70米,,1,0,121.730358,31.095264,,education,http://api.map.baidu.com/place/detail?uid=1619ee889a9b1fdb1c389475&output=html&source=placeapi_v2,,,,,,,,,,,,,,,,,,,,0
4a2e99325923651182288aec,电机病院,教育培训,科研机构,上海市,上海市,青浦区,上海市青浦区沪青平公路与崧盈路交叉路口东北侧,,1,0,121.195582,31.153643,,education,http://api.map.baidu.com/place/detail?uid=4a2e99325923651182288aec&output=html&source=placeapi_v2,,,,,,,,,,,,,,,,,,121.19559425038,31.153589507762,0
64e8ebcb5b5e9ea11e1d11c6,上海脑科学与类脑研究中心(临港实验室),教育培训,科研机构,上海市,上海市,松江区,上海市松江区强业路555号,64e8ebcb5b5e9ea11e1d11c6,1,0,121.198966,31.121933,,education,http://api.map.baidu.com/place/detail?uid=64e8ebcb5b5e9ea11e1d11c6&output=html&source=placeapi_v2,,,,,,,,,,,,,,,,,,121.19898225632,31.121780892356,0
a38cbb6a386ffd05276e9836,龙昆高电压绝缘材料研究所,教育培训,科研机构,上海市,上海市,青浦区,上海市青浦区沪青平公路3609弄31号,a38cbb6a386ffd05276e9836,1,0,121.194648,31.14835,,education,http://api.map.baidu.com/place/detail?uid=a38cbb6a386ffd05276e9836&output=html&source=placeapi_v2,,,,,,,,,,,,,,,,,,121.19447068452,31.148379514006,0
b1389d6b20c8d43d0e3ddaae,中国科学院脑科学与智能技术卓越创新中心(上海松江店),教育培训,科研机构,上海市,上海市,松江区,上海市松江区强业路500号,b1389d6b20c8d43d0e3ddaae,1,0,121.198912,31.121948,,education,http://api.map.baidu.com/place/detail?uid=b1389d6b20c8d43d0e3ddaae&output=html&source=placeapi_v2,,,,,,,,,,,,,,,,,,121.19894233383,31.121770602659,0
e7e10166c9adaff9fbdc8500,国际灵长类脑研究中心,教育培训,科研机构,上海市,上海市,松江区,上海市松江区强业路500号5号楼,e7e10166c9adaff9fbdc8500,1,0,121.199586,31.122057,,education,http://api.map.baidu.com/place/detail?uid=e7e10166c9adaff9fbdc8500&output=html&source=placeapi_v2,,,,,,,,,,,,,,,,,,,,0
e391820bb87197cb077ce860,上海茂腾针织有限公司商品研发中心,教育培训,科研机构,上海市,上海市,松江区,上海市松江区陶干路225号,,1,0,121.198866,31.121942,,education,http://api.map.baidu.com/place/detail?uid=e391820bb87197cb077ce860&output=html&source=placeapi_v2,,,,,,,,,,,,,,,,,,,,0
42322575822128611e5800e4,青浦区学生体质健康监测中心,教育培训,科研机构,上海市,上海市,青浦区,上海市青浦区佘北公路3499号,42322575822128611e5800e4,1,0,121.201049,31.151933,,education,http://api.map.baidu.com/place/detail?uid=42322575822128611e5800e4&output=html&source=placeapi_v2,,,,,,,,,,,,,,,,,,121.20113844197,31.152001255645,0
c95295073cab5af9df1e5289,饺子研究所,教育培训,科研机构,上海市,上海市,青浦区,上海市青浦区业辉路2弄16号,,1,0,121.233781,31.147424,15000800321,education,http://api.map.baidu.com/place/detail?uid=c95295073cab5af9df1e5289&output=html&source=placeapi_v2,,,,,,,,,,,1,,,,,,,121.23361837188,31.147410840491,0
ae1dc7bb83b764f5b6f42fd1,魔法研究室(月亮鱼校区),教育培训,科研机构,上海市,上海市,松江区,上海市松江区横港路150号月亮鱼2楼,,1,0,121.268163,31.12157,13918068423,education,http://api.map.baidu.com/place/detail?uid=ae1dc7bb83b764f5b6f42fd1&output=html&source=placeapi_v2,,,,,,,,,,,,,,,,,,,,0
3f53a34bdb0a8c2717b54bc1,中国科学院上海实验动物中心,教育培训,科研机构,上海市,上海市,松江区,上海市松江区南洋路2号,3f53a34bdb0a8c2717b54bc1,1,1,121.331089,31.127689,(021)67632808,education,http://api.map.baidu.com/place/detail?uid=3f53a34bdb0a8c2717b54bc1&output=html&source=placeapi_v2,,,0,,,,,,,,1,,,,,,,121.33102605889,31.127613483846,1
e184b8eef65a7251c9fa5fa9,山东仁丰特种材料股份有限公司上海研发中心,教育培训,科研机构,上海市,上海市,松江区,上海市松江区沪亭北路218号216号,,1,0,121.328614,31.149094,,education,http://api.map.baidu.com/place/detail?uid=e184b8eef65a7251c9fa5fa9&output=html&source=placeapi_v2,,,,,,,,,,,,,,,,,,,,0
56ad964316b05a593c9a5ef9,安徽三联机器人上海研发中心,教育培训,科研机构,上海市,上海市,闵行区,上海市闵行区七莘路1855号,,1,0,121.367722,31.141817,(021)64777580,education,http://api.map.baidu.com/place/detail?uid=56ad964316b05a593c9a5ef9&output=html&source=placeapi_v2,,,,,,,,,,,,,,,,,,,,0
2e424eb20478a99c0c0a702e,防水集团科研基地,教育培训,科研机构,上海市,上海市,闵行区,上海市闵行区友东路林水美地苑西北侧约240米,,1,0,121.362901,31.12686,,education,http://api.map.baidu.com/place/detail?uid=2e424eb20478a99c0c0a702e&output=html&source=placeapi_v2,,,,,,,,,,,,,,,,,,121.36317134755,31.126980947842,0
5224a4a1fb82a5a171210ba4,深圳技服佳上海分公司(研发中心),教育培训,科研机构,上海市,上海市,闵行区,上海市闵行区黎安路58号1615弄58号,,1,0,121.355523,31.124924,,education,http://api.map.baidu.com/place/detail?uid=5224a4a1fb82a5a171210ba4&output=html&source=placeapi_v2,,,0.0,,,,,,,,,,,,,,,,,0
24a6dab27bade8801ef74de9,上海艾为电子(华东研发中心),教育培训,科研机构,上海市,上海市,闵行区,上海市闵行区秀文路898号西子国际中心1号楼12层,,1,0,121.370481,31.128622,,education,http://api.map.baidu.com/place/detail?uid=24a6dab27bade8801ef74de9&output=html&source=placeapi_v2,,,,,,,,,,,,,,,,,,121.37028688388,31.12880562263,0
008a3a5918902740d8d89112,awinic技术实验中心,教育培训,科研机构,上海市,上海市,闵行区,上海市闵行区黎安路1601号6号楼,,1,0,121.357589,31.12528,,education,http://api.map.baidu.com/place/detail?uid=008a3a5918902740d8d89112&output=html&source=placeapi_v2,,,,,,,,,,,,,,,,,,,,0
0c58f384700d9562b54f5493,途虎JAVA全球研发中心,教育培训,科研机构,上海市,上海市,闵行区,上海市闵行区闵虹路166弄1号楼,0c58f384700d9562b54f5493,1,0,121.401918,31.135945,,education,http://api.map.baidu.com/place/detail?uid=0c58f384700d9562b54f5493&output=html&source=placeapi_v2,,,4.5,,,,,,,,3,,,,,,,121.40265162948,31.136049720125,0
525b3e4a50f5c7cf2202204a,华顿经济研究院,教育培训,科研机构,上海市,上海市,闵行区,上海市闵行区沪闵路7876号胜富仁大厦6楼,,1,0,121.410042,31.13973,,education,http://api.map.baidu.com/place/detail?uid=525b3e4a50f5c7cf2202204a&output=html&source=placeapi_v2,,,,,,,,,,,,,,,,,,,,0
7549f16dd033803eb11e368e,中科智谷(上海)区块链研究院,教育培训,科研机构,上海市,上海市,闵行区,上海市闵行区梅陇西路968号4层,,1,0,121.403387,31.1297,,education,http://api.map.baidu.com/place/detail?uid=7549f16dd033803eb11e368e&output=html&source=placeapi_v2,,,,,,,,,,,,,,,,,,,,0
d24167330155bcd4b6147f30,国家儿童医学中心,教育培训,科研机构,上海市,上海市,闵行区,上海市闵行区顾戴路与万源路交汇处复旦大学附属儿科医院内,,1,0,121.401971,31.145074,,education,http://api.map.baidu.com/place/detail?uid=d24167330155bcd4b6147f30&output=html&source=placeapi_v2,,,,,,,,,,,,,,,,,,,,0
0a0cbc1674ac7742e6e965e3,上海海灵动力工程研究所,教育培训,科研机构,上海市,上海市,闵行区,上海市闵行区古美路101号2楼,0a0cbc1674ac7742e6e965e3,1,0,121.411514,31.144084,(021)54937996,education,http://api.map.baidu.com/place/detail?uid=0a0cbc1674ac7742e6e965e3&output=html&source=placeapi_v2,,,0,,,,,,,,1,,,,,,,121.41170242759,31.143913864157,0
4eb3b5337bd84f744302450d,上海市闵行优生优育优教研究培训中心,教育培训,科研机构,上海市,上海市,闵行区,上海市闵行区山花路128号,4eb3b5337bd84f744302450d,1,0,121.389495,31.127754,(021)54136728,education,http://api.map.baidu.com/place/detail?uid=4eb3b5337bd84f744302450d&output=html&source=placeapi_v2,,09:00-18:00,0,,,,,,,,0,,,,,,,121.3895061123,31.12771904201,0
2c0bd6c50f30e1ab43ab9a03,上海金融法制研究会,教育培训,科研机构,上海市,上海市,闵行区,上海市闵行区罗阳路388号,2c0bd6c50f30e1ab43ab9a03,1,0,121.413418,31.129735,(021)64760967,education,http://api.map.baidu.com/place/detail?uid=2c0bd6c50f30e1ab43ab9a03&output=html&source=placeapi_v2,,,,,,,,,,,,,,,,,,121.41319156301,31.129718532468,0
3581a9554554b173b817e75c,北京城建设计研究总院有限责任公司上海分院,教育培训,科研机构,上海市,上海市,徐汇区,上海市徐汇区沪闵路8075号虹梅商务大厦616室,3581a9554554b173b817e75c,1,0,121.420837,31.14864,,education,http://api.map.baidu.com/place/detail?uid=3581a9554554b173b817e75c&output=html&source=placeapi_v2,,,,,,,,,,,,,,,,,,121.42083729632,31.148639636255,0
cf0cf59f5c8faecfd1f49e9b,中国创造研究院亚洲创造学会上海办事处,教育培训,科研机构,上海市,上海市,闵行区,上海市闵行区虹莘路1888号,cf0cf59f5c8faecfd1f49e9b,1,0,121.389084,31.142316,,education,http://api.map.baidu.com/place/detail?uid=cf0cf59f5c8faecfd1f49e9b&output=html&source=placeapi_v2,,,,,,,,,,,,,,,,,,,,0
f286bd25619afe0709b93a06,上海轻工业研究所有限公司,教育培训,科研机构,上海市,上海市,闵行区,上海市闵行区莘朱路2100号4楼,,1,0,121.431093,31.129751,,education,http://api.map.baidu.com/place/detail?uid=f286bd25619afe0709b93a06&output=html&source=placeapi_v2,,,,,,,,,,,,,,,,,,,,0
feb0c37f4f3b780a97ec84c5,伟制创新研究院,教育培训,科研机构,上海市,上海市,徐汇区,上海市徐汇区龙吴路交大科技园商务楼西南侧,,1,0,121.46016,31.14126,13501850321,education,http://api.map.baidu.com/place/detail?uid=feb0c37f4f3b780a97ec84c5&output=html&source=placeapi_v2,,,,,,,,,,,,,,,,,,,,0
eef2d528d03611a63be4a6d1,上海市离心机械研究所有限公司,教育培训,科研机构,上海市,上海市,徐汇区,上海市徐汇区龙吴路1590号,eef2d528d03611a63be4a6d1,1,0,121.460354,31.140851,(021)54613316,education,http://api.map.baidu.com/place/detail?uid=eef2d528d03611a63be4a6d1&output=html&source=placeapi_v2,,,,,,,,,,,,,,,,,,121.4605208019,31.140935854207,0
4c5e1c1d12d6fb2f21026288,上海医药临床研究中心(华沁家园西南),教育培训,科研机构,上海市,上海市,徐汇区,上海市徐汇区平福路188号4号楼1楼,4c5e1c1d12d6fb2f21026288,1,0,121.45596,31.143589,(021)33676559,education,http://api.map.baidu.com/place/detail?uid=4c5e1c1d12d6fb2f21026288&output=html&source=placeapi_v2,,,,,,,,,,,,,,,,,,,,0
b470b47e80efce1d3fe231dd,复旦大学生殖与发育研究院,教育培训,科研机构,上海市,上海市,徐汇区,上海市徐汇区老沪闵路779号,,1,0,121.436922,31.145805,,education,http://api.map.baidu.com/place/detail?uid=b470b47e80efce1d3fe231dd&output=html&source=placeapi_v2,,,,,,,,,,,,,,,,,,,,0
337bad04fac9b920d92f2851,划船俱乐部离心研究所,教育培训,科研机构,上海市,上海市,徐汇区,上海市徐汇区龙吴路1590号,337bad04fac9b920d92f2851,1,0,121.460291,31.140763,,education,http://api.map.baidu.com/place/detail?uid=337bad04fac9b920d92f2851&output=html&source=placeapi_v2,,,,,,,,,,,,,,,,,,121.46007030439,31.14069619758,0
bf8910900a6369499de32102,上海交通大学特殊环境生理医学研究所,教育培训,科研机构,上海市,上海市,徐汇区,上海市徐汇区龙吴路1500号,bf8910900a6369499de32102,1,0,121.460925,31.142071,,education,http://api.map.baidu.com/place/detail?uid=bf8910900a6369499de32102&output=html&source=placeapi_v2,,,,,,,,,,,,,,,,,,,,0
629c2f71021c12f2c9fa5f99,上海交通大学海洋航运研究所,教育培训,科研机构,上海市,上海市,徐汇区,上海市徐汇区龙吴路1500号a幢a206号,629c2f71021c12f2c9fa5f99,1,0,121.460925,31.142071,,education,http://api.map.baidu.com/place/detail?uid=629c2f71021c12f2c9fa5f99&output=html&source=placeapi_v2,,,,,,,,,,,,,,,,,,,,0
0d928f18793db8bd5d0d0255,上海市生物医药技术研究院(沪闵路院区),教育培训,科研机构,上海市,上海市,徐汇区,上海市徐汇区老沪闵路779号331室,,1,0,121.436949,31.14578,,education,http://api.map.baidu.com/place/detail?uid=0d928f18793db8bd5d0d0255&output=html&source=placeapi_v2,,,,,,,,,,,,,,,,,,121.43686096548,31.145737290284,0
50f7d146b496d7c772210b6d,龙吴路1500号交大科技园-水下技术工程研究中心,教育培训,科研机构,上海市,上海市,徐汇区,上海市徐汇区龙吴路1500号上海交通大学水下技术工程研究中心rna栋801室,50f7d146b496d7c772210b6d,1,1,121.459855,31.141958,(021)54097875,education,http://api.map.baidu.com/place/detail?uid=50f7d146b496d7c772210b6d&output=html&source=placeapi_v2,,,0,,,,,,,,1,,,,,,,121.46005866235,31.141878393409,1
7334bb2f8d33575340ab9a4c,上海市纳米科技与产业发展促进中心,教育培训,科研机构,上海市,上海市,徐汇区,上海市徐汇区嘉川路245号3号楼,7334bb2f8d33575340ab9a4c,1,0,121.435432,31.145383,,education,http://api.map.baidu.com/place/detail?uid=7334bb2f8d33575340ab9a4c&output=html&source=placeapi_v2,,,,,,,,,,,,,,,,,,121.43541710646,31.145534785824,0
02529425558a7ca796ca078a,上海水产大学生命科学与技术学院产学研基地,教育培训,科研机构,上海市,上海市,浦东新区,上海市浦东新区红临路与林浦南路交叉路口往南约180米,,1,0,121.486087,31.118492,,education,http://api.map.baidu.com/place/detail?uid=02529425558a7ca796ca078a&output=html&source=placeapi_v2,,,,,,,,,,,,,,,,,,,,0
9aa60c863a0b82d40d3dda02,中国科学技术大学上海研究院,教育培训,科研机构,上海市,上海市,浦东新区,上海市浦东新区秀浦路99号(近杨高南路),9aa60c863a0b82d40d3dda02,1,3,121.551879,31.129056,"(021)68120089,(021)68121293",education,http://api.map.baidu.com/place/detail?uid=9aa60c863a0b82d40d3dda02&output=html&source=placeapi_v2,,,5,,,,,,,,4,,,,,,,121.55225175684,31.129375464272,3
a37aa75273daa9851188246e,中国科学院量子信息与量子科技创新研究院,教育培训,科研机构,上海市,上海市,浦东新区,上海市浦东新区秀浦路南华新村西北侧约290米,a37aa75273daa9851188246e,1,0,121.552214,31.129757,(021)50803381,education,http://api.map.baidu.com/place/detail?uid=a37aa75273daa9851188246e&output=html&source=placeapi_v2,,,,,,,,,,,,,,,,,,121.55224077056,31.129571576059,0
e623bb4c7233c6e682288a70,中国科学技术大学,教育培训,科研机构,上海市,上海市,浦东新区,上海市浦东新区秀浦路99号,e623bb4c7233c6e682288a70,1,0,121.552382,31.129298,,education,http://api.map.baidu.com/place/detail?uid=e623bb4c7233c6e682288a70&output=html&source=placeapi_v2,,,,,,,,,,,,,,,,,,121.55236693308,31.129267678387,0
1b8980dbc228b152b21e36cb,STEM教育&创客实验室,教育培训,科研机构,上海市,上海市,浦东新区,上海市浦东新区三林路万科金色雅筑,,1,0,121.525209,31.150489,,education,http://api.map.baidu.com/place/detail?uid=1b8980dbc228b152b21e36cb&output=html&source=placeapi_v2,,,,,,,,,,,,,,,,,,,,0
64be4f27e686dbcb95f08cc0,潍柴动力股份有限公司上海研发中心,教育培训,科研机构,上海市,上海市,浦东新区,上海市浦东新区秀沿路99号4楼,64be4f27e686dbcb95f08cc0,1,1,121.554835,31.139705,,education,http://api.map.baidu.com/place/detail?uid=64be4f27e686dbcb95f08cc0&output=html&source=placeapi_v2,,,,,,,,,,,,,,,,,,121.55452119006,31.139227661266,1
ea78d72eb6cf6de825d2bbcd,上海又宏环保科技有限公司同济大学联合实验室,教育培训,科研机构,上海市,上海市,闵行区,上海市闵行区陈行公路552号2层,,1,0,121.532818,31.12166,,education,http://api.map.baidu.com/place/detail?uid=ea78d72eb6cf6de825d2bbcd&output=html&source=placeapi_v2,,,,,,,,,,,,,,,,,,121.53272317446,31.121813622394,0
958bd29ab0a09ce981288ad3,上海渊雷文化艺术基金会-钵水斋山水画研究院,教育培训,科研机构,上海市,上海市,浦东新区,上海市浦东新区三林镇和炯路681号302室,,1,0,121.518172,31.13118,,education,http://api.map.baidu.com/place/detail?uid=958bd29ab0a09ce981288ad3&output=html&source=placeapi_v2,,,,,,,,,,,,,,,,,,121.51806268301,31.131420362249,0
fdfd389b74ce9bb0128824b5,上海市白蚁防治研究中心,教育培训,科研机构,上海市,上海市,浦东新区,上海市浦东新区秀沿路1155弄122号,,1,0,121.58458,31.141489,,education,http://api.map.baidu.com/place/detail?uid=fdfd389b74ce9bb0128824b5&output=html&source=placeapi_v2,,,,,,,,,,,,,,,,,,,,0
543355e6d7bec9a988fc06cb,油墨技术研究所,教育培训,科研机构,上海市,上海市,浦东新区,上海市浦东新区秀沿路288号,,1,0,121.564541,31.139444,,education,http://api.map.baidu.com/place/detail?uid=543355e6d7bec9a988fc06cb&output=html&source=placeapi_v2,,,,,,,,,,,,,,,,,,,,0
584531c50a17132ac909f0a3,沙特基础工业公司上海研发中心,教育培训,科研机构,上海市,上海市,浦东新区,上海市浦东新区秀浦路2550号,584531c50a17132ac909f0a3,1,1,121.617995,31.134827,(021)20378188,education,http://api.map.baidu.com/place/detail?uid=584531c50a17132ac909f0a3&output=html&source=placeapi_v2,,,5,,,,,,,,2,,,,,,,121.61948088828,31.134963763708,1
de08b37497764b3e581093db,上海沙特阿拉伯研究所,教育培训,科研机构,上海市,上海市,浦东新区,上海市浦东新区秀浦路2550号,de08b37497764b3e581093db,1,0,121.618595,31.135043,(021)20378188,education,http://api.map.baidu.com/place/detail?uid=de08b37497764b3e581093db&output=html&source=placeapi_v2,,,,,,,,,,,,,,,,,,,,0
f0828926582f845e2db96de9,万华上海研发中心,教育培训,科研机构,上海市,上海市,浦东新区,上海市浦东新区秀浦路2555号c5幢,,1,0,121.613544,31.135055,(021)22151562,education,http://api.map.baidu.com/place/detail?uid=f0828926582f845e2db96de9&output=html&source=placeapi_v2,,,,,,,,,,,,,,,,,,121.61344431023,31.135177603863,0
c41d096fb67aaa25091cc7a0,上海临港国际人工智能产业研究院,教育培训,科研机构,上海市,上海市,浦东新区,上海市浦东新区秀浦路2555号漕河泾康桥商务绿洲a8栋706室,c41d096fb67aaa25091cc7a0,1,0,121.614198,31.136117,17349703985,education,http://api.map.baidu.com/place/detail?uid=c41d096fb67aaa25091cc7a0&output=html&source=placeapi_v2,,,0.0,,,,,,,,1,,,,,,,121.61448648833,31.136003672141,0
ff1fe6b66aa2bbef95f08cd2,华峰规划设计与技术研究院,教育培训,科研机构,上海市,上海市,浦东新区,上海市漕河泾浦东新区秀浦路2555号c区c2栋,ff1fe6b66aa2bbef95f08cd2,1,0,121.613498,31.139012,(021)50790266,education,http://api.map.baidu.com/place/detail?uid=ff1fe6b66aa2bbef95f08cd2&output=html&source=placeapi_v2,,,5,,,,,,,,2,,,,,,,121.6134588915,31.138999494603,0
81f1374d603527c4da2f280b,印祥研发中心,教育培训,科研机构,上海市,上海市,浦东新区,上海市浦东新区秀浦路3408号,,1,0,121.633072,31.135673,,education,http://api.map.baidu.com/place/detail?uid=81f1374d603527c4da2f280b&output=html&source=placeapi_v2,,,,,,,,,,,,,,,,,,,,0
0f71e2e235ff7b8c704b87a6,华西设计院,教育培训,科研机构,上海市,上海市,浦东新区,上海市浦东新区环桥路555号46号,0f71e2e235ff7b8c704b87a6,1,0,121.613577,31.130541,(021)50275667,education,http://api.map.baidu.com/place/detail?uid=0f71e2e235ff7b8c704b87a6&output=html&source=placeapi_v2,,,,,,,,,,,,,,,,,,,,0
c8e66cc59f13c01f84420eab,昌硕科技上海有限公司研发中心,教育培训,科研机构,上海市,上海市,浦东新区,上海市浦东新区秀浦路2550号,c8e66cc59f13c01f84420eab,1,0,121.622606,31.143063,,education,http://api.map.baidu.com/place/detail?uid=c8e66cc59f13c01f84420eab&output=html&source=placeapi_v2,,,,,,,,,,,,,,,,,,121.62256449973,31.143179446087,0
0ea56c8635995902d418b7a6,黄重麈易传播研究中心,教育培训,科研机构,上海市,上海市,浦东新区,上海市浦东新区秀浦路3188弄创研智造F5-86号,,1,0,121.630742,31.134435,,education,http://api.map.baidu.com/place/detail?uid=0ea56c8635995902d418b7a6&output=html&source=placeapi_v2,,,0.0,,,,,,,,0,,,,,,,,,0
9263f522e1e8b691eee4a589,杰西博研发中心,教育培训,科研机构,上海市,上海市,浦东新区,上海市浦东新区申江南路杰西博工程机械公司,9263f522e1e8b691eee4a589,1,1,121.637613,31.141623,,education,http://api.map.baidu.com/place/detail?uid=9263f522e1e8b691eee4a589&output=html&source=placeapi_v2,,,,,,,,,,,,,,,,,,121.63749043057,31.141875862314,1
1c1f1802c5f277d62de67b4d,上海新型烟草制品研究院,教育培训,科研机构,上海市,上海市,浦东新区,上海市浦东新区秀浦路3733号,,1,1,121.632187,31.137544,,education,http://api.map.baidu.com/place/detail?uid=1c1f1802c5f277d62de67b4d&output=html&source=placeapi_v2,,,,,,,,,,,,,,,,,,121.63135654004,31.137396694262,1
f0dd298fa9ae0bd0f942b2e7,上海岚陌工业自动化科技中心,教育培训,科研机构,上海市,上海市,浦东新区,上海市浦东新区川周公路2878号21号103室,,1,0,121.620766,31.148485,,education,http://api.map.baidu.com/place/detail?uid=f0dd298fa9ae0bd0f942b2e7&output=html&source=placeapi_v2,,,,,,,,,,,2,,,,,,,,,0
0173db53a7c148871df74d28,科研温室,教育培训,科研机构,上海市,上海市,浦东新区,上海市浦东新区周浦镇周邓路4385号周浦花海内,,1,0,121.654101,31.125835,,education,http://api.map.baidu.com/place/detail?uid=0173db53a7c148871df74d28&output=html&source=placeapi_v2,,,,,,,,,,,,,,,,,,,,0
8141b963277eeb122b3a9fd7,培育金刚石研发中心,教育培训,科研机构,上海市,上海市,青浦区,上海市青浦区华浦路500号c栋,,1,0,121.141223,31.16844,,education,http://api.map.baidu.com/place/detail?uid=8141b963277eeb122b3a9fd7&output=html&source=placeapi_v2,,,,,,,,,,,,,,,,,,,,0
db0a973314fe00ebab0dd8ef,宏波设计院,教育培训,科研机构,上海市,上海市,青浦区,上海市青浦区汇滨路1599号,,1,0,121.166787,31.175829,,education,http://api.map.baidu.com/place/detail?uid=db0a973314fe00ebab0dd8ef&output=html&source=placeapi_v2,,,5,,,,,,,,3,,,,,,,,,0
ac097868af4df1c58433046d,青浦区科技孵化服务中心,教育培训,科研机构,上海市,上海市,青浦区,上海市青浦区公园东路1155号,ac097868af4df1c58433046d,1,0,121.145691,31.158114,,education,http://api.map.baidu.com/place/detail?uid=ac097868af4df1c58433046d&output=html&source=placeapi_v2,,,0,,,,,,,,0,,,,,,,121.1458376256,31.157976807742,0
e8974ac19abef00cf4e73be9,上海升华流量测试科技中心,教育培训,科研机构,上海市,上海市,青浦区,上海市青浦区新水路575号501室,e8974ac19abef00cf4e73be9,1,0,121.144382,31.183971,,education,http://api.map.baidu.com/place/detail?uid=e8974ac19abef00cf4e73be9&output=html&source=placeapi_v2,,,,,,,,,,,,,,,,,,,,0
4a2e99325923651182288aec,电机病院,教育培训,科研机构,上海市,上海市,青浦区,上海市青浦区沪青平公路与崧盈路交叉路口东北侧,,1,0,121.195582,31.153643,,education,http://api.map.baidu.com/place/detail?uid=4a2e99325923651182288aec&output=html&source=placeapi_v2,,,,,,,,,,,,,,,,,,121.19559425038,31.153589507762,0
66136b35215a790ae812e4d2,澜庭集全球研发和创新中心,教育培训,科研机构,上海市,上海市,青浦区,上海市青浦区崧盈路,,1,0,121.186101,31.18452,,education,http://api.map.baidu.com/place/detail?uid=66136b35215a790ae812e4d2&output=html&source=placeapi_v2,,,,,,,,,,,,,,,,,,,,0
c63821aed66eca12c0364453,奇瑞上海研发(评审车间),教育培训,科研机构,上海市,上海市,青浦区,上海市青浦区盈港东路6655号,,1,0,121.181675,31.165726,,education,http://api.map.baidu.com/place/detail?uid=c63821aed66eca12c0364453&output=html&source=placeapi_v2,,,,,,,,,,,,,,,,,,,,0
e3c25d54908ae4088936ee78,宇宙研究所,教育培训,科研机构,上海市,上海市,青浦区,上海市青浦区嘉松中路6088号元祖梦世界1楼,,1,0,121.232882,31.154709,18001853049,education,http://api.map.baidu.com/place/detail?uid=e3c25d54908ae4088936ee78&output=html&source=placeapi_v2,,,,,,,,,,,,,,,,,,,,0
fc975bd30b9fc7cf51e5c5ca,上海北斗导航创新研究院,教育培训,科研机构,上海市,上海市,青浦区,上海市青浦区高泾路599号c栋102室,fc975bd30b9fc7cf51e5c5ca,1,0,121.300633,31.170827,(021)69726470,education,http://api.map.baidu.com/place/detail?uid=fc975bd30b9fc7cf51e5c5ca&output=html&source=placeapi_v2,,,5,,,,,,,,2,,,,,,,121.30084448674,31.170827637951,0
19008f00c1651e0e4bcc4a1f,联彩石油战略研究院,教育培训,科研机构,上海市,上海市,青浦区,上海市青浦区方涞路友谊小区北侧,,1,0,121.324002,31.172505,,education,http://api.map.baidu.com/place/detail?uid=19008f00c1651e0e4bcc4a1f&output=html&source=placeapi_v2,,,,,,,,,,,,,,,,,,,,0
61ebf3c66fd5c9143c9a5e0b,评测学,教育培训,科研机构,上海市,上海市,闵行区,上海市闵行区吴中路七韵美地苑社区,,1,0,121.360976,31.172133,13524434021,education,http://api.map.baidu.com/place/detail?uid=61ebf3c66fd5c9143c9a5e0b&output=html&source=placeapi_v2,,,,,,,,,,,,,,,,,,,,0
