uid,name,cat_L1,cat_L2,province,city,area,address,street_id,detail,child_num,loc_lng,loc_lat,telephone,type,detail_url,price,shop_hours,overall_rating,taste_rating,service_rating,environment_rating,facility_rating,hygiene_rating,technology_rating,image_num,comment_num,groupon_num,discount_num,favorite_num,checkin_num,brand,content_tag,naviloc_lng,naviloc_lat,child_num
3be41be4025ef1ea1f38942b,康复中心,医疗,疗养院,湖北省,武汉市,汉南区,武汉市汉南区银莲路博学佳园,3be41be4025ef1ea1f38942b,1,0,114.079787,30.314351,,hospital,http://api.map.baidu.com/place/detail?uid=3be41be4025ef1ea1f38942b&output=html&source=placeapi_v2,,,,,,,,,,3,,,,,,,,,,0
d106125d81eefe8b1d1d1178,汉南区纱帽街残疾人用品用具供应站(薇湖路店),医疗,疗养院,湖北省,武汉市,汉南区,武汉市汉南区薇湖路锦绣鑫城南侧约40米,d106125d81eefe8b1d1d1178,1,0,114.081591,30.312974,,hospital,http://api.map.baidu.com/place/detail?uid=d106125d81eefe8b1d1d1178&output=html&source=placeapi_v2,,,,,,,,,,4,,,,,,,,114.08167434129,30.312950559157,0
89e4fea64fd9fd2328b97caf,怡佳轩养老院,政府机构,福利机构,湖北省,武汉市,江夏区,武汉市江夏区纸金路,89e4fea64fd9fd2328b97caf,1,0,114.235703,30.348381,,life,http://api.map.baidu.com/place/detail?uid=89e4fea64fd9fd2328b97caf&output=html&source=placeapi_v2,,,,,,,,,,1,,,,,,,,114.23575236711,30.348732630838,0
272f61b95c0d6942ad31e515,亿情缘老年公寓,医疗,疗养院,湖北省,武汉市,江夏区,湖北省武汉市江夏区江夏大道37号,,1,0,114.37925,30.407196,,hospital,http://api.map.baidu.com/place/detail?uid=272f61b95c0d6942ad31e515&output=html&source=placeapi_v2,,00:00-24:00,,,,,,,,1,0,,,,,,,114.3791621661,30.407229652047,0
5a2f472c884e9c312806ce4a,宜家养老院,政府机构,福利机构,湖北省,武汉市,江夏区,武汉市江夏区经济开发区庙山办事处阳光大道10号,5a2f472c884e9c312806ce4a,1,0,114.370189,30.409063,(027)81319738,life,http://api.map.baidu.com/place/detail?uid=5a2f472c884e9c312806ce4a&output=html&source=placeapi_v2,,08:00-18:00,,,,,,,,6,,,,,,,,114.3703537865,30.409256093254,0
18423d4b2123593f882fb581,梁山头村老年公寓,医疗,疗养院,湖北省,武汉市,江夏区,湖北省武汉市江夏区藏龙岛梁山头社区,18423d4b2123593f882fb581,1,0,114.452906,30.437107,,hospital,http://api.map.baidu.com/place/detail?uid=18423d4b2123593f882fb581&output=html&source=placeapi_v2,,"08:00-12:00,14:30-17:30",0,,,,,,,0,0,,,,,,,114.45255704011,30.437151577687,0
1fafb5e733c9bac3a8175a4f,蔡甸区龙王社区养老院,政府机构,福利机构,湖北省,武汉市,蔡甸区,武汉市蔡甸区常福工业示范园管理委员会常福工业园,1fafb5e733c9bac3a8175a4f,1,0,114.062647,30.461563,,life,http://api.map.baidu.com/place/detail?uid=1fafb5e733c9bac3a8175a4f&output=html&source=placeapi_v2,,,,,,,,,,2,,,,,,,,114.06219838075,30.461118309708,0
357f907fc49950d4704b8776,洪山区和青菱街黄家湖社区养老院,政府机构,福利机构,湖北省,武汉市,洪山区,湖北省武汉市洪山区黄家湖西路1号,357f907fc49950d4704b8776,1,0,114.275042,30.457858,,life,http://api.map.baidu.com/place/detail?uid=357f907fc49950d4704b8776&output=html&source=placeapi_v2,,,,,,,,,,1,,,,,,,,114.2748578773,30.457873002563,0
79e46e675f0ee109a104649b,武汉阳光佛祖岭护理院,医疗,疗养院,湖北省,武汉市,江夏区,湖北省武汉市江夏区光谷流芳一路佛祖岭社区C区旁,79e46e675f0ee109a104649b,1,0,114.451663,30.450514,(027)81808289,hospital,http://api.map.baidu.com/place/detail?uid=79e46e675f0ee109a104649b&output=html&source=placeapi_v2,,00:00-24:00,,,,,,,,0,0,,,,,,,114.45190220144,30.450618084121,0
18423d4b2123593f882fb581,梁山头村老年公寓,医疗,疗养院,湖北省,武汉市,江夏区,湖北省武汉市江夏区藏龙岛梁山头社区,18423d4b2123593f882fb581,1,0,114.452906,30.437107,,hospital,http://api.map.baidu.com/place/detail?uid=18423d4b2123593f882fb581&output=html&source=placeapi_v2,,"08:00-12:00,14:30-17:30",0,,,,,,,0,0,,,,,,,114.45255704011,30.437151577687,0
fd085f3610261e57364aae23,颐福院老年公寓,医疗,疗养院,湖北省,武汉市,蔡甸区,湖北省武汉市蔡甸区东风大道237吉祥国际b座,fd085f3610261e57364aae23,1,0,114.158411,30.487973,(027)84776606,hospital,http://api.map.baidu.com/place/detail?uid=fd085f3610261e57364aae23&output=html&source=placeapi_v2,,00:00-24:00,,,,,,,,0,,,,,,,,114.15883808751,30.487613606098,0
69919ee2a699caccf32d83c7,中颐海滨养老院,政府机构,福利机构,湖北省,武汉市,蔡甸区,湖北省武汉市蔡甸区海滨城路1号,69919ee2a699caccf32d83c7,1,0,114.140643,30.489081,,life,http://api.map.baidu.com/place/detail?uid=69919ee2a699caccf32d83c7&output=html&source=placeapi_v2,,,0,,,,,,,0,0,,,,,,,,,0
db3ef7fa97c46601abf0cd03,中医理疗康复中心,医疗,其他,湖北省,武汉市,洪山区,武汉市洪山区白沙六路青菱渔场小区,db3ef7fa97c46601abf0cd03,1,0,114.282674,30.478135,18271854229,hospital,http://api.map.baidu.com/place/detail?uid=db3ef7fa97c46601abf0cd03&output=html&source=placeapi_v2,,,,,,,,,,2,,,,,,,,114.28258514668,30.478007357296,0
58d76b2fcc26ea4815c90558,益视丽儿童视力康复中心,医疗,其他,湖北省,武汉市,洪山区,湖北省武汉市洪山区长征三路23-15-110号,58d76b2fcc26ea4815c90558,1,0,114.264596,30.485935,,hospital,http://api.map.baidu.com/place/detail?uid=58d76b2fcc26ea4815c90558&output=html&source=placeapi_v2,,10:00-22:00,,,,,,,,2,,,,,,,,,,0
893a79fa4eb3c9e41ef74deb,洪山区省农科院社区养老院,政府机构,福利机构,湖北省,武汉市,洪山区,武汉市洪山区南湖大道6号,893a79fa4eb3c9e41ef74deb,1,0,114.328823,30.491424,,life,http://api.map.baidu.com/place/detail?uid=893a79fa4eb3c9e41ef74deb&output=html&source=placeapi_v2,,,,,,,,,,3,,,,,,,,114.32867581632,30.491446009909,0
48421aace3a5d52d354aaea7,通惠社区养老院,政府机构,福利机构,湖北省,武汉市,洪山区,武汉市洪山区通惠社区军威苑小区12栋,48421aace3a5d52d354aaea7,1,0,114.318786,30.499326,,life,http://api.map.baidu.com/place/detail?uid=48421aace3a5d52d354aaea7&output=html&source=placeapi_v2,,00:00-24:00,,,,,,,,8,,,,,,,,114.31884426495,30.499314348949,0
e6afd373b47e906b9cf77903,武汉市洪山区马湖社区养老院,政府机构,福利机构,湖北省,武汉市,洪山区,湖北省武汉市洪山区南大门综合医院内,e6afd373b47e906b9cf77903,1,0,114.335299,30.491014,13237155125,life,http://api.map.baidu.com/place/detail?uid=e6afd373b47e906b9cf77903&output=html&source=placeapi_v2,,"08:00-12:00,14:30-17:30",,,,,,,,8,,,,,,,,114.33512469408,30.490945311817,0
904499b007a0e270abf72922,湖北省医养康复中心,医疗,疗养院,湖北省,武汉市,洪山区,武汉市洪山区卓刀泉南路城投瀚城-南区西北侧约40米,,1,0,114.37234,30.50316,,hospital,http://api.map.baidu.com/place/detail?uid=904499b007a0e270abf72922&output=html&source=placeapi_v2,,,,,,,,,,,,,,,,,,,,0
755a9d98f492bcf14f6d46f9,湖北省康复辅具技术中心-南门,出入口,门,湖北省,武汉市,江夏区,武汉市江夏区关南路13号,755a9d98f492bcf14f6d46f9,1,0,114.423892,30.479607,,life,http://api.map.baidu.com/place/detail?uid=755a9d98f492bcf14f6d46f9&output=html&source=placeapi_v2,,,,,,,,,,,,,,,,,,,,0
cb94b4bc1a2e896cc7f025ba,明夫人产后康复中心(光谷店),丽人,美体,湖北省,武汉市,洪山区,湖北省武汉市洪山区新玉路新世界小区10栋1楼10-3室,,1,0,114.421752,30.497913,,beauty,http://api.map.baidu.com/place/detail?uid=cb94b4bc1a2e896cc7f025ba&output=html&source=placeapi_v2,,09:00-18:00,,,,,,,,,,,,,,,,,,0
942f441e11871ee014b54b42,关南养老院,政府机构,福利机构,湖北省,武汉市,江夏区,湖北省武汉市江夏区东湖开发区关南工业园10号楼关东街,942f441e11871ee014b54b42,1,0,114.442059,30.482988,,life,http://api.map.baidu.com/place/detail?uid=942f441e11871ee014b54b42&output=html&source=placeapi_v2,,08:00-17:00,,,,,,,,18,,,,,,,,114.44205895414,30.482799804866,0
fc20427c44958bd0f03cba7a,蔡甸区精神障碍社区康复中心,医疗,疗养院,湖北省,武汉市,蔡甸区,武汉市蔡甸区方兴路方兴社区,fc20427c44958bd0f03cba7a,1,0,114.060026,30.511349,,hospital,http://api.map.baidu.com/place/detail?uid=fc20427c44958bd0f03cba7a&output=html&source=placeapi_v2,,,,,,,,,,,,,,,,,,114.05983765722,30.511287660829,0
8102209b394605c65dd4fe82,颐德养老院,政府机构,福利机构,湖北省,武汉市,蔡甸区,武汉市蔡甸区经济技术开发区博学路2号潮海村公交站旁,8102209b394605c65dd4fe82,1,0,114.162838,30.529489,"(027)84757299,(027)84758299",life,http://api.map.baidu.com/place/detail?uid=8102209b394605c65dd4fe82&output=html&source=placeapi_v2,,,0,,,,,,,5,0,,,,,,,114.16299456709,30.529489871177,0
9574e22b200b201bfb42b248,武汉市残疾人康复服务中心,医疗,疗养院,湖北省,武汉市,汉阳区,湖北省武汉市汉阳区梅林西路16号,9574e22b200b201bfb42b248,1,0,114.222306,30.524362,,hospital,http://api.map.baidu.com/place/detail?uid=9574e22b200b201bfb42b248&output=html&source=placeapi_v2,,,0,,,,,,,17,1,,,,,,,114.22216078466,30.524304845319,0
f6b23cb1f1aed63a9cf779ae,武昌区堤东社区中泰养老院,政府机构,福利机构,湖北省,武汉市,武昌区,湖北省武汉市武昌区白沙洲街办事处江民路中泰花园,f6b23cb1f1aed63a9cf779ae,1,0,114.299415,30.52073,,life,http://api.map.baidu.com/place/detail?uid=f6b23cb1f1aed63a9cf779ae&output=html&source=placeapi_v2,,,,,,,,,,10,,,,,,,,114.2994734852,30.520926204124,0
c6177cfab68f3397774ff1e3,武昌区解放桥社区健康养老院,政府机构,福利机构,湖北省,武汉市,武昌区,武汉市武昌区玻璃厂横街46号,c6177cfab68f3397774ff1e3,1,0,114.300394,30.529673,,life,http://api.map.baidu.com/place/detail?uid=c6177cfab68f3397774ff1e3&output=html&source=placeapi_v2,,,,,,,,,,2,,,,,,,,114.30029996131,30.52972534923,0
2cd85833f6485b1317b54b01,武昌区中南路街爱心老年公寓,医疗,疗养院,湖北省,武汉市,武昌区,湖北省武汉市武昌区中南路街特1号,2cd85833f6485b1317b54b01,1,0,114.329741,30.523777,(027)52868119,hospital,http://api.map.baidu.com/place/detail?uid=2cd85833f6485b1317b54b01&output=html&source=placeapi_v2,,,,,,,,,,1,,,,,,,,114.3296301168,30.52385306245,0
24930d649dbbe510c61e518a,社区养老院,政府机构,福利机构,湖北省,武汉市,武昌区,武汉市武昌区建船路195号,24930d649dbbe510c61e518a,1,0,114.312234,30.521625,,life,http://api.map.baidu.com/place/detail?uid=24930d649dbbe510c61e518a&output=html&source=placeapi_v2,,08:00-17:30,,,,,,,,6,,,,,,,,114.31219741323,30.521739121154,0
e442319cd8acdf1a03ec0137,武昌区邮电社区向阳养老院,政府机构,福利机构,湖北省,武汉市,武昌区,武汉市武昌区陆家街294号,e442319cd8acdf1a03ec0137,1,0,114.308988,30.522808,,life,http://api.map.baidu.com/place/detail?uid=e442319cd8acdf1a03ec0137&output=html&source=placeapi_v2,,08:00-17:30,0.0,,,,,,,5,,,,,,,,114.30896181919,30.5228754018,0
ce9773b45a7d8c22c17da2cb,护佑养老院,政府机构,福利机构,湖北省,武汉市,武昌区,武汉市武昌区陆家街265号,ce9773b45a7d8c22c17da2cb,1,0,114.306351,30.522951,(027)85847775,life,http://api.map.baidu.com/place/detail?uid=ce9773b45a7d8c22c17da2cb&output=html&source=placeapi_v2,,,,,,,,,,14,,,,,,,,114.30645448053,30.522951813602,0
8786ab8a24b9116dfa0cadce,洪山区北港社区方泰养老院,政府机构,福利机构,湖北省,武汉市,武昌区,武汉市武昌区丁字桥南路362号,8786ab8a24b9116dfa0cadce,1,0,114.331668,30.515089,(027)88771666,life,http://api.map.baidu.com/place/detail?uid=8786ab8a24b9116dfa0cadce&output=html&source=placeapi_v2,,,,,,,,,,1,,,,,,,,114.33178081201,30.515069501736,0
bcaa15576f88958cb05c6a75,武汉市洪山区珞南街社区养老院,政府机构,福利机构,湖北省,武汉市,洪山区,湖北省武汉市洪山区石牌岭317号,bcaa15576f88958cb05c6a75,1,0,114.344452,30.523093,,life,http://api.map.baidu.com/place/detail?uid=bcaa15576f88958cb05c6a75&output=html&source=placeapi_v2,,"08:00-12:00,14:30-17:30",0,,,,,,,8,0,,,,,,,114.3443443359,30.52320256312,0
ebe8fa469f8f1a0a3617dc4b,天祥养老院(白沙洲大道),政府机构,福利机构,湖北省,武汉市,武昌区,武汉市武昌区白沙洲街办事处武泰闸陆家街309号,ebe8fa469f8f1a0a3617dc4b,1,0,114.307481,30.523534,15927553338,life,http://api.map.baidu.com/place/detail?uid=ebe8fa469f8f1a0a3617dc4b&output=html&source=placeapi_v2,,,,,,,,,,3,,,,,,,,114.30727935854,30.523565122649,0
54544f86d577eb528c55ec2d,老来乐老年公寓(武昌南湖接待点),政府机构,行政单位,湖北省,武汉市,武昌区,武汉市武昌区建安街南湖华锦花园(一至四期),,1,0,114.324682,30.509871,,life,http://api.map.baidu.com/place/detail?uid=54544f86d577eb528c55ec2d&output=html&source=placeapi_v2,,08:00-20:00,,,,,,,,6,,,,,,,,114.3247712856,30.510071779023,0
eaa540172928c3d802ff2d7e,中医理疗康复,医疗,疗养院,湖北省,武汉市,洪山区,武汉市洪山区黎明村路武汉理工大学(马房山校区),eaa540172928c3d802ff2d7e,1,0,114.355807,30.525238,,hospital,http://api.map.baidu.com/place/detail?uid=eaa540172928c3d802ff2d7e&output=html&source=placeapi_v2,,,,,,,,,,,,,,,,,,,,0
bdac2c72ef05049c283a9f03,武汉市洪山区汽发社区养老院,政府机构,福利机构,湖北省,武汉市,洪山区,湖北省武汉市洪山区关山大道武汉长动医院内,bdac2c72ef05049c283a9f03,1,0,114.417957,30.511746,,life,http://api.map.baidu.com/place/detail?uid=bdac2c72ef05049c283a9f03&output=html&source=placeapi_v2,,"08:00-12:00,14:30-17:30",,,,,,,,8,,,,,,,,114.41804746615,30.511952588163,0
6b904ea19671c890c036449f,乐老年公寓,政府机构,行政单位,湖北省,武汉市,洪山区,武汉市洪山区青王路与石门峰街交叉路口往南约230米,,1,0,114.479017,30.519276,,life,http://api.map.baidu.com/place/detail?uid=6b904ea19671c890c036449f&output=html&source=placeapi_v2,,,,,,,,,,,,,,,,,,114.47882540931,30.519308070112,0
4eb3b533ca6bde7542024583,侨亚国际养生文化区,休闲娱乐,洗浴按摩,湖北省,武汉市,蔡甸区,湖北省武汉市蔡甸区汉阳大街8号侨亚国际养生文化区,,1,0,114.123927,30.557113,,life,http://api.map.baidu.com/place/detail?uid=4eb3b533ca6bde7542024583&output=html&source=placeapi_v2,,"08:00-12:00,14:30-17:30",0,,,,,,,2,0,,,,,,,114.12398753295,30.557127631054,0
24300a5280014d6243024581,颐乐园老人村,行政地标,村庄,湖北省,武汉市,蔡甸区,武汉市蔡甸区后官湖生态宜居新城管理委员会汉阳大街特8号侨亚颐乐园,24300a5280014d6243024581,1,0,114.123762,30.55728,,life,http://api.map.baidu.com/place/detail?uid=24300a5280014d6243024581&output=html&source=placeapi_v2,,,0.0,,,,,,,2,1,,,,,,,,,0
b41d02b43a780fb70782c2a9,百草园康复调理中心,医疗,,湖北省,武汉市,汉阳区,武汉市汉阳区陶馨路陶馨园,b41d02b43a780fb70782c2a9,1,0,114.197925,30.548479,,hospital,http://api.map.baidu.com/place/detail?uid=b41d02b43a780fb70782c2a9&output=html&source=placeapi_v2,,,,,,,,,,3,,,,,,,,114.19781206828,30.548600603498,0
9baffda11632135d28201a36,明夫人产后康复中心(汉阳店),丽人,美体,湖北省,武汉市,汉阳区,湖北省武汉市汉阳区龙阳大道58号人信汇a馆a座2楼,,1,0,114.210657,30.556783,,beauty,http://api.map.baidu.com/place/detail?uid=9baffda11632135d28201a36&output=html&source=placeapi_v2,,09:00-18:00,,,,,,,,,,,,,,,,114.21037110784,30.556918063301,0
590a083196669b9a4354d733,大米和小米(武汉中心),教育培训,培训机构,湖北省,武汉市,汉阳区,湖北省武汉市汉阳区王家湾商圈龙阳大道57号智慧大厦5楼,,1,0,114.212215,30.555688,18162336200,education,http://api.map.baidu.com/place/detail?uid=590a083196669b9a4354d733&output=html&source=placeapi_v2,,08:30-18:00,,,,,,,,,,,,,,,,,,0
cb964b91ee93287fb13c81d1,武汉市汉阳区五里桃花岛老年公寓,医疗,疗养院,湖北省,武汉市,汉阳区,湖北省武汉市汉阳区桃花街南静苑小区(吉星佳地附近),cb964b91ee93287fb13c81d1,1,0,114.23197,30.554037,,hospital,http://api.map.baidu.com/place/detail?uid=cb964b91ee93287fb13c81d1&output=html&source=placeapi_v2,,00:00-24:00,,,,,,,,7,,,,,,,,114.23194695812,30.554107743509,0
4112ec73947c3fbce31103e4,武汉市汉阳区社区矫正中心,医疗,疗养院,湖北省,武汉市,汉阳区,湖北省武汉市汉阳区马沧湖路119号,4112ec73947c3fbce31103e4,1,0,114.253944,30.546663,,hospital,http://api.map.baidu.com/place/detail?uid=4112ec73947c3fbce31103e4&output=html&source=placeapi_v2,,,,,,,,,,,,,,,,,,114.25380800693,30.546674795236,0
41f8b63031f406cf9e09f77d,汉阳区五红里常青养老院,政府机构,福利机构,湖北省,武汉市,汉阳区,五里墩街街道墨水湖北路303号汉桥城中花园商铺H1一S2,41f8b63031f406cf9e09f77d,1,0,114.237455,30.557465,,life,http://api.map.baidu.com/place/detail?uid=41f8b63031f406cf9e09f77d&output=html&source=placeapi_v2,,,,,,,,,,7,,,,,,,,114.2372286325,30.557537362315,0
3338aeda37b3efc9ab059dc5,汉阳区七里一村社区养老院,政府机构,福利机构,湖北省,武汉市,汉阳区,琴断口街街道七里一村117号,3338aeda37b3efc9ab059dc5,1,0,114.233,30.561093,,life,http://api.map.baidu.com/place/detail?uid=3338aeda37b3efc9ab059dc5&output=html&source=placeapi_v2,,,,,,,,,,10,,,,,,,,114.23324624924,30.561212944973,0
e3157dba40513484ca09f05d,汉阳区五春里社区长寿养老院,政府机构,福利机构,湖北省,武汉市,汉阳区,武汉市汉阳区麒麟路桃花岛南静苑一号桃花岛,e3157dba40513484ca09f05d,1,0,114.23182,30.554015,,life,http://api.map.baidu.com/place/detail?uid=e3157dba40513484ca09f05d&output=html&source=placeapi_v2,,00:00-24:00,,,,,,,,8,,,,,,,,114.23193213518,30.554111075653,0
385c7b21a827cc87e115f972,五琴里社区-社区养老院,政府机构,福利机构,湖北省,武汉市,汉阳区,武汉市汉阳区五琴路35号,385c7b21a827cc87e115f972,1,0,114.258053,30.558624,,life,http://api.map.baidu.com/place/detail?uid=385c7b21a827cc87e115f972&output=html&source=placeapi_v2,,00:00-24:00,,,,,,,,20,,,,,,,,114.25823740857,30.558598026363,0
dc8b37215d7945f12b201a74,汉阳区墨北社区康馨养老院,政府机构,福利机构,湖北省,武汉市,汉阳区,湖北省武汉市汉阳区紫荆路墨北社区康馨养老院,dc8b37215d7945f12b201a74,1,0,114.2275,30.5594,,life,http://api.map.baidu.com/place/detail?uid=dc8b37215d7945f12b201a74&output=html&source=placeapi_v2,,,,,,,,,,2,,,,,,,,,,0
fca9d979771ba6efa8f7297d,汉阳区五墨里社区常青养老院,政府机构,福利机构,湖北省,武汉市,汉阳区,武汉市汉阳区五里墩街办事处汉阳大道365号,fca9d979771ba6efa8f7297d,1,0,114.258336,30.555926,,life,http://api.map.baidu.com/place/detail?uid=fca9d979771ba6efa8f7297d&output=html&source=placeapi_v2,,,,,,,,,,7,,,,,,,,,,0
9765075cdcc19d995fd4fe0a,范氏康复(清风巷店),医疗,疗养院,湖北省,武汉市,武昌区,武汉市武昌区彭刘杨路城市便捷酒店(彭刘杨路店)北侧,9765075cdcc19d995fd4fe0a,1,0,114.302285,30.548262,,hospital,http://api.map.baidu.com/place/detail?uid=9765075cdcc19d995fd4fe0a&output=html&source=placeapi_v2,,09:00-21:00,,,,,,,,1,,,,,,,,,,0
fd13a3f246db36fab0077daf,比家好敬老院,政府机构,福利机构,湖北省,武汉市,武昌区,武汉市武昌区黄鹤楼街办事处黄鹤楼道3号,fd13a3f246db36fab0077daf,1,0,114.300556,30.551009,(027)88861986,life,http://api.map.baidu.com/place/detail?uid=fd13a3f246db36fab0077daf&output=html&source=placeapi_v2,,,0.0,,,,,,,2,,,,,,,,114.30032959641,30.550970443176,0
a550ade73c7fc9b50d0a7083,老来乐养生养老接待,政府机构,行政单位,湖北省,武汉市,汉阳区,武汉市汉阳区鼓楼东街朗星小区,a550ade73c7fc9b50d0a7083,1,0,114.282305,30.551391,,life,http://api.map.baidu.com/place/detail?uid=a550ade73c7fc9b50d0a7083&output=html&source=placeapi_v2,,,,,,,,,,5,,,,,,,,114.28221995944,30.551656765515,0
00f0168802485ba099005000,老年公寓养老接待休闲会所,政府机构,行政单位,湖北省,武汉市,汉阳区,武汉市汉阳区拦江路朗星小区,00f0168802485ba099005000,1,0,114.282399,30.551306,,life,http://api.map.baidu.com/place/detail?uid=00f0168802485ba099005000&output=html&source=placeapi_v2,,,,,,,,,,1,,,,,,,,,,0
046709c40a86d2c49ff77969,汉阳区古楼社区欢乐养老院,政府机构,福利机构,湖北省,武汉市,汉阳区,武汉市汉阳区共勉街29号,046709c40a86d2c49ff77969,1,0,114.282104,30.55188,,life,http://api.map.baidu.com/place/detail?uid=046709c40a86d2c49ff77969&output=html&source=placeapi_v2,,,,,,,,,,6,,,,,,,,114.28222322658,30.551875710464,0
e26f67d242b52b10b45f1ed1,汉阳区南城社区养老院,政府机构,福利机构,湖北省,武汉市,汉阳区,武汉市汉阳区建桥街办事处阳新路棉花街16号,e26f67d242b52b10b45f1ed1,1,0,114.280558,30.552976,,life,http://api.map.baidu.com/place/detail?uid=e26f67d242b52b10b45f1ed1&output=html&source=placeapi_v2,,,,,,,,,,8,,,,,,,,,,0
4fc3161a913616ab3a13fdff,武汉市艺萌听力康复中心,医疗,其他,湖北省,武汉市,武昌区,湖北武汉市武昌区胭脂路77号,4fc3161a913616ab3a13fdff,1,0,114.315461,30.555825,"(027)84833063,(027)88860601",hospital,http://api.map.baidu.com/place/detail?uid=4fc3161a913616ab3a13fdff&output=html&source=placeapi_v2,,09:00-18:00,0,,,,,,,6,0,,,,,,,114.31558664985,30.555807537602,0
dc98edd5d486b7e8471a3213,武汉艺萌听力康复医院,医疗,疗养院,湖北省,武汉市,武昌区,湖北省武汉市武昌区梅苑路3号,dc98edd5d486b7e8471a3213,1,0,114.331974,30.539482,4006221580,hospital,http://api.map.baidu.com/place/detail?uid=dc98edd5d486b7e8471a3213&output=html&source=placeapi_v2,,08:00-18:00,0,,,,,,,14,0,,,,,,,114.33177332732,30.539515630613,0
308ec33d6ba928588d772723,武昌区大东门社区养E康颐养中心,政府机构,行政单位,湖北省,武汉市,武昌区,武汉市武昌区武珞路二巷燃料小区东北侧,,1,0,114.326287,30.54074,,life,http://api.map.baidu.com/place/detail?uid=308ec33d6ba928588d772723&output=html&source=placeapi_v2,,,,,,,,,,2,,,,,,,,114.32635474849,30.540743383393,0
fbc6b9a0aa4e5a1f8d7727fb,武昌区珞珈山街珞湖茶港社区残疾人康复站,医疗,疗养院,湖北省,武汉市,武昌区,湖北省武汉市武昌区东湖南路8号,fbc6b9a0aa4e5a1f8d7727fb,1,0,114.365929,30.548214,,hospital,http://api.map.baidu.com/place/detail?uid=fbc6b9a0aa4e5a1f8d7727fb&output=html&source=placeapi_v2,,,,,,,,,,2,,,,,,,,,,0
2899d10da5cf46e56018097d,东湖医院-康复中心,医疗,疗养院,湖北省,武汉市,洪山区,湖北省武汉市洪山区东湖东路17号,2899d10da5cf46e56018097d,1,0,114.403577,30.541263,,hospital,http://api.map.baidu.com/place/detail?uid=2899d10da5cf46e56018097d&output=html&source=placeapi_v2,,,0,,,,,,,2,0,,,,,,,114.40356521917,30.541263391035,0
ed3f82214c3849da8e772770,慈同兴敬老院,政府机构,行政单位,湖北省,武汉市,洪山区,武汉市洪山区青王路解何新村,ed3f82214c3849da8e772770,1,0,114.455735,30.558716,,life,http://api.map.baidu.com/place/detail?uid=ed3f82214c3849da8e772770&output=html&source=placeapi_v2,,,0.0,,,,,,,,0,,,,,,,114.45593937864,30.558609389936,0
35c84bfa5726504b07026f9b,蔡甸区蔡甸街残疾人服务社康复站,医疗,疗养院,湖北省,武汉市,蔡甸区,武汉市蔡甸区拥军路齐锦花园,35c84bfa5726504b07026f9b,1,0,114.028584,30.593368,,hospital,http://api.map.baidu.com/place/detail?uid=35c84bfa5726504b07026f9b&output=html&source=placeapi_v2,,,,,,,,,,3,,,,,,,,,,0
3ff991ef1e487d127069d316,曾庆秀理疗康复中心,医疗,其他,湖北省,武汉市,蔡甸区,武汉市蔡甸区五层街江滩花园-御江楼南侧约90米,3ff991ef1e487d127069d316,1,0,114.042993,30.592497,,hospital,http://api.map.baidu.com/place/detail?uid=3ff991ef1e487d127069d316&output=html&source=placeapi_v2,,,,,,,,,,1,,,,,,,,114.04301319182,30.592674627531,0
7736f54296ce72e3de1e52a1,宜居养老院,政府机构,福利机构,湖北省,武汉市,汉阳区,武汉市汉阳区燎原社区鑫瑞小城故事门口,7736f54296ce72e3de1e52a1,1,0,114.2075,30.577637,15871419244,life,http://api.map.baidu.com/place/detail?uid=7736f54296ce72e3de1e52a1&output=html&source=placeapi_v2,,10:00-22:00,0.0,,,,,,,6,,,,,,,,114.20739910538,30.577815658957,0
22fd1792727b9f7b3a04b181,武汉市~口区长丰福荣养老院,政府机构,福利机构,湖北省,武汉市,~口区,武汉市~口区古田二路7号,22fd1792727b9f7b3a04b181,1,0,114.197767,30.594689,13971696531,life,http://api.map.baidu.com/place/detail?uid=22fd1792727b9f7b3a04b181&output=html&source=placeapi_v2,,,5.0,,,,,,,5,1,,,,,,,114.19777094116,30.59472769756,0
55322e660a51c6a5f942b2fa,武汉市~口区海工社区养老院,政府机构,福利机构,湖北省,武汉市,江汉区,武汉市~口区建设大道198号(营防村车站),55322e660a51c6a5f942b2fa,1,0,114.250541,30.591821,,life,http://api.map.baidu.com/place/detail?uid=55322e660a51c6a5f942b2fa&output=html&source=placeapi_v2,,10:00-22:00,0.0,,,,,,,21,,,,,,,,114.25057000004,30.591908891502,0
4b1fc880e1fc49b5f7b91688,营北社区养老院,政府机构,福利机构,湖北省,武汉市,~口区,武汉市~口区建设大道营北社区,4b1fc880e1fc49b5f7b91688,1,0,114.253243,30.5916,,life,http://api.map.baidu.com/place/detail?uid=4b1fc880e1fc49b5f7b91688&output=html&source=placeapi_v2,,,,,,,,,,14,,,,,,,,114.25322273573,30.591469472966,0
521bd33c74d4a8ac8515415b,~口区简易社区桃园养老院,政府机构,福利机构,湖北省,武汉市,~口区,武汉市~口区简易路19附24号附近,521bd33c74d4a8ac8515415b,1,0,114.225469,30.590032,(027)83320341,life,http://api.map.baidu.com/place/detail?uid=521bd33c74d4a8ac8515415b&output=html&source=placeapi_v2,,00:00-24:00,,,,,,,,17,,,,,,,,114.225457821,30.589992805696,0
b0d056f2a8a5c47dcbc3dbaf,~口区桃园爱心敬老院,政府机构,福利机构,湖北省,武汉市,~口区,武汉市~口区简易新村19号,b0d056f2a8a5c47dcbc3dbaf,1,0,114.225483,30.590153,(027)83320341,life,http://api.map.baidu.com/place/detail?uid=b0d056f2a8a5c47dcbc3dbaf&output=html&source=placeapi_v2,,,,,,,,,,,,,,,,,,,,0
e9eb61e8fe635070dbeced6a,~口区新合社区养老院,政府机构,福利机构,湖北省,武汉市,~口区,湖北省武汉市~口区解放大道391号,e9eb61e8fe635070dbeced6a,1,0,114.229815,30.589409,,life,http://api.map.baidu.com/place/detail?uid=e9eb61e8fe635070dbeced6a&output=html&source=placeapi_v2,,,,,,,,,,,,,,,,,,,,0
6b1d832c721493c204026f64,武汉~口仁寿养老院,政府机构,福利机构,湖北省,武汉市,~口区,湖北省武汉市~口区仁寿路359号郑氏骨科医院二楼,,1,0,114.25695,30.579088,,life,http://api.map.baidu.com/place/detail?uid=6b1d832c721493c204026f64&output=html&source=placeapi_v2,,08:30-18:00,,,,,,,,4,0,,,,,,,,,0
167349d40ada9c12a8175a50,新华社区养老院,政府机构,行政单位,湖北省,武汉市,~口区,武汉市~口区解放大道红旗小区,,1,0,114.236188,30.584946,,life,http://api.map.baidu.com/place/detail?uid=167349d40ada9c12a8175a50&output=html&source=placeapi_v2,,,,,,,,,,7,,,,,,,,114.23612407245,30.584855924414,0
07558ee139e850f888db7328,福馨老年公寓,政府机构,行政单位,湖北省,武汉市,~口区,武汉市~口区汉西一路与简易路交叉口西80米,,1,0,114.225026,30.589042,,life,http://api.map.baidu.com/place/detail?uid=07558ee139e850f888db7328&output=html&source=placeapi_v2,,,,,,,,,,,,,,,,,,114.22503301412,30.588919560865,0
22ce6d743655b68cadcb6661,桔子园老年公寓,医疗,疗养院,湖北省,武汉市,江汉区,湖北省武汉市江汉区新华路186号,,1,0,114.282336,30.594775,,hospital,http://api.map.baidu.com/place/detail?uid=22ce6d743655b68cadcb6661&output=html&source=placeapi_v2,,00:00-24:00,,,,,,,,,,,,,,,,,,0
abdeee2373fc00fe2ce67bc8,医家人运动康复中心,医疗,疗养院,湖北省,武汉市,~口区,湖北省武汉市~口区解放大道634号新世界中心写字楼a座1005号,,1,0,114.273201,30.584763,,hospital,http://api.map.baidu.com/place/detail?uid=abdeee2373fc00fe2ce67bc8&output=html&source=placeapi_v2,,09:00-21:00,,,,,,,,,,,,,,,,,,0
29e8ea814fce85e1a20464d9,武汉市江汉区社区矫正中心,医疗,疗养院,湖北省,武汉市,江岸区,湖北武汉市江岸区台北一路2-21号,,1,0,114.28243,30.598654,,hospital,http://api.map.baidu.com/place/detail?uid=29e8ea814fce85e1a20464d9&output=html&source=placeapi_v2,,,,,,,,,,6,,,,,,,,114.28246848554,30.598821395959,0
1f83cac44eb290d7b35c6a62,木兰长岭老年公寓,医疗,疗养院,湖北省,武汉市,江汉区,湖北省武汉市江汉区江汉路平安大厦1807号,1f83cac44eb290d7b35c6a62,1,0,114.297811,30.584542,,hospital,http://api.map.baidu.com/place/detail?uid=1f83cac44eb290d7b35c6a62&output=html&source=placeapi_v2,,00:00-24:00,,,,,,,,,,,,,,,,114.29781098042,30.584541811742,0
fd57d6ddbac1eb12eee4a5b1,武工老年公寓,医疗,疗养院,湖北省,武汉市,江岸区,湖北省武汉市江岸区洞庭街40号,fd57d6ddbac1eb12eee4a5b1,1,0,114.305885,30.588174,,hospital,http://api.map.baidu.com/place/detail?uid=fd57d6ddbac1eb12eee4a5b1&output=html&source=placeapi_v2,,00:00-24:00,,,,,,,,0,,,,,,,,114.30562176659,30.588588434319,0
4d70d910db1698dfa2d23040,武昌区赵家墩社区武车养老院,政府机构,福利机构,湖北省,武汉市,武昌区,湖北省武汉市武昌区武车三村71附7号,4d70d910db1698dfa2d23040,1,0,114.333064,30.587215,(027)88045506,life,http://api.map.baidu.com/place/detail?uid=4d70d910db1698dfa2d23040&output=html&source=placeapi_v2,,,0,,,,,,,11,0,,,,,,,114.33319824198,30.587258875919,0
947dcab393c01117f8dc858e,江岸区三阳社区养老院,政府机构,福利机构,湖北省,武汉市,江岸区,武汉市江岸区车站路怡东大厦,947dcab393c01117f8dc858e,1,0,114.308443,30.595126,15342212236,life,http://api.map.baidu.com/place/detail?uid=947dcab393c01117f8dc858e&output=html&source=placeapi_v2,,,,,,,,,,16,,,,,,,,114.30840238955,30.595072283185,0
5975e936718bb6f841afe6bc,武汉市洪山区福泰老年公寓,医疗,疗养院,湖北省,武汉市,洪山区,武汉市洪山区中北东路24号附12号,5975e936718bb6f841afe6bc,1,0,114.373485,30.585193,"(027)88166617,(027)88776226",hospital,http://api.map.baidu.com/place/detail?uid=5975e936718bb6f841afe6bc&output=html&source=placeapi_v2,,09:00-23:00,,,,,,,,6,,,,,,,,114.37326860283,30.585186806885,0
0faf48423512e1607069d3a1,回春堂(徐东店),医疗,疗养院,湖北省,武汉市,洪山区,湖北省武汉市洪山区徐东大街徐东四期公寓旁(武铁佳苑南),0faf48423512e1607069d3a1,1,0,114.357778,30.592379,,hospital,http://api.map.baidu.com/place/detail?uid=0faf48423512e1607069d3a1&output=html&source=placeapi_v2,,09:00-21:00,,,,,,,,9,,,,,,,,114.35782626759,30.592307024552,0
fd007c5ecc1dc76ca9f7298e,武昌区顺宏老年公寓,医疗,疗养院,湖北省,武汉市,武昌区,湖北省武汉市武昌区友谊大道二桥社区45栋,fd007c5ecc1dc76ca9f7298e,1,0,114.350479,30.598726,(027)86720119,life,http://api.map.baidu.com/place/detail?uid=fd007c5ecc1dc76ca9f7298e&output=html&source=placeapi_v2,,00:00-24:00,0.0,,,,,,,26,,,,,,,,114.35040305892,30.598643801034,0
894410edcd1b3b20c0364464,湖北省工伤康复中心,医疗,疗养院,湖北省,武汉市,武昌区,湖北武汉市武昌区沿湖大道39号,894410edcd1b3b20c0364464,1,0,114.384183,30.585183,,hospital,http://api.map.baidu.com/place/detail?uid=894410edcd1b3b20c0364464&output=html&source=placeapi_v2,,08:30-20:00,,,,,,,,4,,,,,,,,114.38409573182,30.585525814626,0
9b596f419909a4bc0b69d9e0,东湖银龄,医疗,疗养院,湖北省,武汉市,洪山区,武汉市洪山区东湖风景区街道东湖景区落雁路黄家大湾特二号,9b596f419909a4bc0b69d9e0,1,0,114.431349,30.593332,,hospital,http://api.map.baidu.com/place/detail?uid=9b596f419909a4bc0b69d9e0&output=html&source=placeapi_v2,,,0,,,,,,,5,0,,,,,,,114.43129327194,30.593322011971,0
a6a2987193a015580d3ddad6,武汉市东湖生态旅游风景区先锋社区家园养老院,政府机构,福利机构,湖北省,武汉市,洪山区,武汉市洪山区东湖风景区街道落雁路先锋社区家园彭家岭站,a6a2987193a015580d3ddad6,1,0,114.437803,30.590296,,life,http://api.map.baidu.com/place/detail?uid=a6a2987193a015580d3ddad6&output=html&source=placeapi_v2,,,0,,,,,,,5,0,,,,,,,114.43770662352,30.590305671554,0
5826c4d37e054892bb17e7a4,武汉泰康之家楚园康复医院,医疗,疗养院,湖北省,武汉市,洪山区,湖北省武汉市洪山区严西湖路66号,,1,0,114.49783,30.572546,,hospital,http://api.map.baidu.com/place/detail?uid=5826c4d37e054892bb17e7a4&output=html&source=placeapi_v2,,08:30-17:30,,,,,,,,,,,,,,,,,,0
cfc7bd0208c617e61de9999f,武汉市万寿养老院,政府机构,福利机构,湖北省,武汉市,东西湖区,武汉市东西湖区联盟路天黎物流联盟,,1,0,114.109086,30.609399,,life,http://api.map.baidu.com/place/detail?uid=cfc7bd0208c617e61de9999f&output=html&source=placeapi_v2,,,,,,,,,,7,,,,,,,,114.1093439151,30.609504772561,0
2761850425c33999b54f545a,武汉市万慈托养院,政府机构,行政单位,湖北省,武汉市,东西湖区,武汉市东西湖区联盟路天黎物流联盟,2761850425c33999b54f545a,1,0,114.109291,30.609442,,life,http://api.map.baidu.com/place/detail?uid=2761850425c33999b54f545a&output=html&source=placeapi_v2,,,,,,,,,,4,,,,,,,,114.10933690849,30.609438760499,0
c0003f302a1def0f2d4733b2,武汉禧乐儿童康复中心,医疗,其他,湖北省,武汉市,东西湖区,湖北武汉市东西湖区东西湖大道6223号金山小区a座,c0003f302a1def0f2d4733b2,1,0,114.149201,30.624308,,hospital,http://api.map.baidu.com/place/detail?uid=c0003f302a1def0f2d4733b2&output=html&source=placeapi_v2,0.0,,,,,,,,,0,,,,,,,,114.14924216438,30.624653103232,0
5baaafae8e1a7a6f2fb17ed0,武汉明州康复医院,医疗,其他,湖北省,武汉市,~口区,湖北省武汉市~口区南泥湾大道63号4号楼,5baaafae8e1a7a6f2fb17ed0,1,0,114.199337,30.60985,(027)83996088,hospital,http://api.map.baidu.com/place/detail?uid=5baaafae8e1a7a6f2fb17ed0&output=html&source=placeapi_v2,,09:00-19:00,,,,,,,,2,,,,,,,,114.19927282034,30.60965406393,0
3d4cddc255b8f31a843304e8,中医康复,医疗,疗养院,湖北省,武汉市,~口区,湖北省武汉市~口区海滨路40号,3d4cddc255b8f31a843304e8,1,0,114.211678,30.61878,,hospital,http://api.map.baidu.com/place/detail?uid=3d4cddc255b8f31a843304e8&output=html&source=placeapi_v2,,,,,,,,,,,,,,,,,,,,0
268659fa96e68f5014948eb6,武汉海声悦音康复中心,医疗,其他,湖北省,武汉市,~口区,湖北省武汉市~口区长顺路122~123华生汉口城市广场b1栋,268659fa96e68f5014948eb6,1,0,114.213238,30.622573,18995651004,hospital,http://api.map.baidu.com/place/detail?uid=268659fa96e68f5014948eb6&output=html&source=placeapi_v2,,08:30-16:00,0,,,,,,,2,0,,,,,,,,,0
c21db9e55915708300ff2d37,武汉市江汉区老年公寓,医疗,疗养院,湖北省,武汉市,江汉区,湖北省武汉市江汉区常腾街10号新楼,c21db9e55915708300ff2d37,1,0,114.246073,30.615245,,life,http://api.map.baidu.com/place/detail?uid=c21db9e55915708300ff2d37&output=html&source=placeapi_v2,,00:00-24:00,3.0,,,,,,,6,,,,,,,,114.24554220745,30.615303266676,0
d1d94a2ba84800c4a8f0cde0,~口区丰竹园社区养老院,政府机构,福利机构,湖北省,武汉市,~口区,武汉市~口区发展大道29号,d1d94a2ba84800c4a8f0cde0,1,0,114.242611,30.613934,"13016424632,18627076095",life,http://api.map.baidu.com/place/detail?uid=d1d94a2ba84800c4a8f0cde0&output=html&source=placeapi_v2,,,,,,,,,,16,,,,,,,,114.24246451576,30.61382225575,0
234c35ebbb797b58cd04ef6a,江汉区复兴社区养老院,政府机构,福利机构,湖北省,武汉市,江汉区,湖北省武汉市江汉区常青街办事处复兴村常文里41号,234c35ebbb797b58cd04ef6a,1,0,114.250911,30.610822,(027)51237648,life,http://api.map.baidu.com/place/detail?uid=234c35ebbb797b58cd04ef6a&output=html&source=placeapi_v2,,,0,,,,,,,9,0,,,,,,,114.25093293981,30.610761918267,0
a71f1702af5b6d0787330461,江汉区贺家墩社区养老院(后襄河一路),政府机构,福利机构,湖北省,武汉市,江汉区,常青街办事处玉宇里51号,a71f1702af5b6d0787330461,1,0,114.258136,30.618266,,life,http://api.map.baidu.com/place/detail?uid=a71f1702af5b6d0787330461&output=html&source=placeapi_v2,,,,,,,,,,10,,,,,,,,114.25832500572,30.618236762351,0
6516767af231288cb020a86d,居家养老照护中心,政府机构,行政单位,湖北省,武汉市,~口区,武汉市~口区展望路宗关街道发展社区,6516767af231288cb020a86d,1,0,114.233981,30.606865,,life,http://api.map.baidu.com/place/detail?uid=6516767af231288cb020a86d&output=html&source=placeapi_v2,,,,,,,,,,9,,,,,,,,114.23387403454,30.606971354039,0
af6406c2db14574e8f1a8910,江汉区扬子社区养老院,政府机构,福利机构,湖北省,武汉市,江汉区,武汉市江汉区复兴村路颐沁园,af6406c2db14574e8f1a8910,1,0,114.248134,30.612776,,life,http://api.map.baidu.com/place/detail?uid=af6406c2db14574e8f1a8910&output=html&source=placeapi_v2,,10:00-22:00,,,,,,,,3,,,,,,,,114.24812770858,30.612680411513,0
cc2bd56dabcfef082efaa722,~口区宗关街发展社区养老院,政府机构,福利机构,湖北省,武汉市,~口区,武汉市~口区常码头发展一村82号,cc2bd56dabcfef082efaa722,1,0,114.232312,30.606333,(027)88185071,life,http://api.map.baidu.com/place/detail?uid=cc2bd56dabcfef082efaa722&output=html&source=placeapi_v2,,,,,,,,,,1,,,,,,,,114.23227358829,30.606545707876,0
dc0f0adc267f455cf8221302,江汉区常青街康复养老院,政府机构,行政单位,湖北省,武汉市,江汉区,武汉市江汉区复兴村路颐沁园,dc0f0adc267f455cf8221302,1,0,114.24802,30.612819,,life,http://api.map.baidu.com/place/detail?uid=dc0f0adc267f455cf8221302&output=html&source=placeapi_v2,,08:00-17:30,0,,,,,,,9,0,,,,,,,114.24804178745,30.612660048399,0
e64f41334e1fc8f9a21de9e8,武汉市江汉区恒保蒙福苑养老中心,政府机构,行政单位,湖北省,武汉市,江汉区,武汉市江汉区发展大道166号,e64f41334e1fc8f9a21de9e8,1,0,114.257455,30.618739,(027)85617773,life,http://api.map.baidu.com/place/detail?uid=e64f41334e1fc8f9a21de9e8&output=html&source=placeapi_v2,,,0,,,,,,,1,0,,,,,,,,,0
4a9556233545b2b421022064,武汉济民老年医院,医疗,疗养院,湖北省,武汉市,江汉区,武汉市江汉区发展大道198号,4a9556233545b2b421022064,1,0,114.266758,30.620755,,hospital,http://api.map.baidu.com/place/detail?uid=4a9556233545b2b421022064&output=html&source=placeapi_v2,,"08:00-12:00,14:30-17:30",0,,,,,,,4,0,,,,,,,114.26779356911,30.621502994713,0
dac4b5c9417a45d3f2193706,椿萱茂(武汉高雄路)老年公寓,医疗,疗养院,湖北省,武汉市,江岸区,湖北省武汉市江岸区高雄路88号,dac4b5c9417a45d3f2193706,1,0,114.293673,30.607097,(027)85778918,hospital,http://api.map.baidu.com/place/detail?uid=dac4b5c9417a45d3f2193706&output=html&source=placeapi_v2,,00:00-24:00,,,,,,,,19,,,,,,,,114.29360891924,30.607183420104,0
7e5153eb58e86f16f4eafc92,江汉区舒美老年公寓,医疗,疗养院,湖北省,武汉市,江汉区,湖北省武汉市江汉区北湖小路15号,7e5153eb58e86f16f4eafc92,1,0,114.271759,30.609413,(027)85625665,life,http://api.map.baidu.com/place/detail?uid=7e5153eb58e86f16f4eafc92&output=html&source=placeapi_v2,,00:00-24:00,0.0,,,,,,,5,,,,,,,,114.27176938036,30.609541512742,0
a63bcb859feb91011894c627,武汉市老来乐老年公寓,医疗,疗养院,湖北省,武汉市,江汉区,湖北省武汉市江汉区金墩街15号财神广场a3438号,a63bcb859feb91011894c627,1,0,114.264639,30.623626,,hospital,http://api.map.baidu.com/place/detail?uid=a63bcb859feb91011894c627&output=html&source=placeapi_v2,,00:00-24:00,,,,,,,,0,,,,,,,,114.26518847684,30.623663431959,0
03ebbd46b50c9b1e96f08c47,武汉市江岸区社区矫正中心,医疗,疗养院,湖北省,武汉市,江岸区,武汉市江岸区张自忠路武汉市永清派出所东南侧,03ebbd46b50c9b1e96f08c47,1,0,114.316718,30.609705,,hospital,http://api.map.baidu.com/place/detail?uid=03ebbd46b50c9b1e96f08c47&output=html&source=placeapi_v2,,,,,,,,,,10,,,,,,,,114.31668527569,30.609655999967,0
d39357f28963e0f2b42655d1,江岸区韦桑社区养老院,政府机构,福利机构,湖北省,武汉市,江岸区,武汉市江岸区工农兵路昌盛小区,d39357f28963e0f2b42655d1,1,0,114.318257,30.63078,,life,http://api.map.baidu.com/place/detail?uid=d39357f28963e0f2b42655d1&output=html&source=placeapi_v2,,,,,,,,,,1,,,,,,,,114.31817320738,30.630904076911,0
2e51d1c7d3a6631f15c9059c,武汉市江岸区日月心养老院,政府机构,福利机构,湖北省,武汉市,江岸区,湖北省武汉市江岸区永清小路19号附7号,,1,0,114.307885,30.622588,,life,http://api.map.baidu.com/place/detail?uid=2e51d1c7d3a6631f15c9059c&output=html&source=placeapi_v2,,,,,,,,,,3,,,,,,,,,,0
17ab2bb1ad2c47e8213bf24a,江岸区铁南社区养老院,政府机构,行政单位,湖北省,武汉市,江岸区,武汉市江岸区桃园小路金鑫大厦,,1,0,114.326196,30.632725,,life,http://api.map.baidu.com/place/detail?uid=17ab2bb1ad2c47e8213bf24a&output=html&source=placeapi_v2,,,,,,,,,,1,,,,,,,,114.32621397324,30.632769253627,0
44d5cc76798f56f56cc02c46,华润武钢总医院润康康养中心,医疗,疗养院,湖北省,武汉市,青山区,湖北省武汉市青山区建港南街34号,,1,0,114.384885,30.62654,,hospital,http://api.map.baidu.com/place/detail?uid=44d5cc76798f56f56cc02c46&output=html&source=placeapi_v2,,,,,,,,,,,,,,,,,,,,0
d406252a4e415e5b932ca3fa,洪山区和平街残疾人康复指导中心,医疗,其他,湖北省,武汉市,武昌区,武汉市武昌区联盟路178号,d406252a4e415e5b932ca3fa,1,0,114.365648,30.61801,,hospital,http://api.map.baidu.com/place/detail?uid=d406252a4e415e5b932ca3fa&output=html&source=placeapi_v2,,09:00-21:00,,,,,,,,3,,,,,,,,114.36574663985,30.618054477497,0
54e30ed9a54fb544ca09f0c3,小小温馨心疗康复,医疗,疗养院,湖北省,武汉市,青山区,武汉市青山区工业四路23街物业小区东侧,,1,0,114.411834,30.63305,,hospital,http://api.map.baidu.com/place/detail?uid=54e30ed9a54fb544ca09f0c3&output=html&source=placeapi_v2,,,,,,,,,,2,,,,,,,,114.41174263077,30.633049745981,0
d4ff8f84600b8c80ae31e5db,武汉颐养护理院,政府机构,行政单位,湖北省,武汉市,洪山区,武汉市洪山区智和路东方雅园-东区,d4ff8f84600b8c80ae31e5db,1,0,114.40746,30.621028,,life,http://api.map.baidu.com/place/detail?uid=d4ff8f84600b8c80ae31e5db&output=html&source=placeapi_v2,,,,,,,,,,,,,,,,,,,,0
921c10a6c4a803f69e82ea2f,康雅养老院,政府机构,福利机构,湖北省,武汉市,洪山区,武汉市洪山区和平港路东方雅园二期-西区,921c10a6c4a803f69e82ea2f,1,0,114.404367,30.619406,,life,http://api.map.baidu.com/place/detail?uid=921c10a6c4a803f69e82ea2f&output=html&source=placeapi_v2,,,,,,,,,,9,,,,,,,,114.40447741952,30.619405778151,0
9068980f2b4fba290482c2ff,武钢阳光养老院,政府机构,福利机构,湖北省,武汉市,青山区,武汉市青山区鄂州街6号,9068980f2b4fba290482c2ff,1,0,114.399877,30.634624,,life,http://api.map.baidu.com/place/detail?uid=9068980f2b4fba290482c2ff&output=html&source=placeapi_v2,,,,,,,,,,11,,,,,,,,114.39987426868,30.634826351066,0
d509a1c348d4ed760b69d930,和平敬老院,政府机构,福利机构,湖北省,武汉市,洪山区,武汉市洪山区建一南路青山公安分局背后,d509a1c348d4ed760b69d930,1,0,114.391068,30.617409,,life,http://api.map.baidu.com/place/detail?uid=d509a1c348d4ed760b69d930&output=html&source=placeapi_v2,,,,,,,,,,,,,,,,,,,,0
6ae9d5bf6807d2edd13ce3c0,青山区君安社区养老院,政府机构,福利机构,湖北省,武汉市,青山区,武汉市青山区康乐路泰乐物业小区,6ae9d5bf6807d2edd13ce3c0,1,0,114.486867,30.615849,,life,http://api.map.baidu.com/place/detail?uid=6ae9d5bf6807d2edd13ce3c0&output=html&source=placeapi_v2,,,,,,,,,,,,,,,,,,,,0
a2615a976b60c634abf0cdff,青山区康美社区养老院,政府机构,福利机构,湖北省,武汉市,青山区,湖北省武汉市青山区青化路白玉山街社区卫生服务中心,,1,0,114.488736,30.612945,,life,http://api.map.baidu.com/place/detail?uid=a2615a976b60c634abf0cdff&output=html&source=placeapi_v2,,,,,,,,,,1,,,,,,,,,,0
0c34b6806443e7f3fda7784f,青山区威尔康养老院,政府机构,福利机构,湖北省,武汉市,青山区,武汉市青山区康乐路泰乐物业小区东南4门东北侧,,1,0,114.485979,30.614968,,life,http://api.map.baidu.com/place/detail?uid=0c34b6806443e7f3fda7784f&output=html&source=placeapi_v2,,,,,,,,,,1,,,,,,,,114.48595721934,30.614762836809,0
0709516ddf9728d596ca07ad,武汉青山区仙乐居社区养老院,政府机构,福利机构,湖北省,武汉市,青山区,武汉市青山区白玉山八吉新府黎明村21栋,0709516ddf9728d596ca07ad,1,0,114.497116,30.610693,(027)86500319,life,http://api.map.baidu.com/place/detail?uid=0709516ddf9728d596ca07ad&output=html&source=placeapi_v2,,,,,,,,,,1,,,,,,,,114.49725388922,30.61069180848,0
ce5ee58f186237cbb6147fc7,东西湖区颐柏养老院,政府机构,福利机构,湖北省,武汉市,东西湖区,三店秀水佳园丽苑(临空港大道东),ce5ee58f186237cbb6147fc7,1,0,114.145687,30.653881,(027)83292501,life,http://api.map.baidu.com/place/detail?uid=ce5ee58f186237cbb6147fc7&output=html&source=placeapi_v2,,08:00-19:30,0,,,,,,,2,0,,,,,,,114.14554219041,30.653769109325,0
4f2695397e25ac14d2f49ec0,常青老年公寓,医疗,疗养院,湖北省,武汉市,东西湖区,湖北省武汉市东西湖区学府侧路8号,4f2695397e25ac14d2f49ec0,1,0,114.241883,30.644828,,hospital,http://api.map.baidu.com/place/detail?uid=4f2695397e25ac14d2f49ec0&output=html&source=placeapi_v2,,"06:00-10:00,16:00-21:00",0,,,,,,,8,0,,,,,,,114.24183913523,30.644980784758,0
8e2d1cb94f5d1c952bb97c3d,青少年早期预防矫正中心,医疗,疗养院,湖北省,武汉市,江岸区,武汉市江岸区后湖二路圣诚和园,8e2d1cb94f5d1c952bb97c3d,1,0,114.29697,30.644537,,hospital,http://api.map.baidu.com/place/detail?uid=8e2d1cb94f5d1c952bb97c3d&output=html&source=placeapi_v2,,,,,,,,,,7,,,,,,,,114.29707909858,30.644612304355,0
0637432f62df2200f33cba4b,江岸区建设新村社区养老院,政府机构,福利机构,湖北省,武汉市,江岸区,湖北省武汉市江岸区建设新村183号,0637432f62df2200f33cba4b,1,0,114.326215,30.648032,13627131243,life,http://api.map.baidu.com/place/detail?uid=0637432f62df2200f33cba4b&output=html&source=placeapi_v2,,,,,,,,,,6,,,,,,,,114.32618207171,30.647991669386,0
2233591af5c7e295fa2d61f8,江岸区源生养老院,政府机构,福利机构,湖北省,武汉市,江岸区,武汉市江岸区建设新村路885号1-14栋,2233591af5c7e295fa2d61f8,1,0,114.32409,30.645826,(027)82323780,life,http://api.map.baidu.com/place/detail?uid=2233591af5c7e295fa2d61f8&output=html&source=placeapi_v2,,,0,,,,,,,10,0,,,,,,,114.3242294888,30.64592975628,0
16999542fb012462b8df8f8d,江岸区新荣社区养老院,政府机构,福利机构,湖北省,武汉市,江岸区,武汉市江岸区后湖大道360号,16999542fb012462b8df8f8d,1,0,114.335093,30.660352,(027)82339928,life,http://api.map.baidu.com/place/detail?uid=16999542fb012462b8df8f8d&output=html&source=placeapi_v2,,00:00-24:00,0,,,,,,,10,0,,,,,,,114.33429595335,30.660001266616,0
0f3d87c6dbcbaba62fb17eb9,江岸区航务社区养老院,政府机构,福利机构,湖北省,武汉市,江岸区,武汉市江岸区发展大道东新熙园北侧约40米,0f3d87c6dbcbaba62fb17eb9,1,0,114.326389,30.639835,,life,http://api.map.baidu.com/place/detail?uid=0f3d87c6dbcbaba62fb17eb9&output=html&source=placeapi_v2,,,,,,,,,,29,,,,,,,,114.32611870434,30.639926283422,0
40cf611c153090aab23c8184,江岸区丹南社区养老院,政府机构,福利机构,湖北省,武汉市,江岸区,武汉市江岸区丹水池街办事处丹水池路145号,40cf611c153090aab23c8184,1,0,114.340433,30.649962,"13638641087,15827432903,18108642950",life,http://api.map.baidu.com/place/detail?uid=40cf611c153090aab23c8184&output=html&source=placeapi_v2,,,,,,,,,,9,,,,,,,,114.34036259763,30.650124348913,0
13355ef409ed6b9731870af5,幸福社区养老院,政府机构,福利机构,湖北省,武汉市,江岸区,武汉市江岸区幸福街圣诚・阳光丽景5栋2层,13355ef409ed6b9731870af5,1,0,114.321266,30.664693,13886187376,life,http://api.map.baidu.com/place/detail?uid=13355ef409ed6b9731870af5&output=html&source=placeapi_v2,,,,,,,,,,2,,,,,,,,,,0
53321958d81d9760e7e9650e,江岸区新马社区养老院,政府机构,福利机构,湖北省,武汉市,江岸区,武汉市江岸区解放大道2695号6号楼,53321958d81d9760e7e9650e,1,0,114.339113,30.660158,(027)82727790,life,http://api.map.baidu.com/place/detail?uid=53321958d81d9760e7e9650e&output=html&source=placeapi_v2,,00:00-24:00,0,,,,,,,12,0,,,,,,,114.33958613918,30.660505725738,0
c51aa0245fc81f4eacb22a8e,王氏疼痛理疗康复中心,医疗,其他,湖北省,武汉市,江岸区,湖北省武汉市江岸区后湖大道同安家园39栋2单元101室,c51aa0245fc81f4eacb22a8e,1,0,114.307275,30.657203,,hospital,http://api.map.baidu.com/place/detail?uid=c51aa0245fc81f4eacb22a8e&output=html&source=placeapi_v2,,09:00-23:00,0.0,,,,,,,1,,,,,,,,,,0
e136eb01e3b0db6297ec846d,玉山敬老院,政府机构,福利机构,湖北省,武汉市,江岸区,武汉市江岸区丹水池冯家墩257-3号,e136eb01e3b0db6297ec846d,1,0,114.347972,30.657141,,life,http://api.map.baidu.com/place/detail?uid=e136eb01e3b0db6297ec846d&output=html&source=placeapi_v2,,,,,,,,,,,,,,,,,,114.34726541701,30.657250101724,0
124484f8a72c461d90114ce0,玉上民族敬老院,政府机构,福利机构,湖北省,武汉市,江岸区,武汉市江岸区丹水池街办事处冯家墩257-3号,124484f8a72c461d90114ce0,1,0,114.347967,30.657135,,life,http://api.map.baidu.com/place/detail?uid=124484f8a72c461d90114ce0&output=html&source=placeapi_v2,,,,,,,,,,,,,,,,,,,,0
20051fffce7ddd24ca09f0c5,武汉市青山区社区矫正中心,医疗,疗养院,湖北省,武汉市,青山区,武汉市青山区冶金一街兴达花园小区南侧,,1,0,114.401599,30.639056,,hospital,http://api.map.baidu.com/place/detail?uid=20051fffce7ddd24ca09f0c5&output=html&source=placeapi_v2,,,,,,,,,,7,,,,,,,,114.40158391924,30.639164453504,0
13c0aa9dec3e042302294f81,青山区钢城社区养老院,政府机构,福利机构,湖北省,武汉市,青山区,武汉市青山区红钢四街19街坊,13c0aa9dec3e042302294f81,1,0,114.40812,30.642666,"13986031333,18907171989",life,http://api.map.baidu.com/place/detail?uid=13c0aa9dec3e042302294f81&output=html&source=placeapi_v2,,,,,,,,,,6,,,,,,,,114.40811775065,30.642827506017,0
19a7004b89e6fbf0cafa5f38,青山区青宜居社区养老院,政府机构,福利机构,湖北省,武汉市,青山区,武汉市青山区工人村路青宜居东侧约40米,19a7004b89e6fbf0cafa5f38,1,0,114.430749,30.649088,,life,http://api.map.baidu.com/place/detail?uid=19a7004b89e6fbf0cafa5f38&output=html&source=placeapi_v2,,,,,,,,,,6,,,,,,,,,,0
e22206178c5c24db471a32b0,江岸区谌家矶社区养老院,政府机构,福利机构,湖北省,武汉市,江岸区,武汉市江岸区谌家矶街办事处谌家矶大道77号,e22206178c5c24db471a32b0,1,0,114.377824,30.683008,,life,http://api.map.baidu.com/place/detail?uid=e22206178c5c24db471a32b0&output=html&source=placeapi_v2,,,,,,,,,,6,,,,,,,,114.37791294652,30.68287856855,0
eec4fb7e30c3a561f72310a9,佳宁养老院,政府机构,福利机构,湖北省,武汉市,黄陂区,湖北省武汉市黄陂区佳海都市工业城武汉佳宁医院,eec4fb7e30c3a561f72310a9,1,0,114.248055,30.736093,,life,http://api.map.baidu.com/place/detail?uid=eec4fb7e30c3a561f72310a9&output=html&source=placeapi_v2,,,,,,,,,,8,,,,,,,,114.24785611848,30.736134414885,0
59c9e425643768c21e58001e,奇仁中康复,医疗,疗养院,湖北省,武汉市,黄陂区,武汉市黄陂区滠新道汉北・裕丰园西北侧约90米,59c9e425643768c21e58001e,1,0,114.355214,30.719551,,hospital,http://api.map.baidu.com/place/detail?uid=59c9e425643768c21e58001e&output=html&source=placeapi_v2,,,,,,,,,,2,,,,,,,,,,0
bac66c1bdb19c4f130169b1f,同寿堂颐养院,政府机构,行政单位,湖北省,武汉市,黄陂区,武汉市黄陂区梅教街汉北大全景西侧约90米,,1,0,114.414718,30.724317,,life,http://api.map.baidu.com/place/detail?uid=bac66c1bdb19c4f130169b1f&output=html&source=placeapi_v2,,,,,,,,,,4,,,,,,,,114.414833992,30.724313711876,0
fad467c2570681f01a94c65c,农工民主党柏泉敬老院医卫服务点,医疗,,湖北省,武汉市,东西湖区,东红星路南50米,fad467c2570681f01a94c65c,1,0,114.147958,30.759306,,hospital,http://api.map.baidu.com/place/detail?uid=fad467c2570681f01a94c65c&output=html&source=placeapi_v2,,09:00-21:00,,,,,,,,,,,,,,,,,,0
7c5e480b0bb762b7adb22a7b,东山安养居老年公寓,医疗,疗养院,湖北省,武汉市,东西湖区,武汉市东西湖区东柏路东山娅丽幼儿园南侧约100米,7c5e480b0bb762b7adb22a7b,1,0,114.027522,30.782255,,life,http://api.map.baidu.com/place/detail?uid=7c5e480b0bb762b7adb22a7b&output=html&source=placeapi_v2,,,,,,,,,,,,,,,,,,114.02749196469,30.782420681246,0
5da66f76d4ec8611223bf290,东山办事处残疾人社区康复指导站,医疗,疗养院,湖北省,武汉市,东西湖区,武汉市东西湖区东柏路武汉市东西湖区东山小学东侧约80米,5da66f76d4ec8611223bf290,1,0,114.024918,30.780795,,hospital,http://api.map.baidu.com/place/detail?uid=5da66f76d4ec8611223bf290&output=html&source=placeapi_v2,,,0.0,,,,,,,,,,,,,,,,,0
32364e0839c8e43f5fd4feeb,武汉市东西湖区东山光荣院,政府机构,行政单位,湖北省,武汉市,东西湖区,湖北省武汉市东西湖区东山新街448号附6号,32364e0839c8e43f5fd4feeb,1,0,114.024319,30.779693,,life,http://api.map.baidu.com/place/detail?uid=32364e0839c8e43f5fd4feeb&output=html&source=placeapi_v2,,,,,,,,,,,,,,,,,,,,0
8c8a4c4e902ce0c7b5147f96,武汉市黄陂区社区矫正中心,医疗,疗养院,湖北省,武汉市,黄陂区,湖北省武汉市黄陂区百秀街211号,8c8a4c4e902ce0c7b5147f96,1,0,114.379138,30.889077,,hospital,http://api.map.baidu.com/place/detail?uid=8c8a4c4e902ce0c7b5147f96&output=html&source=placeapi_v2,,08:30-17:30,,,,,,,,2,,,,,,,,114.37913188781,30.889127967302,0
41572e00bd4f2eb4b45f1e12,甘露老年公寓,医疗,疗养院,湖北省,武汉市,黄陂区,武汉市黄陂区前川街(二桥桥头),,1,0,114.408343,30.891769,,life,http://api.map.baidu.com/place/detail?uid=41572e00bd4f2eb4b45f1e12&output=html&source=placeapi_v2,,,,,,,,,,0,,,,,,,,114.40824911975,30.891759463339,0
