uid,name,cat_L1,cat_L2,province,city,area,address,street_id,detail,child_num,loc_lng,loc_lat,telephone,type,detail_url,price,shop_hours,overall_rating,taste_rating,service_rating,environment_rating,facility_rating,hygiene_rating,technology_rating,image_num,comment_num,groupon_num,discount_num,favorite_num,checkin_num,brand,content_tag,naviloc_lng,naviloc_lat,child_num
ef313a8dfa7c9bdcd6b74e9f,武汉罐子把农庄,美食,中餐厅,湖北省,武汉市,汉南区,湖北省武汉市汉南区S13(汉洪高速),,1,0,114.035226,30.333958,,cater,http://api.map.baidu.com/place/detail?uid=ef313a8dfa7c9bdcd6b74e9f&output=html&source=placeapi_v2,,,3.0,,,,,,,,0,,,,,,,,,0
c6f075e1968cdcee2b201a02,柴味鱼(武汉总店),美食,中餐厅,湖北省,武汉市,汉南区,湖北省武汉市汉南区纱帽正街楚世家二楼,c6f075e1968cdcee2b201a02,1,0,114.072516,30.32254,(027)84854177,cater,http://api.map.baidu.com/place/detail?uid=c6f075e1968cdcee2b201a02&output=html&source=placeapi_v2,82.0,10:00-21:00,3.6,,,,,,,,15,,,,,,,114.07256963676,30.322401112003,0
18b2377c14c71e14a8175a2e,温州阿咚海鲜餐厅,美食,中餐厅,湖北省,武汉市,汉南区,武汉市汉南区纱帽街朱家山路圣特立国际花园5号楼1-2商铺,18b2377c14c71e14a8175a2e,1,0,114.088187,30.324016,18986253303,cater,http://api.map.baidu.com/place/detail?uid=18b2377c14c71e14a8175a2e&output=html&source=placeapi_v2,,"10:00-14:00,16:30-22:00",3.5,,,,,,,,2,,,,,,,114.08822394695,30.323976933127,0
284d91a763cdec66471a3214,彭厨(汉南店),美食,中餐厅,湖北省,武汉市,汉南区,湖北省武汉市汉南区马影河大道59号,284d91a763cdec66471a3214,1,0,114.058074,30.328338,"(027)84755777,18907141946",cater,http://api.map.baidu.com/place/detail?uid=284d91a763cdec66471a3214&output=html&source=placeapi_v2,65.0,"11:00-14:00,16:50-21:00",5,,,,,,,,2,,,,,,,114.05816044358,30.328186702403,0
c4afd981e719710852e5c53e,吃货鱼头泡饭烧烤,美食,中餐厅,湖北省,武汉市,汉南区,湖北武汉市汉南区纱帽正街568号,c4afd981e719710852e5c53e,1,0,114.072698,30.322488,18064027760,cater,http://api.map.baidu.com/place/detail?uid=c4afd981e719710852e5c53e&output=html&source=placeapi_v2,,09:00-23:00,3.5,,,,,,,,,,,,,,,,,0
c8be7ee5dccfcf0d0f0e6bf6,聂记餐厅,美食,中餐厅,湖北省,武汉市,汉南区,湖北省武汉市汉南区纱帽正街568号568附5300号,c8be7ee5dccfcf0d0f0e6bf6,1,0,114.070555,30.323113,15827133020,cater,http://api.map.baidu.com/place/detail?uid=c8be7ee5dccfcf0d0f0e6bf6&output=html&source=placeapi_v2,,,,,,,,,,,,,,,,,,114.07058134531,30.322967450541,0
d7008546cb95d7aa5fbe8662,心爽餐厅,美食,中餐厅,湖北省,武汉市,汉南区,湖北省武汉市汉南区银莲路173附6号,d7008546cb95d7aa5fbe8662,1,0,114.080036,30.31412,13628617686,cater,http://api.map.baidu.com/place/detail?uid=d7008546cb95d7aa5fbe8662&output=html&source=placeapi_v2,,,0,,,,,,,,1,,,,,,,114.0800618317,30.314219598019,0
87d8af27b873ca3000ec01ac,小厨师(纱帽正街店),美食,中餐厅,湖北省,武汉市,汉南区,湖北省武汉市汉南区纱帽正街219号,87d8af27b873ca3000ec01ac,1,0,114.082812,30.318902,(027)84858789,cater,http://api.map.baidu.com/place/detail?uid=87d8af27b873ca3000ec01ac&output=html&source=placeapi_v2,,"11:00-14:00,17:00-20:30",3.5,,,,,,,,4,,,,,,,114.08288848832,30.319012817259,0
4550e0f0b1d5b95fc7f50d74,饭中式简餐农家小炒,美食,中餐厅,湖北省,武汉市,汉南区,湖北武汉市汉南区薇湖路431号1楼7饭,4550e0f0b1d5b95fc7f50d74,1,0,114.081079,30.312636,13871218353,cater,http://api.map.baidu.com/place/detail?uid=4550e0f0b1d5b95fc7f50d74&output=html&source=placeapi_v2,,,,,,,,,,,,,,,,,,,,0
2ffbd46eac5024115d0d0213,好汉餐厅,美食,中餐厅,湖北省,武汉市,汉南区,湖北省武汉市汉南区纱帽正街紫阳楚世家9栋9111室,2ffbd46eac5024115d0d0213,1,0,114.07084,30.323024,,cater,http://api.map.baidu.com/place/detail?uid=2ffbd46eac5024115d0d0213&output=html&source=placeapi_v2,,,,,,,,,,,,,,,,,,,,0
07f4dbfcc9c062c47c29bd6e,双红餐厅(朱家山路店),美食,中餐厅,湖北省,武汉市,汉南区,湖北省武汉市汉南区育才路170号,07f4dbfcc9c062c47c29bd6e,1,0,114.082723,30.315686,15871466258,cater,http://api.map.baidu.com/place/detail?uid=07f4dbfcc9c062c47c29bd6e&output=html&source=placeapi_v2,,07:24-22:24,3.4,,,,,,,,,,,,,,,,,0
4f9e1c7ca1aea11f2afc48c8,刘涛酒店,美食,中餐厅,湖北省,武汉市,汉南区,武汉市汉南区近郊薇湖路29号,4f9e1c7ca1aea11f2afc48c8,1,0,114.091547,30.311905,(027)84751406,cater,http://api.map.baidu.com/place/detail?uid=4f9e1c7ca1aea11f2afc48c8&output=html&source=placeapi_v2,69.0,"11:30-14:00,17:00-20:30",3.9,,,,,,,,9,,,,,,,114.09148858051,30.312024320858,0
703b859787712ee03904b142,临江小院,美食,中餐厅,湖北省,武汉市,汉南区,湖北省武汉市汉南区滨江路319号,703b859787712ee03904b142,1,0,114.091824,30.311461,(027)84857369,cater,http://api.map.baidu.com/place/detail?uid=703b859787712ee03904b142&output=html&source=placeapi_v2,40.0,09:30-20:00,3.0,,,,,,,,17,,,,,,,,,0
3185795d93e697f3a4c7568a,教育餐厅,美食,中餐厅,湖北省,武汉市,汉南区,湖北武汉市汉南区育才路71号,3185795d93e697f3a4c7568a,1,0,114.081019,30.31575,13995545841,cater,http://api.map.baidu.com/place/detail?uid=3185795d93e697f3a4c7568a&output=html&source=placeapi_v2,,,,,,,,,,,,,,,,,,114.08104799328,30.315855525477,0
399fe3f383f08d983a04b1e4,牛香旺大盆骨,美食,中餐厅,湖北省,武汉市,汉南区,武汉市汉南区朱家山路武汉市汉南区社区教育学院东南侧约50米,399fe3f383f08d983a04b1e4,1,0,114.083649,30.315822,,cater,http://api.map.baidu.com/place/detail?uid=399fe3f383f08d983a04b1e4&output=html&source=placeapi_v2,,,4.5,,,,,,,,2,,,,,,,,,0
a01cbd6e95883f94018972c7,凝德烤鸭,美食,中餐厅,湖北省,武汉市,汉南区,湖北省武汉市汉南区绿苑路200号碧霞轩175号,a01cbd6e95883f94018972c7,1,0,114.088414,30.319465,,cater,http://api.map.baidu.com/place/detail?uid=a01cbd6e95883f94018972c7&output=html&source=placeapi_v2,,09:00-20:00,3.5,,,,,,,,1,,,,,,,,,0
e0cf886a1bedf943b45f1e22,老夏美食(汉南店),美食,中餐厅,湖北省,武汉市,汉南区,湖北省武汉市汉南区朱家山美食城16~18号,e0cf886a1bedf943b45f1e22,1,0,114.083715,30.316039,"13871429080,15102744748",cater,http://api.map.baidu.com/place/detail?uid=e0cf886a1bedf943b45f1e22&output=html&source=placeapi_v2,50.0,17:00-24:00,3.8,,,,,,,,18,,,,,,,114.0832933115,30.316134560088,0
db12efef0f1b8b17c9c3db1e,鸿树林餐厅,美食,中餐厅,湖北省,武汉市,汉南区,武汉市汉南区育才路武汉市汉南区社区教育学院西南侧约30米,db12efef0f1b8b17c9c3db1e,1,0,114.080736,30.315787,,cater,http://api.map.baidu.com/place/detail?uid=db12efef0f1b8b17c9c3db1e&output=html&source=placeapi_v2,,,,,,,,,,,,,,,,,,114.08077090376,30.315913242942,0
bd3fd840a9c31c7f4d554776,鲜味坊餐厅,美食,中餐厅,湖北省,武汉市,汉南区,汉南区纱帽街永丰学府苑2栋1层,,1,0,114.081857,30.324021,18971309412,cater,http://api.map.baidu.com/place/detail?uid=bd3fd840a9c31c7f4d554776&output=html&source=placeapi_v2,,07:00-21:00,,,,,,,,,,,,,,,,,,0
93ee7ffa2e9863a6a6da39a0,滋味乐美食,美食,中餐厅,湖北省,武汉市,汉南区,湖北省武汉市汉南区纱帽正街568号附62,93ee7ffa2e9863a6a6da39a0,1,0,114.073273,30.32266,,cater,http://api.map.baidu.com/place/detail?uid=93ee7ffa2e9863a6a6da39a0&output=html&source=placeapi_v2,,,,,,,,,,,,,,,,,,,,0
a5ce846d8e0d4d12b9df8f56,捞de爽火锅店(汉南店),美食,中餐厅,湖北省,武汉市,汉南区,湖北省武汉市汉南区汉南大道528号南国江城a区,,1,0,114.091403,30.316256,13886057910,cater,http://api.map.baidu.com/place/detail?uid=a5ce846d8e0d4d12b9df8f56&output=html&source=placeapi_v2,,11:00-23:00,3.5,,,,,,,,1,,,,,,,114.09156441816,30.316462432953,0
15d59c1d0537e75cadcb6627,岔吃岔喝,美食,中餐厅,湖北省,武汉市,汉南区,武汉市汉南区纱帽街汪杨郭御河兰亭1栋1层34商室(原城关学校西侧),15d59c1d0537e75cadcb6627,1,0,114.087939,30.32322,13125000082,cater,http://api.map.baidu.com/place/detail?uid=15d59c1d0537e75cadcb6627&output=html&source=placeapi_v2,,09:00-21:30,,,,,,,,1,,,,,,,,,,0
e8b5a5b3ba97819681a12ec7,小二筷上菜(汉南店),美食,中餐厅,湖北省,武汉市,汉南区,湖北省武汉市汉南区兴城大道39附6号,,1,0,114.082621,30.323093,,cater,http://api.map.baidu.com/place/detail?uid=e8b5a5b3ba97819681a12ec7&output=html&source=placeapi_v2,,09:00-21:00,3.4,,,,,,,,,,,,,,,114.08264389207,30.323081075852,0
c64295ae18e77ff1f42310b7,汉南主题宴会酒店,美食,中餐厅,湖北省,武汉市,汉南区,湖北省武汉市汉南区月亮湾路339附1号,c64295ae18e77ff1f42310b7,1,0,114.082263,30.322517,(027)84753577,cater,http://api.map.baidu.com/place/detail?uid=c64295ae18e77ff1f42310b7&output=html&source=placeapi_v2,,08:30-20:30,,,,,,,,1,,,,,,,,114.08232555419,30.322483254446,0
5c10109a2a4815bf4e2fdfca,湘西部落(汉南店),美食,中餐厅,湖北省,武汉市,汉南区,湖北省武汉市汉南区兴一路1-11-2号,,1,0,114.087392,30.328802,(027)84857177,cater,http://api.map.baidu.com/place/detail?uid=5c10109a2a4815bf4e2fdfca&output=html&source=placeapi_v2,69.0,"11:30-13:00,17:30-21:30",3.9,,,,,,,,0,,,,,,,,,0
3c1677802bc7e7f23686f405,山里风情(汉南店),美食,中餐厅,湖北省,武汉市,汉南区,湖北省武汉市汉南区南江明珠1栋1层1商室,3c1677802bc7e7f23686f405,1,0,114.090395,30.330974,15392927698,cater,http://api.map.baidu.com/place/detail?uid=3c1677802bc7e7f23686f405&output=html&source=placeapi_v2,,"10:00-14:00,16:00-21:00",3.5,,,,,,,,0,,,,,,,114.09036634002,30.330847966329,0
98f5f1e5a583346c14948eac,食客来,美食,中餐厅,湖北省,武汉市,汉南区,武汉市汉南区纱帽正街汉南区紫阳楚世家,98f5f1e5a583346c14948eac,1,0,114.07213,30.322726,18571642983,cater,http://api.map.baidu.com/place/detail?uid=98f5f1e5a583346c14948eac&output=html&source=placeapi_v2,,,,,,,,,,,,,,,,,,,,0
802ad89c5c331d79902ca3c9,小罐仙,美食,中餐厅,湖北省,武汉市,汉南区,湖北省武汉市汉南区银莲路290号,802ad89c5c331d79902ca3c9,1,0,114.079076,30.315258,13037189106,cater,http://api.map.baidu.com/place/detail?uid=802ad89c5c331d79902ca3c9&output=html&source=placeapi_v2,,09:00-21:00,5,,,,,,,,5,,,,,,,114.07892508446,30.315342379583,0
bb71df919fa95c819ff779d8,刘记上上鲜鱼村(汉南店),美食,中餐厅,湖北省,武汉市,汉南区,武汉市汉南区月亮湾路圣特立小区2号楼门面,bb71df919fa95c819ff779d8,1,0,114.085107,30.322878,15327333723,cater,http://api.map.baidu.com/place/detail?uid=bb71df919fa95c819ff779d8&output=html&source=placeapi_v2,43.0,11:00-21:30,3.6,,,,,,,,0,,,,,,,114.08517257471,30.322998689083,0
20d0983e67a95f8872210b82,三宝麦香园,美食,中餐厅,湖北省,武汉市,汉南区,湖北省武汉市汉南区纱帽正街388号,20d0983e67a95f8872210b82,1,0,114.084796,30.318635,13871161379,cater,http://api.map.baidu.com/place/detail?uid=20d0983e67a95f8872210b82&output=html&source=placeapi_v2,,,,,,,,,,,,,,,,,,,,0
0f72ebf41e9d795921022055,鱼羊鲜(汉南店),美食,中餐厅,湖北省,武汉市,汉南区,武汉市汉南区纱帽正街汉南区紫阳楚世家,0f72ebf41e9d795921022055,1,0,114.070904,30.323022,,cater,http://api.map.baidu.com/place/detail?uid=0f72ebf41e9d795921022055&output=html&source=placeapi_v2,,,3.4,,,,,,,,0,,,,,,,,,0
9a8f69073412d52a71210b5f,盛攀板栗,美食,中餐厅,湖北省,武汉市,汉南区,武汉市汉南区朱家山美食城后面,,1,0,114.083542,30.316394,,cater,http://api.map.baidu.com/place/detail?uid=9a8f69073412d52a71210b5f&output=html&source=placeapi_v2,,,,,,,,,,,,,,,,,,,,0
2dbcd47c0c68a849f6c59c8c,鲜蚝记小海鲜烧烤,美食,中餐厅,湖北省,武汉市,汉南区,湖北省武汉市汉南区纱冒街朱家山美食城182号,,1,0,114.083649,30.315822,15337173789,cater,http://api.map.baidu.com/place/detail?uid=2dbcd47c0c68a849f6c59c8c&output=html&source=placeapi_v2,,10:30-23:30,,,,,,,,,,,,,,,,114.08322984621,30.316021957354,0
469c70febcf0a7b72dfaa70e,小时光(纱帽正街店),美食,中餐厅,湖北省,武汉市,汉南区,湖北省武汉市汉南区商业街5-1-26号,469c70febcf0a7b72dfaa70e,1,0,114.079383,30.322437,,cater,http://api.map.baidu.com/place/detail?uid=469c70febcf0a7b72dfaa70e&output=html&source=placeapi_v2,,,,,,,,,,,,,,,,,,114.07944141969,30.322618565209,0
dc437080efc876dc88fc06d4,朱家山美食城,美食,其他,湖北省,武汉市,汉南区,武汉市汉南区育才路182号,dc437080efc876dc88fc06d4,1,0,114.083158,30.315669,13098864541,cater,http://api.map.baidu.com/place/detail?uid=dc437080efc876dc88fc06d4&output=html&source=placeapi_v2,48.0,10:00-21:00,0,,,,,,,,0,,,,,,,114.08310489102,30.315753275822,0
482b5cb369199140be48429e,锦锦家常菜馆,美食,中餐厅,湖北省,武汉市,汉南区,薇湖路415附41号,482b5cb369199140be48429e,1,0,114.079974,30.312713,13476233148,cater,http://api.map.baidu.com/place/detail?uid=482b5cb369199140be48429e&output=html&source=placeapi_v2,,,,,,,,,,,,,,,,,,114.07998298742,30.312802476736,0
a5ef680f353daeceb8df8fbe,东明酒楼(薇湖路店),美食,中餐厅,湖北省,武汉市,汉南区,湖北省武汉市汉南区薇湖路351号,a5ef680f353daeceb8df8fbe,1,0,114.083012,30.312529,(027)84853284,cater,http://api.map.baidu.com/place/detail?uid=a5ef680f353daeceb8df8fbe&output=html&source=placeapi_v2,,09:05-20:30,3.5,,,,,,,,1,,,,,,,,,0
329d913093d8f43e6c47600a,鸽子烧甲鱼,美食,中餐厅,湖北省,武汉市,汉南区,武汉市汉南区兴城大道博学佳园,,1,0,114.079077,30.315291,,cater,http://api.map.baidu.com/place/detail?uid=329d913093d8f43e6c47600a&output=html&source=placeapi_v2,,,,,,,,,,,,,,,,,,114.07894243793,30.315365794997,0
3e268b9f50af94efeb1e9707,小稻田家常菜,美食,中餐厅,湖北省,武汉市,汉南区,湖北省武汉市汉南区沙帽街圣特立国际花园b区28-5号,3e268b9f50af94efeb1e9707,1,0,114.086258,30.322384,13554258199,cater,http://api.map.baidu.com/place/detail?uid=3e268b9f50af94efeb1e9707&output=html&source=placeapi_v2,,"11:00-14:00,16:30-20:00",3.5,,,,,,,,,,,,,,,114.08623800008,30.322459014254,0
65f00c00a4842d6b4054d71a,育才路291,美食,,湖北省,武汉市,汉南区,武汉市汉南区育才路武汉市汉南区人民医院(兴城大道)西南侧约290米,65f00c00a4842d6b4054d71a,1,0,114.07606,30.316992,,cater,http://api.map.baidu.com/place/detail?uid=65f00c00a4842d6b4054d71a&output=html&source=placeapi_v2,,,,,,,,,,,,,,,,,,,,0
8deded78bba4c9ddc1f1cf32,朱家山格林农家菜,美食,中餐厅,湖北省,武汉市,汉南区,湖北省武汉市汉南区育才路142号,8deded78bba4c9ddc1f1cf32,1,0,114.083584,30.315507,13098864541,cater,http://api.map.baidu.com/place/detail?uid=8deded78bba4c9ddc1f1cf32&output=html&source=placeapi_v2,,,,,,,,,,,,,,,,,,114.0835629891,30.315429693233,0
4bb1a1851a07f3fa2102202e,小滋生活主题餐厅(汉南店),美食,中餐厅,湖北省,武汉市,汉南区,武汉市汉南区兴一路东庭・郡园,,1,0,114.087348,30.328731,15971451840,cater,http://api.map.baidu.com/place/detail?uid=4bb1a1851a07f3fa2102202e&output=html&source=placeapi_v2,,09:30-22:30,3.4,,,,,,,,3,,,,,,,,,0
54f1828ab3c5f4905fd4fecd,楚味堂,美食,中餐厅,湖北省,武汉市,汉南区,湖北省武汉市汉南区纱帽街月亮湾西路圣特立国际花园(二期)1栋1单元1层10室,54f1828ab3c5f4905fd4fecd,1,0,114.084636,30.323448,18986143690,cater,http://api.map.baidu.com/place/detail?uid=54f1828ab3c5f4905fd4fecd&output=html&source=placeapi_v2,,10:00-21:00,,,,,,,,,1,,,,,,,,,0
389dc3c5a7514d227f29bd75,老街烧烤(牌洲湾店),美食,中餐厅,湖北省,武汉市,汉南区,湖北省武汉市汉南区梅村路5号,389dc3c5a7514d227f29bd75,1,0,114.088578,30.31294,13419575240,cater,http://api.map.baidu.com/place/detail?uid=389dc3c5a7514d227f29bd75&output=html&source=placeapi_v2,,16:00-03:30,0,,,,,,,,0,,,,,,,114.08858072246,30.312818615771,0
f81bba094e1291979122e0dc,郭场火锅鸡(育才路店),美食,中餐厅,湖北省,武汉市,汉南区,武汉市汉南区育才路纱帽广场北侧约50米,f81bba094e1291979122e0dc,1,0,114.083813,30.315695,17707278816,cater,http://api.map.baidu.com/place/detail?uid=f81bba094e1291979122e0dc&output=html&source=placeapi_v2,,,,,,,,,,,,,,,,,,,,0
9457214027a2141a22f01764,鲁二哥(银莲路店),美食,中餐厅,湖北省,武汉市,汉南区,湖北省武汉市汉南区汉南大道344号,9457214027a2141a22f01764,1,0,114.086958,30.314118,15999809088,cater,http://api.map.baidu.com/place/detail?uid=9457214027a2141a22f01764&output=html&source=placeapi_v2,14.0,10:30-21:00,3.5,,,,,,,,0,,,,,,,114.08684203687,30.314126262497,0
c10c0643d77967867dc87662,乡土粑,美食,中餐厅,湖北省,武汉市,汉南区,武汉市汉南区育才路武汉市汉南区社区教育学院东南侧约50米,,1,0,114.083566,30.31568,18963943394,cater,http://api.map.baidu.com/place/detail?uid=c10c0643d77967867dc87662&output=html&source=placeapi_v2,,,,,,,,,,,,,,,,,,,,0
9cbe1d00649f14f8871541ec,小吴牛骨头,美食,中餐厅,湖北省,武汉市,汉南区,武汉市汉南区碧栖路中央名都北侧约60米,9cbe1d00649f14f8871541ec,1,0,114.089585,30.320748,,cater,http://api.map.baidu.com/place/detail?uid=9cbe1d00649f14f8871541ec&output=html&source=placeapi_v2,41.0,,3.7,,,,,,,,0,,,,,,,114.08967036435,30.320707862021,0
6b69b03b6a28b7be9d9d68d5,凤爪王烧烤(圣特立店),美食,中餐厅,湖北省,武汉市,汉南区,武汉市汉南区纱帽街月亮湾西路圣特立国际花园(一期)第9幢1层31号,6b69b03b6a28b7be9d9d68d5,1,0,114.086594,30.322586,15027177276,cater,http://api.map.baidu.com/place/detail?uid=6b69b03b6a28b7be9d9d68d5&output=html&source=placeapi_v2,59.0,17:30-02:00,3.2,,,,,,,,,,,,,,,,,0
ef76a1eeb8787ac1cf06a433,王波美食,美食,中餐厅,湖北省,武汉市,汉南区,武汉市汉南区育才路武汉市汉南区社区教育学院东南侧约40米,,1,0,114.08349,30.315709,13037171537,cater,http://api.map.baidu.com/place/detail?uid=ef76a1eeb8787ac1cf06a433&output=html&source=placeapi_v2,,,,,,,,,,,,,,,,,,114.08342146915,30.315458853026,0
84326c3679b5ef2bb5f42fe2,商业大酒店(纱帽正街店),美食,中餐厅,湖北省,武汉市,汉南区,武汉市汉南区纱帽正街99号,84326c3679b5ef2bb5f42fe2,1,0,114.091299,30.314682,(027)84851867,cater,http://api.map.baidu.com/place/detail?uid=84326c3679b5ef2bb5f42fe2&output=html&source=placeapi_v2,,"08:30-13:00,17:00-20:30",3.5,,,,,,,12,4,,,,,,,114.09135059001,30.314755512967,0
852fdf4c6bdf08d12202626b,一品豆花(百花街店),美食,中餐厅,湖北省,武汉市,汉南区,湖北省武汉市汉南区纱帽街百花街276号,852fdf4c6bdf08d12202626b,1,0,114.088967,30.31418,,cater,http://api.map.baidu.com/place/detail?uid=852fdf4c6bdf08d12202626b&output=html&source=placeapi_v2,7.0,10:30-21:30,3.3,,,,,,,,4,,,,,,,114.08882351108,30.314208504317,0
9cf5feb2cb28e870715e80fb,517私房菜(汉南店),美食,中餐厅,湖北省,武汉市,汉南区,湖北省武汉市汉南区薇湖路205号,9cf5feb2cb28e870715e80fb,1,0,114.088191,30.312135,(027)51884376,cater,http://api.map.baidu.com/place/detail?uid=9cf5feb2cb28e870715e80fb&output=html&source=placeapi_v2,51.0,09:00-21:00,4.2,,,,,,,,8,,,,,,,,,0
501441efda0a3fc9a80dd80e,重庆梭边鱼,美食,中餐厅,湖北省,武汉市,汉南区,纱帽街朱家山美食城30号,501441efda0a3fc9a80dd80e,1,0,114.083794,30.315821,15927533226,cater,http://api.map.baidu.com/place/detail?uid=501441efda0a3fc9a80dd80e&output=html&source=placeapi_v2,33.0,"11:00-14:00,16:00-24:00",,,,,,,,,,,,,,,,114.08400714458,30.315760317759,0
c1b6c3c4c41d187c21f01788,干锅锅烤鱼,美食,中餐厅,湖北省,武汉市,汉南区,湖北省武汉市汉南区纱帽街朱家山路88附11号,,1,0,114.086732,30.320032,15807158623,cater,http://api.map.baidu.com/place/detail?uid=c1b6c3c4c41d187c21f01788&output=html&source=placeapi_v2,,16:30-23:30,3.6,,,,,,,,,,,,,,,114.0867895929,30.320105139133,0
d82d91ec282a1582c909f08e,独一味秘制炭火烤鱼,美食,中餐厅,湖北省,武汉市,汉南区,沙帽正街朱家山路左岸风景苑西门外,d82d91ec282a1582c909f08e,1,0,114.085118,30.319124,,cater,http://api.map.baidu.com/place/detail?uid=d82d91ec282a1582c909f08e&output=html&source=placeapi_v2,,,,,,,,,,1,,,,,,,,,,0
0550a061296e1aec8b36ee72,地之母牛肉馆,美食,中餐厅,湖北省,武汉市,汉南区,湖北省武汉市汉南区银莲路292号,,1,0,114.080711,30.312664,13995618961,cater,http://api.map.baidu.com/place/detail?uid=0550a061296e1aec8b36ee72&output=html&source=placeapi_v2,,,,,,,,,,,,,,,,,,114.08065947525,30.312768365436,0
0bda754b5acbf1c128d7ab2c,洪湖一绝(圣特立店),美食,中餐厅,湖北省,武汉市,汉南区,湖北省武汉市汉南区汉南大道680号,0bda754b5acbf1c128d7ab2c,1,0,114.086634,30.322553,13349980585,cater,http://api.map.baidu.com/place/detail?uid=0bda754b5acbf1c128d7ab2c&output=html&source=placeapi_v2,,,,,,,,,,,,,,,,,,114.08659090658,30.322398875884,0
f1e36e5d7d4ec5a272455bd5,聚海酒家(薇湖路店),美食,中餐厅,湖北省,武汉市,汉南区,湖北省武汉市汉南区薇湖路154号,f1e36e5d7d4ec5a272455bd5,1,0,114.089245,30.312376,13871301645,cater,http://api.map.baidu.com/place/detail?uid=f1e36e5d7d4ec5a272455bd5&output=html&source=placeapi_v2,,"11:00-14:00,16:30-20:30",0,,,,,,,,1,,,,,,,,,0
9756e9f44268cda62bb97ce1,让鸭脑壳飞(汉南大道店),美食,中餐厅,湖北省,武汉市,汉南区,武汉市汉南区纱帽街汉南大道315号附1号中国工商银行汉南支行旁,9756e9f44268cda62bb97ce1,1,0,114.089348,30.314981,13986159558,cater,http://api.map.baidu.com/place/detail?uid=9756e9f44268cda62bb97ce1&output=html&source=placeapi_v2,56.0,09:00-22:30,3.5,,,,,,,,0,,,,,,,,,0
fb9d5339b4e8b0286e20b93e,源味餐厅(百花街店),美食,中餐厅,湖北省,武汉市,汉南区,湖北武汉市汉南区百花街梅村路10号,fb9d5339b4e8b0286e20b93e,1,0,114.088407,30.312902,15927093149,cater,http://api.map.baidu.com/place/detail?uid=fb9d5339b4e8b0286e20b93e&output=html&source=placeapi_v2,70.0,11:00-20:00,3.5,,,,,,,,2,,,,,,,114.08846038455,30.312829838316,0
6a10ac38142884b5157643bb,筷乐食府,美食,中餐厅,湖北省,武汉市,汉南区,湖北省武汉市汉南区月亮湾西路圣特立国际花园二期11栋5号,6a10ac38142884b5157643bb,1,0,114.084824,30.32336,18971418249,cater,http://api.map.baidu.com/place/detail?uid=6a10ac38142884b5157643bb&output=html&source=placeapi_v2,,09:00-21:00,,,,,,,,,,,,,,,,,,0
7b6fc583fb9dc6d07c29bd3c,威威酒楼,美食,中餐厅,湖北省,武汉市,汉南区,湖北省武汉市汉南区汉南大道281号,7b6fc583fb9dc6d07c29bd3c,1,0,114.087118,30.315111,13277065138,cater,http://api.map.baidu.com/place/detail?uid=7b6fc583fb9dc6d07c29bd3c&output=html&source=placeapi_v2,,,,,,,,,,,,,,,,,,114.08698659309,30.315075826534,0
d7fba114c857ad8e14c8f649,嫂儿烤吧,美食,中餐厅,湖北省,武汉市,汉南区,湖北省武汉市汉南区纱帽街朱家山路兴业佳园1~3栋1层9室,d7fba114c857ad8e14c8f649,1,0,114.086268,30.320535,17771443515,cater,http://api.map.baidu.com/place/detail?uid=d7fba114c857ad8e14c8f649&output=html&source=placeapi_v2,,,,,,,,,,,,,,,,,,114.08624431606,30.320423385763,0
750ec165ff28d3324d3a598e,农家山庄(滨江路店),美食,中餐厅,湖北省,武汉市,汉南区,湖北省武汉市汉南区滨江路528号,750ec165ff28d3324d3a598e,1,0,114.094772,30.316084,(027)84856366,cater,http://api.map.baidu.com/place/detail?uid=750ec165ff28d3324d3a598e&output=html&source=placeapi_v2,29.0,"10:00-13:00,16:00-20:30",3.6,,,,,,,,1,,,,,,,114.0953705386,30.315941042762,0
ea5ecf71de67080e0869d961,小哼哼美食,美食,中餐厅,湖北省,武汉市,汉南区,武汉市汉南区银莲路武汉汉南客运站西南侧,ea5ecf71de67080e0869d961,1,0,114.085973,30.313876,18086480986,cater,http://api.map.baidu.com/place/detail?uid=ea5ecf71de67080e0869d961&output=html&source=placeapi_v2,,07:00-20:20,,,,,,,,,,,,,,,,114.08593410332,30.313758813349,0
53d8e831a7eb1ca972210bd9,大众渔需,美食,中餐厅,湖北省,武汉市,汉南区,武汉市汉南区育才路武汉汉南客运站北侧约30米,53d8e831a7eb1ca972210bd9,1,0,114.086146,30.314745,,cater,http://api.map.baidu.com/place/detail?uid=53d8e831a7eb1ca972210bd9&output=html&source=placeapi_v2,,,,,,,,,,,,,,,,,,,,0
7b9135dc11ccfae49f82ea88,涛涛餐厅(月亮湾路店),美食,中餐厅,湖北省,武汉市,汉南区,圣特利国际花园56号,7b9135dc11ccfae49f82ea88,1,0,114.086546,30.322585,15871799120,cater,http://api.map.baidu.com/place/detail?uid=7b9135dc11ccfae49f82ea88&output=html&source=placeapi_v2,55.0,09:00-22:30,0,,,,,,,,0,,,,,,,,,0
fb801d9836774a2e80a12ea0,淘淘美食,美食,小吃快餐店,湖北省,武汉市,汉南区,湖北省武汉市汉南区银莲路182号,fb801d9836774a2e80a12ea0,1,0,114.080389,30.314294,18702796799,cater,http://api.map.baidu.com/place/detail?uid=fb801d9836774a2e80a12ea0&output=html&source=placeapi_v2,34.0,11:00-21:00,3.5,,,,,,,,8,,,,,,,114.08033680122,30.314190941982,0
77d30ed774c444a0f11937fd,四方缘美食(朱家山路店),美食,中餐厅,湖北省,武汉市,汉南区,湖北省武汉市汉南区纱帽街圣特立B区15号商铺,77d30ed774c444a0f11937fd,1,0,114.086682,30.321903,15307158687,cater,http://api.map.baidu.com/place/detail?uid=77d30ed774c444a0f11937fd&output=html&source=placeapi_v2,45.0,10:00-22:00,,,,,,,,,,,,,,,,114.08676199965,30.321804014677,0
cf18fecc075eb318e215f9d0,鑫权酒家,美食,中餐厅,湖北省,武汉市,汉南区,湖北省武汉市汉南区微湖路182号,cf18fecc075eb318e215f9d0,1,0,114.088574,30.312421,18971059859,cater,http://api.map.baidu.com/place/detail?uid=cf18fecc075eb318e215f9d0&output=html&source=placeapi_v2,,11:00-20:00,3.4,,,,,,,,5,,,,,,,114.08856603965,30.312325079106,0
c66070fd99788655734b8792,小吴牛骨头(汉南分店),美食,中餐厅,湖北省,武汉市,汉南区,武汉市汉南区银莲路武汉汉南客运站南侧,c66070fd99788655734b8792,1,0,114.086104,30.313877,15102729612,cater,http://api.map.baidu.com/place/detail?uid=c66070fd99788655734b8792&output=html&source=placeapi_v2,,05:10-22:00,,,,,,,,,,,,,,,,114.0860927306,30.31374816067,0
881eaa5fb470fadeeaf85305,一撮毛汉南店,美食,中餐厅,湖北省,武汉市,汉南区,湖北省武汉市汉南区月亮湾路335号,881eaa5fb470fadeeaf85305,1,0,114.086722,30.321968,15327255046,cater,http://api.map.baidu.com/place/detail?uid=881eaa5fb470fadeeaf85305&output=html&source=placeapi_v2,,09:00-21:00,,,,,,,,,,,,,,,,114.0868582998,30.321919967,0
cc471ec64b904bf5c2f1cf4a,大鸭记,美食,中餐厅,湖北省,武汉市,汉南区,湖北省武汉市汉南区月亮湾路246号,cc471ec64b904bf5c2f1cf4a,1,0,114.087227,30.321943,,cater,http://api.map.baidu.com/place/detail?uid=cc471ec64b904bf5c2f1cf4a&output=html&source=placeapi_v2,,"10:30-14:30,16:30-21:30",,,,,,,,,,,,,,,,114.08729470021,30.322067149999,0
456c8db3f45e9cd9ae045719,碧霞轩饭店,美食,中餐厅,湖北省,武汉市,汉南区,湖北省武汉市汉南区纱帽街碧霞轩27号,456c8db3f45e9cd9ae045719,1,0,114.087974,30.318316,18186560610,cater,http://api.map.baidu.com/place/detail?uid=456c8db3f45e9cd9ae045719&output=html&source=placeapi_v2,,,0,,,,,,,,6,,,,,,,114.08811708363,30.318241031007,0
5ed40c295a707fd013293512,新明家常菜,美食,中餐厅,湖北省,武汉市,汉南区,湖北省武汉市汉南区银莲路118号,5ed40c295a707fd013293512,1,0,114.085798,30.313818,13797081207,cater,http://api.map.baidu.com/place/detail?uid=5ed40c295a707fd013293512&output=html&source=placeapi_v2,,,,,,,,,,,,,,,,,,114.08580468804,30.313767504299,0
f9fd6062ca05ac1f0f0e6be8,乌金餐厅,美食,中餐厅,湖北省,武汉市,汉南区,湖北省武汉市汉南区纱帽正街204号,f9fd6062ca05ac1f0f0e6be8,1,0,114.09065,30.315338,15337206757,cater,http://api.map.baidu.com/place/detail?uid=f9fd6062ca05ac1f0f0e6be8&output=html&source=placeapi_v2,6.0,,0,,,,,,,,2,,,,,,,,,0
e641991f9e1b764a4d2fdf9f,醉八仙(农垦街店),美食,中餐厅,湖北省,武汉市,汉南区,湖北省武汉市汉南区农垦街122号,,1,0,114.090962,30.330886,13343480933,cater,http://api.map.baidu.com/place/detail?uid=e641991f9e1b764a4d2fdf9f&output=html&source=placeapi_v2,,10:00-22:00,,,,,,,,,,,,,,,,,,0
4bbf23b036bec8d76068583e,兰州牛肉拉面(薇湖路店),美食,小吃快餐店,湖北省,武汉市,汉南区,武汉市汉南区沙帽街微湖路潘府酒店对面,4bbf23b036bec8d76068583e,1,0,114.079989,30.313085,,cater,http://api.map.baidu.com/place/detail?uid=4bbf23b036bec8d76068583e&output=html&source=placeapi_v2,,,,,,,,,,,,,,,,,,,,0
39e2623fc732d034ee74f805,小孙大排档,美食,中餐厅,湖北省,武汉市,汉南区,湖北省武汉市汉南区陡埠大道87号,39e2623fc732d034ee74f805,1,0,114.064177,30.304945,,cater,http://api.map.baidu.com/place/detail?uid=39e2623fc732d034ee74f805&output=html&source=placeapi_v2,,,,,,,,,,,,,,,,,,,,0
2c6ffb805c62ea99e81e97b8,戴锦记鲍汁肥牛鸡米饭(汉南店),美食,小吃快餐店,湖北省,武汉市,汉南区,湖北省武汉市汉南区汉南大道384号,2c6ffb805c62ea99e81e97b8,1,0,114.087601,30.314404,13971481500,cater,http://api.map.baidu.com/place/detail?uid=2c6ffb805c62ea99e81e97b8&output=html&source=placeapi_v2,,10:40-21:00,3.4,,,,,,,,0,,,,,,,114.08760241925,30.314624062289,0
75e3acfb220e3e0e621c673b,香他她煲仔饭(汉南中百仓储店),美食,小吃快餐店,湖北省,武汉市,汉南区,湖北省武汉市汉南区汉南大道580号,75e3acfb220e3e0e621c673b,1,0,114.09149,30.317132,"13223809966,15871774967",cater,http://api.map.baidu.com/place/detail?uid=75e3acfb220e3e0e621c673b&output=html&source=placeapi_v2,,10:00-21:00,3.5,,,,,,,,0,,,,,,,114.09146108338,30.317144571453,0
8a3d2ea0086581dd3010aff8,酷味儿,美食,蛋糕甜品店,湖北省,武汉市,汉南区,汉南区纱帽街纱帽正街143附31号7室,8a3d2ea0086581dd3010aff8,1,0,114.084032,30.318359,13871420031,cater,http://api.map.baidu.com/place/detail?uid=8a3d2ea0086581dd3010aff8&output=html&source=placeapi_v2,,,3.5,,,,,,,,0,,,,,,,114.08410142983,30.318394618888,0
7a0a1d4c49f4764b3617dc65,美冒(百花街店),美食,小吃快餐店,湖北省,武汉市,汉南区,湖北武汉市汉南区纱帽街百花街260号,7a0a1d4c49f4764b3617dc65,1,0,114.088943,30.313939,13886100950,cater,http://api.map.baidu.com/place/detail?uid=7a0a1d4c49f4764b3617dc65&output=html&source=placeapi_v2,,11:00-21:00,3.6,,,,,,,,0,,,,,,,,,0
854de01a25753e053be4a6c6,天天有鱼家常菜馆(金口大道店),美食,中餐厅,湖北省,武汉市,江夏区,武汉市江夏区金口街淮山村还建楼三单元一层101-一号,,1,0,114.153982,30.337139,18210829379,cater,http://api.map.baidu.com/place/detail?uid=854de01a25753e053be4a6c6&output=html&source=placeapi_v2,,09:00-21:00,5,,,,,,,,3,,,,,,,,,0
637c3cfcfb79d90d5e17c3be,本味农家菜,美食,中餐厅,湖北省,武汉市,江夏区,湖北省武汉市江夏区S102(金口大道),,1,0,114.153492,30.337331,18062113216,cater,http://api.map.baidu.com/place/detail?uid=637c3cfcfb79d90d5e17c3be&output=html&source=placeapi_v2,,,,,,,,,,,,,,,,,,,,0
bd4241521d2e4dc3b01e3681,普仁鲜满汇,美食,中餐厅,湖北省,武汉市,江夏区,武汉市江夏区物流大道武汉海吉星农产品物流园,,1,0,114.279865,30.319071,,cater,http://api.map.baidu.com/place/detail?uid=bd4241521d2e4dc3b01e3681&output=html&source=placeapi_v2,,,,,,,,,,,,,,,,,,,,0
ec646220e639fc56f503b8ae,兴家坡农家菜馆,美食,中餐厅,湖北省,武汉市,江夏区,廖桥村9组,,1,0,114.271922,30.312444,18071064956,cater,http://api.map.baidu.com/place/detail?uid=ec646220e639fc56f503b8ae&output=html&source=placeapi_v2,,09:00-21:00,5,,,,,,,,1,,,,,,,114.27176325212,30.312411899753,0
36e75355432448b21811d55a,尚品坊(107国道店),美食,中餐厅,湖北省,武汉市,江夏区,武汉市江夏区107国道兴家坡农家菜馆东南侧150米,36e75355432448b21811d55a,1,0,114.272627,30.310349,"(027)87977907,18963951712",cater,http://api.map.baidu.com/place/detail?uid=36e75355432448b21811d55a&output=html&source=placeapi_v2,12.0,00:00-24:00,5,,,,,,,,2,,,,,,,114.27237149927,30.310255758912,0
09dce355754dca7c8c55ec3e,特色纸上烤鱼,美食,中餐厅,湖北省,武汉市,江夏区,武汉市江夏区郑店路武汉市郑店派出所南侧约220米,,1,0,114.267847,30.331681,"13995677272,15098064448",cater,http://api.map.baidu.com/place/detail?uid=09dce355754dca7c8c55ec3e&output=html&source=placeapi_v2,,,,,,,,,,,,,,,,,,114.26785411669,30.331796224469,0
b3c2e324ab0358045e0d02d2,十里有家小厨,美食,中餐厅,湖北省,武汉市,江夏区,湖北省武汉市江夏区郑店街劳一村石洞王54号,b3c2e324ab0358045e0d02d2,1,0,114.282837,30.337054,17786574355,cater,http://api.map.baidu.com/place/detail?uid=b3c2e324ab0358045e0d02d2&output=html&source=placeapi_v2,,07:00-20:30,,,,,,,,,,,,,,,,114.28288651471,30.336919543911,0
e95bd5cd253dc5378bdb7340,杰杰美食经济小炒,美食,中餐厅,湖北省,武汉市,江夏区,武汉市江夏区郑店路武汉市郑店派出所南侧约180米,,1,0,114.267343,30.331967,15972945705,cater,http://api.map.baidu.com/place/detail?uid=e95bd5cd253dc5378bdb7340&output=html&source=placeapi_v2,,,,,,,,,,,,,,,,,,,,0
e54c63e5c60e2409213bf21d,祥胜农庄,美食,中餐厅,湖北省,武汉市,江夏区,武汉市江夏区青龙南路江夏区纸坊街胜利小学北侧约260米,e54c63e5c60e2409213bf21d,1,0,114.322552,30.32549,,cater,http://api.map.baidu.com/place/detail?uid=e54c63e5c60e2409213bf21d&output=html&source=placeapi_v2,,09:00-21:00,,,,,,,,,1,,,,,,,114.32256912198,30.325351640222,0
9d30b222c5ca329c4e5547f1,桔子红烤全羊(江夏环山绿道店),美食,中餐厅,湖北省,武汉市,江夏区,武汉市江夏区环山路北50米,9d30b222c5ca329c4e5547f1,1,0,114.33715,30.327699,13037138281,cater,http://api.map.baidu.com/place/detail?uid=9d30b222c5ca329c4e5547f1&output=html&source=placeapi_v2,,09:00-20:00,3.7,,,,,,,,4,,,,,,,114.33736028724,30.328344747746,0
82d473d3fdff168588db7327,发小农庄,美食,中餐厅,湖北省,武汉市,江夏区,湖北省武汉市江夏区武梁路腾飞隆生态园内,,1,0,114.434187,30.309763,,cater,http://api.map.baidu.com/place/detail?uid=82d473d3fdff168588db7327&output=html&source=placeapi_v2,,,,,,,,,,,,,,,,,,114.43393116134,30.309641184546,0
57f634a2df9939fa2cb908de,老农场餐厅,美食,中餐厅,湖北省,武汉市,汉南区,武汉市汉南区文化路乌金山社区东北侧约40米,,1,0,114.061602,30.351054,,cater,http://api.map.baidu.com/place/detail?uid=57f634a2df9939fa2cb908de&output=html&source=placeapi_v2,,,,,,,,,,,,,,,,,,,,0
16f4ed6f9db4aa2108ccdd5a,三将餐厅,美食,中餐厅,湖北省,武汉市,汉南区,武汉市汉南区文化路乌金山社区东北侧约30米,,1,0,114.060637,30.351491,,cater,http://api.map.baidu.com/place/detail?uid=16f4ed6f9db4aa2108ccdd5a&output=html&source=placeapi_v2,,,,,,,,,,,,,,,,,,,,0
6d9ada402c10384a7369d30e,七月家餐饮复合坊(奥特莱斯店),美食,中餐厅,湖北省,武汉市,汉南区,湖北省武汉市汉南区马影河大道19号欧镇奥特莱斯B区2号楼1号铺,6d9ada402c10384a7369d30e,1,0,114.070243,30.341951,18672322592,cater,http://api.map.baidu.com/place/detail?uid=6d9ada402c10384a7369d30e&output=html&source=placeapi_v2,,10:00-21:00,3.5,,,,,,,,0,,,,,,,,,0
92234c7b30c72b859d82ea4a,大众餐厅(乌金农场乌金山社区店),美食,中餐厅,湖北省,武汉市,汉南区,湖北省武汉市汉南区东荆街道永清路乌金农场乌金山社区旁,,1,0,114.059217,30.351524,13100645239,cater,http://api.map.baidu.com/place/detail?uid=92234c7b30c72b859d82ea4a&output=html&source=placeapi_v2,,,,,,,,,,,,,,,,,,,,0
5bb0bbc2201474879de3211d,土厨子家味馆,美食,中餐厅,湖北省,武汉市,汉南区,武汉市汉南区马影河大道武汉碧桂园翠堤春晓东南侧约80米,5bb0bbc2201474879de3211d,1,0,114.093597,30.357165,"(027)84391699,18771035206",cater,http://api.map.baidu.com/place/detail?uid=5bb0bbc2201474879de3211d&output=html&source=placeapi_v2,,08:00-22:00,5,,,,,,,,1,,,,,,,114.09361517238,30.357021757954,0
ef6e467a78ff35454f3a5910,小四川餐厅(马影河大道店),美食,中餐厅,湖北省,武汉市,汉南区,武汉市汉南区东荆街碧桂园峰悦3-2号铺,ef6e467a78ff35454f3a5910,1,0,114.087538,30.356945,15872066541,cater,http://api.map.baidu.com/place/detail?uid=ef6e467a78ff35454f3a5910&output=html&source=placeapi_v2,,,,,,,,,,,,,,,,,,114.08755902211,30.356901480355,0
ea6b8775b019c2450b69d9a5,川香缘(永清路店),美食,中餐厅,湖北省,武汉市,汉南区,湖北省武汉市汉南区乌金农场乌金山社区(永清路西),ea6b8775b019c2450b69d9a5,1,0,114.060928,30.351018,13476101530,cater,http://api.map.baidu.com/place/detail?uid=ea6b8775b019c2450b69d9a5&output=html&source=placeapi_v2,,,3.4,,,,,,,,,,,,,,,,,0
5b604f2e254b89725a3ac8d0,再回首酒家,美食,中餐厅,湖北省,武汉市,汉南区,东荆街乌金山社区永清苑10-12号,,1,0,114.060145,30.351025,15871811222,cater,http://api.map.baidu.com/place/detail?uid=5b604f2e254b89725a3ac8d0&output=html&source=placeapi_v2,,,,,,,,,,,,,,,,,,,,0
37e395bc5b01ea42aeb22acc,梓源酒家,美食,中餐厅,湖北省,武汉市,汉南区,武汉市汉南区东荆街金创路14号附5号,,1,0,114.060753,30.350996,18627055213,cater,http://api.map.baidu.com/place/detail?uid=37e395bc5b01ea42aeb22acc&output=html&source=placeapi_v2,,10:30-23:55,,,,,,,,,,,,,,,,,,0
e0d7ae2b13448f0b901fc99e,501农家菜,美食,中餐厅,湖北省,武汉市,汉南区,汉南区东荆街碧桂园峰景6栋14号铺,,1,0,114.086468,30.356005,13971628683,cater,http://api.map.baidu.com/place/detail?uid=e0d7ae2b13448f0b901fc99e&output=html&source=placeapi_v2,,,,,,,,,,,,,,,,,,114.08637584686,30.356112153206,0
7c5b9d7439d0d4cdfb2d616a,有滋有味(乌金店),美食,中餐厅,湖北省,武汉市,汉南区,武汉市汉南区Y014乌金山社区,,1,0,114.059805,30.351096,,cater,http://api.map.baidu.com/place/detail?uid=7c5b9d7439d0d4cdfb2d616a&output=html&source=placeapi_v2,,,,,,,,,,,,,,,,,,,,0
3dbbfded0093dd2c9900509e,兰州拉面(武汉碧桂园凤凰酒店西),美食,小吃快餐店,湖北省,武汉市,汉南区,湖北省武汉市汉南区兴五路2楼,,1,0,114.089027,30.357024,,cater,http://api.map.baidu.com/place/detail?uid=3dbbfded0093dd2c9900509e&output=html&source=placeapi_v2,,,,,,,,,,,,,,,,,,,,0
0c187d7c82941530c7f0254c,桂康源酒楼,美食,中餐厅,湖北省,武汉市,汉南区,武汉市汉南区马影河大道武汉碧桂园江汉山色,0c187d7c82941530c7f0254c,1,0,114.101023,30.36118,(027)84391699,cater,http://api.map.baidu.com/place/detail?uid=0c187d7c82941530c7f0254c&output=html&source=placeapi_v2,,09:00-22:30,0,,,,,,,,0,,,,,,,,,0
6c6aa62b801ec9ad5cd4feeb,精粉世家湘菜馆,美食,中餐厅,湖北省,武汉市,江夏区,湖北省武汉市江夏区金港新区金港一号东区1号楼21号,,1,0,114.159479,30.346205,13657360607,cater,http://api.map.baidu.com/place/detail?uid=6c6aa62b801ec9ad5cd4feeb&output=html&source=placeapi_v2,,10:00-22:00,,,,,,,,,,,,,,,,114.15957687552,30.346123011839,0
7528f2b9baa408783b221cba,天天鲜鱼楼,美食,中餐厅,湖北省,武汉市,江夏区,湖北省武汉市江夏区金口大道金港一号小区东区17栋商铺2楼,7528f2b9baa408783b221cba,1,0,114.155153,30.346229,(027)81565779,cater,http://api.map.baidu.com/place/detail?uid=7528f2b9baa408783b221cba&output=html&source=placeapi_v2,,10:00-21:00,3.5,,,,,,,,5,,,,,,,114.15494010185,30.346322102341,0
a546509b9bf36b644d2fdf9a,湘香阁(金港店),美食,中餐厅,湖北省,武汉市,江夏区,湖北省武汉市江夏区金港一号东区3号楼一楼7~8号,a546509b9bf36b644d2fdf9a,1,0,114.158928,30.345374,(027)81566275,cater,http://api.map.baidu.com/place/detail?uid=a546509b9bf36b644d2fdf9a&output=html&source=placeapi_v2,39.0,"11:00-14:00,16:30-21:00",3.1,,,,,,,,0,,,,,,,114.15916869808,30.345109609133,0
d8e702faeecfebd83586f4f1,小吴纸包鱼,美食,中餐厅,湖北省,武汉市,江夏区,江夏区花园小区131号,d8e702faeecfebd83586f4f1,1,0,114.154295,30.345293,15527486373,cater,http://api.map.baidu.com/place/detail?uid=d8e702faeecfebd83586f4f1&output=html&source=placeapi_v2,,10:00-24:00,3.4,,,,,,,,,,,,,,,114.1544558523,30.345260732717,0
854de01a25753e053be4a6c6,天天有鱼家常菜馆(金口大道店),美食,中餐厅,湖北省,武汉市,江夏区,武汉市江夏区金口街淮山村还建楼三单元一层101-一号,,1,0,114.153982,30.337139,18210829379,cater,http://api.map.baidu.com/place/detail?uid=854de01a25753e053be4a6c6&output=html&source=placeapi_v2,,09:00-21:00,5,,,,,,,,3,,,,,,,,,0
5ce2637d37c1f751ae31e5d5,小竹林(凤凰台街店),美食,中餐厅,湖北省,武汉市,江夏区,武汉市江夏区凤凰台街,,1,0,114.170228,30.346382,,cater,http://api.map.baidu.com/place/detail?uid=5ce2637d37c1f751ae31e5d5&output=html&source=placeapi_v2,,,,,,,,,,,,,,,,,,114.17095499906,30.346522085973,0
0e996e1a77597e3603897267,亮点烧烤农家菜,美食,中餐厅,湖北省,武汉市,江夏区,湖北省武汉市江夏区金口街金港小区东区134号,0e996e1a77597e3603897267,1,0,114.154792,30.345356,13437110604,cater,http://api.map.baidu.com/place/detail?uid=0e996e1a77597e3603897267&output=html&source=placeapi_v2,,16:00-02:00,,,,,,,,,,,,,,,,,,0
fbb95a0de58ab747b34c49ca,康鸡子家常菜烧烤,美食,中餐厅,湖北省,武汉市,江夏区,江夏区金港新区金港一号19号楼东区一楼133-1号,fbb95a0de58ab747b34c49ca,1,0,114.154876,30.345488,13657258930,cater,http://api.map.baidu.com/place/detail?uid=fbb95a0de58ab747b34c49ca&output=html&source=placeapi_v2,,10:00-14:00,,,,,,,,,,,,,,,,114.15488202191,30.345637316967,0
acaff6ceb110f2186f3e1bf1,万家精粉世家湘菜馆,美食,中餐厅,湖北省,武汉市,江夏区,湖北省武汉市江夏区金口大道金港一号小区西区133号,,1,0,114.156006,30.345638,"13477718660,13548845791",cater,http://api.map.baidu.com/place/detail?uid=acaff6ceb110f2186f3e1bf1&output=html&source=placeapi_v2,,10:00-21:30,,,,,,,,,,,,,,,,,,0
e0798184ef9c45e414b54b63,食味家常菜,美食,中餐厅,湖北省,武汉市,江夏区,湖北省武汉市江夏区金港新区金港一号小区24号楼西区17-2号,e0798184ef9c45e414b54b63,1,0,114.154361,30.345724,13545908539,cater,http://api.map.baidu.com/place/detail?uid=e0798184ef9c45e414b54b63&output=html&source=placeapi_v2,,16:00-04:00,0,,,,,,,,1,,,,,,,,,0
d94481f99fd6afa0bb17e736,艳军家常菜,美食,中餐厅,湖北省,武汉市,江夏区,湖北省武汉市江夏区金口街道淮山村凤凰山路金口中学附近,d94481f99fd6afa0bb17e736,1,0,114.143039,30.34221,13135664006,cater,http://api.map.baidu.com/place/detail?uid=d94481f99fd6afa0bb17e736&output=html&source=placeapi_v2,,,,,,,,,,,,,,,,,,114.14305057389,30.342309011101,0
637c3cfcfb79d90d5e17c3be,本味农家菜,美食,中餐厅,湖北省,武汉市,江夏区,湖北省武汉市江夏区S102(金口大道),,1,0,114.153492,30.337331,18062113216,cater,http://api.map.baidu.com/place/detail?uid=637c3cfcfb79d90d5e17c3be&output=html&source=placeapi_v2,,,,,,,,,,,,,,,,,,,,0
7f8b94b3e74bee012fb17e83,辣条家の饭,美食,中餐厅,湖北省,武汉市,江夏区,湖北省武汉市江夏区金口街金湖大道10号附2号,,1,0,114.143489,30.341805,15387010702,cater,http://api.map.baidu.com/place/detail?uid=7f8b94b3e74bee012fb17e83&output=html&source=placeapi_v2,,09:00-01:00,,,,,,,,,,,,,,,,,,0
d317f491ab73e535f219370c,翔宇家常菜,美食,中餐厅,湖北省,武汉市,江夏区,武汉市江夏区凤凰山路江夏区金口中心卫生院东侧约140米,d317f491ab73e535f219370c,1,0,114.143027,30.342258,17771867412,cater,http://api.map.baidu.com/place/detail?uid=d317f491ab73e535f219370c&output=html&source=placeapi_v2,,"07:00-15:00,16:00-21:00",,,,,,,,,,,,,,,,,,0
1fa2f06e678d522181a12eaf,王平牛骨头火锅,美食,中餐厅,湖北省,武汉市,江夏区,湖北省武汉市江夏区金岭路96号,1fa2f06e678d522181a12eaf,1,0,114.146725,30.340824,,cater,http://api.map.baidu.com/place/detail?uid=1fa2f06e678d522181a12eaf&output=html&source=placeapi_v2,,,,,,,,,,,,,,,,,,,,0
23cdc7ae3955d035276e98c4,湘香园酒店,美食,中餐厅,湖北省,武汉市,江夏区,武汉市江夏区郑店瞿家湾附近,,1,0,114.251457,30.348078,15327315101,cater,http://api.map.baidu.com/place/detail?uid=23cdc7ae3955d035276e98c4&output=html&source=placeapi_v2,,,5,,,,,,,,1,,,,,,,114.2515722395,30.348074039728,0
f3094e2b94e3d15841d63ee3,老味子狗肉馆,美食,中餐厅,湖北省,武汉市,武昌区,武汉市武昌区白云二路,,1,0,114.284833,30.345583,13986121098,cater,http://api.map.baidu.com/place/detail?uid=f3094e2b94e3d15841d63ee3&output=html&source=placeapi_v2,,09:00-21:00,,,,,,,,,,,,,,,,,,0
f3b5ba2f63417a298605bf02,一品私房菜馆,美食,中餐厅,湖北省,武汉市,武昌区,石洞街东市社区,,1,0,114.296278,30.343283,15802790893,cater,http://api.map.baidu.com/place/detail?uid=f3b5ba2f63417a298605bf02&output=html&source=placeapi_v2,,,3.6,,,,,,,,,,,,,,,,,0
22c857b373188bbdcb1b956f,菜根味道(东市街店),美食,中餐厅,湖北省,武汉市,武昌区,湖北省武汉市武昌区东市街1号,22c857b373188bbdcb1b956f,1,0,114.297118,30.343946,13802648708,cater,http://api.map.baidu.com/place/detail?uid=22c857b373188bbdcb1b956f&output=html&source=placeapi_v2,,10:00-20:00,,,,,,,,,,,,,,,,114.29719824443,30.343994354009,0
5b10338076beb7585bf6be64,石洞美食街,美食,中餐厅,湖北省,武汉市,武昌区,湖北省武汉市武昌区X003武汉市公安局武昌分局石洞派出所东侧约130米,5b10338076beb7585bf6be64,1,0,114.296011,30.343595,18062635278,cater,http://api.map.baidu.com/place/detail?uid=5b10338076beb7585bf6be64&output=html&source=placeapi_v2,,,,,,,,,,,,,,,,,,114.29593045419,30.34370485638,0
d235ff729e05ebfa4557261f,湘味轩酒楼(白云一路店),美食,中餐厅,湖北省,武汉市,武昌区,湖北省武汉市武昌区纸坊大街与白云一路交叉口三三零三工厂东门旁,d235ff729e05ebfa4557261f,1,0,114.297222,30.344101,"(027)88018608,17396160355",cater,http://api.map.baidu.com/place/detail?uid=d235ff729e05ebfa4557261f&output=html&source=placeapi_v2,,09:00-21:00,3.5,,,,,,,,8,,,,,,,114.29714265819,30.344053349018,0
75f1661ec0085faad81318e1,景怡人家,美食,中餐厅,湖北省,武汉市,江夏区,武汉市江夏区环山绿道,,1,0,114.288538,30.364896,,cater,http://api.map.baidu.com/place/detail?uid=75f1661ec0085faad81318e1&output=html&source=placeapi_v2,,,,,,,,,,1,,,,,,,,,,0
050d2291a26285faab0dd8e6,郝记小馆,美食,中餐厅,湖北省,武汉市,武昌区,武汉市武昌区101省道东门集贸市场内,050d2291a26285faab0dd8e6,1,0,114.295992,30.343351,18986074218,cater,http://api.map.baidu.com/place/detail?uid=050d2291a26285faab0dd8e6&output=html&source=placeapi_v2,,,,,,,,,,,,,,,,,,114.2957765511,30.343582752127,0
b3c2e324ab0358045e0d02d2,十里有家小厨,美食,中餐厅,湖北省,武汉市,江夏区,湖北省武汉市江夏区郑店街劳一村石洞王54号,b3c2e324ab0358045e0d02d2,1,0,114.282837,30.337054,17786574355,cater,http://api.map.baidu.com/place/detail?uid=b3c2e324ab0358045e0d02d2&output=html&source=placeapi_v2,,07:00-20:30,,,,,,,,,,,,,,,,114.28288651471,30.336919543911,0
09af639b4c424c098d7727c5,花果山私房菜,美食,中餐厅,湖北省,武汉市,江夏区,纸坊街良种里7号,09af639b4c424c098d7727c5,1,0,114.330521,30.355868,18040591696,cater,http://api.map.baidu.com/place/detail?uid=09af639b4c424c098d7727c5&output=html&source=placeapi_v2,,"09:00-14:00,16:30-21:00",,,,,,,,,,,,,,,,114.33052346187,30.355992206367,0
2c9462fc3609948b88b988f4,老伙夫土菜馆,美食,中餐厅,湖北省,武汉市,江夏区,湖北省武汉市江夏区纸坊大街238号中建龙城701号,2c9462fc3609948b88b988f4,1,0,114.33254,30.34902,18986055315,cater,http://api.map.baidu.com/place/detail?uid=2c9462fc3609948b88b988f4&output=html&source=placeapi_v2,,09:00-21:00,3.7,,,,,,,,1,,,,,,,114.33251994227,30.349264874476,0
87248d963a9ab7b32806cede,漆胖子卤菜馆(纸坊店),美食,中餐厅,湖北省,武汉市,江夏区,湖北省武汉市江夏区北华街40号,87248d963a9ab7b32806cede,1,0,114.322265,30.363247,13971412509,cater,http://api.map.baidu.com/place/detail?uid=87248d963a9ab7b32806cede&output=html&source=placeapi_v2,75.0,07:00-20:00,3.5,,,,,,,,3,,,,,,,114.3223980927,30.363159021038,0
ce54941fe09c1f7b2db90892,阿里旺旺,美食,中餐厅,湖北省,武汉市,江夏区,湖北省武汉市江夏区古驿道30号,ce54941fe09c1f7b2db90892,1,0,114.327238,30.353857,13886009808,cater,http://api.map.baidu.com/place/detail?uid=ce54941fe09c1f7b2db90892&output=html&source=placeapi_v2,15.0,,,,,,,,,,,,,,,,,,,0
a9307cd5e4a9fe7f33621239,厨小丫时尚平价餐厅(熊廷路店),美食,中餐厅,湖北省,武汉市,江夏区,湖北省武汉市江夏区熊廷弼路89号,a9307cd5e4a9fe7f33621239,1,0,114.320788,30.356557,13100628159,cater,http://api.map.baidu.com/place/detail?uid=a9307cd5e4a9fe7f33621239&output=html&source=placeapi_v2,55.0,09:00-21:30,3.5,,,,,,,,21,,,,,,,,,0
2ad67ee1950893bf9c09f7ad,军军烧烤(兴新街店),美食,中餐厅,湖北省,武汉市,江夏区,湖北省武汉市江夏区兴新街53号,2ad67ee1950893bf9c09f7ad,1,0,114.328406,30.352704,13545120665,cater,http://api.map.baidu.com/place/detail?uid=2ad67ee1950893bf9c09f7ad&output=html&source=placeapi_v2,51.0,17:00-02:00,3.8,,,,,,,,0,,,,,,,114.32839547673,30.352781240419,0
013c3f838dab0dd222f01742,当年情,美食,中餐厅,湖北省,武汉市,江夏区,兴新街133南50米,013c3f838dab0dd222f01742,1,0,114.325196,30.352361,,cater,http://api.map.baidu.com/place/detail?uid=013c3f838dab0dd222f01742&output=html&source=placeapi_v2,,10:00-21:00,,,,,,,,,,,,,,,,114.32530365648,30.352331792467,0
169d90383223f7b90289729a,傅婆元子王,美食,中餐厅,湖北省,武汉市,江夏区,兴新街100号,,1,0,114.325851,30.353706,,cater,http://api.map.baidu.com/place/detail?uid=169d90383223f7b90289729a&output=html&source=placeapi_v2,,,,,,,,,,3,,,,,,,,,,0
260f01a244404b4aec74f882,金易德北京烤鸭(纸坊店),美食,中餐厅,湖北省,武汉市,江夏区,湖北省武汉市江夏区兴新街58号,260f01a244404b4aec74f882,1,0,114.327802,30.35286,"13429859198,18696028281",cater,http://api.map.baidu.com/place/detail?uid=260f01a244404b4aec74f882&output=html&source=placeapi_v2,27.0,09:00-21:00,3.7,,,,,,,,0,,,,,,,,,0
767d874e796c4eb409a8d4c3,土人烧烤私房菜(天时店),美食,中餐厅,湖北省,武汉市,江夏区,湖北省武汉市江夏区东港街63号,767d874e796c4eb409a8d4c3,1,0,114.328948,30.353702,13871302183,cater,http://api.map.baidu.com/place/detail?uid=767d874e796c4eb409a8d4c3&output=html&source=placeapi_v2,,11:00-22:00,3.6,,,,,,,,1,,,,,,,,,0
613bd056c6966b0c8bdb7366,花之都酒店宴会厅,美食,中餐厅,湖北省,武汉市,江夏区,武汉市江夏区纸坊街古驿道花之都美食街一楼六街,613bd056c6966b0c8bdb7366,1,0,114.327123,30.357883,,cater,http://api.map.baidu.com/place/detail?uid=613bd056c6966b0c8bdb7366&output=html&source=placeapi_v2,,10:00-22:00,,,,,,,,,,,,,,,,114.32690110688,30.35778512022,0
768015d3c672236396f08c96,夏国祥怪味牛骨头(熊廷弼街店),美食,中餐厅,湖北省,武汉市,江夏区,湖北省武汉市江夏区熊廷弼街103号,768015d3c672236396f08c96,1,0,114.319205,30.356339,(027)87952769,cater,http://api.map.baidu.com/place/detail?uid=768015d3c672236396f08c96&output=html&source=placeapi_v2,79.0,10:00-22:00,4.0,,,,,,,,2,,,,,,,114.31910785653,30.356483801879,0
06d2dffda3a1b2f588f15dfe,鸟语林土菜园(江夏总店),美食,中餐厅,湖北省,武汉市,江夏区,湖北省武汉市江夏区熊廷弼街67号附1号,06d2dffda3a1b2f588f15dfe,1,0,114.324178,30.356826,"(027)87951159,18771133668",cater,http://api.map.baidu.com/place/detail?uid=06d2dffda3a1b2f588f15dfe&output=html&source=placeapi_v2,54.0,"10:00-13:30,17:00-21:00",0,,,,,,,,4,,,,,,,,,0
ab1a06027048df1c8e772726,渔夫烧烤(兴新街店),美食,中餐厅,湖北省,武汉市,江夏区,湖北省武汉市江夏区纸坊兴新街49号(905斜对面),ab1a06027048df1c8e772726,1,0,114.32865,30.352707,"13419549915,13971324765",cater,http://api.map.baidu.com/place/detail?uid=ab1a06027048df1c8e772726&output=html&source=placeapi_v2,39.0,17:30-03:00,3.5,,,,,,,,0,,,,,,,114.32860468938,30.352806224565,0
894175b62697f4273fe23137,新疆烤羊肉店,美食,中餐厅,湖北省,武汉市,江夏区,湖北省武汉市江夏区兴新街116号一单元501号,894175b62697f4273fe23137,1,0,114.327025,30.352866,,cater,http://api.map.baidu.com/place/detail?uid=894175b62697f4273fe23137&output=html&source=placeapi_v2,,15:00-02:00,3.6,,,,,,,,0,,,,,,,114.32720491381,30.352870293449,0
18da4a92aab12b1514c8f68f,城东酒楼(兴新街店),美食,中餐厅,湖北省,武汉市,江夏区,湖北省武汉市江夏区兴新街13号,18da4a92aab12b1514c8f68f,1,0,114.330208,30.35296,(027)87910759,cater,http://api.map.baidu.com/place/detail?uid=18da4a92aab12b1514c8f68f&output=html&source=placeapi_v2,,"09:00-14:00,16:30-20:00",3.8,,,,,,,,4,,,,,,,114.33026322845,30.353027483085,0
f8c3170cd06d102c2811d1f7,利利餐厅(龙井路店),美食,中餐厅,湖北省,武汉市,江夏区,武汉市江夏区龙井路武汉市江夏区第一初级中学东北侧约30米,f8c3170cd06d102c2811d1f7,1,0,114.327193,30.352235,13995571757,cater,http://api.map.baidu.com/place/detail?uid=f8c3170cd06d102c2811d1f7&output=html&source=placeapi_v2,,,,,,,,,,,,,,,,,,,,0
a1418eb4f7d80966ebe58243,简朴寨(江夏店),美食,中餐厅,湖北省,武汉市,江夏区,武汉市江夏区纸坊文化路特8号(近江夏水产局),a1418eb4f7d80966ebe58243,1,0,114.33097,30.360012,(027)81825757,cater,http://api.map.baidu.com/place/detail?uid=a1418eb4f7d80966ebe58243&output=html&source=placeapi_v2,53.0,"09:00-14:00,16:30-21:00",3.7,,,,,,,,69,,,,,,,114.33091495688,30.360003944751,0
b84f4c903d60ccfd601c6734,醉得意(江夏体育馆店),美食,中餐厅,湖北省,武汉市,江夏区,湖北省武汉市江夏区纸坊街熊廷弼路98号A21号,b84f4c903d60ccfd601c6734,1,0,114.323406,30.357179,(027)81651086,cater,http://api.map.baidu.com/place/detail?uid=b84f4c903d60ccfd601c6734&output=html&source=placeapi_v2,23.0,10:10-21:00,3.7,,,,,,,,8,,,,,,,114.32343915872,30.357030365638,0
20a22561706f0a4a85420e31,老灶吊锅,美食,中餐厅,湖北省,武汉市,江夏区,武汉市江夏区文化大道与熊廷弼街交叉路口南侧(公路小区),20a22561706f0a4a85420e31,1,0,114.33056,30.356803,15926209317,cater,http://api.map.baidu.com/place/detail?uid=20a22561706f0a4a85420e31&output=html&source=placeapi_v2,76.0,"11:00-14:00,16:00-22:30",3.8,,,,,,,1,0,,,,,,,114.33092502689,30.356808183974,0
0dae009491e05277eddfcaf3,冯记招牌水煮鱼(宜家广场店),美食,中餐厅,湖北省,武汉市,江夏区,武汉市江夏区兴新街新南巷60-1号,0dae009491e05277eddfcaf3,1,0,114.321873,30.353235,15827566007,cater,http://api.map.baidu.com/place/detail?uid=0dae009491e05277eddfcaf3&output=html&source=placeapi_v2,17.0,10:00-21:00,3.7,,,,,,,,26,,,,,,,114.32199127349,30.353212326748,0
b0e6dfc3428623917adbd2d2,品味,美食,中餐厅,湖北省,武汉市,江夏区,武汉市江夏区龙头街武汉市江夏区第二幼儿园西侧,b0e6dfc3428623917adbd2d2,1,0,114.324964,30.351737,13545284397,cater,http://api.map.baidu.com/place/detail?uid=b0e6dfc3428623917adbd2d2&output=html&source=placeapi_v2,,,,,,,,,,,,,,,,,,114.3248968229,30.351779361311,0
7e445c4382754c5ffbf0cbbb,肥肥虾庄(江夏纸坊店),美食,中餐厅,湖北省,武汉市,江夏区,湖北省武汉市江夏区古驿道花之都美食街4-101号,7e445c4382754c5ffbf0cbbb,1,0,114.326811,30.358609,(027)87931567,cater,http://api.map.baidu.com/place/detail?uid=7e445c4382754c5ffbf0cbbb&output=html&source=placeapi_v2,128.0,11:00-03:00,4.7,,,,,,,,4,,,,,,,114.32679603838,30.358677772229,0
99ffed936b81751d9d95de48,陈婆婆炒饭(古驿道店),美食,中餐厅,湖北省,武汉市,江夏区,湖北省武汉市江夏区古驿道9号,99ffed936b81751d9d95de48,1,0,114.327071,30.353278,13647216931,cater,http://api.map.baidu.com/place/detail?uid=99ffed936b81751d9d95de48&output=html&source=placeapi_v2,,11:00-23:30,3.5,,,,,,,,7,,,,,,,114.32710930446,30.353269471693,0
c41f1623532529a5223bf2bb,熊大生态土菜馆,美食,中餐厅,湖北省,武汉市,江夏区,湖北省武汉市江夏区烽台巷52号,c41f1623532529a5223bf2bb,1,0,114.329054,30.355679,13971269628,cater,http://api.map.baidu.com/place/detail?uid=c41f1623532529a5223bf2bb&output=html&source=placeapi_v2,,09:00-21:00,3.5,,,,,,,,6,,,,,,,114.32908987048,30.355793777469,0
1c33bbfa395bda6c25e0a008,楚湘园土菜馆(龙头街店),美食,中餐厅,湖北省,武汉市,江夏区,湖北省武汉市江夏区龙头街107号,1c33bbfa395bda6c25e0a008,1,0,114.323983,30.350901,18007129102,cater,http://api.map.baidu.com/place/detail?uid=1c33bbfa395bda6c25e0a008&output=html&source=placeapi_v2,,09:00-21:00,0,,,,,,,,3,,,,,,,114.32410103201,30.350826677463,0
3ec48fe2f5b71b24c8213d2e,八乡郡私厨菜,美食,中餐厅,湖北省,武汉市,江夏区,湖北省武汉市江夏区纸坊大街607-附3号,3ec48fe2f5b71b24c8213d2e,1,0,114.33565,30.35003,(027)87917277,cater,http://api.map.baidu.com/place/detail?uid=3ec48fe2f5b71b24c8213d2e&output=html&source=placeapi_v2,,"09:00-14:00,16:30-21:00",3.7,,,,,,,,25,,,,,,,,,0
26db6d0e61575c35d618b71b,湘满楼(复江道店),美食,中餐厅,湖北省,武汉市,江夏区,武汉市江夏区纸坊街复江道政和花园商铺3-5号,26db6d0e61575c35d618b71b,1,0,114.319772,30.34931,18771144881,cater,http://api.map.baidu.com/place/detail?uid=26db6d0e61575c35d618b71b&output=html&source=placeapi_v2,53.0,"09:00-14:00,16:30-20:00",3.4,,,,,,,,17,,,,,,,,,0
e804f25bf7e338b6611c6753,凤爪王烧烤龙虾(兴新街店),美食,中餐厅,湖北省,武汉市,江夏区,湖北省武汉市江夏区兴新街20号,e804f25bf7e338b6611c6753,1,0,114.329945,30.353123,18402710020,cater,http://api.map.baidu.com/place/detail?uid=e804f25bf7e338b6611c6753&output=html&source=placeapi_v2,,17:00-03:00,3.6,,,,,,,,0,,,,,,,114.32995629423,30.353065305487,0
f962a4934b06b41c5abbbca2,渔家厨灶(复江道旗舰店),美食,中餐厅,湖北省,武汉市,江夏区,湖北省武汉市江夏区熊廷弼路95号,f962a4934b06b41c5abbbca2,1,0,114.320257,30.356317,17786466917,cater,http://api.map.baidu.com/place/detail?uid=f962a4934b06b41c5abbbca2&output=html&source=placeapi_v2,37.0,10:00-21:00,3.7,,,,,,,,0,,,,,,,114.32032340223,30.356309942838,0
988927e6abe809aee812e414,重庆烤鱼,美食,中餐厅,湖北省,武汉市,江夏区,纸坊新兴街新南巷59号,,1,0,114.321838,30.352958,18627172636,cater,http://api.map.baidu.com/place/detail?uid=988927e6abe809aee812e414&output=html&source=placeapi_v2,43.0,"10:30-14:00,16:30-21:00",3.5,,,,,,,,0,,,,,,,114.32192629995,30.352956085054,0
cdd8d6c4217b43e60869d904,本味煲仔饭(纸坊店),美食,中餐厅,湖北省,武汉市,江夏区,湖北省武汉市江夏区新北路5附4号,cdd8d6c4217b43e60869d904,1,0,114.318325,30.354658,15907129006,cater,http://api.map.baidu.com/place/detail?uid=cdd8d6c4217b43e60869d904&output=html&source=placeapi_v2,16.0,10:00-21:00,3.6,,,,,,,,7,,,,,,,114.31845062029,30.354646472584,0
46993e97ed6184322efaa79e,我家大厨,美食,中餐厅,湖北省,武汉市,江夏区,湖北省武汉市江夏区古驿道8号,46993e97ed6184322efaa79e,1,0,114.327261,30.353163,13871203183,cater,http://api.map.baidu.com/place/detail?uid=46993e97ed6184322efaa79e&output=html&source=placeapi_v2,,10:00-23:00,0,,,,,,,,0,,,,,,,,,0
086cab757fe1c39d2fb96d19,花之都酒店,美食,中餐厅,湖北省,武汉市,江夏区,武汉市江夏区古驿道轻工小院东侧约60米,086cab757fe1c39d2fb96d19,1,0,114.32717,30.357887,(027)87912777,cater,http://api.map.baidu.com/place/detail?uid=086cab757fe1c39d2fb96d19&output=html&source=placeapi_v2,,,0,,,,,,,5,0,,,,,,,114.32688882566,30.35783338722,0
09d14b8afca287860f0a7015,漆氏卤菜馆,美食,中餐厅,湖北省,武汉市,江夏区,湖北省武汉市江夏区兴新街69号,09d14b8afca287860f0a7015,1,0,114.327901,30.35262,(027)87919577,cater,http://api.map.baidu.com/place/detail?uid=09d14b8afca287860f0a7015&output=html&source=placeapi_v2,24.0,07:00-19:00,3.6,,,,,,,,0,,,,,,,,,0
ffc135430686696c57bfff41,土人烧烤(花之都美食街店),美食,中餐厅,湖北省,武汉市,江夏区,湖北省武汉市江夏区古驿道128号附11号,ffc135430686696c57bfff41,1,0,114.326722,30.358813,(027)59702997,cater,http://api.map.baidu.com/place/detail?uid=ffc135430686696c57bfff41&output=html&source=placeapi_v2,104.0,16:30-01:00,3.6,,,,,,,1,23,,,,,,,114.32664517785,30.358788729358,0
1b06d9580ac09bdaf02d8332,创新零零吃家常菜,美食,中餐厅,湖北省,武汉市,江夏区,湖北武汉市江夏区熊廷弼路77号,1b06d9580ac09bdaf02d8332,1,0,114.322488,30.356628,(027)87951933,cater,http://api.map.baidu.com/place/detail?uid=1b06d9580ac09bdaf02d8332&output=html&source=placeapi_v2,52.0,00:00-24:00,3.0,,,,,,,,1,,,,,,,,,0
8c454b56f924b15b82288a98,小巷人家菜馆(新北巷),美食,中餐厅,湖北省,武汉市,江夏区,湖北省武汉市江夏区纸坊街熊庭弼街96号附9号,8c454b56f924b15b82288a98,1,0,114.324751,30.35776,"13419511532,15871466229",cater,http://api.map.baidu.com/place/detail?uid=8c454b56f924b15b82288a98&output=html&source=placeapi_v2,50.0,,3.7,,,,,,,,3,,,,,,,114.32484611894,30.357702251441,0
bed8e157271550f06168580f,龙湾酒店,美食,中餐厅,湖北省,武汉市,江夏区,湖北省武汉市江夏区复江道202-附102号,bed8e157271550f06168580f,1,0,114.32123,30.364782,(027)81816666,cater,http://api.map.baidu.com/place/detail?uid=bed8e157271550f06168580f&output=html&source=placeapi_v2,,09:00-21:00,3.5,,,,,,,,0,,,,,,,114.32135549507,30.364760388834,0
a39daed0cce15be0fbdc8539,开升干锅鸡鸭专店,美食,中餐厅,湖北省,武汉市,江夏区,湖北省武汉市江夏区熊廷弼路100号,a39daed0cce15be0fbdc8539,1,0,114.322365,30.356646,18672783590,cater,http://api.map.baidu.com/place/detail?uid=a39daed0cce15be0fbdc8539&output=html&source=placeapi_v2,54.0,10:00-03:00,3.4,,,,,,,,0,,,,,,,114.32243271519,30.356856219165,0
cb136b086bbb6c5c4151c0be,农家小田园,美食,中餐厅,湖北省,武汉市,江夏区,江夏区新南巷宜佳购物广场(兴新街店)西侧,cb136b086bbb6c5c4151c0be,1,0,114.321884,30.352873,,cater,http://api.map.baidu.com/place/detail?uid=cb136b086bbb6c5c4151c0be&output=html&source=placeapi_v2,,09:30-22:00,,,,,,,,,,,,,,,,114.32190359797,30.352870528272,0
a0d72ab408e9f807901fc98d,小祝美食,美食,中餐厅,湖北省,武汉市,江夏区,江夏区江夏大道锶业里44号,a0d72ab408e9f807901fc98d,1,0,114.33567,30.35317,13871051148,cater,http://api.map.baidu.com/place/detail?uid=a0d72ab408e9f807901fc98d&output=html&source=placeapi_v2,,11:00-21:30,3.6,,,,,,,,,,,,,,,114.33572680131,30.353105157634,0
c8000077c1ef3b0017a1907f,文焱赤壁牛杂,美食,中餐厅,湖北省,武汉市,江夏区,湖北省武汉市江夏区熊廷弼街132号,c8000077c1ef3b0017a1907f,1,0,114.318884,30.356684,18627812691,cater,http://api.map.baidu.com/place/detail?uid=c8000077c1ef3b0017a1907f&output=html&source=placeapi_v2,66.0,10:00-01:00,3.8,,,,,,,,0,,,,,,,,,0
8638f895f6bf0e491188248e,地锅传奇(江夏总店),美食,中餐厅,湖北省,武汉市,江夏区,湖北省武汉市江夏区沙羡街21号,8638f895f6bf0e491188248e,1,0,114.329968,30.360477,17671621391,cater,http://api.map.baidu.com/place/detail?uid=8638f895f6bf0e491188248e&output=html&source=placeapi_v2,60.0,11:00-21:30,4.5,,,,,,,,3,,,,,,,114.32995083972,30.360568257831,0
085766ad1df122e73686f42f,大别山吊锅(古驿道店),美食,中餐厅,湖北省,武汉市,江夏区,湖北省武汉市江夏区古驿道128附19号,085766ad1df122e73686f42f,1,0,114.326693,30.359003,13387618377,cater,http://api.map.baidu.com/place/detail?uid=085766ad1df122e73686f42f&output=html&source=placeapi_v2,,,,,,,,,,,,,,,,,,114.32662132963,30.358902983651,0
7a3510bf234b22db4151c038,虾王蟹后,美食,中餐厅,湖北省,武汉市,江夏区,湖北省武汉市江夏区熊廷弼街126号,62841faa78219209fa42b2f3,1,0,114.319124,30.356725,18872288698,cater,http://api.map.baidu.com/place/detail?uid=7a3510bf234b22db4151c038&output=html&source=placeapi_v2,53.0,16:00-03:00,3.6,,,,,,,,2,,,,,,,114.3191576514,30.356569341679,0
c171a07fa0d4f1e7bfa822ab,界佳缘农家菜馆,美食,中餐厅,湖北省,武汉市,江夏区,武汉市江夏区文化大道中建龙城-西区西北侧约70米,c171a07fa0d4f1e7bfa822ab,1,0,114.331445,30.349567,"13971162996,15872388081",cater,http://api.map.baidu.com/place/detail?uid=c171a07fa0d4f1e7bfa822ab&output=html&source=placeapi_v2,,10:00-20:00,,,,,,,,,,,,,,,,,,0
3b875de90325abafbadf8f64,咩羊驿站,美食,中餐厅,湖北省,武汉市,江夏区,武汉市江夏区古驿道城东大市场(兴新街)东侧约90米,,1,0,114.327039,30.353528,,cater,http://api.map.baidu.com/place/detail?uid=3b875de90325abafbadf8f64&output=html&source=placeapi_v2,,08:00-17:00,,,,,,,,,,,,,,,,,,0
414ecab053344fcf081cc7a5,范家瓦罐汤,美食,中餐厅,湖北省,武汉市,江夏区,武汉市江夏区新南巷宜佳购物广场(兴新街店)西侧,414ecab053344fcf081cc7a5,1,0,114.321838,30.353061,,cater,http://api.map.baidu.com/place/detail?uid=414ecab053344fcf081cc7a5&output=html&source=placeapi_v2,,,,,,,,,,,,,,,,,,114.32193663675,30.353030833523,0
4e25e5ec599c62bc15a19080,重庆大众川菜馆(幸福巷),美食,中餐厅,湖北省,武汉市,江夏区,湖北省武汉市江夏区纸坊大街791号,4e25e5ec599c62bc15a19080,1,0,114.325311,30.348427,13037171372,cater,http://api.map.baidu.com/place/detail?uid=4e25e5ec599c62bc15a19080&output=html&source=placeapi_v2,,11:00-21:00,3.3,,,,,,,,11,,,,,,,,,0
375126b686a004ace215f93f,壹面缘烤肉饭,美食,中餐厅,湖北省,武汉市,江夏区,武汉市江夏区新南巷宜佳购物广场(兴新街店)西侧,,1,0,114.321802,30.353012,,cater,http://api.map.baidu.com/place/detail?uid=375126b686a004ace215f93f&output=html&source=placeapi_v2,,,,,,,,,,,,,,,,,,,,0
f11d84dba07f02b10d0a7095,原滋味土菜馆(文华路店),美食,中餐厅,湖北省,武汉市,江夏区,"江夏区文化路(近江夏水产局,简朴寨对面)",f11d84dba07f02b10d0a7095,1,0,114.330348,30.359812,13971280605,cater,http://api.map.baidu.com/place/detail?uid=f11d84dba07f02b10d0a7095&output=html&source=placeapi_v2,51.0,09:00-21:00,3.5,,,,,,,,0,,,,,,,114.33048615614,30.359823538877,0
c4b28056b16a423c2806cee2,常青麦香园(纸坊店),美食,中餐厅,湖北省,武汉市,江夏区,湖北省武汉市江夏区西交路239号,c4b28056b16a423c2806cee2,1,0,114.315229,30.354391,13397183585,cater,http://api.map.baidu.com/place/detail?uid=c4b28056b16a423c2806cee2&output=html&source=placeapi_v2,8.0,"07:30-14:00,16:00-20:00",3.5,,,,,,,,2,,,,,,,114.31529243952,30.354397812403,0
18e873b7a5cd1eecb2077d4d,森宾卤菜馆,美食,中餐厅,湖北省,武汉市,江夏区,湖北省武汉市江夏区北华街38号附16号,18e873b7a5cd1eecb2077d4d,1,0,114.322651,30.363319,(027)81813384,cater,http://api.map.baidu.com/place/detail?uid=18e873b7a5cd1eecb2077d4d&output=html&source=placeapi_v2,,10:00-20:00,3.6,,,,,,,,2,,,,,,,114.32267375302,30.363199197702,0
c247dd635dda735e8f1a8903,富硒楼恩施土菜馆(沙羡街店),美食,中餐厅,湖北省,武汉市,江夏区,湖北省武汉市江夏区沙羡街23号,c247dd635dda735e8f1a8903,1,0,114.331168,30.360747,(027)81618756,cater,http://api.map.baidu.com/place/detail?uid=c247dd635dda735e8f1a8903&output=html&source=placeapi_v2,,10:00-21:30,3.4,,,,,,,,1,,,,,,,,,0
dd0bb304816cfa64d33ce35b,大众餐厅(北华街店),美食,中餐厅,湖北省,武汉市,江夏区,湖北省武汉市江夏区北华街51附23号,dd0bb304816cfa64d33ce35b,1,0,114.321949,30.362746,13129959499,cater,http://api.map.baidu.com/place/detail?uid=dd0bb304816cfa64d33ce35b&output=html&source=placeapi_v2,25.0,09:30-22:00,3.8,,,,,,,,0,,,,,,,114.32191893025,30.362898216954,0
80d40cb985d3f30b2e4733de,花夕拾山珍私厨,美食,中餐厅,湖北省,武汉市,江夏区,湖北省武汉市江夏区纸坊大街青龙路357号,80d40cb985d3f30b2e4733de,1,0,114.330485,30.339719,,cater,http://api.map.baidu.com/place/detail?uid=80d40cb985d3f30b2e4733de&output=html&source=placeapi_v2,219.0,"09:00-14:00,16:00-21:00",4.1,,,,,,,,5,,,,,,,114.33051774775,30.339540056638,0
7fcf3f75ec1e7a85b8bd631d,香他她煲仔饭(熊廷弼街店),美食,小吃快餐店,湖北省,武汉市,江夏区,湖北省武汉市江夏区熊廷弼街69附8号,7fcf3f75ec1e7a85b8bd631d,1,0,114.323495,30.356764,15827016691,cater,http://api.map.baidu.com/place/detail?uid=7fcf3f75ec1e7a85b8bd631d&output=html&source=placeapi_v2,22.0,10:00-21:00,3.6,,,,,,,,,,,,,,,114.32343569755,30.356954833778,0
74f984f3bbcb1a5aa3acc4cc,香满天美食,美食,中餐厅,湖北省,武汉市,江夏区,湖北省武汉市江夏区沙羡街38号,74f984f3bbcb1a5aa3acc4cc,1,0,114.324333,30.360068,15902712124,cater,http://api.map.baidu.com/place/detail?uid=74f984f3bbcb1a5aa3acc4cc&output=html&source=placeapi_v2,50.0,10:00-22:00,3.5,,,,,,,,1,,,,,,,114.32435094151,30.359958593472,0
e5dfecca53c1d15f9e82ea15,疯狂串串(地大总店),美食,中餐厅,湖北省,武汉市,江夏区,湖北省武汉市江夏区纸坊街学府路35号,e5dfecca53c1d15f9e82ea15,1,0,114.338404,30.354107,13007169006,cater,http://api.map.baidu.com/place/detail?uid=e5dfecca53c1d15f9e82ea15&output=html&source=placeapi_v2,66.0,10:30-02:00,3.7,,,,,,,,0,,,,,,,,,0
69b7ea9b24079b8bd6b74e3d,丁记正宗贵州花江狗肉火锅城(西交路),美食,中餐厅,湖北省,武汉市,江夏区,纸坊大街1047号(纸坊饭店隔壁),69b7ea9b24079b8bd6b74e3d,1,0,114.314807,30.348356,18788668090,cater,http://api.map.baidu.com/place/detail?uid=69b7ea9b24079b8bd6b74e3d&output=html&source=placeapi_v2,,09:00-22:00,5,,,,,,,,2,,,,,,,114.31484400002,30.348536998061,0
77fbc3428bab69aab2077d96,江城宴,美食,中餐厅,湖北省,武汉市,江夏区,江夏区熊廷弼街高鑫名居底商,77fbc3428bab69aab2077d96,1,0,114.340556,30.358135,(027)81816677,cater,http://api.map.baidu.com/place/detail?uid=77fbc3428bab69aab2077d96&output=html&source=placeapi_v2,70.0,"08:00-14:00,16:00-21:00",3.6,,,,,,,,15,,,,,,,114.34054182062,30.358001414026,0
6342a0318a2c9737b45f1e2a,醉江月酒楼(江夏店),美食,中餐厅,湖北省,武汉市,江夏区,湖北省武汉市江夏区青龙南路319号,,1,0,114.329367,30.341867,"(027)81816477,(027)81817477",cater,http://api.map.baidu.com/place/detail?uid=6342a0318a2c9737b45f1e2a&output=html&source=placeapi_v2,78.0,09:00-20:30,3.9,,,,,,,,7,,,,,,,,,0
e706985b0986f2704afd3fba,大众餐馆(宁安路店),美食,中餐厅,湖北省,武汉市,江夏区,湖北省武汉市江夏区纸坊大街宁安路6号6附3号,e706985b0986f2704afd3fba,1,0,114.322899,30.346999,13037171372,cater,http://api.map.baidu.com/place/detail?uid=e706985b0986f2704afd3fba&output=html&source=placeapi_v2,33.0,09:00-21:00,3.7,,,,,,,,0,,,,,,,114.32297688441,30.347010679543,0
f89360deb51f787b2efaa71a,醉龙阁农家菜,美食,中餐厅,湖北省,武汉市,江夏区,湖北省武汉市江夏区兴新街东路28号,f89360deb51f787b2efaa71a,1,0,114.334175,30.35375,15007102207,cater,http://api.map.baidu.com/place/detail?uid=f89360deb51f787b2efaa71a&output=html&source=placeapi_v2,48.0,10:00-22:00,3.4,,,,,,,,0,,,,,,,114.33419137621,30.353609039438,0
62af3620693859d89968b41e,心心烧烤(江夏店),美食,中餐厅,湖北省,武汉市,江夏区,湖北武汉市江夏区古驿道城北小区137附35号,62af3620693859d89968b41e,1,0,114.325403,30.36617,13886057517,cater,http://api.map.baidu.com/place/detail?uid=62af3620693859d89968b41e&output=html&source=placeapi_v2,74.0,17:30-01:30,3.6,,,,,,,,0,,,,,,,114.32521864624,30.36614487559,0
0b4053c22fae1fd5c909f0e7,湘满庭(纸坊店),美食,中餐厅,湖北省,武汉市,江夏区,湖北省武汉市江夏区兴新街东路39号,0b4053c22fae1fd5c909f0e7,1,0,114.333334,30.353341,"18271883586,18771128380",cater,http://api.map.baidu.com/place/detail?uid=0b4053c22fae1fd5c909f0e7&output=html&source=placeapi_v2,50.0,11:00-20:00,3.5,,,,,,,,0,,,,,,,114.33335196631,30.353413549502,0
589e1087691414a171455b9a,良友烤吧,美食,中餐厅,湖北省,武汉市,江夏区,湖北省武汉市江夏区沙羡街四贤路报社居民楼1单元101室,589e1087691414a171455b9a,1,0,114.322935,30.360157,15994242085,cater,http://api.map.baidu.com/place/detail?uid=589e1087691414a171455b9a&output=html&source=placeapi_v2,30.0,17:00-24:00,3.6,,,,,,,,1,,,,,,,114.32300516397,30.360644219165,0
60193c451746e45843e19213,小火柴大鱼头私房菜(江夏店),美食,中餐厅,湖北省,武汉市,江夏区,湖北省武汉市江夏区纸坊街宏德嘉园1栋1单元,60193c451746e45843e19213,1,0,114.325981,30.366779,18064098992,cater,http://api.map.baidu.com/place/detail?uid=60193c451746e45843e19213&output=html&source=placeapi_v2,75.0,09:00-22:00,3.6,,,,,,,,0,,,,,,,114.32598992686,30.366638109364,0
624b0bb8fea4454d5abbbc1d,好吃再来(兴新街店),美食,小吃快餐店,湖北省,武汉市,江夏区,湖北省武汉市江夏区兴新街新南巷53号,624b0bb8fea4454d5abbbc1d,1,0,114.321769,30.352811,13545159827,cater,http://api.map.baidu.com/place/detail?uid=624b0bb8fea4454d5abbbc1d&output=html&source=placeapi_v2,,,,,,,,,,,,,,,,,,114.3218795189,30.35278721369,0
52f6ff7de390f05b03ff2d4d,懒谈秦夜宵集团(江夏店),美食,中餐厅,湖北省,武汉市,江夏区,沙羡街35号,52f6ff7de390f05b03ff2d4d,1,0,114.331837,30.360895,"(027)81787078,18871498566",cater,http://api.map.baidu.com/place/detail?uid=52f6ff7de390f05b03ff2d4d&output=html&source=placeapi_v2,70.0,17:00-02:00,4.0,,,,,,,,0,,,,,,,114.33188682823,30.360886320122,0
6d81e06597b0a4d54c3a59da,回到丽江,美食,中餐厅,湖北省,武汉市,江夏区,武汉市江夏区纸坊街兴苑街畅馨园20栋3号,6d81e06597b0a4d54c3a59da,1,0,114.320214,30.366458,15927540303,cater,http://api.map.baidu.com/place/detail?uid=6d81e06597b0a4d54c3a59da&output=html&source=placeapi_v2,100.0,11:00-20:00,4.1,,,,,,,9,36,,,,,,,,,0
6aa81397a33339b9aecb66b7,燕子三鲜,美食,中餐厅,湖北省,武汉市,江夏区,湖北武汉市江夏区纸坊大街607号,6aa81397a33339b9aecb66b7,1,0,114.335847,30.349149,13164641977,cater,http://api.map.baidu.com/place/detail?uid=6aa81397a33339b9aecb66b7&output=html&source=placeapi_v2,,,3.6,,,,,,,,1,,,,,,,114.33585387292,30.349316743098,0
743ad8b62566bc893b221c70,欢辣派重庆老火锅(江夏纸坊店),美食,中餐厅,湖北省,武汉市,江夏区,湖北省武汉市江夏区学府路5号,743ad8b62566bc893b221c70,1,0,114.337121,30.353955,18971684756,cater,http://api.map.baidu.com/place/detail?uid=743ad8b62566bc893b221c70&output=html&source=placeapi_v2,57.0,11:00-02:00,3.7,,,,,,,,0,,,,,,,,,0
39de3d2c1ec313b028d7abb9,幸福小馆(江夏店),美食,中餐厅,湖北省,武汉市,江夏区,湖北省武汉市江夏区学府路70号,39de3d2c1ec313b028d7abb9,1,0,114.338802,30.353896,18930519667,cater,http://api.map.baidu.com/place/detail?uid=39de3d2c1ec313b028d7abb9&output=html&source=placeapi_v2,66.0,10:30-22:00,3.5,,,,,,,,1,,,,,,,114.33878560614,30.353969312973,0
3cf9da4a6bff4fc4f603b8d3,色味湘餐厅(江夏店),美食,中餐厅,湖北省,武汉市,江夏区,湖北省武汉市江夏区纸坊大街1031号,3cf9da4a6bff4fc4f603b8d3,1,0,114.31517,30.348535,13114399550,cater,http://api.map.baidu.com/place/detail?uid=3cf9da4a6bff4fc4f603b8d3&output=html&source=placeapi_v2,93.0,08:00-24:00,3.5,,,,,,,,1,,,,,,,114.31513246299,30.348676500153,0
c6982f26f63e1078ad080fe4,龙太子轩酒店,美食,中餐厅,湖北省,武汉市,江夏区,湖北省武汉市江夏区江夏大道168号,c6982f26f63e1078ad080fe4,1,0,114.338525,30.364252,,cater,http://api.map.baidu.com/place/detail?uid=c6982f26f63e1078ad080fe4&output=html&source=placeapi_v2,100.0,08:30-21:00,3.5,,,,,,,1,4,,,,,,,114.33843763851,30.364169426562,0
06f48a41e46d759a1ce99951,烧鸡子之店,美食,中餐厅,湖北省,武汉市,江夏区,江夏区纸坊大街1085号,06f48a41e46d759a1ce99951,1,0,114.314054,30.348251,18572830244,cater,http://api.map.baidu.com/place/detail?uid=06f48a41e46d759a1ce99951&output=html&source=placeapi_v2,60.0,11:30-20:00,3.8,,,,,,,,,,,,,,,,,0
852377ffd859611a8c55ec32,四合院私房菜,美食,中餐厅,湖北省,武汉市,江夏区,湖北省武汉市江夏区武昌大道1235号,852377ffd859611a8c55ec32,1,0,114.319293,30.367801,13871383989,cater,http://api.map.baidu.com/place/detail?uid=852377ffd859611a8c55ec32&output=html&source=placeapi_v2,72.0,11:00-21:00,3.6,,,,,,,,3,,,,,,,114.31945223183,30.36779466444,0
6d41cab8bfef25928f55ec52,野妹火锅(中百广场江夏店),美食,中餐厅,湖北省,武汉市,江夏区,武汉市江夏区纸坊街文化路37号中百广场F4,6d41cab8bfef25928f55ec52,1,0,114.327066,30.370287,(027)87908258,cater,http://api.map.baidu.com/place/detail?uid=6d41cab8bfef25928f55ec52&output=html&source=placeapi_v2,78.0,10:00-22:00,4.4,,,,,,,,93,,,,,,,114.32867204074,30.37117394398,0
bee5fa77b505d3e83517dc98,紫燕百味鸡(中港店),美食,小吃快餐店,湖北省,武汉市,江夏区,湖北省武汉市江夏区古驿道中港市场西大门口第三间门面,bee5fa77b505d3e83517dc98,1,0,114.326248,30.361289,4008886517,cater,http://api.map.baidu.com/place/detail?uid=bee5fa77b505d3e83517dc98&output=html&source=placeapi_v2,36.0,08:00-19:00,4.5,,,,,,,,2,,,,,,,114.32607277488,30.361262620511,0
18da2a29a095bcdf9f09f7ca,二道口陶记鸡汤馆,美食,中餐厅,湖北省,武汉市,江夏区,湖北省武汉市江夏区纸坊大街1285号,18da2a29a095bcdf9f09f7ca,1,0,114.30972,30.346533,13006175736,cater,http://api.map.baidu.com/place/detail?uid=18da2a29a095bcdf9f09f7ca&output=html&source=placeapi_v2,,"10:00-15:00,17:00-23:00",3.6,,,,,,,1,5,,,,,,,,,0
dded01eea50315b45abbbcfa,我家小馆(中百广场江夏店),美食,中餐厅,湖北省,武汉市,江夏区,武汉市江夏区纸坊街文化路37号中百广场F5,dded01eea50315b45abbbcfa,1,0,114.327679,30.37049,(027)81389098,cater,http://api.map.baidu.com/place/detail?uid=dded01eea50315b45abbbcfa&output=html&source=placeapi_v2,61.0,"11:00-14:00,17:00-21:00",4.0,,,,,,,,1,,,,,,,114.32867204074,30.37117394398,0
860ad0d839e2428b2efaa790,胖子餐馆(武汉市江夏区城市管理执法局西店),美食,中餐厅,湖北省,武汉市,江夏区,武汉市江夏区纸坊大街1027号(城市管理执法局西),860ad0d839e2428b2efaa790,1,0,114.315216,30.348543,(027)81782992,cater,http://api.map.baidu.com/place/detail?uid=860ad0d839e2428b2efaa790&output=html&source=placeapi_v2,35.0,,3.6,,,,,,,,2,,,,,,,114.3151810703,30.348692934746,0
0e4aed822b57368b260bd072,谭鸭血老火锅(江夏店),美食,中餐厅,湖北省,武汉市,江夏区,湖北省武汉市江夏区大道152号,,1,0,114.338064,30.364816,(027)81781717,cater,http://api.map.baidu.com/place/detail?uid=0e4aed822b57368b260bd072&output=html&source=placeapi_v2,91.0,11:00-22:00,3.7,,,,,,,,2,,,,,,,114.33789450863,30.364917385965,0
34a1309686fca52295ca079b,元宝纸上烤鱼(兴新街店),美食,中餐厅,湖北省,武汉市,江夏区,湖北省武汉市江夏区兴新街东段学府路65号,34a1309686fca52295ca079b,1,0,114.339626,30.354139,"13437178779,18323772131",cater,http://api.map.baidu.com/place/detail?uid=34a1309686fca52295ca079b&output=html&source=placeapi_v2,52.0,10:00-23:00,3.7,,,,,,,,2,,,,,,,,,0
c03515188c2f8cb1f6c59c5b,八方缘餐厅(福四巷),美食,中餐厅,湖北省,武汉市,江夏区,湖北省武汉市江夏区纸坊武昌大道福4巷798附2号,c03515188c2f8cb1f6c59c5b,1,0,114.317048,30.361907,13476257789,cater,http://api.map.baidu.com/place/detail?uid=c03515188c2f8cb1f6c59c5b&output=html&source=placeapi_v2,53.0,00:00-24:00,4,,,,,,,,2,,,,,,,114.31688356585,30.361971027483,0
417b5e226f185d59d42ce202,花雕醉鸡(江夏店),美食,中餐厅,湖北省,武汉市,江夏区,湖北省武汉市江夏区新兴街锶业里小区86号,417b5e226f185d59d42ce202,1,0,114.338779,30.353558,13117059792,cater,http://api.map.baidu.com/place/detail?uid=417b5e226f185d59d42ce202&output=html&source=placeapi_v2,41.0,08:00-22:00,3.5,,,,,,,,0,,,,,,,114.33879130768,30.353636348445,0
6f3e85ee60fbb689354aaec0,永丽海鲜城,美食,中餐厅,湖北省,武汉市,江夏区,湖北武汉市江夏区江夏大道世纪星语永丽健身会b栋1楼,6f3e85ee60fbb689354aaec0,1,0,114.33799,30.364268,"(027)87908999,13971097508",cater,http://api.map.baidu.com/place/detail?uid=6f3e85ee60fbb689354aaec0&output=html&source=placeapi_v2,59.0,10:00-02:00,1,,,,,,,,1,,,,,,,,,0
d808f7617deeab9cf02d836d,口味湘生活菜馆(谢家湾店),美食,中餐厅,湖北省,武汉市,江夏区,湖北省武汉市江夏区江夏大道公路新区3~4号,d808f7617deeab9cf02d836d,1,0,114.339406,30.364643,15337229108,cater,http://api.map.baidu.com/place/detail?uid=d808f7617deeab9cf02d836d&output=html&source=placeapi_v2,,10:30-21:30,3.2,,,,,,,,1,,,,,,,114.33960560186,30.364711161545,0
f7856dec1d82f3fe17948e74,美蚝王烧烤大排档(高鑫名居店),美食,中餐厅,湖北省,武汉市,江夏区,湖北省武汉市江夏区纸坊街高鑫名居9号商铺附19号,f7856dec1d82f3fe17948e74,1,0,114.342586,30.35834,(027)81818916,cater,http://api.map.baidu.com/place/detail?uid=f7856dec1d82f3fe17948e74&output=html&source=placeapi_v2,59.0,10:30-16:00,3.9,,,,,,,,1,,,,,,,114.34284610694,30.357939396159,0
3212ad2aadb6eaabcd04ef70,杨烤神小黄鱼(江夏总店),美食,中餐厅,湖北省,武汉市,江夏区,湖北省武汉市江夏区纸坊街马山村养殖场4号,3212ad2aadb6eaabcd04ef70,1,0,114.333846,30.367996,,cater,http://api.map.baidu.com/place/detail?uid=3212ad2aadb6eaabcd04ef70&output=html&source=placeapi_v2,37.0,17:00-01:00,3.8,,,,,,,1,1,,,,,,,114.33375516804,30.367981138101,0
6dd0cf64bdfabd18e9f85381,旺哥农家菜,美食,中餐厅,湖北省,武汉市,江夏区,湖北省武汉市江夏区马山路6附11号,6dd0cf64bdfabd18e9f85381,1,0,114.333841,30.367587,13163364058,cater,http://api.map.baidu.com/place/detail?uid=6dd0cf64bdfabd18e9f85381&output=html&source=placeapi_v2,54.0,"11:00-14:00,16:30-24:00",3.5,,,,,,,,3,,,,,,,114.33375809921,30.367587857545,0
00c1e402a5d613d1cac3db0b,小郡肝火锅串串香(兴新街店),美食,中餐厅,湖北省,武汉市,江夏区,江夏区兴新街学府路21号,00c1e402a5d613d1cac3db0b,1,0,114.337801,30.354012,18108642499,cater,http://api.map.baidu.com/place/detail?uid=00c1e402a5d613d1cac3db0b&output=html&source=placeapi_v2,65.0,11:00-24:00,3.6,,,,,,,,,,,,,,,,,0
f9b07163f2a7e5ed2a06ce35,蛙哦碳烧牛蛙(九全嘉国际店),美食,中餐厅,湖北省,武汉市,江夏区,武汉市江夏区江夏大道与北华街交汇处九全嘉购物广场三楼观光电梯口(九全嘉购物广场),f9b07163f2a7e5ed2a06ce35,1,0,114.336001,30.364791,,cater,http://api.map.baidu.com/place/detail?uid=f9b07163f2a7e5ed2a06ce35&output=html&source=placeapi_v2,64.0,11:00-21:10,3.9,,,,,,,,0,,,,,,,,,0
d7b648cf347212854d776ef0,天天私房菜(复江道店),美食,中餐厅,湖北省,武汉市,江夏区,湖北省武汉市江夏区复江道城明花园202附201号,d7b648cf347212854d776ef0,1,0,114.321707,30.365822,15347069366,cater,http://api.map.baidu.com/place/detail?uid=d7b648cf347212854d776ef0&output=html&source=placeapi_v2,52.0,"11:00-14:00,16:30-20:00",3.5,,,,,,,,0,,,,,,,114.32161851443,30.3658334835,0
f0c02bb80d834382eb12e479,唐记煌砂锅串串香(江夏九全嘉国际广场店),美食,中餐厅,湖北省,武汉市,江夏区,江夏大道与北华街交汇处九全嘉购物广场4楼,f0c02bb80d834382eb12e479,1,0,114.33682,30.36525,13477027616,cater,http://api.map.baidu.com/place/detail?uid=f0c02bb80d834382eb12e479&output=html&source=placeapi_v2,56.0,09:30-22:00,4.1,,,,,,,,42,,,,,,,,,0
182704560a8fdd7a0b69d964,百味星君麻辣香锅(地大店),美食,中餐厅,湖北省,武汉市,江夏区,湖北省武汉市江夏区学府路130号,182704560a8fdd7a0b69d964,1,0,114.339596,30.353935,"15327367121,15972227901",cater,http://api.map.baidu.com/place/detail?uid=182704560a8fdd7a0b69d964&output=html&source=placeapi_v2,33.0,10:00-22:00,3.5,,,,,,,,0,,,,,,,,,0
f036f4aed622a955b35c6aa7,小牛憨子(九全嘉国际广场店),美食,外国餐厅,湖北省,武汉市,江夏区,湖北省武汉市江夏区江夏大道九全嘉国际广场3楼,f036f4aed622a955b35c6aa7,1,0,114.335946,30.364492,18717184341,cater,http://api.map.baidu.com/place/detail?uid=f036f4aed622a955b35c6aa7&output=html&source=placeapi_v2,71.0,10:00-21:30,3.3,,,,,,,,2,,,,,,,,,0
4ae79b54c2e589f1c9e33cfa,南洋红家常菜,美食,中餐厅,湖北省,武汉市,江夏区,兴苑街花山美庐对面,4ae79b54c2e589f1c9e33cfa,1,0,114.336704,30.367368,13277969878,cater,http://api.map.baidu.com/place/detail?uid=4ae79b54c2e589f1c9e33cfa&output=html&source=placeapi_v2,49.0,"11:00-14:00,17:00-21:30",3.5,,,,,,,,0,,,,,,,114.33665829023,30.367247426847,0
099c98c9f1907b89c156acaa,钓鱼岛美食,美食,中餐厅,湖北省,武汉市,江夏区,湖北省武汉市江夏区纸坊大街143号,099c98c9f1907b89c156acaa,1,0,114.347271,30.348036,(027)87023231,cater,http://api.map.baidu.com/place/detail?uid=099c98c9f1907b89c156acaa&output=html&source=placeapi_v2,180.0,"11:30-13:00,17:30-20:30",3.6,,,,,,,,2,,,,,,,,,0
2135b3b3748d6ffca11de9cb,南海鸽天下美食,美食,中餐厅,湖北省,武汉市,江夏区,湖北省武汉市江夏区纸坊大街147号,2135b3b3748d6ffca11de9cb,1,0,114.347138,30.348028,13545081241,cater,http://api.map.baidu.com/place/detail?uid=2135b3b3748d6ffca11de9cb&output=html&source=placeapi_v2,,11:30-21:00,5,,,,,,,,1,,,,,,,,,0
7f4d225a8d1972898a36ee99,众源餐饮,美食,中餐厅,湖北省,武汉市,江夏区,湖北省武汉市江夏区熊廷弼路8号,7f4d225a8d1972898a36ee99,1,0,114.345889,30.35383,17730179696,cater,http://api.map.baidu.com/place/detail?uid=7f4d225a8d1972898a36ee99&output=html&source=placeapi_v2,,11:00-20:00,,,,,,,,,,,,,,,,,,0
a62bdf0e95f483c33686f4eb,齐心花园农家菜,美食,中餐厅,湖北省,武汉市,江夏区,武汉市江夏区齐心花园7号,a62bdf0e95f483c33686f4eb,1,0,114.348272,30.361288,"13545399633,18971410237",cater,http://api.map.baidu.com/place/detail?uid=a62bdf0e95f483c33686f4eb&output=html&source=placeapi_v2,46.0,09:00-21:00,,,,,,,,,,,,,,,,114.34817070415,30.361306695578,0
551f42d55c90bec880a00c43,土灶乡,美食,中餐厅,湖北省,武汉市,江夏区,武汉市江夏区五里界路与庙山大道交叉路口往西南约270米,551f42d55c90bec880a00c43,1,0,114.378555,30.340666,(027)81782877,cater,http://api.map.baidu.com/place/detail?uid=551f42d55c90bec880a00c43&output=html&source=placeapi_v2,,09:00-21:00,4,,,,,,,,3,,,,,,,,,0
6cd7c146556231a0b04c491a,东站家常菜,美食,中餐厅,湖北省,武汉市,江夏区,湖北省武汉市江夏区沙羡街东72附5号,6cd7c146556231a0b04c491a,1,0,114.349076,30.360833,15926203866,cater,http://api.map.baidu.com/place/detail?uid=6cd7c146556231a0b04c491a&output=html&source=placeapi_v2,,,,,,,,,,,,,,,,,,,,0
f7e4c38ef999871d8836eec7,抓手双,美食,中餐厅,湖北省,武汉市,江夏区,武汉市江夏区纸坊大街纸坊苗苗幼儿园东侧约240米,,1,0,114.347097,30.348417,,cater,http://api.map.baidu.com/place/detail?uid=f7e4c38ef999871d8836eec7&output=html&source=placeapi_v2,,,,,,,,,,1,,,,,,,,,,0
ca4e5a6dfd5a6ebdafee7a63,品味私房菜(界兴路店),美食,中餐厅,湖北省,武汉市,江夏区,武汉市江夏区界兴路武汉农村商业银行(五里界支行)东侧约80米,ca4e5a6dfd5a6ebdafee7a63,1,0,114.404814,30.342181,15972132905,cater,http://api.map.baidu.com/place/detail?uid=ca4e5a6dfd5a6ebdafee7a63&output=html&source=placeapi_v2,,08:30-22:00,5,,,,,,,,1,,,,,,,114.40479688137,30.342081308972,0
52cf80bed14b21253517dc89,梁湖鱼庄,美食,中餐厅,湖北省,武汉市,江夏区,梁子湖大道西50米,,1,0,114.424222,30.351491,15392946339,cater,http://api.map.baidu.com/place/detail?uid=52cf80bed14b21253517dc89&output=html&source=placeapi_v2,,08:00-20:00,,,,,,,,,1,,,,,,,,,0
fdd906cfbf4736ee95f08c94,如意轩酒楼(界兴路店),美食,中餐厅,湖北省,武汉市,江夏区,湖北省武汉市江夏区界兴路155号,fdd906cfbf4736ee95f08c94,1,0,114.401421,30.342687,(027)87971885,cater,http://api.map.baidu.com/place/detail?uid=fdd906cfbf4736ee95f08c94&output=html&source=placeapi_v2,,09:00-21:00,3.6,,,,,,,,1,,,,,,,,,0
5e711448b98fe16b0a5cb3c7,界上人家私房菜,美食,中餐厅,湖北省,武汉市,江夏区,湖北省武汉市江夏区界兴路98号,,1,0,114.400193,30.342389,13871579975,cater,http://api.map.baidu.com/place/detail?uid=5e711448b98fe16b0a5cb3c7&output=html&source=placeapi_v2,,07:30-21:00,3.4,,,,,,,,,,,,,,,,,0
573f3081add005d84d776e70,瑶瑶牛骨头,美食,中餐厅,湖北省,武汉市,江夏区,武汉市江夏区五里界锦绣小区十字路口红绿灯,573f3081add005d84d776e70,1,0,114.396898,30.342735,15172417333,cater,http://api.map.baidu.com/place/detail?uid=573f3081add005d84d776e70&output=html&source=placeapi_v2,,10:30-01:30,,,,,,,,,,,,,,,,,,0
88f4f685ac4d762e03ec0116,老陶土菜馆,美食,中餐厅,湖北省,武汉市,江夏区,江夏区幸福港路五里界派出所西北侧约130米,88f4f685ac4d762e03ec0116,1,0,114.393102,30.345083,,cater,http://api.map.baidu.com/place/detail?uid=88f4f685ac4d762e03ec0116&output=html&source=placeapi_v2,,,3.5,,,,,,,,4,,,,,,,114.39274289073,30.345153301576,0
b4728826c7745ff326d2bb63,小圆满餐厅(武汉绕城高速店),美食,中餐厅,湖北省,武汉市,江夏区,武汉市江夏区武汉绕城高速江夏服务区,b4728826c7745ff326d2bb63,1,0,114.401507,30.364307,,cater,http://api.map.baidu.com/place/detail?uid=b4728826c7745ff326d2bb63&output=html&source=placeapi_v2,,,,,,,,,,,,,,,,,,,,0
1762b29870932ffb0bccdd12,聚八方食尚经济主题餐厅,美食,中餐厅,湖北省,武汉市,江夏区,武汉市江夏区界兴路武汉农村商业银行(五里界支行)东侧约60米,,1,0,114.404653,30.341912,,cater,http://api.map.baidu.com/place/detail?uid=1762b29870932ffb0bccdd12&output=html&source=placeapi_v2,,,,,,,,,,,,,,,,,,114.40466747956,30.342030483871,0
db0d0486d374e24743ab9add,界邦酒家,美食,中餐厅,湖北省,武汉市,江夏区,湖北省武汉市江夏区界兴路142号,db0d0486d374e24743ab9add,1,0,114.403524,30.342063,13125013787,cater,http://api.map.baidu.com/place/detail?uid=db0d0486d374e24743ab9add&output=html&source=placeapi_v2,,"08:00-14:00,16:00-21:00",3.5,,,,,,,,,,,,,,,,,0
effdeccc7382c56743afe602,军军农家菜,美食,中餐厅,湖北省,武汉市,江夏区,湖北省武汉市江夏区梁子湖大道,,1,0,114.424267,30.351702,,cater,http://api.map.baidu.com/place/detail?uid=effdeccc7382c56743afe602&output=html&source=placeapi_v2,,,0,,,,,,,,1,,,,,,,114.42415744379,30.351836386805,0
4b2d90144c6a64e7c0364483,香里来家常菜,美食,中餐厅,湖北省,武汉市,江夏区,湖北省武汉市江夏区界山路10号,4b2d90144c6a64e7c0364483,1,0,114.403305,30.341706,"(027)87971055,13707141632",cater,http://api.map.baidu.com/place/detail?uid=4b2d90144c6a64e7c0364483&output=html&source=placeapi_v2,,10:00-20:00,3.5,,,,,,,,,,,,,,,,,0
d56317e04056f7ef0c0e6b44,重庆怪味黑鸭,美食,中餐厅,湖北省,武汉市,江夏区,武汉市江夏区界兴路江夏区五里界中学东南侧约180米,,1,0,114.403137,30.342447,18871196267,cater,http://api.map.baidu.com/place/detail?uid=d56317e04056f7ef0c0e6b44&output=html&source=placeapi_v2,,08:00-21:00,,,,,,,,,,,,,,,,114.40312018784,30.342358779237,0
945a6a79e57107395cbe862f,骆厨泡菜鱼牛骨头,美食,中餐厅,湖北省,武汉市,江夏区,湖北省武汉市江夏区界兴路179号,,1,0,114.403008,30.342488,,cater,http://api.map.baidu.com/place/detail?uid=945a6a79e57107395cbe862f&output=html&source=placeapi_v2,,,,,,,,,,,,,,,,,,,,0
e929cef39a07a037621c67ab,川香阁美食(锦绣大道店),美食,中餐厅,湖北省,武汉市,江夏区,武汉市江夏区锦绣大道毛家畈小区东南侧,e929cef39a07a037621c67ab,1,0,114.395743,30.346598,,cater,http://api.map.baidu.com/place/detail?uid=e929cef39a07a037621c67ab&output=html&source=placeapi_v2,,08:30-22:30,,,,,,,,,,,,,,,,114.39597196397,30.346537834804,0
35d830daaec6308d0869d96c,姐弟私房菜馆,美食,中餐厅,湖北省,武汉市,江夏区,武汉市江夏区伊托邦路2号附113号,,1,0,114.397013,30.340351,,cater,http://api.map.baidu.com/place/detail?uid=35d830daaec6308d0869d96c&output=html&source=placeapi_v2,,,,,,,,,,,,,,,,,,,,0
8ca35c8d9baee17c9f09f7ff,君喜酒家,美食,中餐厅,湖北省,武汉市,江夏区,界兴路4号,,1,0,114.403255,30.341935,13659859791,cater,http://api.map.baidu.com/place/detail?uid=8ca35c8d9baee17c9f09f7ff&output=html&source=placeapi_v2,,09:00-23:00,,,,,,,,,,,,,,,,,,0
4ff6760c9ea4d8430e0a7047,轩缘土菜馆,美食,中餐厅,湖北省,武汉市,江夏区,武汉市江夏区锦绣大道五里锦绣西南侧,,1,0,114.396975,30.339635,18627715349,cater,http://api.map.baidu.com/place/detail?uid=4ff6760c9ea4d8430e0a7047&output=html&source=placeapi_v2,,09:00-22:00,,,,,,,,,,,,,,,,114.3968099842,30.339651627034,0
b929248696647b332ce67b6d,味食鲜农家菜,美食,中餐厅,湖北省,武汉市,江夏区,湖北省武汉市江夏区五里界五里锦绣三期102号,,1,0,114.397033,30.339692,13986144161,cater,http://api.map.baidu.com/place/detail?uid=b929248696647b332ce67b6d&output=html&source=placeapi_v2,,09:30-22:00,,,,,,,,,,,,,,,,114.3968183052,30.339713413961,0
9d663c59df6e1bfe93114c86,牛骨牛杂馆,美食,小吃快餐店,湖北省,武汉市,江夏区,湖北省武汉市江夏区五里界新成电器商行(界兴路北),9d663c59df6e1bfe93114c86,1,0,114.402055,30.342659,18086028927,cater,http://api.map.baidu.com/place/detail?uid=9d663c59df6e1bfe93114c86&output=html&source=placeapi_v2,,,3.5,,,,,,,,,,,,,,,,,0
e1ef4f69c61201c97ab55cd0,军龙私房菜馆(龙湖社区店),美食,中餐厅,湖北省,武汉市,蔡甸区,湖北省武汉市蔡甸区经济技术开发区军山街龙湖社区商铺B28号,e1ef4f69c61201c97ab55cd0,1,0,114.130822,30.378685,(027)69816717,cater,http://api.map.baidu.com/place/detail?uid=e1ef4f69c61201c97ab55cd0&output=html&source=placeapi_v2,47.0,"09:00-14:00,16:30-21:00",3.5,,,,,,,,0,,,,,,,,,0
74410a918b68f6dc9222e025,老亲娘厨坊(龙湖店),美食,中餐厅,湖北省,武汉市,蔡甸区,武汉市蔡甸区军山街龙湖社区一期檀军路156号附40号,,1,0,114.131846,30.379704,,cater,http://api.map.baidu.com/place/detail?uid=74410a918b68f6dc9222e025&output=html&source=placeapi_v2,,10:00-21:30,3.4,,,,,,,,,,,,,,,114.13215499222,30.380009593599,0
29de71d7592834251ef74d2d,蜀香人家(黄陵矶大道店),美食,中餐厅,湖北省,武汉市,蔡甸区,武汉市蔡甸区军山街龙湖社区B6商铺,,1,0,114.131855,30.379667,13477024941,cater,http://api.map.baidu.com/place/detail?uid=29de71d7592834251ef74d2d&output=html&source=placeapi_v2,,09:00-21:30,,,,,,,,,,,,,,,,114.13226899078,30.379922963265,0
2a58c4aeb7b0fd18abf72993,同兴家常菜(金龙大道店),美食,中餐厅,湖北省,武汉市,江夏区,武汉市江夏区金龙大街郑店同兴小区,2a58c4aeb7b0fd18abf72993,1,0,114.250196,30.385431,13871572858,cater,http://api.map.baidu.com/place/detail?uid=2a58c4aeb7b0fd18abf72993&output=html&source=placeapi_v2,,09:00-20:00,,,,,,,,,,,,,,,,114.25030075722,30.385417642534,0
5508a493c439e6952bd7ab7c,苗乡狗肉馆,美食,中餐厅,湖北省,武汉市,江夏区,武汉市江夏区金龙大街郑店同兴小区西南侧约120米,,1,0,114.248966,30.385406,13554633400,cater,http://api.map.baidu.com/place/detail?uid=5508a493c439e6952bd7ab7c&output=html&source=placeapi_v2,,,,,,,,,,,,,,,,,,,,0
39ac29b779acf75ab9df8f81,紫东来味坊,美食,中餐厅,湖北省,武汉市,江夏区,武汉市江夏区金龙大街郑店同兴小区,39ac29b779acf75ab9df8f81,1,0,114.250529,30.385549,15971477651,cater,http://api.map.baidu.com/place/detail?uid=39ac29b779acf75ab9df8f81&output=html&source=placeapi_v2,,,,,,,,,,,,,,,,,,114.25051586994,30.385437581929,0
1319dff07b568422a11de9cf,香军府私房菜,美食,中餐厅,湖北省,武汉市,江夏区,湖北省武汉市江夏区郑店街同心小区3栋,1319dff07b568422a11de9cf,1,0,114.250761,30.385531,13667145112,cater,http://api.map.baidu.com/place/detail?uid=1319dff07b568422a11de9cf&output=html&source=placeapi_v2,,11:00-21:00,,,,,,,,,,,,,,,,114.25074838464,30.385418007836,0
62119b9f9f0024469ee321c7,千子烧烤私房菜,美食,中餐厅,湖北省,武汉市,江夏区,金龙大街同兴小区,,1,0,114.255549,30.384115,13476153434,cater,http://api.map.baidu.com/place/detail?uid=62119b9f9f0024469ee321c7&output=html&source=placeapi_v2,,16:00-02:00,,,,,,,,,,,,,,,,114.25556579857,30.384261218449,0
430acb23f438c968c4f50d99,鑫云湘菜馆,美食,中餐厅,湖北省,武汉市,江夏区,武汉市江夏区黄金三路武汉东乐商务酒店东侧约80米,430acb23f438c968c4f50d99,1,0,114.256408,30.384043,"15616165500,18175796350",cater,http://api.map.baidu.com/place/detail?uid=430acb23f438c968c4f50d99&output=html&source=placeapi_v2,,,3.4,,,,,,,,,,,,,,,114.25642590005,30.384186929393,0
de6bedf5ec9214c5fd0eb091,团聚家常菜,美食,中餐厅,湖北省,武汉市,江夏区,武汉市江夏区金龙大街武汉东乐商务酒店东侧约110米,,1,0,114.256769,30.384061,13871294475,cater,http://api.map.baidu.com/place/detail?uid=de6bedf5ec9214c5fd0eb091&output=html&source=placeapi_v2,,,,,,,,,,,,,,,,,,114.25666182562,30.38416009881,0
b6c9330103f1073e6fc02cc0,欣味缘,美食,中餐厅,湖北省,武汉市,江夏区,金龙大街246附2号,,1,0,114.254597,30.384284,13554229368,cater,http://api.map.baidu.com/place/detail?uid=b6c9330103f1073e6fc02cc0&output=html&source=placeapi_v2,,,,,,,,,,,,,,,,,,114.25460779078,30.384337017103,0
11bb28478f648106abf0cd58,孙记农家菜馆,美食,中餐厅,湖北省,武汉市,江夏区,武汉市江夏区黄金北路与黄金二路交叉路口西北侧,,1,0,114.260158,30.387218,15926460968,cater,http://api.map.baidu.com/place/detail?uid=11bb28478f648106abf0cd58&output=html&source=placeapi_v2,,,,,,,,,,,,,,,,,,,,0
3a4cb91af46a590b110daa04,兰州拉面(金龙大街店),美食,小吃快餐店,湖北省,武汉市,江夏区,武汉市江夏区黄金三路武汉东乐商务酒店东侧约70米,3a4cb91af46a590b110daa04,1,0,114.25632,30.384062,17671452931,cater,http://api.map.baidu.com/place/detail?uid=3a4cb91af46a590b110daa04&output=html&source=placeapi_v2,,06:00-21:00,3.4,,,,,,,,,,,,,,,114.25633542721,30.384185894761,0
21105f2231e3ab5f3a04b1f6,好人缘私房菜馆,美食,中餐厅,湖北省,武汉市,江夏区,武汉市江夏区神龙港北街德成钢茂大世界,,1,0,114.271302,30.39157,13667279552,cater,http://api.map.baidu.com/place/detail?uid=21105f2231e3ab5f3a04b1f6&output=html&source=placeapi_v2,,09:30-22:00,0,,,,,,,1,2,,,,,,,,,0
95f1b82efc7213c69fec2ba2,梅姐私房菜,美食,中餐厅,湖北省,武汉市,江夏区,江夏区刑远长街德成钢茂大世界f栋103A号,,1,0,114.271544,30.391532,15872803039,cater,http://api.map.baidu.com/place/detail?uid=95f1b82efc7213c69fec2ba2&output=html&source=placeapi_v2,,,,,,,,,,,,,,,,,,,,0
eebb652866f42dc621f01785,小四川菜馆(神龙港北街店),美食,中餐厅,湖北省,武汉市,江夏区,武汉市江夏区神龙港北街德成钢茂大世界,eebb652866f42dc621f01785,1,0,114.267968,30.391593,18071064008,cater,http://api.map.baidu.com/place/detail?uid=eebb652866f42dc621f01785&output=html&source=placeapi_v2,,10:00-21:00,3.4,,,,,,,,0,,,,,,,,,0
f885a77371fcae783fe2310b,凉凉美食坊,美食,中餐厅,湖北省,武汉市,江夏区,武汉市江夏区黄金北路与黄金一路交叉路口往西约150米,,1,0,114.2625,30.386867,,cater,http://api.map.baidu.com/place/detail?uid=f885a77371fcae783fe2310b&output=html&source=placeapi_v2,,,,,,,,,,,,,,,,,,,,0
adb419c6fc32ffcd744ff1fa,恰得好纸包鱼,美食,中餐厅,湖北省,武汉市,江夏区,湖北省武汉市江夏区神龙港北街德成钢茂大世界西区c栋,adb419c6fc32ffcd744ff1fa,1,0,114.269018,30.391622,15827497766,cater,http://api.map.baidu.com/place/detail?uid=adb419c6fc32ffcd744ff1fa&output=html&source=placeapi_v2,,,,,,,,,,,,,,,,,,,,0
067b3ce8411124e4b320a8c0,烤吧,美食,中餐厅,湖北省,武汉市,江夏区,湖北省武汉市江夏区大桥现代产业园德成钢茂大世界西区17栋10号,067b3ce8411124e4b320a8c0,1,0,114.268929,30.391625,13627128712,cater,http://api.map.baidu.com/place/detail?uid=067b3ce8411124e4b320a8c0&output=html&source=placeapi_v2,,,,,,,,,,,,,,,,,,,,0
ded4aed709da7075b35c6a95,聚味堂,美食,中餐厅,湖北省,武汉市,江夏区,江夏区白沙洲大道与神龙港北街交叉路口往东北约60米,,1,0,114.26636,30.391591,"13886086703,18502782130",cater,http://api.map.baidu.com/place/detail?uid=ded4aed709da7075b35c6a95&output=html&source=placeapi_v2,,09:00-21:30,,,,,,,,,,,,,,,,114.26634914505,30.39135993562,0
095fc3eb7514c7934d3a59a8,湘川菜馆,美食,中餐厅,湖北省,武汉市,江夏区,神龙港北街与白沙洲大道交叉路口西南侧,095fc3eb7514c7934d3a59a8,1,0,114.266206,30.391619,15107178811,cater,http://api.map.baidu.com/place/detail?uid=095fc3eb7514c7934d3a59a8&output=html&source=placeapi_v2,,,,,,,,,,,,,,,,,,114.26621776428,30.391361811745,0
d63310707a9147bfab175a10,相逢藕遇餐厅,美食,中餐厅,湖北省,武汉市,江夏区,武汉市江夏区黄金北路与黄金一路交叉路口往西约170米,,1,0,114.262339,30.386888,18627846387,cater,http://api.map.baidu.com/place/detail?uid=d63310707a9147bfab175a10&output=html&source=placeapi_v2,,,,,,,,,,,,,,,,,,114.26229086755,30.386693241866,0
340160cf4a38b1de5d0d0234,伊瑞泽尔主题餐厅(联投广场店),美食,中餐厅,湖北省,武汉市,江夏区,湖北省武汉市江夏区文化大道3号3楼,340160cf4a38b1de5d0d0234,1,0,114.326654,30.379926,(027)81818088,cater,http://api.map.baidu.com/place/detail?uid=340160cf4a38b1de5d0d0234&output=html&source=placeapi_v2,66.0,11:00-21:00,4,,,,,,,,1,,,,,,,114.32409119826,30.37914116833,0
09795514b651b950c51e517a,渔夫非渔餐厅,美食,中餐厅,湖北省,武汉市,江夏区,武汉市江夏区五里墩街江南协和医院大桥新区还建小区13栋1号门面,09795514b651b950c51e517a,1,0,114.325485,30.377759,13659849930,cater,http://api.map.baidu.com/place/detail?uid=09795514b651b950c51e517a&output=html&source=placeapi_v2,,09:00-23:00,3.4,,,,,,,,0,,,,,,,114.32557203244,30.377755539809,0
29dfb3458e3fb18cadcb66cd,牛太郎时尚自助烤肉加火锅(江夏联投广场店),美食,中餐厅,湖北省,武汉市,江夏区,武汉市江夏区文化大道联投广场万汇mall3层,29dfb3458e3fb18cadcb66cd,1,0,114.327627,30.380002,13971465558,cater,http://api.map.baidu.com/place/detail?uid=29dfb3458e3fb18cadcb66cd&output=html&source=placeapi_v2,66.0,11:00-22:00,3.7,,,,,,,,0,,,,,,,114.32760745169,30.380504580873,0
1848cc48b804ff3557bfffa3,老地方鲜味楼,美食,中餐厅,湖北省,武汉市,江夏区,湖北省武汉市江夏区谭鑫培路55号,,1,0,114.322508,30.373288,(027)81562188,cater,http://api.map.baidu.com/place/detail?uid=1848cc48b804ff3557bfffa3&output=html&source=placeapi_v2,58.0,"09:00-14:00,16:00-21:00",3.7,,,,,,,,1,,,,,,,114.3226064897,30.373559849774,0
fb42f43102d3b133a80dd815,爱饭(清江泓景店),美食,中餐厅,湖北省,武汉市,江夏区,湖北省武汉市江夏区文化大道清江泓景4栋1~2层20~24号,fb42f43102d3b133a80dd815,1,0,114.328787,30.396572,(027)50527937,cater,http://api.map.baidu.com/place/detail?uid=fb42f43102d3b133a80dd815&output=html&source=placeapi_v2,66.0,,4.1,,,,,,,,0,,,,,,,114.32868847344,30.396563083984,0
0ebef1ff8ca7429c0a1cc74f,金鼎餐厅,美食,中餐厅,湖北省,武汉市,江夏区,湖北省武汉市江夏区文化大道江郡华府14栋,,1,0,114.32915,30.380263,"13307194780,13469964759",cater,http://api.map.baidu.com/place/detail?uid=0ebef1ff8ca7429c0a1cc74f&output=html&source=placeapi_v2,,,,,,,,,,,,,,,,,,114.32917933722,30.380493224796,0
1b1dfef18968efd2008972bd,张喜子小锅酸菜鱼,美食,中餐厅,湖北省,武汉市,江夏区,武汉市江夏区金龙大街水墨江郡-北区,,1,0,114.330218,30.382933,,cater,http://api.map.baidu.com/place/detail?uid=1b1dfef18968efd2008972bd&output=html&source=placeapi_v2,,07:00-20:00,,,,,,,,,,,,,,,,114.33010870703,30.382959698093,0
43a03702e7920826f4b91668,田野香珍味菜馆,美食,中餐厅,湖北省,武汉市,江夏区,湖北省武汉市江夏区五里墩街大桥还建小区一期13栋,43a03702e7920826f4b91668,1,0,114.325056,30.377941,(027)81293071,cater,http://api.map.baidu.com/place/detail?uid=43a03702e7920826f4b91668&output=html&source=placeapi_v2,,10:00-21:00,3.5,,,,,,,,0,,,,,,,114.32556945071,30.377704797376,0
b19e8419adbdf6fff7eafcb2,万丰盛宴,美食,中餐厅,湖北省,武汉市,江夏区,湖北省武汉市江夏区谭鑫培路17号万枫酒店7楼,b19e8419adbdf6fff7eafcb2,1,0,114.334686,30.373501,(027)88070999,cater,http://api.map.baidu.com/place/detail?uid=b19e8419adbdf6fff7eafcb2&output=html&source=placeapi_v2,,11:00-21:00,3.5,,,,,,,,1,,,,,,,114.33477325451,30.373558136648,0
77a8cad24739e9e9f7b91628,昊都茶座(江夏店),美食,中餐厅,湖北省,武汉市,江夏区,江夏区五里墩大桥还建小区13栋2楼,,1,0,114.324788,30.377874,,cater,http://api.map.baidu.com/place/detail?uid=77a8cad24739e9e9f7b91628&output=html&source=placeapi_v2,,"09:30-13:30,16:30-20:30",3.5,,,,,,,,,,,,,,,,,0
3e5ab14593b899866140a917,川谱会老火锅(联投广场店),美食,中餐厅,湖北省,武汉市,江夏区,湖北省武汉市江夏区文化大道联投广场3楼,,1,0,114.326588,30.379657,(027)82899993,cater,http://api.map.baidu.com/place/detail?uid=3e5ab14593b899866140a917&output=html&source=placeapi_v2,87.0,10:00-21:00,3.9,,,,,,,,0,,,,,,,114.32409119826,30.37914116833,0
3ab4e0dbfef0577fa8f0cdb9,凤爪王烧烤大排档(江郡华府直营店),美食,中餐厅,湖北省,武汉市,江夏区,湖北省武汉市江夏区文化大道6号,3ab4e0dbfef0577fa8f0cdb9,1,0,114.328746,30.380126,18674078085,cater,http://api.map.baidu.com/place/detail?uid=3ab4e0dbfef0577fa8f0cdb9&output=html&source=placeapi_v2,,,3.4,,,,,,,,,,,,,,,114.32848048697,30.380110821168,0
fb608d866b550a73e5e965ad,口福水鱼城,美食,中餐厅,湖北省,武汉市,江夏区,湖北省武汉市江夏区武昌大道1423号,fb608d866b550a73e5e965ad,1,0,114.319546,30.375801,(027)81777677,cater,http://api.map.baidu.com/place/detail?uid=fb608d866b550a73e5e965ad&output=html&source=placeapi_v2,140.0,09:00-21:00,3.5,,,,,,,,0,,,,,,,114.31979381879,30.375834384003,0
6e9194d9b1b0af87bbbd63ec,李记三鲜豆皮,美食,中餐厅,湖北省,武汉市,江夏区,湖北省武汉市江夏区文化大道99号,,1,0,114.328896,30.380883,15826724578,cater,http://api.map.baidu.com/place/detail?uid=6e9194d9b1b0af87bbbd63ec&output=html&source=placeapi_v2,,,,,,,,,,,,,,,,,,114.32878579945,30.381007022084,0
3d1e06c075e9bb13c16c146a,醉得意(谭鑫培路店),美食,中餐厅,湖北省,武汉市,江夏区,湖北省武汉市江夏区谭鑫培路19号,3d1e06c075e9bb13c16c146a,1,0,114.332434,30.373357,(027)88091028,cater,http://api.map.baidu.com/place/detail?uid=3d1e06c075e9bb13c16c146a&output=html&source=placeapi_v2,45.0,11:00-21:30,4.3,,,,,,,2,1,,,,,,,114.33240364494,30.373701369421,0
dded01eea50315b45abbbcfa,我家小馆(中百广场江夏店),美食,中餐厅,湖北省,武汉市,江夏区,武汉市江夏区纸坊街文化路37号中百广场F5,dded01eea50315b45abbbcfa,1,0,114.327679,30.37049,(027)81389098,cater,http://api.map.baidu.com/place/detail?uid=dded01eea50315b45abbbcfa&output=html&source=placeapi_v2,61.0,"11:00-14:00,17:00-21:00",4.0,,,,,,,,1,,,,,,,114.32867204074,30.37117394398,0
399645f2d9b368c095ca0792,纺大美食城,美食,中餐厅,湖北省,武汉市,江夏区,湖北省武汉市江夏区纺大后街16号,399645f2d9b368c095ca0792,1,0,114.338694,30.380891,,cater,http://api.map.baidu.com/place/detail?uid=399645f2d9b368c095ca0792&output=html&source=placeapi_v2,,07:00-23:00,,,,,,,,,,,,,,,,114.33896330534,30.380884729248,0
8ee07f70e5b0ac326f476085,龙门花甲(联投广场店),美食,中餐厅,湖北省,武汉市,江夏区,湖北省武汉市江夏区古驿北路联投广场3楼32-1-3045、46号,8ee07f70e5b0ac326f476085,1,0,114.327318,30.379509,"(027)87919678,18186514656",cater,http://api.map.baidu.com/place/detail?uid=8ee07f70e5b0ac326f476085&output=html&source=placeapi_v2,28.0,10:00-23:00,5,,,,,,,,2,,,,,,,114.32409119826,30.37914116833,0
58e11829e5dc35aab2077db3,百姓味道,美食,中餐厅,湖北省,武汉市,江夏区,湖北省武汉市江夏区古驿北路6附26号,58e11829e5dc35aab2077db3,1,0,114.324125,30.37629,13720131864,cater,http://api.map.baidu.com/place/detail?uid=58e11829e5dc35aab2077db3&output=html&source=placeapi_v2,,10:00-22:30,3.6,,,,,,,,,,,,,,,,,0
d4ea264b5f6521bbbea240b9,火宫堂京南三胖清真全羊宴,美食,中餐厅,湖北省,武汉市,江夏区,武汉市江夏区金龙大街和平农庄东南门江夏文化小镇,,1,0,114.313517,30.385615,13277033322,cater,http://api.map.baidu.com/place/detail?uid=d4ea264b5f6521bbbea240b9&output=html&source=placeapi_v2,,"09:30-13:00,16:00-21:00",0,,,,,,,,0,,,,,,,,,0
ea83d50c3e9258b67f29bd6e,烧烤大师,美食,中餐厅,湖北省,武汉市,江夏区,湖北省武汉市江夏区文化大道江郡华府(谭鑫培公园地铁站D口步行70米),,1,0,114.328598,30.379118,"15527537279,18727383997",cater,http://api.map.baidu.com/place/detail?uid=ea83d50c3e9258b67f29bd6e&output=html&source=placeapi_v2,,16:00-02:00,,,,,,,,,,,,,,,,,,0
6d41cab8bfef25928f55ec52,野妹火锅(中百广场江夏店),美食,中餐厅,湖北省,武汉市,江夏区,武汉市江夏区纸坊街文化路37号中百广场F4,6d41cab8bfef25928f55ec52,1,0,114.327066,30.370287,(027)87908258,cater,http://api.map.baidu.com/place/detail?uid=6d41cab8bfef25928f55ec52&output=html&source=placeapi_v2,78.0,10:00-22:00,4.4,,,,,,,,93,,,,,,,114.32867204074,30.37117394398,0
ab034ad98bab05e5d13ce321,香他她煲仔饭(武汉江夏联投广场店),美食,小吃快餐店,湖北省,武汉市,江夏区,湖北省武汉市江夏区文化大道32-1-1082号,ab034ad98bab05e5d13ce321,1,0,114.32569,30.379491,17771814557,cater,http://api.map.baidu.com/place/detail?uid=ab034ad98bab05e5d13ce321&output=html&source=placeapi_v2,22.0,10:00-21:00,4,,,,,,,,4,,,,,,,114.32568998175,30.379490980644,0
5cd903d41d24c1877ab55c5a,悠然美食城,美食,中餐厅,湖北省,武汉市,江夏区,经济开发区大桥新区办事处文化大道江夏第一人民医院旁昊都广场一楼,5cd903d41d24c1877ab55c5a,1,0,114.325192,30.377891,13517270525,cater,http://api.map.baidu.com/place/detail?uid=5cd903d41d24c1877ab55c5a&output=html&source=placeapi_v2,,20:30-21:00,,,,,,,,,,,,,,,,,,0
ad4178c49ff850f324e0a02c,老街坊家常菜(江夏店),美食,中餐厅,湖北省,武汉市,江夏区,湖北省武汉市江夏区五里墩街大桥还建小区13栋1楼8号商铺,ad4178c49ff850f324e0a02c,1,0,114.324802,30.377929,"(027)87520806,17771420336",cater,http://api.map.baidu.com/place/detail?uid=ad4178c49ff850f324e0a02c&output=html&source=placeapi_v2,45.0,"10:30-14:30,17:00-22:00",3.4,,,,,,,,0,,,,,,,,,0
038efdaab79618bc1f3894ae,春源美食,美食,中餐厅,湖北省,武汉市,江夏区,湖北省武汉市江夏区联投广场22栋,038efdaab79618bc1f3894ae,1,0,114.324743,30.379357,,cater,http://api.map.baidu.com/place/detail?uid=038efdaab79618bc1f3894ae&output=html&source=placeapi_v2,,,,,,,,,,,,,,,,,,,,0
f63fe4ea7b38eb96c5effbae,新宜评价美食家常菜,美食,中餐厅,湖北省,武汉市,江夏区,湖北省武汉市江夏区古驿北路83号,f63fe4ea7b38eb96c5effbae,1,0,114.325595,30.376929,13397183785,cater,http://api.map.baidu.com/place/detail?uid=f63fe4ea7b38eb96c5effbae&output=html&source=placeapi_v2,,08:00-23:30,,,,,,,,,,,,,,,,,,0
e2d06f77dbb1b599d72ce2ad,逗蛙炭烧牛蛙(万豪天街店),美食,中餐厅,湖北省,武汉市,江夏区,湖北省武汉市江夏区谭鑫培路19号万豪世纪天街3楼,e2d06f77dbb1b599d72ce2ad,1,0,114.332517,30.372771,(027)81770977,cater,http://api.map.baidu.com/place/detail?uid=e2d06f77dbb1b599d72ce2ad&output=html&source=placeapi_v2,62.0,10:30-21:00,3.9,,,,,,,,0,,,,,,,,,0
a8e071706c414c7457bffff8,撸串拷吧,美食,中餐厅,湖北省,武汉市,江夏区,武汉市江夏区文化大道清江泓景2-11号,a8e071706c414c7457bffff8,1,0,114.328564,30.397806,15926321175,cater,http://api.map.baidu.com/place/detail?uid=a8e071706c414c7457bffff8&output=html&source=placeapi_v2,,06:00-14:00,3.5,,,,,,,,,,,,,,,,,0
5b7cf39be884ba3deaf85373,金福东来顺菜馆,美食,中餐厅,湖北省,武汉市,江夏区,武汉市江夏区红旗街海伦广场,5b7cf39be884ba3deaf85373,1,0,114.32721,30.395568,,cater,http://api.map.baidu.com/place/detail?uid=5b7cf39be884ba3deaf85373&output=html&source=placeapi_v2,,,,,,,,,,,,,,,,,,,,0
a5f60107ea691a9159bbbccd,小万家常菜,美食,中餐厅,湖北省,武汉市,江夏区,江夏区纸坊街武昌大道职中22号门面,a5f60107ea691a9159bbbccd,1,0,114.32034,30.371314,"13080652136,15337154196",cater,http://api.map.baidu.com/place/detail?uid=a5f60107ea691a9159bbbccd&output=html&source=placeapi_v2,,09:30-21:00,3.5,,,,,,,,,,,,,,,114.32028736221,30.371310706035,0
f8cfacb58729d29149fc8da5,香他她煲仔饭(江夏客厅店),美食,小吃快餐店,湖北省,武汉市,江夏区,湖北省武汉市江夏区文化大道海伦广场a座113号附13号,f8cfacb58729d29149fc8da5,1,0,114.327391,30.395917,"13667121602,18971614711",cater,http://api.map.baidu.com/place/detail?uid=f8cfacb58729d29149fc8da5&output=html&source=placeapi_v2,22.0,09:30-21:30,3.5,,,,,,,,6,,,,,,,114.32731956633,30.396327375696,0
d41dd617deb996678a36ee5f,厨滋味水晶焖锅(万豪店),美食,中餐厅,湖北省,武汉市,江夏区,湖北省武汉市江夏区谭鑫培路19号万豪世纪天街3楼,d41dd617deb996678a36ee5f,1,0,114.33269,30.372879,(027)81811611,cater,http://api.map.baidu.com/place/detail?uid=d41dd617deb996678a36ee5f&output=html&source=placeapi_v2,57.0,09:30-21:30,3.6,,,,,,,,11,,,,,,,,,0
de5e8f650637eaa4220262aa,兄弟厨艺(联投广场商业区三期南),美食,中餐厅,湖北省,武汉市,江夏区,武汉市江夏区文化大道协和医院后门大桥还建楼55号,de5e8f650637eaa4220262aa,1,0,114.325061,30.375766,,cater,http://api.map.baidu.com/place/detail?uid=de5e8f650637eaa4220262aa&output=html&source=placeapi_v2,,,,,,,,,,,,,,,,,,114.32507201403,30.3756820539,0
205946a29d4573f4354aae84,老湘好(文化大道店),美食,中餐厅,湖北省,武汉市,江夏区,湖北省武汉市江夏区文化大道清江泓景2-10号,205946a29d4573f4354aae84,1,0,114.328542,30.397908,18707110071,cater,http://api.map.baidu.com/place/detail?uid=205946a29d4573f4354aae84&output=html&source=placeapi_v2,11.0,10:00-22:00,,,,,,,,,,,,,,,,,,0
9b195b61efb02319e01103df,大桥夜市,美食,中餐厅,湖北省,武汉市,江夏区,武汉市江夏区古驿北路大桥村小区,9b195b61efb02319e01103df,1,0,114.324448,30.375677,,cater,http://api.map.baidu.com/place/detail?uid=9b195b61efb02319e01103df&output=html&source=placeapi_v2,,,,,,,,,,,,,,,,,,114.32445510722,30.375621231324,0
e2f25143c7154b2c1ce99983,醉痴湘(万豪天街店),美食,中餐厅,湖北省,武汉市,江夏区,湖北省武汉市江夏区谭鑫培路万豪世纪天衔3楼,e2f25143c7154b2c1ce99983,1,0,114.33249,30.372796,,cater,http://api.map.baidu.com/place/detail?uid=e2f25143c7154b2c1ce99983&output=html&source=placeapi_v2,53.0,11:00-21:00,3.6,,,,,,,,0,,,,,,,114.33225865754,30.372662363872,0
29e0bc8f9fe9046675e5b6a7,味真香,美食,中餐厅,湖北省,武汉市,江夏区,湖北省武汉市江夏区红旗街宜化星都汇a区4栋13商号房,,1,0,114.32096,30.397827,,cater,http://api.map.baidu.com/place/detail?uid=29e0bc8f9fe9046675e5b6a7&output=html&source=placeapi_v2,,,,,,,,,,,,,,,,,,114.32091632968,30.397999542585,0
2c66aac897299a840869d935,二嫂家常菜馆,美食,中餐厅,湖北省,武汉市,江夏区,湖北省武汉市江夏区武昌大道1345号,2c66aac897299a840869d935,1,0,114.320342,30.371486,,cater,http://api.map.baidu.com/place/detail?uid=2c66aac897299a840869d935&output=html&source=placeapi_v2,,,5.0,,,,,,,,1,,,,,,,114.32027152598,30.37148109203,0
4059609ba9f919dd7bdbd2a0,川湘阁菜馆(江南总督府西南),美食,中餐厅,湖北省,武汉市,江夏区,湖北省武汉市江夏区武昌大道1359号,4059609ba9f919dd7bdbd2a0,1,0,114.319926,30.371709,"13638648203,13986282318",cater,http://api.map.baidu.com/place/detail?uid=4059609ba9f919dd7bdbd2a0&output=html&source=placeapi_v2,40.0,"11:30-14:00,17:00-21:00",1,,,,,,,,2,,,,,,,114.32004343094,30.37171838185,0
1267f8e7581cbf4d43e1927e,荆洪人家私房菜,美食,中餐厅,湖北省,武汉市,江夏区,湖北省武汉市江夏区大桥新区宜化星都汇A4幢1层25号,1267f8e7581cbf4d43e1927e,1,0,114.32158,30.397931,15377586069,cater,http://api.map.baidu.com/place/detail?uid=1267f8e7581cbf4d43e1927e&output=html&source=placeapi_v2,7.0,09:00-21:00,,,,,,,,,,,,,,,,,,0
95f2e2d31edfbe9ba3acc4a3,斌波川菜馆,美食,中餐厅,湖北省,武汉市,江夏区,湖北省武汉市江夏区纸坊街武昌大道职业中学门面16号,95f2e2d31edfbe9ba3acc4a3,1,0,114.320347,30.371089,15002779863,cater,http://api.map.baidu.com/place/detail?uid=95f2e2d31edfbe9ba3acc4a3&output=html&source=placeapi_v2,48.0,09:00-22:00,3.4,,,,,,,,2,,,,,,,114.32030844364,30.371083897468,0
792c50dcb35c13501ee99955,阿双东北饺子麻辣香锅,美食,小吃快餐店,湖北省,武汉市,江夏区,湖北省武汉市江夏区珞狮南路延长线文化大道3号(江夏区政府旁)联投广场万汇MALLF2,,1,0,114.326494,30.379148,15392898207,cater,http://api.map.baidu.com/place/detail?uid=792c50dcb35c13501ee99955&output=html&source=placeapi_v2,,,,,,,,,,,,,,,,,,114.32649360586,30.379147799389,0
3e9f9429826680cfc909f0c7,农家土菜馆(富丽・畅馨园北),美食,中餐厅,湖北省,武汉市,江夏区,湖北省武汉市江夏区武昌大道职中18号门面,3e9f9429826680cfc909f0c7,1,0,114.320348,30.371155,13971445301,cater,http://api.map.baidu.com/place/detail?uid=3e9f9429826680cfc909f0c7&output=html&source=placeapi_v2,36.0,08:00-22:00,3.5,,,,,,,,0,,,,,,,114.32030238098,30.371149126674,0
07437728916d748308f5ebac,湘炉小馆(弘志街店),美食,中餐厅,湖北省,武汉市,江夏区,湖北省武汉市江夏区弘志街金地花园地块-1幢1~2层、商号房5~6号,07437728916d748308f5ebac,1,0,114.332309,30.370198,"(027)81718889,13667183970",cater,http://api.map.baidu.com/place/detail?uid=07437728916d748308f5ebac&output=html&source=placeapi_v2,,09:00-21:00,3.5,,,,,,,,,,,,,,,114.33224621151,30.370486109389,0
ba835d551e4134891e5800ef,江夏文化小镇,旅游景点,景点,湖北省,武汉市,江夏区,湖北省武汉市江夏区武昌大道特8号,ba835d551e4134891e5800ef,1,0,114.313212,30.385429,,cater,http://api.map.baidu.com/place/detail?uid=ba835d551e4134891e5800ef&output=html&source=placeapi_v2,,,3.8,,,,,,,,1,,,,,,,114.31349382259,30.38532254241,0
757bd3bc912e5ce2dbd89182,划得来食坊(第六分店),美食,小吃快餐店,湖北省,武汉市,江夏区,湖北省武汉市江夏区大桥新区大桥村还建小区85-86号,757bd3bc912e5ce2dbd89182,1,0,114.325571,30.376989,18807199906,cater,http://api.map.baidu.com/place/detail?uid=757bd3bc912e5ce2dbd89182&output=html&source=placeapi_v2,55.0,09:44-21:45,,,,,,,,,,,,,,,,,,0
b7dbf7da68d33a47d8eced81,郑记农家菜馆,美食,中餐厅,湖北省,武汉市,江夏区,湖北省武汉市江夏区谭鑫培路15附7,b7dbf7da68d33a47d8eced81,1,0,114.330976,30.373543,18971150013,cater,http://api.map.baidu.com/place/detail?uid=b7dbf7da68d33a47d8eced81&output=html&source=placeapi_v2,,,,,,,,,,,,,,,,,,,,0
48a6d426a840ecf6ce04ef6d,食家庄(世纪花园西),美食,中餐厅,湖北省,武汉市,江夏区,武汉市江夏区武昌大道飞行幼儿园北侧,48a6d426a840ecf6ce04ef6d,1,0,114.319893,30.372396,,cater,http://api.map.baidu.com/place/detail?uid=48a6d426a840ecf6ce04ef6d&output=html&source=placeapi_v2,50.0,10:00-22:00,,,,,,,,,,,,,,,,114.32002017202,30.372401102051,0
3963bba6dcea9dd9abf0cd4c,学生一食堂,美食,其他,湖北省,武汉市,江夏区,湖北省武汉市江夏区阳光大道1号,3963bba6dcea9dd9abf0cd4c,1,0,114.34212,30.380315,,cater,http://api.map.baidu.com/place/detail?uid=3963bba6dcea9dd9abf0cd4c&output=html&source=placeapi_v2,11.0,,3.8,,,,,,,,0,,,,,,,114.34219589814,30.379844393131,0
010be492991551308b2fb558,"好食惠农家菜馆(河南烩面,手工水饺,谭鑫培店)",美食,小吃快餐店,湖北省,武汉市,江夏区,湖北省武汉市江夏区谭鑫培路博雅豪庭1栋6号,010be492991551308b2fb558,1,0,114.330893,30.373594,15392899637,cater,http://api.map.baidu.com/place/detail?uid=010be492991551308b2fb558&output=html&source=placeapi_v2,50.0,"10:00-14:00,16:30-21:00",5,,,,,,,,6,,,,,,,,,0
e995ab2d1482bf8f2bd7ab7a,茗香阁(谭鑫培路店),美食,茶座,湖北省,武汉市,江夏区,湖北省武汉市江夏区纸坊谭新培路55号,e995ab2d1482bf8f2bd7ab7a,1,0,114.321082,30.373276,13871388650,cater,http://api.map.baidu.com/place/detail?uid=e995ab2d1482bf8f2bd7ab7a&output=html&source=placeapi_v2,,10:00-21:00,0,,,,,,,,0,,,,,,,114.32105089135,30.373495003875,0
70e376d5ab267d91b817e791,湘巴佬火锅(毅恒街店),美食,中餐厅,湖北省,武汉市,江夏区,湖北省武汉市江夏区毅恒街2一17号,70e376d5ab267d91b817e791,1,0,114.361325,30.387632,13237166681,cater,http://api.map.baidu.com/place/detail?uid=70e376d5ab267d91b817e791&output=html&source=placeapi_v2,,10:00-22:00,,,,,,,,,,,,,,,,,,0
84100fa3a6752cf6932ca3ba,好街坊家常菜,美食,中餐厅,湖北省,武汉市,江夏区,武汉市江夏区毅恒街毅恒工业园东南侧,,1,0,114.36093,30.387959,13545868950,cater,http://api.map.baidu.com/place/detail?uid=84100fa3a6752cf6932ca3ba&output=html&source=placeapi_v2,,,3.4,,,,,,,,,,,,,,,,,0
2947e951221d3c2bcd04ef80,渔家老灶,美食,中餐厅,湖北省,武汉市,江夏区,湖北省武汉市江夏区江夏大道34附12号,2947e951221d3c2bcd04ef80,1,0,114.378334,30.399279,13597669302,cater,http://api.map.baidu.com/place/detail?uid=2947e951221d3c2bcd04ef80&output=html&source=placeapi_v2,72.0,11:00-21:00,3.6,,,,,,,,1,,,,,,,114.37834760691,30.39937029484,0
8b170e0c5771fddfc91b9557,梁子湖餐厅,美食,中餐厅,湖北省,武汉市,江夏区,湖北省武汉市江夏区江夏大道17号,8b170e0c5771fddfc91b9557,1,0,114.377595,30.401747,15342606758,cater,http://api.map.baidu.com/place/detail?uid=8b170e0c5771fddfc91b9557&output=html&source=placeapi_v2,,11:00-22:00,3.5,,,,,,,,,,,,,,,114.37759694869,30.401794436674,0
fd2fcd8436e544658733047b,虾皇(毅恒街店),美食,中餐厅,湖北省,武汉市,江夏区,武汉市江夏区毅恒街毅恒工业园东南侧约70米,fd2fcd8436e544658733047b,1,0,114.361395,30.387671,,cater,http://api.map.baidu.com/place/detail?uid=fd2fcd8436e544658733047b&output=html&source=placeapi_v2,,,,,,,,,,,,,,,,,,,,0
df2d18c79bb7d12643e1926b,渝都川菜馆(庙山店),美食,中餐厅,湖北省,武汉市,江夏区,湖北省武汉市江夏区邬树街5号,df2d18c79bb7d12643e1926b,1,0,114.377271,30.394639,13554303310,cater,http://api.map.baidu.com/place/detail?uid=df2d18c79bb7d12643e1926b&output=html&source=placeapi_v2,,,3.5,,,,,,,,,,,,,,,114.37730531022,30.394525699959,0
13301e2b6bef7ec78bdb7321,巢音乐餐厅,美食,中餐厅,湖北省,武汉市,江夏区,湖北省武汉市江夏区阳光大道普安就业基地5号楼一楼,,1,0,114.350889,30.377564,18062693183,cater,http://api.map.baidu.com/place/detail?uid=13301e2b6bef7ec78bdb7321&output=html&source=placeapi_v2,,14:00-03:00,,,,,,,,,2,,,,,,,,,0
42410f196ac16a068c55ec4a,聚宝盆餐厅,美食,中餐厅,湖北省,武汉市,江夏区,湖北省武汉市江夏区庙山大道8号,,1,0,114.377198,30.374781,,cater,http://api.map.baidu.com/place/detail?uid=42410f196ac16a068c55ec4a&output=html&source=placeapi_v2,,,,,,,,,,,,,,,,,,,,0
6a3fb9fd9594202f047ce8e8,聚饱盆餐厅,美食,中餐厅,湖北省,武汉市,江夏区,湖北省武汉市江夏区庙山大道8号,6a3fb9fd9594202f047ce8e8,1,0,114.377336,30.375723,13971083248,cater,http://api.map.baidu.com/place/detail?uid=6a3fb9fd9594202f047ce8e8&output=html&source=placeapi_v2,,09:00-20:00,,,,,,,,,,,,,,,,114.37736478433,30.375834508864,0
0fbae53f607521c3ae31e515,恩施风味酒楼,美食,中餐厅,湖北省,武汉市,江夏区,湖北省武汉市江夏区景湖二路,,1,0,114.348653,30.385861,15072364005,cater,http://api.map.baidu.com/place/detail?uid=0fbae53f607521c3ae31e515&output=html&source=placeapi_v2,,"09:00-14:00,16:00-21:00",3.6,,,,,,,,,,,,,,,114.34867087617,30.385658873091,0
6cd1bb169fc069591f3894d8,李记家常菜(新华联青年城二期北),美食,中餐厅,湖北省,武汉市,江夏区,武汉市江夏区江夏大道向阳新村还建楼,6cd1bb169fc069591f3894d8,1,0,114.359825,30.376947,15827285657,cater,http://api.map.baidu.com/place/detail?uid=6cd1bb169fc069591f3894d8&output=html&source=placeapi_v2,,,,,,,,,,,,,,,,,,114.35985840174,30.376735614494,0
8b962ceea6631398b6147fc9,意哥招牌水煮鱼,美食,中餐厅,湖北省,武汉市,江夏区,湖北省武汉市江夏区阳光二路41号,8b962ceea6631398b6147fc9,1,0,114.376522,30.401779,18271870693,cater,http://api.map.baidu.com/place/detail?uid=8b962ceea6631398b6147fc9&output=html&source=placeapi_v2,,10:00-22:00,3.5,,,,,,,,0,,,,,,,114.37652445366,30.401828637099,0
17f2d0e652bf277d3ee2318b,尹厨私房菜,美食,中餐厅,湖北省,武汉市,江夏区,湖北省武汉市江夏区江花大道A345-1号,,1,0,114.359404,30.372733,,cater,http://api.map.baidu.com/place/detail?uid=17f2d0e652bf277d3ee2318b&output=html&source=placeapi_v2,,,3.6,,,,,,,,,,,,,,,,,0
4b69c484c7bf1ea3f503b8d2,阳新菜馆,美食,中餐厅,湖北省,武汉市,江夏区,武汉市江夏区江夏大道向阳新村还建楼,4b69c484c7bf1ea3f503b8d2,1,0,114.359753,30.376931,13277968570,cater,http://api.map.baidu.com/place/detail?uid=4b69c484c7bf1ea3f503b8d2&output=html&source=placeapi_v2,,,,,,,,,,,,,,,,,,114.35969732658,30.376716414367,0
1864356db981765c1e1d11b1,碗儿香小碗蒸菜馆,美食,中餐厅,湖北省,武汉市,江夏区,湖北省武汉市江夏区庙山大道幸福社区,,1,0,114.376391,30.375684,,cater,http://api.map.baidu.com/place/detail?uid=1864356db981765c1e1d11b1&output=html&source=placeapi_v2,,,,,,,,,,,,,,,,,,,,0
22366b06f6de79f6b1077da1,程杨香肉馆,美食,中餐厅,湖北省,武汉市,江夏区,武汉市江夏区阳光大道,,1,0,114.354034,30.378897,13006129650,cater,http://api.map.baidu.com/place/detail?uid=22366b06f6de79f6b1077da1&output=html&source=placeapi_v2,,09:00-21:00,,,,,,,,,,,,,,,,114.35402308011,30.379048506995,0
1b90c430083fa915c9c3dbd9,土家风味菜馆,美食,中餐厅,湖北省,武汉市,江夏区,湖北省武汉市江夏区阳光二路19号,1b90c430083fa915c9c3dbd9,1,0,114.377547,30.401748,18907260096,cater,http://api.map.baidu.com/place/detail?uid=1b90c430083fa915c9c3dbd9&output=html&source=placeapi_v2,,10:00-21:00,,,,,,,,,,,,,,,,114.37751575984,30.40179694133,0
51fd9d8eb56b1876c26c14ad,懂食汇,美食,中餐厅,湖北省,武汉市,江夏区,湖北省武汉市江夏区庙山大道8号,,1,0,114.377745,30.374389,18086028988,cater,http://api.map.baidu.com/place/detail?uid=51fd9d8eb56b1876c26c14ad&output=html&source=placeapi_v2,,09:30-21:00,,,,,,,,,1,,,,,,,,,0
