uid,name,cat_L1,cat_L2,province,city,area,address,street_id,detail,child_num,loc_lng,loc_lat,telephone,type,detail_url,price,shop_hours,overall_rating,taste_rating,service_rating,environment_rating,facility_rating,hygiene_rating,technology_rating,image_num,comment_num,groupon_num,discount_num,favorite_num,checkin_num,brand,content_tag,naviloc_lng,naviloc_lat,child_num
a37c0c0bb35cb204c92915d7,中国邮政报刊亭,生活服务,报刊亭,河南省,郑州市,新郑市,河南省郑州市新郑市金城路135,,1,0,113.750746,34.391674,,life,http://api.map.baidu.com/place/detail?uid=a37c0c0bb35cb204c92915d7&output=html&source=placeapi_v2,,,,,,,,,,,,,,,,,,,,0
261a5883dfc2ac9a9ff779c1,中国邮政报刊亭,生活服务,报刊亭,河南省,郑州市,新密市,河南省郑州市新密市西大街288号,,1,0,113.375779,34.542556,,life,http://api.map.baidu.com/place/detail?uid=261a5883dfc2ac9a9ff779c1&output=html&source=placeapi_v2,,,,,,,,,,,,,,,,,,,,0
086425941b18d05e213bf2cf,邮政报刊亭,生活服务,报刊亭,河南省,郑州市,新密市,河南省郑州市新密市西大街27号,,1,0,113.389903,34.542732,,life,http://api.map.baidu.com/place/detail?uid=086425941b18d05e213bf2cf&output=html&source=placeapi_v2,,,,,,,,,,,,,,,,,,,,0
9651ae933e3c53c6b020a851,中国邮政报刊亭,生活服务,报刊亭,河南省,郑州市,中牟县,郑州市中牟县官渡西路郑州日产汽车有限公司生活区东南侧,,1,0,114.023039,34.727254,,life,http://api.map.baidu.com/place/detail?uid=9651ae933e3c53c6b020a851&output=html&source=placeapi_v2,,,,,,,,,,,,,,,,,,,,0
558083fe12a1e2a032f71d39,中国邮政报刊亭,生活服务,报刊亭,河南省,郑州市,中牟县,郑州市中牟县府前路中牟县第二人民医院西北侧,,1,0,114.029894,34.725749,,life,http://api.map.baidu.com/place/detail?uid=558083fe12a1e2a032f71d39&output=html&source=placeapi_v2,,,,,,,,,,,,,,,,,,,,0
88c663f7359a3e4e96f08cd3,报刊亭,生活服务,报刊亭,河南省,郑州市,荥阳市,河南省郑州市荥阳市大海寺路10号,,1,0,113.39509,34.79003,,life,http://api.map.baidu.com/place/detail?uid=88c663f7359a3e4e96f08cd3&output=html&source=placeapi_v2,,,,,,,,,,,,,,,,,,,,0
6ff7471368703601b8bd633d,报刊亭,生活服务,报刊亭,河南省,郑州市,荥阳市,河南省郑州市荥阳市京城南路31号,,1,0,113.416681,34.778536,,life,http://api.map.baidu.com/place/detail?uid=6ff7471368703601b8bd633d&output=html&source=placeapi_v2,,,,,,,,,,,,,,,,,,,,0
