uid,name,cat_L1,cat_L2,province,city,area,address,street_id,detail,child_num,loc_lng,loc_lat,telephone,type,detail_url,price,shop_hours,overall_rating,taste_rating,service_rating,environment_rating,facility_rating,hygiene_rating,technology_rating,image_num,comment_num,groupon_num,discount_num,favorite_num,checkin_num,brand,content_tag,naviloc_lng,naviloc_lat,child_num
0662f03a0b2a47d5b5f42fcb,安庙货场,生活服务,物流公司,河南省,郑州市,登封市,207国道东100米,0662f03a0b2a47d5b5f42fcb,1,0,112.992765,34.360477,,life,http://api.map.baidu.com/place/detail?uid=0662f03a0b2a47d5b5f42fcb&output=html&source=placeapi_v2,,,,,,,,,,,,,,,,,,112.99273844528,34.360655362776,0
4ab0c420da1347811e58000a,鸿泰物流(苟堂镇关口分公司),生活服务,物流公司,河南省,郑州市,新密市,郑州市新密市苟堂镇323省道关口客车站对面,,1,0,113.553286,34.387597,,life,http://api.map.baidu.com/place/detail?uid=4ab0c420da1347811e58000a&output=html&source=placeapi_v2,,,,,,,,,,,,,,,,,,113.55359886626,34.387559072867,0
8aa995acb024cece6240a90d,鸿泰物流(新郑分公司),生活服务,物流公司,河南省,郑州市,新郑市,河南省郑州市新郑市G107(京深线),8aa995acb024cece6240a90d,1,0,113.728478,34.377597,(0371)62593882,life,http://api.map.baidu.com/place/detail?uid=8aa995acb024cece6240a90d&output=html&source=placeapi_v2,,07:00-18:00,0.0,,,,,,,5,1,,,,,,,113.72851032789,34.377327963943,0
14e8e6f999c7b551b9df8fa1,诚信物流(新郑分公司),生活服务,物流公司,河南省,郑州市,新郑市,河南省郑州市新郑市S323(炎黄大道),14e8e6f999c7b551b9df8fa1,1,0,113.725468,34.381855,13383860900,life,http://api.map.baidu.com/place/detail?uid=14e8e6f999c7b551b9df8fa1&output=html&source=placeapi_v2,,08:00-18:00,0,,,,,,,9,1,,,,,,,113.72543256883,34.381705840674,0
fd87be063d8478d6f50e77a6,正和物流(新郑分公司),生活服务,物流公司,河南省,郑州市,新郑市,S323(炎黄大道),fd87be063d8478d6f50e77a6,1,0,113.740794,34.380282,,life,http://api.map.baidu.com/place/detail?uid=fd87be063d8478d6f50e77a6&output=html&source=placeapi_v2,,,,,,,,,,10,,,,,,,,,,0
ab3765d23b4d753a931fc9fa,河南省新郑市运输公司,生活服务,物流公司,河南省,郑州市,新郑市,河南省郑州市新郑市新建路繁荣街家属楼135号,ab3765d23b4d753a931fc9fa,1,0,113.737727,34.407123,,life,http://api.map.baidu.com/place/detail?uid=ab3765d23b4d753a931fc9fa&output=html&source=placeapi_v2,,09:00-19:00,,,,,,,,11,,,,,,,,,,0
da1388e99aac7b73871541c3,弘依运输,生活服务,物流公司,河南省,郑州市,新郑市,郑州市新郑市郑南路新郑钢材市场西南侧约130米,da1388e99aac7b73871541c3,1,0,113.725465,34.382231,"(0371)62654639,18037182022",life,http://api.map.baidu.com/place/detail?uid=da1388e99aac7b73871541c3&output=html&source=placeapi_v2,,,,,,,,,,9,,,,,,,,,,0
eb32dd56ab7bec5d4bcc4a3f,郑州金海道路运输有限公司,生活服务,物流公司,河南省,郑州市,新郑市,郑州市新郑市郑南路新郑钢材市场西南侧约130米,eb32dd56ab7bec5d4bcc4a3f,1,0,113.72542,34.382221,,life,http://api.map.baidu.com/place/detail?uid=eb32dd56ab7bec5d4bcc4a3f&output=html&source=placeapi_v2,,08:00-17:00,,,,,,,,13,,,,,,,,113.72527388226,34.382360786105,0
4d7b533234bfee266d20b954,贰仟家(新郑东营业部),生活服务,物流公司,河南省,郑州市,新郑市,郑州市新郑市庆安路河赵社区西南侧约170米,,1,0,113.788191,34.401273,4006562000,life,http://api.map.baidu.com/place/detail?uid=4d7b533234bfee266d20b954&output=html&source=placeapi_v2,,08:00-18:00,,,,,,,,4,,,,,,,,113.78822442041,34.401378672362,0
ca47e119c88d1f210a5cb3c6,豫德隆物流(登封市分公司),生活服务,物流公司,河南省,郑州市,登封市,郑州市登封市洧河路向阳小区,ca47e119c88d1f210a5cb3c6,1,0,113.027879,34.459281,,life,http://api.map.baidu.com/place/detail?uid=ca47e119c88d1f210a5cb3c6&output=html&source=placeapi_v2,,07:00-18:30,,,,,,,,10,,,,,,,,113.02785908887,34.459113624687,0
62067f5ca96553a582288a10,宇鑫物流,生活服务,物流公司,河南省,郑州市,登封市,白坪乡南环路鸿润城对面机电建材仓储院内,62067f5ca96553a582288a10,1,0,113.049849,34.453836,(0371)62867112,life,http://api.map.baidu.com/place/detail?uid=62067f5ca96553a582288a10&output=html&source=placeapi_v2,,08:00-18:00,0,,,,,,,9,1,,,,,,,,,0
208f29d7250c5ee0250bd061,鸿泰物流(登封分公司),生活服务,物流公司,河南省,郑州市,登封市,郑州市登封市颍河路登封市直属第五初级中学南侧约40米,,1,0,113.049628,34.453941,15137192037,life,http://api.map.baidu.com/place/detail?uid=208f29d7250c5ee0250bd061&output=html&source=placeapi_v2,,08:00-19:00,,,,,,,,5,,,,,,,,113.04968555381,34.453896396398,0
d39d39404977c1b582a12e32,河南国华医药物流有限公司,生活服务,物流公司,河南省,郑州市,登封市,少林大道黄楼路口向南200米路西,d39d39404977c1b582a12e32,1,0,113.114565,34.455451,,life,http://api.map.baidu.com/place/detail?uid=d39d39404977c1b582a12e32&output=html&source=placeapi_v2,,09:00-19:00,4.0,,,,,,,,1,,,,,,,113.11544291041,34.455552267846,0
8d1a933f9efd55a24f2fdf1a,金象物流(卢店分理处),生活服务,物流公司,河南省,郑州市,登封市,316省道附近,8d1a933f9efd55a24f2fdf1a,1,0,113.157303,34.46588,"(0371)62986970,15890181898",life,http://api.map.baidu.com/place/detail?uid=8d1a933f9efd55a24f2fdf1a&output=html&source=placeapi_v2,,07:00-18:00,,,,,,,,3,,,,,,,,113.15733077956,34.465675939516,0
7bb6bd8a76ce0147f5c59cb5,众泉汇流,生活服务,物流公司,河南省,郑州市,新郑市,郑州市新郑市航空港经济综合实验区苑陵路140号郑州园博园济南园,,1,0,113.883754,34.461453,,life,http://api.map.baidu.com/place/detail?uid=7bb6bd8a76ce0147f5c59cb5&output=html&source=placeapi_v2,,,,,,,,,,,,,,,,,,113.88443353611,34.460868708628,0
c9a98268e97043fd99005047,郑州国际石材物流园,生活服务,物流公司,河南省,郑州市,新郑市,郑州市新郑市102省道附近,c9a98268e97043fd99005047,1,0,113.791785,34.505483,,life,http://api.map.baidu.com/place/detail?uid=c9a98268e97043fd99005047&output=html&source=placeapi_v2,,08:00-18:00,,,,,,,,1,,,,,,,,113.7917791815,34.505380773832,0
5ecf9e583ddf621330621288,中通快递(新郑薛店港区公司),生活服务,物流公司,河南省,郑州市,新郑市,郑州市新郑市府前街枣都公寓北侧,5ecf9e583ddf621330621288,1,0,113.808598,34.50359,95311,life,http://api.map.baidu.com/place/detail?uid=5ecf9e583ddf621330621288&output=html&source=placeapi_v2,,08:00-20:00,0,,,,,,,5,1,,,,,,,113.80858808646,34.503457046097,0
81f0cc3fb69a2febbabd63a7,郑州航空港区水之坊配送站,生活服务,物流公司,河南省,郑州市,新郑市,郑州市新郑市港丰路领航社区,,1,0,113.850011,34.500381,"(0371)60296162,13783656162",life,http://api.map.baidu.com/place/detail?uid=81f0cc3fb69a2febbabd63a7&output=html&source=placeapi_v2,,,,,,,,,,6,,,,,,,,113.85010043516,34.500474771365,0
1ac855913343979e14b54b12,鸿泰物流(新密分公司),生活服务,物流公司,河南省,郑州市,新密市,河南省郑州市新密市新华路体育场东200米路南院内,,1,0,113.406215,34.530952,"(0371)55608256,18037683183",life,http://api.map.baidu.com/place/detail?uid=1ac855913343979e14b54b12&output=html&source=placeapi_v2,,07:00-19:00,5.0,,,,,,,11,2,,,,,,,113.40635584846,34.530952838968,0
b388f9fd1820273cb35c6a59,方圆物流(新密分公司),生活服务,物流公司,河南省,郑州市,新密市,河南省郑州市新密市嵩山大道91号,b388f9fd1820273cb35c6a59,1,0,113.410543,34.538398,"13623831579,18039233801",life,http://api.map.baidu.com/place/detail?uid=b388f9fd1820273cb35c6a59&output=html&source=placeapi_v2,,08:00-18:00,0.0,,,,,,,11,,,,,,,,,,0
ccad9421aa19320acae33c7e,豫德隆物流(新密分公司),生活服务,物流公司,河南省,郑州市,新密市,郑州市新密市新华路新密市实验初中东南侧约200米,ccad9421aa19320acae33c7e,1,0,113.406163,34.531414,"13073737666,13673600044",life,http://api.map.baidu.com/place/detail?uid=ccad9421aa19320acae33c7e&output=html&source=placeapi_v2,,09:00-18:30,0.0,,,,,,,8,,,,,,,,113.40635421902,34.531414278208,0
ee3bb540ee85eb82cd04ef07,诚通物流(新密分公司),生活服务,物流公司,河南省,郑州市,新密市,郑州市新密市岳打路中国国际能源加油站西北侧约130米,ee3bb540ee85eb82cd04ef07,1,0,113.400323,34.523835,15237112281,life,http://api.map.baidu.com/place/detail?uid=ee3bb540ee85eb82cd04ef07&output=html&source=placeapi_v2,,00:00-24:00,,,,,,,,9,,,,,,,,113.40033054698,34.523628636454,0
c21db9e55ddd4c8300ff2d7f,中国邮政(新密市行政路邮政支局),生活服务,物流公司,河南省,郑州市,新密市,河南省郑州市新密市行政路18号,c21db9e55ddd4c8300ff2d7f,1,0,113.397131,34.543732,11185,life,http://api.map.baidu.com/place/detail?uid=c21db9e55ddd4c8300ff2d7f&output=html&source=placeapi_v2,,09:00-18:30,0,,,,,,,27,1,,,,,,,113.39733022455,34.54385623816,0
568a2afdf5c9d81f1df74d15,鸿泰物流(新密分公司),生活服务,物流公司,河南省,郑州市,新密市,郑州市新密市嵩山大道郑州新华医院西北侧约40米,,1,0,113.411708,34.53842,"(0371)69813256,18037863191",life,http://api.map.baidu.com/place/detail?uid=568a2afdf5c9d81f1df74d15&output=html&source=placeapi_v2,,,,,,,,,,4,,,,,,,,,,0
bfd9455e796b6a61276e98d1,正和物流(新密分公司),生活服务,物流公司,河南省,郑州市,新密市,河南省郑州市新密市S316(嵩山大道),,1,0,113.41899,34.538741,,life,http://api.map.baidu.com/place/detail?uid=bfd9455e796b6a61276e98d1&output=html&source=placeapi_v2,,08:00-20:00,,,,,,,,2,,,,,,,,,,0
7bfa08fcd49aa30225d2bb5b,尖山新密特产配送中心,生活服务,物流公司,河南省,郑州市,新密市,河南省郑州市新密市青屏大街502号,7bfa08fcd49aa30225d2bb5b,1,0,113.384585,34.545578,13903825183,life,http://api.map.baidu.com/place/detail?uid=7bfa08fcd49aa30225d2bb5b&output=html&source=placeapi_v2,,07:00-19:30,3.0,,,,,,,14,,,,,,,,,,0
f59a8b37efdff147d5b74e70,畅通多道供应链服务部,生活服务,物流公司,河南省,郑州市,新密市,郑州市新密市赵坡路新密市来集镇赵沟宝宝乐幼儿园西南侧约190米,,1,0,113.43782,34.52679,,life,http://api.map.baidu.com/place/detail?uid=f59a8b37efdff147d5b74e70&output=html&source=placeapi_v2,,,,,,,,,,4,,,,,,,,113.43749800303,34.526805495096,0
87c665273cde9c97b45f1e01,达发物流(兴业路分公司),生活服务,物流公司,河南省,郑州市,新密市,劳动街与兴业路交口西北200米,,1,0,113.64693,34.54642,"(0371)66816508,(0371)68768888",life,http://api.map.baidu.com/place/detail?uid=87c665273cde9c97b45f1e01&output=html&source=placeapi_v2,,09:00-18:00,1,,,,,,,6,1,,,,,,,113.64693073366,34.546269525181,0
0f356fb2e6ac771fa11de9c8,达发物流收货处,生活服务,物流公司,河南省,郑州市,新密市,郑州市新密市高洼街中澳物流产业园,0f356fb2e6ac771fa11de9c8,1,0,113.646159,34.547688,,life,http://api.map.baidu.com/place/detail?uid=0f356fb2e6ac771fa11de9c8&output=html&source=placeapi_v2,,09:00-18:00,,,,,,,,1,,,,,,,,113.64615198723,34.54782377424,0
e9754a72ffc079c78f55ece1,天威物流(曲梁安东顺缘收货处),生活服务,物流公司,河南省,郑州市,新密市,郑州市新密市泛美路风尚企业芯城西南侧,e9754a72ffc079c78f55ece1,1,0,113.669003,34.537439,,life,http://api.map.baidu.com/place/detail?uid=e9754a72ffc079c78f55ece1&output=html&source=placeapi_v2,,,,,,,,,,,,,,,,,,113.66917996094,34.537451333801,0
7fc2a53b68fc7887ca09f06f,宏昌物流,生活服务,物流公司,河南省,郑州市,新郑市,郑州市新郑市郭店镇现代工业园奥瑞金化肥有限公司院内,7fc2a53b68fc7887ca09f06f,1,0,113.697153,34.550257,,life,http://api.map.baidu.com/place/detail?uid=7fc2a53b68fc7887ca09f06f&output=html&source=placeapi_v2,,08:00-20:00,0.0,,,,,,,13,,,,,,,,113.69753929521,34.550243671638,0
28dec36694738d45f603b8d9,郑州时利和货物运输有限公司,生活服务,物流公司,河南省,郑州市,新密市,曲梁镇卢家桥向西一公里路北东方大运物流园五区一号库,,1,0,113.676604,34.535967,13203867045,life,http://api.map.baidu.com/place/detail?uid=28dec36694738d45f603b8d9&output=html&source=placeapi_v2,,,,,,,,,,10,,,,,,,,113.67660718503,34.535880270397,0
194ada9c7b03424cf60e7765,彩丰物流(郑州分公司),生活服务,物流公司,河南省,郑州市,新密市,郑州市新密市工信大道风尚企业芯城西北侧约50米,194ada9c7b03424cf60e7765,1,0,113.669432,34.540916,,life,http://api.map.baidu.com/place/detail?uid=194ada9c7b03424cf60e7765&output=html&source=placeapi_v2,,,,,,,,,,2,,,,,,,,113.66968301293,34.540926179893,0
ffb1ffe91102687eae31e5d9,畅达物流(郑州分公司),生活服务,物流公司,河南省,郑州市,新郑市,河南省郑州市新郑市郭店镇大智物流园二排4-5库,,1,0,113.707402,34.538511,,life,http://api.map.baidu.com/place/detail?uid=ffb1ffe91102687eae31e5d9&output=html&source=placeapi_v2,,,,,,,,,,,,,,,,,,,,0
d4f4d892c99ad1be9b68b41f,粤东物流,生活服务,物流公司,河南省,郑州市,新密市,郑州市新密市风尚企业芯城,,1,0,113.672747,34.540382,,life,http://api.map.baidu.com/place/detail?uid=d4f4d892c99ad1be9b68b41f&output=html&source=placeapi_v2,,,5.0,,,,,,,0,1,,,,,,,,,0
f612f7b94e4e7a71c9fa5fc4,河南省百弘物流有限公司,生活服务,物流公司,河南省,郑州市,新郑市,郑州市新郑市郭店镇联盟物流园院内,,1,0,113.702576,34.549392,(0371)62516616,life,http://api.map.baidu.com/place/detail?uid=f612f7b94e4e7a71c9fa5fc4&output=html&source=placeapi_v2,,08:00-20:00,,,,,,,,14,,,,,,,,,,0
e3155855bcef22cefe0eb078,宇沪物流有限公司,生活服务,物流公司,河南省,郑州市,新密市,郑州市新密市东方大运物流园,,1,0,113.674758,34.536727,"13653821707,13838332019,15824872918",life,http://api.map.baidu.com/place/detail?uid=e3155855bcef22cefe0eb078&output=html&source=placeapi_v2,,,5,,,,,,,17,3,,,,,,,,,0
43094de68b6c948bcb213df4,河南中铁供应链管理有限公司仓储落货分流园区配送,生活服务,物流公司,河南省,郑州市,新密市,郑州市新密市东方大运物流园,,1,0,113.676295,34.536791,,life,http://api.map.baidu.com/place/detail?uid=43094de68b6c948bcb213df4&output=html&source=placeapi_v2,,,,,,,,,,7,,,,,,,,,,0
1a65758bd1ea11b3d7851fec,武汉润昶物流,生活服务,物流公司,河南省,郑州市,新密市,郑州市新密市风尚企业芯城北侧约220米,,1,0,113.669851,34.542499,,life,http://api.map.baidu.com/place/detail?uid=1a65758bd1ea11b3d7851fec&output=html&source=placeapi_v2,,,,,,,,,,,,,,,,,,,,0
4ac9c3c7a22a4d82ddee8bd2,河南合创供应链管理有限公司,生活服务,物流公司,河南省,郑州市,新密市,河南省郑州市新密市莲子湖路1号,,1,0,113.674427,34.535152,13213192163,life,http://api.map.baidu.com/place/detail?uid=4ac9c3c7a22a4d82ddee8bd2&output=html&source=placeapi_v2,,,,,,,,,,9,,,,,,,,,,0
e9754a72ffc079c78f55ece1,天威物流(曲梁安东顺缘收货处),生活服务,物流公司,河南省,郑州市,新密市,郑州市新密市泛美路风尚企业芯城西南侧,e9754a72ffc079c78f55ece1,1,0,113.669003,34.537439,,life,http://api.map.baidu.com/place/detail?uid=e9754a72ffc079c78f55ece1&output=html&source=placeapi_v2,,,,,,,,,,,,,,,,,,113.66917996094,34.537451333801,0
10eec043773f894616764377,宇天物流,生活服务,物流公司,河南省,郑州市,新郑市,郑州市新郑市拥军路联盟物流园,,1,0,113.702618,34.548635,,life,http://api.map.baidu.com/place/detail?uid=10eec043773f894616764377&output=html&source=placeapi_v2,,08:30-21:30,,,,,,,,11,,,,,,,,,,0
1e02911be2c45f58d8131827,春天物流,生活服务,物流公司,河南省,郑州市,新郑市,郑州市新郑市黄金大道春天物流B园,1e02911be2c45f58d8131827,1,0,113.699321,34.543034,,life,http://api.map.baidu.com/place/detail?uid=1e02911be2c45f58d8131827&output=html&source=placeapi_v2,,,,,,,,,,9,,,,,,,,113.6992666361,34.542774566599,0
fad217468dd9e220bea240f0,天河物流,生活服务,物流公司,河南省,郑州市,新密市,郑州市新密市S321东方大运物流园,,1,0,113.674137,34.533407,,life,http://api.map.baidu.com/place/detail?uid=fad217468dd9e220bea240f0&output=html&source=placeapi_v2,,00:00-24:00,,,,,,,,8,,,,,,,,,,0
66fd592942202c47f7c59c4b,旭龙物流,生活服务,物流公司,河南省,郑州市,新郑市,郑州市新郑市合欢路春天物流B园,,1,0,113.69876,34.544731,15238313268,life,http://api.map.baidu.com/place/detail?uid=66fd592942202c47f7c59c4b&output=html&source=placeapi_v2,,,,,,,,,,7,,,,,,,,,,0
bb34eda38f81be5190114c9b,汇龙物流,生活服务,物流公司,河南省,郑州市,新郑市,郑州市新郑市黄金大道春天物流B园,bb34eda38f81be5190114c9b,1,0,113.699197,34.543027,13653807456,life,http://api.map.baidu.com/place/detail?uid=bb34eda38f81be5190114c9b&output=html&source=placeapi_v2,,,,,,,,,,9,,,,,,,,113.69914949706,34.542791178499,0
04ab7b8a04bd5fb13a04b1fb,德物流,生活服务,物流公司,河南省,郑州市,新郑市,郑州市新郑市黄金大道春天物流B园,,1,0,113.698443,34.543365,"(0371)55880353,13938272989",life,http://api.map.baidu.com/place/detail?uid=04ab7b8a04bd5fb13a04b1fb&output=html&source=placeapi_v2,,08:30-22:00,,,,,,,,9,,,,,,,,113.69841980529,34.543254216777,0
9a1549a74b6af1ebe812e48e,晨辉物流有限公司,生活服务,物流公司,河南省,郑州市,新郑市,"郭店镇黄金大道丹妮物流园2排左拐6,7号仓库",,1,0,113.711838,34.543173,"(0371)56787737,13526666638,13838013838",life,http://api.map.baidu.com/place/detail?uid=9a1549a74b6af1ebe812e48e&output=html&source=placeapi_v2,,07:00-12:00,,,,,,,,10,,,,,,,,,,0
149007f9b99a632a30169b94,河南金峰物流有限公司,生活服务,物流公司,河南省,郑州市,新郑市,郭店镇郑新快速路与黄金大道交叉口向西2公里丹妮物流园B排1-3库房,,1,0,113.713861,34.543196,,life,http://api.map.baidu.com/place/detail?uid=149007f9b99a632a30169b94&output=html&source=placeapi_v2,,08:30-21:00,,,,,,,,11,,,,,,,,113.71386191021,34.543091559645,0
a649641e3a14a600a8f72924,营口天程物流公司(郑州分公司),生活服务,物流公司,河南省,郑州市,新郑市,郑州市新郑市黄金大道黑豹物流园,,1,0,113.71396,34.54351,,life,http://api.map.baidu.com/place/detail?uid=a649641e3a14a600a8f72924&output=html&source=placeapi_v2,,,,,,,,,,5,,,,,,,,,,0
36c4d0dc18d5b5bdd03ce398,汇龙物流,生活服务,物流公司,河南省,郑州市,新郑市,郑州市新郑市S102黑豹物流园,,1,0,113.715707,34.545502,,life,http://api.map.baidu.com/place/detail?uid=36c4d0dc18d5b5bdd03ce398&output=html&source=placeapi_v2,,,,,,,,,,6,,,,,,,,,,0
7e7588daec8aca96471a325e,郑州机场国际西货站,生活服务,物流公司,河南省,郑州市,新郑市,河南省郑州市新郑市航海路2楼,7e7588daec8aca96471a325e,1,1,113.835786,34.53678,,life,http://api.map.baidu.com/place/detail?uid=7e7588daec8aca96471a325e&output=html&source=placeapi_v2,,09:00-19:00,5,,,,,,,11,3,,,,,,,113.83642725693,34.537408864922,1
9b28904aa419d050a1a934b5,河南协力物流服务有限公司,生活服务,物流公司,河南省,郑州市,新郑市,郑州市新郑市机场二路蓝翔花园西南侧约230米,,1,0,113.838447,34.537057,,life,http://api.map.baidu.com/place/detail?uid=9b28904aa419d050a1a934b5&output=html&source=placeapi_v2,,,,,,,,,,10,,,,,,,,113.838053136,34.53719981811,0
0b315c34f0138a74902ca343,郑州友鑫宠物托运公司,生活服务,物流公司,河南省,郑州市,新郑市,河南省郑州市新郑市迎宾大道16号,,1,0,113.840385,34.5388,13283713386,life,http://api.map.baidu.com/place/detail?uid=0b315c34f0138a74902ca343&output=html&source=placeapi_v2,,,,,,,,,,0,2,,,,,,,113.84030298886,34.538612432048,0
15ed53cea563ce299322e0a9,郑州机场国内货站,生活服务,物流公司,河南省,郑州市,新郑市,郑州市新郑市机场二路与货运路交叉口东南角,15ed53cea563ce299322e0a9,1,0,113.84498,34.534427,(0371)58512233,life,http://api.map.baidu.com/place/detail?uid=15ed53cea563ce299322e0a9&output=html&source=placeapi_v2,,02:30-19:30,5,,,,,,,8,1,,,,,,,113.84513112945,34.534755083105,0
a704ab3e8b505da3223bf2eb,南联郑州分公司(西仓库收货平台),生活服务,物流公司,河南省,郑州市,新郑市,郑州市新郑市机场二路中国南方航空河南公司,,1,0,113.838711,34.5349,,life,http://api.map.baidu.com/place/detail?uid=a704ab3e8b505da3223bf2eb&output=html&source=placeapi_v2,,,,,,,,,,0,1,,,,,,,,,0
7e7588daec8aca96471a325e,郑州机场国际西货站,生活服务,物流公司,河南省,郑州市,新郑市,河南省郑州市新郑市航海路2楼,7e7588daec8aca96471a325e,1,1,113.835786,34.53678,,life,http://api.map.baidu.com/place/detail?uid=7e7588daec8aca96471a325e&output=html&source=placeapi_v2,,09:00-19:00,5,,,,,,,11,3,,,,,,,113.83642725693,34.537408864922,1
792bb6967595e5c32eb96d51,康顺物流(郑州公司),生活服务,物流公司,河南省,郑州市,新郑市,河南省郑州市新郑市京深线百友汇物流园23号,,1,0,113.694097,34.580889,"(0371)55258858,18703690898",life,http://api.map.baidu.com/place/detail?uid=792bb6967595e5c32eb96d51&output=html&source=placeapi_v2,,,,,,,,,,12,,,,,,,,,,0
7265ab9b9e163ed6a21de951,河南金凯货运有限公司,生活服务,物流公司,河南省,郑州市,新郑市,河南省郑州市新郑市G107(京深线),7265ab9b9e163ed6a21de951,1,0,113.691368,34.579463,,life,http://api.map.baidu.com/place/detail?uid=7265ab9b9e163ed6a21de951&output=html&source=placeapi_v2,,00:00-24:00,,,,,,,,,,,,,,,,,,0
16356aa96f0a5feb43d63e8b,郑州予丰井盖货场,生活服务,物流公司,河南省,郑州市,新郑市,郑州市新郑市郑新快速通道华商汇西北侧约280米,,1,0,113.726396,34.581596,,life,http://api.map.baidu.com/place/detail?uid=16356aa96f0a5feb43d63e8b&output=html&source=placeapi_v2,,,,,,,,,,0,2,,,,,,,113.72667641743,34.581492989005,0
b6fa8ba213d854fe631809a5,太行物流安得物流(鑫兴营业部),生活服务,物流公司,河南省,郑州市,新郑市,河南省郑州市新郑市S102(郑新快速通道),b6fa8ba213d854fe631809a5,1,0,113.725288,34.578575,"15803841805,4000705556",life,http://api.map.baidu.com/place/detail?uid=b6fa8ba213d854fe631809a5&output=html&source=placeapi_v2,,08:00-20:00,,,,,,,,2,,,,,,,,,,0
1679aba048ea96e1ae080fbc,ZTO(鑫荣分公司),生活服务,物流公司,河南省,郑州市,中牟县,河南省郑州市中牟县特特时尚酒店(沃金商业广场西),1679aba048ea96e1ae080fbc,1,0,113.861704,34.567444,(0371)60295106,life,http://api.map.baidu.com/place/detail?uid=1679aba048ea96e1ae080fbc&output=html&source=placeapi_v2,,09:00-18:00,4,,,,,,,16,1,,,,,,,113.86158795345,34.567464860424,0
777cb30e01de919925d2bb89,鸿泰物流(白寨镇分公司),生活服务,物流公司,河南省,郑州市,新密市,河南省郑州市新密市S316(郑登快速路),777cb30e01de919925d2bb89,1,0,113.530441,34.590995,(0371)55062168,life,http://api.map.baidu.com/place/detail?uid=777cb30e01de919925d2bb89&output=html&source=placeapi_v2,,,0.0,,,,,,,0,1,,,,,,,113.53024521009,34.591078365976,0
7818ebb530eac9e48505bff1,河南浩金元物流有限公司服务中心,生活服务,物流公司,河南省,郑州市,新密市,郑州市新密市翠微路与南环路交叉路口往南约160米,7818ebb530eac9e48505bff1,1,0,113.529662,34.591722,,life,http://api.map.baidu.com/place/detail?uid=7818ebb530eac9e48505bff1&output=html&source=placeapi_v2,,,,,,,,,,,,,,,,,,,,0
e0c6a8c17b07c3d7b64f54ef,凯腾物流(郑州分公司),生活服务,物流公司,河南省,郑州市,新郑市,郑州市新郑市富源路柏树刘工业园区,e0c6a8c17b07c3d7b64f54ef,1,0,113.684328,34.590541,,life,http://api.map.baidu.com/place/detail?uid=e0c6a8c17b07c3d7b64f54ef&output=html&source=placeapi_v2,,,,,,,,,,5,2,,,,,,,,,0
677a0f6baa1d7a958bf15d22,韵达速递(龙湖南分部),生活服务,物流公司,河南省,郑州市,新郑市,河南省郑州市新郑市龙湖镇中山南路宝相寺步行街,677a0f6baa1d7a958bf15d22,1,0,113.692284,34.602014,95546,life,http://api.map.baidu.com/place/detail?uid=677a0f6baa1d7a958bf15d22&output=html&source=placeapi_v2,,08:00-19:00,5,,,,,,,14,2,,,,,,,,,0
27d15ee222f727f8b21e363f,德邦物流(双湖大道),生活服务,物流公司,河南省,郑州市,新郑市,郑州新郑市龙湖镇双湖大道与鸿鹄路交叉口向北50米路北金秋乐园南门,27d15ee222f727f8b21e363f,1,0,113.699717,34.615872,4008305555,life,http://api.map.baidu.com/place/detail?uid=27d15ee222f727f8b21e363f&output=html&source=placeapi_v2,,08:00-20:00,0,,,,,,,16,1,,,,,,,113.69971487708,34.615852835203,0
f177d5c72a8ac9fd30621232,安能物流(滨湖路),生活服务,物流公司,河南省,郑州市,新郑市,河南省郑州市新郑市罗垌新型社区(河南检察职业学院西南),f177d5c72a8ac9fd30621232,1,0,113.709456,34.611757,,life,http://api.map.baidu.com/place/detail?uid=f177d5c72a8ac9fd30621232&output=html&source=placeapi_v2,,08:00-18:00,0,,,,,,,5,1,,,,,,,113.70940745878,34.611739298481,0
d180636040eb93f079b55ce9,郑邦管材物流,生活服务,物流公司,河南省,郑州市,新郑市,郑州市新郑市京港线河南郑邦新型管材批发市场东侧约240米,d180636040eb93f079b55ce9,1,0,113.688032,34.624645,"(0371)62432189,13783641399",life,http://api.map.baidu.com/place/detail?uid=d180636040eb93f079b55ce9&output=html&source=placeapi_v2,,09:00-19:00,,,,,,,,12,,,,,,,,113.68813528876,34.624701770545,0
ab99dcab1251772ab03c814b,祥云物流(Y015店),生活服务,物流公司,河南省,郑州市,新郑市,郑州市新郑市Y015,ab99dcab1251772ab03c814b,1,0,113.674516,34.618059,"(0371)55883609,15136191249",life,http://api.map.baidu.com/place/detail?uid=ab99dcab1251772ab03c814b&output=html&source=placeapi_v2,,,,,,,,,,2,,,,,,,,,,0
752eaddebe7e7ac2ede4a512,河南省达发物流有限公司,生活服务,物流公司,河南省,郑州市,新郑市,郑州市新郑市求实路华南城乾龙物流园西2门南侧约80米,752eaddebe7e7ac2ede4a512,1,0,113.740211,34.613692,"15981806518,15981881876",life,http://api.map.baidu.com/place/detail?uid=752eaddebe7e7ac2ede4a512&output=html&source=placeapi_v2,,08:00-18:00,,,,,,,,8,,,,,,,,,,0
e9dca86e9c56eb55f7eafca2,河南省达发物流有限公司(华南城三部),生活服务,物流公司,河南省,郑州市,新郑市,郑州市新郑市求实路孟庄镇城后马幼儿园北侧约210米,e9dca86e9c56eb55f7eafca2,1,0,113.739447,34.595577,,life,http://api.map.baidu.com/place/detail?uid=e9dca86e9c56eb55f7eafca2&output=html&source=placeapi_v2,,,,,,,,,,8,,,,,,,,,,0
d8016ff754b6510fdb13183a,送中心物流企业,生活服务,物流公司,河南省,郑州市,新郑市,郑州市新郑市华南城一路,,1,0,113.744033,34.612197,,life,http://api.map.baidu.com/place/detail?uid=d8016ff754b6510fdb13183a&output=html&source=placeapi_v2,,,,,,,,,,1,,,,,,,,,,0
c1b5b473a8d425a43517dc38,贰仟家物流(华南城第二营业部),生活服务,物流公司,河南省,郑州市,新郑市,郑州市新郑市求实路孟庄镇城后马幼儿园北侧约200米,,1,0,113.739428,34.595396,4006562000,life,http://api.map.baidu.com/place/detail?uid=c1b5b473a8d425a43517dc38&output=html&source=placeapi_v2,,08:00-18:00,,,,,,,,10,,,,,,,,,,0
dcb78d151436f38ad8eced24,安能物流(求实路乾龙物流园店),生活服务,物流公司,河南省,郑州市,新郑市,河南省郑州市新郑市乾龙物流园南1门,dcb78d151436f38ad8eced24,1,0,113.740809,34.612586,18911551600,life,http://api.map.baidu.com/place/detail?uid=dcb78d151436f38ad8eced24&output=html&source=placeapi_v2,,08:00-20:00,5,,,,,,,8,1,,,,,,,113.74081070666,34.61250283752,0
6d82b4cff7424a6cc6effb28,STO(夹津口镇离退休人员管理服务所南),生活服务,物流公司,河南省,郑州市,巩义市,夹津口镇中心幼儿园西北侧50米,6d82b4cff7424a6cc6effb28,1,0,113.035777,34.630964,95543,life,http://api.map.baidu.com/place/detail?uid=6d82b4cff7424a6cc6effb28&output=html&source=placeapi_v2,13,09:00-19:00,0.0,,,,,,,6,,,,,,,,,,0
1d581f80bb682585e31103d5,壹米滴答,生活服务,物流公司,河南省,郑州市,二七区,河南省郑州市郑东新区南三环十大街136号46号,1d581f80bb682585e31103d5,1,0,113.554606,34.652367,15890404394,life,http://api.map.baidu.com/place/detail?uid=1d581f80bb682585e31103d5&output=html&source=placeapi_v2,,00:00-24:00,,,,,,,,4,,,,,,,,113.55472264466,34.652425461308,0
d710f05ff72b538ac9fa5f20,方圆物流(黄龙岗分部),生活服务,物流公司,河南省,郑州市,二七区,郑州市二七区龙祥路龙岗艺术幼儿园西侧约160米,d710f05ff72b538ac9fa5f20,1,0,113.617274,34.637393,4006866675,life,http://api.map.baidu.com/place/detail?uid=d710f05ff72b538ac9fa5f20&output=html&source=placeapi_v2,,,,,,,,,,7,,,,,,,,,,0
30adf0b47388a318c4f025f4,司氏仓储,生活服务,物流公司,河南省,郑州市,新郑市,郑州市新郑市大学路与紫玉路交汇处东1000米,,1,0,113.657117,34.647579,,life,http://api.map.baidu.com/place/detail?uid=30adf0b47388a318c4f025f4&output=html&source=placeapi_v2,,10:00-21:00,,,,,,,,2,0,,,,,,,113.65712981775,34.647495510251,0
f933ca86611bf90d7369d374,冯润仓储,生活服务,物流公司,河南省,郑州市,二七区,郑州市二七区,,1,0,113.665567,34.649715,13526629315,life,http://api.map.baidu.com/place/detail?uid=f933ca86611bf90d7369d374&output=html&source=placeapi_v2,,00:00-24:00,,,,,,,,,,,,,,,,113.66611601692,34.650250987295,0
2da9c5150b6c9c217f29bd6d,黄龙岗盛世仓储,生活服务,物流公司,河南省,郑州市,二七区,河南省郑州市二七区,,1,0,113.628241,34.638779,,life,http://api.map.baidu.com/place/detail?uid=2da9c5150b6c9c217f29bd6d&output=html&source=placeapi_v2,,,,,,,,,,,,,,,,,,113.62802876968,34.639100814348,0
2a49a066ed6b3ef3774ff161,申氏物流(郑州分公司),生活服务,物流公司,河南省,郑州市,新郑市,郑州市新郑市龙湖镇十八里河高速路口南1-5公里路东加油站后边春天物流园内,2a49a066ed6b3ef3774ff161,1,0,113.69035,34.632359,"(0371)55880768,15622749666",life,http://api.map.baidu.com/place/detail?uid=2a49a066ed6b3ef3774ff161&output=html&source=placeapi_v2,,09:00-19:00,,,,,,,,9,,,,,,,,113.69040223099,34.632301013491,0
a4b82701774c8a3f8bb9885c,郑州海元物流有限公司,生活服务,物流公司,河南省,郑州市,新郑市,G107(京深线),a4b82701774c8a3f8bb9885c,1,0,113.688267,34.636686,,life,http://api.map.baidu.com/place/detail?uid=a4b82701774c8a3f8bb9885c&output=html&source=placeapi_v2,,,,,,,,,,2,,,,,,,,113.68788079702,34.636660144391,0
cc7f0dc15c40cf75364aaec8,腾旺物流(郑州分公司),生活服务,物流公司,河南省,郑州市,新郑市,河南省郑州市新郑市G107(京深线),,1,0,113.690685,34.631106,"(0371)65331986,18037151986",life,http://api.map.baidu.com/place/detail?uid=cc7f0dc15c40cf75364aaec8&output=html&source=placeapi_v2,,07:00-19:00,,,,,,,,8,,,,,,,,,,0
b0813f51aa87da869e82ea06,安利物流综合服务大厅,生活服务,物流公司,河南省,郑州市,新郑市,郑州市新郑市龙湖大道附近,b0813f51aa87da869e82ea06,1,1,113.68896,34.627025,,life,http://api.map.baidu.com/place/detail?uid=b0813f51aa87da869e82ea06&output=html&source=placeapi_v2,,08:00-18:00,5,,,,,,,8,19,,,,,,,113.68892501698,34.626956365712,1
db18fe3fa575d05d9c09f770,郑州鑫泳源物流有限公司,生活服务,物流公司,河南省,郑州市,新郑市,郑州市新郑市京港线坤达・祥龙城西南侧约70米,,1,0,113.690437,34.631902,"(0371)56780570,15238664549",life,http://api.map.baidu.com/place/detail?uid=db18fe3fa575d05d9c09f770&output=html&source=placeapi_v2,,,,,,,,,,8,,,,,,,,,,0
d51014b1bd89eca6bea24013,粤东物流(正商・红河谷东),生活服务,物流公司,河南省,郑州市,新郑市,郑州市新郑市京港线新郑市红河谷外国语小学东北侧约150米,d51014b1bd89eca6bea24013,1,0,113.689188,34.630438,,life,http://api.map.baidu.com/place/detail?uid=d51014b1bd89eca6bea24013&output=html&source=placeapi_v2,,09:00-19:00,5.0,,,,,,,7,1,,,,,,,113.68913976141,34.630246761525,0
341c35deefb89fc0e607380e,思达配送中心,生活服务,物流公司,河南省,郑州市,新郑市,郑州市新郑市京港线新郑市红河谷外国语小学东南侧约80米,341c35deefb89fc0e607380e,1,0,113.687701,34.628239,,life,http://api.map.baidu.com/place/detail?uid=341c35deefb89fc0e607380e&output=html&source=placeapi_v2,,08:00-18:00,,,,,,,,3,,,,,,,,113.68776555699,34.628891154873,0
d180636040eb93f079b55ce9,郑邦管材物流,生活服务,物流公司,河南省,郑州市,新郑市,郑州市新郑市京港线河南郑邦新型管材批发市场东侧约240米,d180636040eb93f079b55ce9,1,0,113.688032,34.624645,"(0371)62432189,13783641399",life,http://api.map.baidu.com/place/detail?uid=d180636040eb93f079b55ce9&output=html&source=placeapi_v2,,09:00-19:00,,,,,,,,12,,,,,,,,113.68813528876,34.624701770545,0
f6865831b4665237eee4a544,长通物流(祥和路店),生活服务,物流公司,河南省,郑州市,新郑市,郑州市新郑市祥和路悦府海棠-北区西南侧约120米,f6865831b4665237eee4a544,1,0,113.690285,34.624968,"18037156703,18037156745",life,http://api.map.baidu.com/place/detail?uid=f6865831b4665237eee4a544&output=html&source=placeapi_v2,,08:00-18:00,,,,,,,,9,,,,,,,,,,0
66dc16adff216999f82d6115,郑州市浩博货运服务有限公司(玉柴华龙库),生活服务,物流公司,河南省,郑州市,管城回族区,河南省郑州市管城回族区轩辕故里互通,,1,0,113.730277,34.6402,,life,http://api.map.baidu.com/place/detail?uid=66dc16adff216999f82d6115&output=html&source=placeapi_v2,,,,,,,,,,,,,,,,,,,,0
08fc93df61f050ec9a68b4a9,河南省豫锋物流有限公司,生活服务,物流公司,河南省,郑州市,管城回族区,河南省郑州市管城回族区南曹乡107辅道与豫十路交叉口西南角郑州传化公路港内,08fc93df61f050ec9a68b4a9,1,0,113.767662,34.660293,15838251643,life,http://api.map.baidu.com/place/detail?uid=08fc93df61f050ec9a68b4a9&output=html&source=placeapi_v2,,08:00-18:00,0.0,,,,,,,0,,,,,,,,113.76766391407,34.66075661145,0
c56f983a633f53d240e192c4,万里物流广州专线(东三环店),生活服务,物流公司,河南省,郑州市,管城回族区,郑州市管城回族区传化公路港物流有限公司,,1,0,113.768395,34.659437,,life,http://api.map.baidu.com/place/detail?uid=c56f983a633f53d240e192c4&output=html&source=placeapi_v2,,08:00-18:00,,,,,,,,,,,,,,,,,,0
3b51b99d8d2af23472455b77,郑州天纵物流,生活服务,物流公司,河南省,郑州市,中牟县,河南省郑州市中牟县九龙镇九龙工业园,3b51b99d8d2af23472455b77,1,0,113.848923,34.659289,,life,http://api.map.baidu.com/place/detail?uid=3b51b99d8d2af23472455b77&output=html&source=placeapi_v2,,08:00-18:00,5,,,,,,,5,2,,,,,,,113.84872399397,34.659293486086,0
bfcc8cddcd3d7cbd22f0171e,展羽物流(郑州分公司),生活服务,物流公司,河南省,郑州市,中牟县,河南省郑州市中牟县九龙镇华夏大道,,1,0,113.851312,34.63812,,life,http://api.map.baidu.com/place/detail?uid=bfcc8cddcd3d7cbd22f0171e&output=html&source=placeapi_v2,,08:30-19:00,,,,,,,,3,,,,,,,,,,0
21087a3a43aa72de5abbbcc4,河南一六八线缆有限公司仓储运营中心,生活服务,物流公司,河南省,郑州市,中牟县,河南省郑州市中牟县,,1,0,113.856846,34.630824,,life,http://api.map.baidu.com/place/detail?uid=21087a3a43aa72de5abbbcc4&output=html&source=placeapi_v2,,,,,,,,,,,,,,,,,,,,0
525569ac7865ee281e5800ea,鑫马线缆有限公司(仓储运营中心),生活服务,物流公司,河南省,郑州市,中牟县,河南省郑州市中牟县华夏大道席庄村郑阜高铁路南,,1,0,113.856263,34.630615,(0371)66538600,life,http://api.map.baidu.com/place/detail?uid=525569ac7865ee281e5800ea&output=html&source=placeapi_v2,,08:00-18:00,,,,,,,,,,,,,,,,,,0
e116be5438ae3c7bc91b9559,中国邮政(谢庄邮政所),生活服务,物流公司,河南省,郑州市,中牟县,郑州市中牟县郑尉路郑州经济技术开发区祥云幼儿园西侧约90米,e116be5438ae3c7bc91b9559,1,0,113.843809,34.6442,,life,http://api.map.baidu.com/place/detail?uid=e116be5438ae3c7bc91b9559&output=html&source=placeapi_v2,,09:00-17:00,0,,,,,,,7,1,,,,,,,113.84379968887,34.644057812121,0
0976092099eb71cdfadc853e,九曳供应链郑州运营中心,生活服务,物流公司,河南省,郑州市,中牟县,河南省郑州市中牟县,,1,0,113.854014,34.660434,,life,http://api.map.baidu.com/place/detail?uid=0976092099eb71cdfadc853e&output=html&source=placeapi_v2,,,0.0,,,,,,,2,1,,,,,,,113.85340400039,34.660496982814,0
83edabdc17e5dbfd3417dc9a,金象物流(贾峪分部),生活服务,物流公司,河南省,郑州市,荥阳市,河南省郑州市荥阳市广献涂料总部(洞林路北),,1,0,113.444927,34.679979,13183012692,life,http://api.map.baidu.com/place/detail?uid=83edabdc17e5dbfd3417dc9a&output=html&source=placeapi_v2,,08:00-18:00,,,,,,,,10,,,,,,,,,,0
1d46d73f2a7b0d7c4d2fdfe6,安能物流(郑州南四环营业部),生活服务,物流公司,河南省,郑州市,二七区,河南省郑州市二七区S316(郑密路),1d46d73f2a7b0d7c4d2fdfe6,1,0,113.591118,34.681957,,life,http://api.map.baidu.com/place/detail?uid=1d46d73f2a7b0d7c4d2fdfe6&output=html&source=placeapi_v2,,09:00-19:00,0,,,,,,,0,1,,,,,,,113.59121733636,34.681988029389,0
2d293a6384a59445c42ba1f8,发达仓储冷库,生活服务,物流公司,河南省,郑州市,二七区,郑州市二七区侯寨乡南四环百荣C区斜对面,2d293a6384a59445c42ba1f8,1,1,113.661851,34.672065,,life,http://api.map.baidu.com/place/detail?uid=2d293a6384a59445c42ba1f8&output=html&source=placeapi_v2,,09:00-19:00,,,,,,,,,,,,,,,,113.66192551514,34.671909479856,1
e281969b6d1ff59343ab9aa1,壹米滴答(二部),生活服务,物流公司,河南省,郑州市,二七区,郑州市二七区郑州百荣世贸商城,,1,0,113.665333,34.668616,"(0371)53360335,18037887052",life,http://api.map.baidu.com/place/detail?uid=e281969b6d1ff59343ab9aa1&output=html&source=placeapi_v2,,,,,,,,,,7,,,,,,,,113.66511615707,34.668743906832,0
43dbef0ebfefdfba14764384,四管家(二七分部),生活服务,物流公司,河南省,郑州市,二七区,郑州市二七区鑫苑都汇广场5栋4层,,1,0,113.64922,34.665265,,life,http://api.map.baidu.com/place/detail?uid=43dbef0ebfefdfba14764384&output=html&source=placeapi_v2,,10:00-18:00,,,,,,,,1,,,,,,,,113.64939618793,34.665145444923,0
124ae0187dca2a7a0bf5eb26,全领域物流港-3号楼,生活服务,物流公司,河南省,郑州市,管城回族区,河南省郑州市管城回族区通达货运(南四环南),124ae0187dca2a7a0bf5eb26,1,0,113.701683,34.672622,,life,http://api.map.baidu.com/place/detail?uid=124ae0187dca2a7a0bf5eb26&output=html&source=placeapi_v2,,,,,,,,,,,,,,,,,,113.70174033592,34.672541338993,0
7a6e54805ca4257886154186,国龙物流,生活服务,物流公司,河南省,郑州市,管城回族区,郑州市管城回族区文兴路紫东钢铁企业园,7a6e54805ca4257886154186,1,0,113.730626,34.687114,"(0371)86679821,13253305328",life,http://api.map.baidu.com/place/detail?uid=7a6e54805ca4257886154186&output=html&source=placeapi_v2,,08:00-20:00,,,,,,,,7,,,,,,,,113.73055339981,34.687213543249,0
1696c94ad2abf8516140a96b,武汉航科物流有限公司现货部(郑州),生活服务,物流公司,河南省,郑州市,管城回族区,河南省郑州市管城回族区鼎盛街1号楼2楼,1696c94ad2abf8516140a96b,1,0,113.733653,34.688554,,life,http://api.map.baidu.com/place/detail?uid=1696c94ad2abf8516140a96b&output=html&source=placeapi_v2,,,0.0,,,,,,,0,,,,,,,,,,0
efce33a1b610fdf343afe6c7,鑫顺风物流,生活服务,物流公司,河南省,郑州市,管城回族区,十八里河镇紫东钢铁企业园2号楼北边,efce33a1b610fdf343afe6c7,1,0,113.732556,34.688056,,life,http://api.map.baidu.com/place/detail?uid=efce33a1b610fdf343afe6c7&output=html&source=placeapi_v2,,,,,,,,,,1,,,,,,,,,,0
31ca5e813e1a0147cc06a4f1,德邦快递(郑州管城区南曹乡营业部),生活服务,物流公司,河南省,郑州市,管城回族区,郑州管城区拥军路曹乡政府向北200米路东,31ca5e813e1a0147cc06a4f1,1,0,113.760103,34.67795,95353,life,http://api.map.baidu.com/place/detail?uid=31ca5e813e1a0147cc06a4f1&output=html&source=placeapi_v2,,08:00-20:00,0,,,,,,,14,2,,,,,,,113.75992671349,34.677994700757,0
e4e69c8db817d0b5b6147fe2,河南省鸿泰物流有限公司,生活服务,物流公司,河南省,郑州市,中牟县,河南省郑州市中牟县龙飞南街与浔江东路交叉口西南角,e4e69c8db817d0b5b6147fe2,1,3,113.856663,34.672157,,life,http://api.map.baidu.com/place/detail?uid=e4e69c8db817d0b5b6147fe2&output=html&source=placeapi_v2,,08:30-18:00,5,,,,,,,13,3,,,,,,,113.85814442863,34.672413928506,3
51e9f6b479c70304c26c1471,河南巨洋方圆物流有限公司(八里湾),生活服务,物流公司,河南省,郑州市,中牟县,郑州市中牟县创新路与文化路交叉路口往西南约200米,51e9f6b479c70304c26c1471,1,0,113.84855,34.667477,(0371)86690156,life,http://api.map.baidu.com/place/detail?uid=51e9f6b479c70304c26c1471&output=html&source=placeapi_v2,,09:00-17:30,5,,,,,,,14,2,,,,,,,113.84863697601,34.667478151112,0
103ecc7149c2543908f5eb46,安吉汽车物流(湖北)有限公司(郑州VDC),生活服务,物流公司,河南省,郑州市,中牟县,郑州市中牟县经开区新安路与芦医庙大街向南1000米路西,,1,2,113.849666,34.689583,,life,http://api.map.baidu.com/place/detail?uid=103ecc7149c2543908f5eb46&output=html&source=placeapi_v2,,,,,,,,,,,,,,,,,,113.85030673012,34.689291568585,2
8eb3ed569adde55d631809b6,河南万里物流有限公司(九龙分理处),生活服务,物流公司,河南省,郑州市,中牟县,河南省郑州市中牟县郑牟东路九龙人民法院东边,8eb3ed569adde55d631809b6,1,0,113.848316,34.688308,15286810093,life,http://api.map.baidu.com/place/detail?uid=8eb3ed569adde55d631809b6&output=html&source=placeapi_v2,,,,,,,,,,,,,,,,,,,,0
1902806bb5e61729b726551c,速通物流,生活服务,物流公司,河南省,郑州市,中牟县,郑州市中牟县九龙镇天天物流院内,,1,0,113.848269,34.674551,"15357118811,19952783106",life,http://api.map.baidu.com/place/detail?uid=1902806bb5e61729b726551c&output=html&source=placeapi_v2,,08:00-18:00,0.0,,,,,,,3,1,,,,,,,,,0
a1f938771ff4bf73c72ba1f0,豪翔物流(经南十二路店),生活服务,物流公司,河南省,郑州市,中牟县,河南省郑州市中牟县九龙物流大道十字路口往南500米马记清真苑隔避,,1,0,113.844456,34.683344,,life,http://api.map.baidu.com/place/detail?uid=a1f938771ff4bf73c72ba1f0&output=html&source=placeapi_v2,,,,,,,,,,1,,,,,,,,,,0
0976092099eb71cdfadc853e,九曳供应链郑州运营中心,生活服务,物流公司,河南省,郑州市,中牟县,河南省郑州市中牟县,,1,0,113.854014,34.660434,,life,http://api.map.baidu.com/place/detail?uid=0976092099eb71cdfadc853e&output=html&source=placeapi_v2,,,0.0,,,,,,,2,1,,,,,,,113.85340400039,34.660496982814,0
99edfba5141f1d361c389407,河南昊宇物流苏通快运(浔江东路店),生活服务,物流公司,河南省,郑州市,中牟县,九龙工业园天天物流院内,,1,0,113.848486,34.675023,,life,http://api.map.baidu.com/place/detail?uid=99edfba5141f1d361c389407&output=html&source=placeapi_v2,,,,,,,,,,,,,,,,,,,,0
bba6c6336d93375229fc48b9,河南万邦国际水产冻品物流城A10区,生活服务,物流公司,河南省,郑州市,中牟县,河南郑州市中牟县万邦国际水产冻品物流城A10区,,1,0,113.947891,34.692975,,life,http://api.map.baidu.com/place/detail?uid=bba6c6336d93375229fc48b9&output=html&source=placeapi_v2,,09:00-19:00,,,,,,,,,,,,,,,,113.94811055908,34.692621284002,0
dd5e2c6e0e3c4516c9c3dbf7,河南万邦国际水产冻品物流城B11区(河南万邦国际水产冻品物流城店),生活服务,物流公司,河南省,郑州市,中牟县,河南郑州市中牟县万邦国际水产冻品物流城B11区,,1,0,113.948938,34.692981,,life,http://api.map.baidu.com/place/detail?uid=dd5e2c6e0e3c4516c9c3dbf7&output=html&source=placeapi_v2,,09:00-19:00,,,,,,,,,,,,,,,,113.94916794641,34.692975908425,0
77afb8d00b83daee3913fdde,河南万邦国际水产冻品物流城B10区(河南万邦国际水产冻品物流城店),生活服务,物流公司,河南省,郑州市,中牟县,河南郑州市中牟县万邦国际水产冻品物流城B10区,,1,0,113.948472,34.692974,,life,http://api.map.baidu.com/place/detail?uid=77afb8d00b83daee3913fdde&output=html&source=placeapi_v2,,11:00-22:00,,,,,,,,,,,,,,,,,,0
c36cc4fdd8f4787d306212b8,河南海源渔业科技有限公司名优水产配送中心,生活服务,物流公司,河南省,郑州市,中牟县,郑州市中牟县比克大道,,1,0,113.943136,34.693072,"15090061176,15839700888",life,http://api.map.baidu.com/place/detail?uid=c36cc4fdd8f4787d306212b8&output=html&source=placeapi_v2,,,,,,,,,,4,,,,,,,,,,0
0293f343679860ccbbbd63b5,巩义市芝田百世快运物流,生活服务,物流公司,河南省,郑州市,巩义市,河南省郑州市巩义市朝阳路巩义市供销合作社物资回收公司院内,,1,0,112.968597,34.705592,,life,http://api.map.baidu.com/place/detail?uid=0293f343679860ccbbbd63b5&output=html&source=placeapi_v2,,,,,,,,,,,,,,,,,,112.96859786629,34.705707000424,0
8e8fd619737f60e5e812e4a4,STO(小关镇离退休人员管理服务所东),生活服务,物流公司,河南省,郑州市,巩义市,310国道附近,8e8fd619737f60e5e812e4a4,1,0,113.171961,34.709626,"4008895543,95543",life,http://api.map.baidu.com/place/detail?uid=8e8fd619737f60e5e812e4a4&output=html&source=placeapi_v2,13,09:00-19:00,0.0,,,,,,,0,,,,,,,,,,0
3e78a9384bfc9c0c17a19023,北京通源物流有限公司(河南分公司),生活服务,物流公司,河南省,郑州市,二七区,河南省郑州市二七区康佳南路6号,3e78a9384bfc9c0c17a19023,1,0,113.529789,34.704887,,life,http://api.map.baidu.com/place/detail?uid=3e78a9384bfc9c0c17a19023&output=html&source=placeapi_v2,,,0.0,,,,,,,0,1,,,,,,,113.52995920309,34.704879526998,0
616c4c1b727572cf8c55ec2c,河南鸿翔物流有限公司,生活服务,物流公司,河南省,郑州市,二七区,河南省郑州市二七区瑞明路6号,616c4c1b727572cf8c55ec2c,1,1,113.518849,34.707348,,life,http://api.map.baidu.com/place/detail?uid=616c4c1b727572cf8c55ec2c&output=html&source=placeapi_v2,,08:30-20:00,0,,,,,,,7,0,,,,,,,113.51829203179,34.706487006577,1
cb3e63d9ddb06df5bd484270,长通物流(兴华南街店),生活服务,物流公司,河南省,郑州市,二七区,河南省郑州市二七区兴华南街宏鑫花园门口,cb3e63d9ddb06df5bd484270,1,0,113.639218,34.710145,,life,http://api.map.baidu.com/place/detail?uid=cb3e63d9ddb06df5bd484270&output=html&source=placeapi_v2,,08:00-18:00,4.3,,,,,,,13,6,,,,,,,113.6395058272,34.710034207174,0
6c7398cc2174f754df1e5299,万里物流(兴华南街店),生活服务,物流公司,河南省,郑州市,二七区,河南省郑州市二七区兴华南街13号,6c7398cc2174f754df1e5299,1,0,113.638938,34.706654,13693719411,life,http://api.map.baidu.com/place/detail?uid=6c7398cc2174f754df1e5299&output=html&source=placeapi_v2,,09:00-19:00,0.0,,,,,,,17,,,,,,,,113.63837751955,34.706229126119,0
90375b3061d36270badf8f5e,方圆物流(万客来二分部),生活服务,物流公司,河南省,郑州市,二七区,郑州市二七区京广南路盈合万货城西侧约210米,90375b3061d36270badf8f5e,1,0,113.662461,34.70102,,life,http://api.map.baidu.com/place/detail?uid=90375b3061d36270badf8f5e&output=html&source=placeapi_v2,,08:00-18:00,,,,,,,,,,,,,,,,113.66247220231,34.701125280502,0
121ac98c58fe07a2bbbd63e7,菜鸟驿站(富达花园六号601物业便民服务中心店),生活服务,物流公司,河南省,郑州市,二七区,郑州市二七区端午路富达花园六号楼601物业便民服务中心,121ac98c58fe07a2bbbd63e7,1,0,113.653865,34.708816,9519666,life,http://api.map.baidu.com/place/detail?uid=121ac98c58fe07a2bbbd63e7&output=html&source=placeapi_v2,,09:00-19:00,,,,,,,,,,,,,,,,113.65386113283,34.708856958334,0
1de11aff5fa26f84d03ce3bf,菜鸟驿站(亚星盛世家园物业楼下益智玩具),生活服务,物流公司,河南省,郑州市,二七区,河南省郑州市二七区长江路128号a区55号楼7层,1de11aff5fa26f84d03ce3bf,1,0,113.637247,34.718098,9519666,life,http://api.map.baidu.com/place/detail?uid=1de11aff5fa26f84d03ce3bf&output=html&source=placeapi_v2,,,,,,,,,,0,,,,,,,,,,0
3b609d956e75eb248c1a8944,菜鸟驿站(亚星丽都2号楼2单元102室店),生活服务,物流公司,河南省,郑州市,二七区,河南省郑州市二七区郑密路亚星丽都小区4号楼1单元101号,3b609d956e75eb248c1a8944,1,0,113.630698,34.717284,13938211187,life,http://api.map.baidu.com/place/detail?uid=3b609d956e75eb248c1a8944&output=html&source=placeapi_v2,,09:00-20:00,,,,,,,,,,,,,,,,113.63069436462,34.71728377384,0
bc6ebc7ad2b5f0d66e20b9f8,豫鑫物流(城东南路店),生活服务,物流公司,河南省,郑州市,管城回族区,河南省郑州市管城回族区城东南路156号,bc6ebc7ad2b5f0d66e20b9f8,1,0,113.696841,34.720456,(0371)66837090,life,http://api.map.baidu.com/place/detail?uid=bc6ebc7ad2b5f0d66e20b9f8&output=html&source=placeapi_v2,,08:00-18:00,,,,,,,,16,,,,,,,,113.69699754423,34.72045528612,0
340434ccbae2e9cecafa5f38,中储发展股份有限公司郑州物流中心市场部,生活服务,物流公司,河南省,郑州市,管城回族区,河南省郑州市管城回族区城东南路13号a022室,,1,0,113.698655,34.720615,,life,http://api.map.baidu.com/place/detail?uid=340434ccbae2e9cecafa5f38&output=html&source=placeapi_v2,,,,,,,,,,,,,,,,,,113.69881570201,34.720618219181,0
d04de69b61a5eb4bcc06a42c,长通物流(新华中分理处),生活服务,物流公司,河南省,郑州市,二七区,南三环盈合万货城南门对面,d04de69b61a5eb4bcc06a42c,1,0,113.672167,34.705544,18037156741,life,http://api.map.baidu.com/place/detail?uid=d04de69b61a5eb4bcc06a42c&output=html&source=placeapi_v2,,08:00-18:00,0,,,,,,,13,4,,,,,,,113.67219287852,34.70522102577,0
0d90108d9ba093f6cb213dd1,中通快递(连云路营业厅),生活服务,物流公司,河南省,郑州市,管城回族区,河南省郑州市管城回族区永丰新都北门红杰汽修对面,0d90108d9ba093f6cb213dd1,1,0,113.684507,34.718462,(0371)55655670,life,http://api.map.baidu.com/place/detail?uid=0d90108d9ba093f6cb213dd1&output=html&source=placeapi_v2,,09:00-18:00,1,,,,,,,19,1,,,,,,,113.68440633905,34.718615067309,0
dbeae2962d65a1d3882fb545,河南鸿翔一心堂药业有限公司(配送中心),生活服务,物流公司,河南省,郑州市,管城回族区,河南郑州市管城回族区城东南路11号,dbeae2962d65a1d3882fb545,1,0,113.697933,34.716318,,life,http://api.map.baidu.com/place/detail?uid=dbeae2962d65a1d3882fb545&output=html&source=placeapi_v2,,09:00-19:00,,,,,,,,11,,,,,,,,113.69779100581,34.716091262972,0
1eb199b43f4e5403c2f1cf16,韵达速递(中陆广场服务部),生活服务,物流公司,河南省,郑州市,二七区,河南省郑州市二七区赣江路二七区消防大队对面,1eb199b43f4e5403c2f1cf16,1,0,113.672945,34.71004,13663001895,life,http://api.map.baidu.com/place/detail?uid=1eb199b43f4e5403c2f1cf16&output=html&source=placeapi_v2,,08:00-19:00,0,,,,,,,12,1,,,,,,,,,0
ad5ba3c2903e66492fb17ea2,4PX递四方速递(郑州分公司),生活服务,物流公司,河南省,郑州市,管城回族区,河南省郑州市管城回族区文兴路9号万盟家纺城3号楼,,1,0,113.725658,34.696468,,life,http://api.map.baidu.com/place/detail?uid=ad5ba3c2903e66492fb17ea2&output=html&source=placeapi_v2,,,,,,,,,,,,,,,,,,,,0
79bc91baebb652c90c0a70e7,黑豹物流(汽贸园三部),生活服务,物流公司,河南省,郑州市,管城回族区,郑州市管城回族区鼎城街郑州豫兴帆布制品有限公司,79bc91baebb652c90c0a70e7,1,0,113.730268,34.700022,"13526835656,15538165656,4000988666",life,http://api.map.baidu.com/place/detail?uid=79bc91baebb652c90c0a70e7&output=html&source=placeapi_v2,,,,,,,,,,14,,,,,,,,113.73019146893,34.699990843938,0
91e9d9680c1d13ca93114c37,豫鑫物流(第八大街门店),生活服务,物流公司,河南省,郑州市,管城回族区,郑州市管城回族区经南四路河南金保康药事服务有限公司,91e9d9680c1d13ca93114c37,1,0,113.7729,34.718945,,life,http://api.map.baidu.com/place/detail?uid=91e9d9680c1d13ca93114c37&output=html&source=placeapi_v2,,08:00-18:00,1,,,,,,,8,2,,,,,,,113.77279054002,34.719018245563,0
eef2d5288b6938d93be4a60f,河南保税物流中心,生活服务,物流公司,河南省,郑州市,管城回族区,河南省郑州市管城回族区航海东路1508号,eef2d5288b6938d93be4a60f,1,6,113.77945,34.731046,(0371)56522103,life,http://api.map.baidu.com/place/detail?uid=eef2d5288b6938d93be4a60f&output=html&source=placeapi_v2,,08:00-18:00,2.1,,,,,,,7,13,,,,,,,113.77567521461,34.72944386748,6
c8b5cdef46cf4103120daa91,郑州市烟草公司卷烟配送中心(经开第四大街店),生活服务,物流公司,河南省,郑州市,管城回族区,河南省郑州市管城回族区第四大街66号,c8b5cdef46cf4103120daa91,1,0,113.756101,34.723843,,life,http://api.map.baidu.com/place/detail?uid=c8b5cdef46cf4103120daa91&output=html&source=placeapi_v2,,08:00-18:00,,,,,,,,9,,,,,,,,113.75672060903,34.722991661434,0
c1d261efdee2aeadd618b73d,中国交建武汉航科物流有限公司现货部(郑州),生活服务,物流公司,河南省,郑州市,管城回族区,郑州市管城回族区经开第九大街正商经开广场,,1,0,113.776182,34.724961,,life,http://api.map.baidu.com/place/detail?uid=c1d261efdee2aeadd618b73d&output=html&source=placeapi_v2,,,0.0,,,,,,,0,1,,,,,,,,,0
d4433a584f446142db131856,鸿泰物流收货处,生活服务,物流公司,河南省,郑州市,管城回族区,郑州市管城回族区启航路顺郑物流园,,1,0,113.834142,34.718482,,life,http://api.map.baidu.com/place/detail?uid=d4433a584f446142db131856&output=html&source=placeapi_v2,,,,,,,,,,4,,,,,,,,,,0
1ba1c1228997fb22d5b74e57,招商局物流集团郑州有限公司,生活服务,物流公司,河南省,郑州市,中牟县,郑州市中牟县祥达路丰树(郑州)产业园西北侧约60米,,1,0,113.879649,34.708315,,life,http://api.map.baidu.com/place/detail?uid=1ba1c1228997fb22d5b74e57&output=html&source=placeapi_v2,,08:00-18:00,,,,,,,,8,,,,,,,,,,0
c9070a4068f5df1dd518b770,百胜中国控股有限公司郑州物流中心,生活服务,物流公司,河南省,郑州市,中牟县,河南省郑州市中牟县白沙镇韩庄村招商物流园,c9070a4068f5df1dd518b770,1,0,113.880879,34.70833,,life,http://api.map.baidu.com/place/detail?uid=c9070a4068f5df1dd518b770&output=html&source=placeapi_v2,,09:00-19:00,5,,,,,,,13,1,,,,,,,113.88087885317,34.708095778419,0
a341a1caddb642d16d3e1be6,郑州盐业物流港,生活服务,物流公司,河南省,郑州市,中牟县,郑州市中牟县白沙镇前程大街与南三环交叉口北500M韵达快递对面,a341a1caddb642d16d3e1be6,1,1,113.87977,34.713146,,life,http://api.map.baidu.com/place/detail?uid=a341a1caddb642d16d3e1be6&output=html&source=placeapi_v2,,09:00-19:00,,,,,,,,,,,,,,,,113.87967120628,34.71330623936,1
507dae42d6fc2e86e01103cc,郑州市易库仓储,生活服务,物流公司,河南省,郑州市,中牟县,郑州市中牟县义通街H酒店(郑州华丰市场店)西南侧,507dae42d6fc2e86e01103cc,1,0,113.888289,34.723581,18137111379,life,http://api.map.baidu.com/place/detail?uid=507dae42d6fc2e86e01103cc&output=html&source=placeapi_v2,,,,,,,,,,13,,,,,,,,113.88789435331,34.7236059744,0
00ffe0d5c9b4c0c058f6bef7,河南万邦国际农产品物流城A区,生活服务,物流公司,河南省,郑州市,中牟县,郑州市中牟县万邦国际农产品物流城A区,,1,0,113.951392,34.702902,,life,http://api.map.baidu.com/place/detail?uid=00ffe0d5c9b4c0c058f6bef7&output=html&source=placeapi_v2,,09:00-19:00,,,,,,,,,,,,,,,,,,0
afe8ad9ee7823daf3fe231f8,河南万邦国际农产品物流城A18区,生活服务,物流公司,河南省,郑州市,中牟县,郑州市中牟县万邦国际农产品物流城A18区,,1,0,113.947918,34.702431,,life,http://api.map.baidu.com/place/detail?uid=afe8ad9ee7823daf3fe231f8&output=html&source=placeapi_v2,,09:00-19:00,,,,,,,,,,,,,,,,,,0
a47c7bc119fa7cdd1811d563,河南万邦国际农产品物流城A20区,生活服务,物流公司,河南省,郑州市,中牟县,郑州市中牟县万邦国际农产品物流城A20区,,1,0,113.949234,34.702432,,life,http://api.map.baidu.com/place/detail?uid=a47c7bc119fa7cdd1811d563&output=html&source=placeapi_v2,,09:00-19:00,,,,,,,,,,,,,,,,,,0
39d40767be3f370ac51e517a,河南万邦国际农产品物流城A23区,生活服务,物流公司,河南省,郑州市,中牟县,郑州市中牟县万邦国际农产品物流城A23区,,1,0,113.947921,34.703765,,life,http://api.map.baidu.com/place/detail?uid=39d40767be3f370ac51e517a&output=html&source=placeapi_v2,,09:00-19:00,,,,,,,,,,,,,,,,,,0
93919e9becdcce8a31870afc,河南万邦国际农产品物流城B17区,生活服务,物流公司,河南省,郑州市,中牟县,郑州市中牟县万邦国际农产品物流城B17区,,1,0,113.95351,34.702469,,life,http://api.map.baidu.com/place/detail?uid=93919e9becdcce8a31870afc&output=html&source=placeapi_v2,,09:00-19:00,,,,,,,,,,,,,,,,,,0
6846a3f449051cddaf04575e,河南万邦国际农产品物流城A8区,生活服务,物流公司,河南省,郑州市,中牟县,河南省郑州市中牟县万洪路8号,,1,0,113.948535,34.699879,(0371)85391110,life,http://api.map.baidu.com/place/detail?uid=6846a3f449051cddaf04575e&output=html&source=placeapi_v2,,09:00-19:00,,,,,,,,,,,,,,,,,,0
a3caa9ad2e5b79ee14b54bcc,河南万邦国际农产品物流城A6区,生活服务,物流公司,河南省,郑州市,中牟县,河南郑州市中牟县万邦国际农产品物流城A6区,a3caa9ad2e5b79ee14b54bcc,1,0,113.950676,34.698668,,life,http://api.map.baidu.com/place/detail?uid=a3caa9ad2e5b79ee14b54bcc&output=html&source=placeapi_v2,,09:00-19:00,,,,,,,,,,,,,,,,113.95045562604,34.698112982746,0
ffab4178c5362e8bb426559b,河南万邦国际农产品物流城A11区,生活服务,物流公司,河南省,郑州市,中牟县,郑州市中牟县万邦国际农产品物流城A11区,,1,0,113.950684,34.699886,,life,http://api.map.baidu.com/place/detail?uid=ffab4178c5362e8bb426559b&output=html&source=placeapi_v2,,,,,,,,,,,,,,,,,,,,0
3e8799166d4078fa04fef55d,河南万邦国际农产品物流城A13区,生活服务,物流公司,河南省,郑州市,中牟县,郑州市中牟县万邦国际农产品物流城A13区,,1,0,113.948535,34.701129,,life,http://api.map.baidu.com/place/detail?uid=3e8799166d4078fa04fef55d&output=html&source=placeapi_v2,,09:00-19:00,,,,,,,,,,,,,,,,,,0
5927903621bc1a6a4f3a596e,河南万邦国际农产品物流城A19区,生活服务,物流公司,河南省,郑州市,中牟县,郑州市中牟县万邦国际农产品物流城A19区,,1,0,113.948536,34.70244,,life,http://api.map.baidu.com/place/detail?uid=5927903621bc1a6a4f3a596e&output=html&source=placeapi_v2,,09:00-19:00,,,,,,,,,,,,,,,,,,0
d17f85adb3a3b5b1ad0457b5,河南万邦国际农产品物流城A9区,生活服务,物流公司,河南省,郑州市,中牟县,河南万邦国际农产品物流城A9区,,1,0,113.949246,34.699863,,life,http://api.map.baidu.com/place/detail?uid=d17f85adb3a3b5b1ad0457b5&output=html&source=placeapi_v2,,09:00-19:00,,,,,,,,,,,,,,,,113.94957977907,34.699863153629,0
fb47abdf9d9b0a7d7069d3bb,河南万邦国际农产品物流城A5区,生活服务,物流公司,河南省,郑州市,中牟县,河南郑州市中牟县万邦国际农产品物流城A5区,fb47abdf9d9b0a7d7069d3bb,1,0,113.949964,34.698704,,life,http://api.map.baidu.com/place/detail?uid=fb47abdf9d9b0a7d7069d3bb&output=html&source=placeapi_v2,,09:00-19:00,,,,,,,,,,,,,,,,113.95027922399,34.698702771788,0
781f82adf188c23ff82213d3,河南诚惠鲜果品销售有限公司配送中心,生活服务,物流公司,河南省,郑州市,中牟县,郑州市中牟县河南万邦国际农产品物流城,,1,0,113.951904,34.703446,,life,http://api.map.baidu.com/place/detail?uid=781f82adf188c23ff82213d3&output=html&source=placeapi_v2,,,,,,,,,,12,,,,,,,,113.95190565732,34.703576996673,0
ed20999056682c119f9d684e,百世快递(中牟县新县城分公司),生活服务,物流公司,河南省,郑州市,中牟县,郑州市中牟县万胜路紫藤嘉园小区,ed20999056682c119f9d684e,1,0,113.987762,34.721314,15890022655,life,http://api.map.baidu.com/place/detail?uid=ed20999056682c119f9d684e&output=html&source=placeapi_v2,,08:00-18:00,0.0,,,,,,,8,,,,,,,,,,0
453bedf759889140c6effb19,河南世阳运输有限公司(中牟县万胜路分公司),生活服务,物流公司,河南省,郑州市,中牟县,中牟县万胜路紫藤家园18号,453bedf759889140c6effb19,1,0,113.987602,34.721205,,life,http://api.map.baidu.com/place/detail?uid=453bedf759889140c6effb19&output=html&source=placeapi_v2,,08:00-18:00,,,,,,,,0,,,,,,,,,,0
375cf59628682b0b6849f3ee,郑州风神物流有限公司,生活服务,物流公司,河南省,郑州市,中牟县,郑州市中牟县城东路与民盛路交叉路口往西北约110米,375cf59628682b0b6849f3ee,1,0,114.038582,34.718591,,life,http://api.map.baidu.com/place/detail?uid=375cf59628682b0b6849f3ee&output=html&source=placeapi_v2,,09:00-19:00,,,,,,,,,,,,,,,,,,0
7942a0e9fcc7984602294f76,汇力物流(巩义分公司),生活服务,物流公司,河南省,郑州市,巩义市,河南省郑州市巩义市八街万洋国际商贸城28号楼,7942a0e9fcc7984602294f76,1,0,112.974651,34.747749,"(0371)64567099,13598007236",life,http://api.map.baidu.com/place/detail?uid=7942a0e9fcc7984602294f76&output=html&source=placeapi_v2,,08:00-19:00,5,,,,,,,7,1,,,,,,,112.97450704839,34.7477863525,0
87e2a5a5559bd6bdcafa5fa0,东健物流(镇北街店),生活服务,物流公司,河南省,郑州市,巩义市,郑州市巩义市新华路167号,87e2a5a5559bd6bdcafa5fa0,1,0,112.98864,34.764432,,life,http://api.map.baidu.com/place/detail?uid=87e2a5a5559bd6bdcafa5fa0&output=html&source=placeapi_v2,,08:00-18:00,2,,,,,,,8,2,,,,,,,112.98855135077,34.764496651533,0
e1e9f2f0bea90b1bbb17e7e9,巩义货场,生活服务,物流公司,河南省,郑州市,巩义市,郑州市巩义市交通路格林豪泰商务酒店(新兴路店)西北侧约120米,e1e9f2f0bea90b1bbb17e7e9,1,1,112.985847,34.762472,,life,http://api.map.baidu.com/place/detail?uid=e1e9f2f0bea90b1bbb17e7e9&output=html&source=placeapi_v2,,,,,,,,,,7,,,,,,,,112.98583075258,34.762405139425,1
626f8e98d2a14187b4265533,圆通速递(新华小区分部),生活服务,物流公司,河南省,郑州市,巩义市,河南省郑州市巩义市新华路165号(近新华小区),626f8e98d2a14187b4265533,1,0,112.988254,34.764074,(0371)66489618,life,http://api.map.baidu.com/place/detail?uid=626f8e98d2a14187b4265533&output=html&source=placeapi_v2,,08:00-19:00,0,,,,,,,9,1,,,,,,,112.98814876438,34.764103797004,0
70b3eee305ccec99f03cba17,豫德隆物流,生活服务,物流公司,河南省,郑州市,荥阳市,郑州市荥阳市中原西路与京城路交汇处南300米路东,70b3eee305ccec99f03cba17,1,1,113.418164,34.751661,(0371)56912222,life,http://api.map.baidu.com/place/detail?uid=70b3eee305ccec99f03cba17&output=html&source=placeapi_v2,,09:00-19:00,0.0,,,,,,,1,,,,,,,,113.41683828244,34.751527654516,1
1ca85484a9bf1614a104641a,龙城天悦信息服务站,生活服务,物流公司,河南省,郑州市,荥阳市,河南省郑州市荥阳市X034,,1,0,113.435984,34.759897,,life,http://api.map.baidu.com/place/detail?uid=1ca85484a9bf1614a104641a&output=html&source=placeapi_v2,,,,,,,,,,,,,,,,,,,,0
7e54cc46e0cbf0112e4733b5,郑州安丰货物运输有限公司,生活服务,物流公司,河南省,郑州市,中原区,郑州市中原区阳光商务B座407室,7e54cc46e0cbf0112e4733b5,1,0,113.60637,34.747486,,life,http://api.map.baidu.com/place/detail?uid=7e54cc46e0cbf0112e4733b5&output=html&source=placeapi_v2,,,5.0,,,,,,,1,1,,,,,,,,,0
a4b1845cdee4ab4e6240a995,次晨达物流(河南分公司),生活服务,物流公司,河南省,郑州市,中原区,郑州市中原区伏牛路70年代尚景小区,a4b1845cdee4ab4e6240a995,1,0,113.613253,34.732079,,life,http://api.map.baidu.com/place/detail?uid=a4b1845cdee4ab4e6240a995&output=html&source=placeapi_v2,,,,,,,,,,6,,,,,,,,113.61339125689,34.732079987801,0
d9caf5becae980cd3be4a6e8,郑州大豫鸿福黄酒酿造有限公司仓储配送中心,生活服务,物流公司,河南省,郑州市,中原区,郑州市中原区中原中路万达广场(中原区店),d9caf5becae980cd3be4a6e8,1,0,113.607521,34.752913,,life,http://api.map.baidu.com/place/detail?uid=d9caf5becae980cd3be4a6e8&output=html&source=placeapi_v2,,09:00-21:00,,,,,,,,1,,,,,,,,,,0
6d25cfae04ab9285bca822f8,菜鸟驿站(郑州康桥上城品北门店),生活服务,物流公司,河南省,郑州市,中原区,河南省郑州市中原区昆仑路5-16号康桥上城品西门好家物业便民服务中心,6d25cfae04ab9285bca822f8,1,0,113.601457,34.740443,15083194676,life,http://api.map.baidu.com/place/detail?uid=6d25cfae04ab9285bca822f8&output=html&source=placeapi_v2,,09:00-19:00,,,,,,,,,,,,,,,,113.60146909798,34.740538226891,0
51089776ed23a1f4ab0dd8ce,菜鸟驿站(小岗刘新城店),生活服务,物流公司,河南省,郑州市,中原区,河南省郑州市中原区汝河路汝河花苑西区4号楼,51089776ed23a1f4ab0dd8ce,1,0,113.622307,34.740416,,life,http://api.map.baidu.com/place/detail?uid=51089776ed23a1f4ab0dd8ce&output=html&source=placeapi_v2,,10:00-20:30,,,,,,,,8,,,,,,,,113.62258438702,34.740424428455,0
d7fd2ad391c916540accdd9a,中铁快运(郑州站营业部),生活服务,物流公司,河南省,郑州市,二七区,河南省郑州市二七区二马路86号,d7fd2ad391c916540accdd9a,1,0,113.666812,34.754278,95572,life,http://api.map.baidu.com/place/detail?uid=d7fd2ad391c916540accdd9a&output=html&source=placeapi_v2,,09:00-19:00,0,,,,,,,9,1,,,,,,,113.66706990238,34.754363242611,0
b2e911df1396a00a6d20b925,圆通速递(民安路店),生活服务,物流公司,河南省,郑州市,二七区,河南省郑州市二七区民安路6-1号,b2e911df1396a00a6d20b925,1,0,113.648972,34.738507,95554,life,http://api.map.baidu.com/place/detail?uid=b2e911df1396a00a6d20b925&output=html&source=placeapi_v2,,09:00-19:00,1.6,,,,,,,6,9,,,,,,,113.64905949854,34.73843796276,0
77e4ab9bac32bced4007c15e,菜鸟驿站(烟酒超市),生活服务,物流公司,河南省,郑州市,二七区,郑州市二七区京广快速路西工房社区东侧,77e4ab9bac32bced4007c15e,1,0,113.65899,34.752009,,life,http://api.map.baidu.com/place/detail?uid=77e4ab9bac32bced4007c15e&output=html&source=placeapi_v2,,09:00-19:00,,,,,,,,1,,,,,,,,,,0
d6424d349b99f03675e5b6cd,金象快件服务网点,生活服务,物流公司,河南省,郑州市,二七区,河南省郑州市二七区二马路汽车站(鸿森大厦南50米),d6424d349b99f03675e5b6cd,1,0,113.666008,34.757688,13838362988,life,http://api.map.baidu.com/place/detail?uid=d6424d349b99f03675e5b6cd&output=html&source=placeapi_v2,,08:00-18:00,0,,,,,,,7,1,,,,,,,113.66617724542,34.757632377001,0
b5c44470eace311536b06c8d,菜鸟驿站(郑州升龙世纪花园壹区二号楼店),生活服务,物流公司,河南省,郑州市,二七区,河南省郑州市二七区政通路60号院升龙世纪花园1区2号楼,cd9652481601d4f1f33cba21,1,0,113.644818,34.732895,9519666,life,http://api.map.baidu.com/place/detail?uid=b5c44470eace311536b06c8d&output=html&source=placeapi_v2,,09:00-22:00,,,,,,,,,,,,,,,,,,0
3d6947ae7baeff9009b93aa4,花花牛配送站,生活服务,物流公司,河南省,郑州市,二七区,河南省郑州市二七区马赛腾达路1号,,1,0,113.643014,34.766576,,life,http://api.map.baidu.com/place/detail?uid=3d6947ae7baeff9009b93aa4&output=html&source=placeapi_v2,,09:00-19:00,0,,,,,,,10,1,,,,,,,,,0
44000d177ded9f61c8213dba,贰仟家物流服务有限公司(南顺城街分理处),生活服务,物流公司,河南省,郑州市,管城回族区,河南省郑州市管城回族区南顺城街19号,44000d177ded9f61c8213dba,1,0,113.676171,34.753146,4006562000,life,http://api.map.baidu.com/place/detail?uid=44000d177ded9f61c8213dba&output=html&source=placeapi_v2,,12:00-20:00,0,,,,,,,13,1,,,,,,,,,0
ceaf0498d3a6962ac61b757a,久隆物流(德成街店),生活服务,物流公司,河南省,郑州市,管城回族区,河南省郑州市管城回族区东三马路152号新天地小区12栋,ceaf0498d3a6962ac61b757a,1,0,113.677176,34.748762,(0371)56780996,life,http://api.map.baidu.com/place/detail?uid=ceaf0498d3a6962ac61b757a&output=html&source=placeapi_v2,,08:00-18:00,0,,,,,,,11,2,,,,,,,113.67718868245,34.748824435333,0
75d0881a965e314e3a04b125,长通物流(南顺城街店),生活服务,物流公司,河南省,郑州市,管城回族区,郑州市管城回族区南顺城街华亿鑫居,75d0881a965e314e3a04b125,1,0,113.676744,34.754001,18037156708,life,http://api.map.baidu.com/place/detail?uid=75d0881a965e314e3a04b125&output=html&source=placeapi_v2,,08:00-18:00,1,,,,,,,10,6,,,,,,,113.67691451332,34.75399009527,0
b2983b532ace06c35fd4fe53,顺丰速运(郑州市管城区福华大厦营业点),生活服务,物流公司,河南省,郑州市,管城回族区,河南省郑州市管城回族区东大街59号,b2983b532ace06c35fd4fe53,1,0,113.685404,34.756763,,life,http://api.map.baidu.com/place/detail?uid=b2983b532ace06c35fd4fe53&output=html&source=placeapi_v2,,08:00-20:00,0,,,,,,,6,2,,,,,,,113.68528936169,34.75678866452,0
b292b3aa8ee44b55be484224,河南省商储物流有限公司(货站街店),生活服务,物流公司,河南省,郑州市,管城回族区,河南郑州市管城回族区货站街118号,b292b3aa8ee44b55be484224,1,0,113.698347,34.742853,,life,http://api.map.baidu.com/place/detail?uid=b292b3aa8ee44b55be484224&output=html&source=placeapi_v2,,08:00-18:00,0,,,,,,,18,2,,,,,,,113.69834573461,34.743001692514,0
5e187c2e99acbddef603b842,郑州邮件处理中心,生活服务,物流公司,河南省,郑州市,管城回族区,河南省郑州市管城回族区二里岗南街99号,5e187c2e99acbddef603b842,1,0,113.689583,34.733788,,life,http://api.map.baidu.com/place/detail?uid=5e187c2e99acbddef603b842&output=html&source=placeapi_v2,,08:00-18:00,0.0,,,,,,,0,2,,,,,,,113.68959858263,34.734179376883,0
c7693e01f6f7ecb25b109338,荣宽速运,生活服务,物流公司,河南省,郑州市,管城回族区,河南省郑州市管城回族区东三马路152-5号新天地15232号,c7693e01f6f7ecb25b109338,1,0,113.6775,34.749435,4008476688,life,http://api.map.baidu.com/place/detail?uid=c7693e01f6f7ecb25b109338&output=html&source=placeapi_v2,,,0,,,,,,,16,1,,,,,,,,,0
c515ceb20d4e0ab4d7b74e55,京豫隆物流(南顺城街店),生活服务,物流公司,河南省,郑州市,管城回族区,河南省郑州市管城回族区南顺城街华亿鑫居2号楼,c515ceb20d4e0ab4d7b74e55,1,0,113.676619,34.752646,17737171277,life,http://api.map.baidu.com/place/detail?uid=c515ceb20d4e0ab4d7b74e55&output=html&source=placeapi_v2,,08:00-18:00,0,,,,,,,12,1,,,,,,,113.67687601284,34.75267393029,0
91b0004095f2a68e96f08cff,万里物流(未来路店),生活服务,物流公司,河南省,郑州市,管城回族区,郑州市管城回族区郑州厨具东门,91b0004095f2a68e96f08cff,1,0,113.709821,34.746435,,life,http://api.map.baidu.com/place/detail?uid=91b0004095f2a68e96f08cff&output=html&source=placeapi_v2,,13:00-24:00,,,,,,,,9,,,,,,,,113.70980780929,34.746309012898,0
5a9e3bd7438f71c82afc486b,韵达速递(郑州金星服务部),生活服务,物流公司,河南省,郑州市,管城回族区,翠和园西门2号,5a9e3bd7438f71c82afc486b,1,0,113.678002,34.742008,18039202765,life,http://api.map.baidu.com/place/detail?uid=5a9e3bd7438f71c82afc486b&output=html&source=placeapi_v2,,08:00-19:00,0.0,,,,,,,8,3,,,,,,,113.677828682,34.741998622593,0
51564566a5f321606c476034,传递梯・冷库,生活服务,物流公司,河南省,郑州市,管城回族区,郑州市管城回族区东明路永茂世纪大厦东侧,51564566a5f321606c476034,1,0,113.70693,34.744631,15638936162,life,http://api.map.baidu.com/place/detail?uid=51564566a5f321606c476034&output=html&source=placeapi_v2,,,,,,,,,,3,,,,,,,,113.70678349042,34.744632777977,0
7ffe86750d39252828201a4a,达发物流(第50营业部),生活服务,物流公司,河南省,郑州市,管城回族区,郑州市管城回族区东三马路152-1号,7ffe86750d39252828201a4a,1,0,113.677183,34.749321,15903607316,life,http://api.map.baidu.com/place/detail?uid=7ffe86750d39252828201a4a&output=html&source=placeapi_v2,,08:00-18:00,,,,,,,,16,,,,,,,,113.67717629841,34.749451169063,0
d379693a928ca0b0b54f5400,豫鑫物流(家电分部),生活服务,物流公司,河南省,郑州市,管城回族区,河南郑州市金水区未来路690-1号豫鑫物流园4楼,d379693a928ca0b0b54f5400,1,0,113.710185,34.74608,(0371)66300898,life,http://api.map.baidu.com/place/detail?uid=d379693a928ca0b0b54f5400&output=html&source=placeapi_v2,,08:00-18:00,5,,,,,,,10,3,,,,,,,113.71032580279,34.746107190277,0
81d6a50914c7803d6f20b9a3,河南裕丰物流有限公司,生活服务,物流公司,河南省,郑州市,管城回族区,河南省郑州市管城回族区货站北街7号,81d6a50914c7803d6f20b9a3,1,0,113.703322,34.746164,(0371)53315877,life,http://api.map.baidu.com/place/detail?uid=81d6a50914c7803d6f20b9a3&output=html&source=placeapi_v2,,08:00-18:00,,,,,,,,22,,,,,,,,113.70351636047,34.74616517141,0
cc4e0a152514720348cc4ace,东健物流(火车站分部),生活服务,物流公司,河南省,郑州市,管城回族区,郑州市管城回族区南顺城街华亿鑫居2号楼1号,cc4e0a152514720348cc4ace,1,0,113.676029,34.75316,(0371)66267977,life,http://api.map.baidu.com/place/detail?uid=cc4e0a152514720348cc4ace&output=html&source=placeapi_v2,,08:00-18:00,1,,,,,,,15,2,,,,,,,113.67599334952,34.753235034659,0
78b7498acf260a87ede4a550,宇鑫物流(德成街店),生活服务,物流公司,河南省,郑州市,管城回族区,郑州市管城回族区新天地15号楼1层1号,78b7498acf260a87ede4a550,1,0,113.677093,34.748123,13526846089,life,http://api.map.baidu.com/place/detail?uid=78b7498acf260a87ede4a550&output=html&source=placeapi_v2,,08:00-18:00,0,,,,,,,11,2,,,,,,,113.67694795903,34.748131192723,0
7e261c57b064537d6140a9b8,德化街中转站,生活服务,物流公司,河南省,郑州市,二七区,河南省郑州市二七区彩虹街与延陵街南,7e261c57b064537d6140a9b8,1,0,113.674467,34.756898,,life,http://api.map.baidu.com/place/detail?uid=7e261c57b064537d6140a9b8&output=html&source=placeapi_v2,,,0.0,,,,,,,6,1,,,,,,,,,0
eb51b82ac0d8cede1d5800dc,远航物流(青年路分公司),生活服务,物流公司,河南省,郑州市,金水区,郑州市金水区张庄西区290号,eb51b82ac0d8cede1d5800dc,1,0,113.723269,34.746364,13253441726,life,http://api.map.baidu.com/place/detail?uid=eb51b82ac0d8cede1d5800dc&output=html&source=placeapi_v2,,08:00-18:00,0,,,,,,,18,1,,,,,,,113.72334503079,34.746368708873,0
844a750e31c21cc762685837,河南长通运输有限公司,生活服务,物流公司,河南省,郑州市,管城回族区,河南省郑州市管城回族区七里河南路29-23号3号楼,844a750e31c21cc762685837,1,4,113.745023,34.746656,(0371)66520111,life,http://api.map.baidu.com/place/detail?uid=844a750e31c21cc762685837&output=html&source=placeapi_v2,,08:00-18:00,3,,,,,,,22,6,,,,,,,113.74476439715,34.747813288063,4
41440f6a9ab01c1bb21e3674,郑交集团(物流总公司),生活服务,物流公司,河南省,郑州市,管城回族区,河南省郑州市管城回族区货站街192号,41440f6a9ab01c1bb21e3674,1,0,113.72746,34.743504,,life,http://api.map.baidu.com/place/detail?uid=41440f6a9ab01c1bb21e3674&output=html&source=placeapi_v2,,09:00-19:00,,,,,,,,,,,,,,,,,,0
91ac5c33d4b70a85c4f50d1f,诚信物流(张庄分理处),生活服务,物流公司,河南省,郑州市,金水区,郑州市金水区凤台路金盛物资公司家属院,91ac5c33d4b70a85c4f50d1f,1,0,113.721923,34.746682,13949069711,life,http://api.map.baidu.com/place/detail?uid=91ac5c33d4b70a85c4f50d1f&output=html&source=placeapi_v2,,08:00-18:00,0,,,,,,,19,2,,,,,,,113.72192699356,34.746548841185,0
b492398b1ab8caf6eb1e977f,太行物流(青年路店),生活服务,物流公司,河南省,郑州市,金水区,郑州市金水区青年路张庄西262号,b492398b1ab8caf6eb1e977f,1,0,113.723297,34.746618,15516950003,life,http://api.map.baidu.com/place/detail?uid=b492398b1ab8caf6eb1e977f&output=html&source=placeapi_v2,,,0,,,,,,,15,1,,,,,,,113.72334592909,34.746617882019,0
27c29638855d4f3184154110,创新物流(玉凤路店),生活服务,物流公司,河南省,郑州市,金水区,张庄社区318号,27c29638855d4f3184154110,1,0,113.721641,34.746392,(0371)66521768,life,http://api.map.baidu.com/place/detail?uid=27c29638855d4f3184154110&output=html&source=placeapi_v2,,08:00-18:00,0,,,,,,,15,1,,,,,,,113.72177828177,34.746375174321,0
d379693a928ca0b0b54f5400,豫鑫物流(家电分部),生活服务,物流公司,河南省,郑州市,管城回族区,河南郑州市金水区未来路690-1号豫鑫物流园4楼,d379693a928ca0b0b54f5400,1,0,113.710185,34.74608,(0371)66300898,life,http://api.map.baidu.com/place/detail?uid=d379693a928ca0b0b54f5400&output=html&source=placeapi_v2,,08:00-18:00,5,,,,,,,10,3,,,,,,,113.71032580279,34.746107190277,0
1728c39366a8be3bc5effb0b,德邦物流(七里河南路营业部),生活服务,物流公司,河南省,郑州市,管城回族区,河南省郑州市管城回族区西刘街29号,1728c39366a8be3bc5effb0b,1,0,113.745423,34.74824,95353,life,http://api.map.baidu.com/place/detail?uid=1728c39366a8be3bc5effb0b&output=html&source=placeapi_v2,,08:00-20:00,5,,,,,,,14,2,,,,,,,113.74555467154,34.748065723874,0
accb07ee5775414a38221cc8,宇鑫物流(中力门店),生活服务,物流公司,河南省,郑州市,金水区,河南省郑州市金水区中力国际广告市场七里湾5幢108号,accb07ee5775414a38221cc8,1,0,113.742392,34.750882,(0371)60857743,life,http://api.map.baidu.com/place/detail?uid=accb07ee5775414a38221cc8&output=html&source=placeapi_v2,,08:00-18:00,1,,,,,,,15,4,,,,,,,113.74251126098,34.75102844692,0
397aa715e777f9512cb17e02,明海物流,生活服务,物流公司,河南省,郑州市,金水区,郑州市金水区凤仪路金盛物资公司家属院,397aa715e777f9512cb17e02,1,0,113.721643,34.746439,"(0371)69109116,13849199869",life,http://api.map.baidu.com/place/detail?uid=397aa715e777f9512cb17e02&output=html&source=placeapi_v2,,,,,,,,,,5,,,,,,,,113.72178317574,34.746461911031,0
fd7414e960e3eed6e215f901,火炼物流,生活服务,物流公司,河南省,郑州市,金水区,郑州市金水区凤仪路金盛物资公司家属院,fd7414e960e3eed6e215f901,1,0,113.722657,34.746188,,life,http://api.map.baidu.com/place/detail?uid=fd7414e960e3eed6e215f901&output=html&source=placeapi_v2,,,,,,,,,,4,,,,,,,,113.72264650124,34.746259679765,0
a2d3247c7f78a6acc91b95b7,韵达速递(郑州建业路服务部),生活服务,物流公司,河南省,郑州市,金水区,河南省郑州市金水区建业路建业城市花园1号楼,a2d3247c7f78a6acc91b95b7,1,0,113.730264,34.755997,95546,life,http://api.map.baidu.com/place/detail?uid=a2d3247c7f78a6acc91b95b7&output=html&source=placeapi_v2,,09:00-20:00,0.0,,,,,,,3,1,,,,,,,113.73026284199,34.755760706965,0
438981fad2d9873480a00cc6,宇鑫物流(王庄新村门店),生活服务,物流公司,河南省,郑州市,金水区,郑州市金水区凤仪路王庄新区,438981fad2d9873480a00cc6,1,0,113.72282,34.745662,4001065566,life,http://api.map.baidu.com/place/detail?uid=438981fad2d9873480a00cc6&output=html&source=placeapi_v2,,08:00-18:00,0,,,,,,,9,0,,,,,,,113.72282584524,34.745717989551,0
7503683573c553d25e0d0279,东健物流(东建材分部),生活服务,物流公司,河南省,郑州市,金水区,郑州市金水区未来路街道青年路英协路西张庄社区290号对面,7503683573c553d25e0d0279,1,0,113.723162,34.746096,"(0371)66517920,(0371)66538780",life,http://api.map.baidu.com/place/detail?uid=7503683573c553d25e0d0279&output=html&source=placeapi_v2,,08:00-18:00,0,,,,,,,17,1,,,,,,,113.72314194906,34.746145208047,0
0a46dc0f4034e723306212f4,长通物流(货站街分理处),生活服务,物流公司,河南省,郑州市,管城回族区,河南省郑州市管城回族区货站街161号,0a46dc0f4034e723306212f4,1,0,113.711956,34.743077,18037156715,life,http://api.map.baidu.com/place/detail?uid=0a46dc0f4034e723306212f4&output=html&source=placeapi_v2,,08:00-18:00,1,,,,,,,14,5,,,,,,,113.71187279268,34.743145532368,0
30ad6a7a8dae4c5580a00c98,湘荟物流,生活服务,物流公司,河南省,郑州市,金水区,郑州市金水区凤仪路金盛物资公司家属院,30ad6a7a8dae4c5580a00c98,1,0,113.721927,34.746471,,life,http://api.map.baidu.com/place/detail?uid=30ad6a7a8dae4c5580a00c98&output=html&source=placeapi_v2,,09:00-19:00,,,,,,,,6,,,,,,,,,,0
5d5974aeed2b99720c0a7072,贰仟家物流服务公司,生活服务,物流公司,河南省,郑州市,金水区,郑州市金水区建业路张庄社区东区,,1,0,113.727765,34.746681,,life,http://api.map.baidu.com/place/detail?uid=5d5974aeed2b99720c0a7072&output=html&source=placeapi_v2,,,,,,,,,,,,,,,,,,,,0
8da2726d8a030ada29fc4856,中通快递(金水六部营业厅),生活服务,物流公司,河南省,郑州市,金水区,郑州市金水区福元路3号院伟业栖岸7号楼1楼010001门面,8da2726d8a030ada29fc4856,1,0,113.730272,34.762238,95311,life,http://api.map.baidu.com/place/detail?uid=8da2726d8a030ada29fc4856&output=html&source=placeapi_v2,,09:00-18:00,0.0,,,,,,,8,,,,,,,,113.73012678913,34.762262468464,0
91b0004095f2a68e96f08cff,万里物流(未来路店),生活服务,物流公司,河南省,郑州市,管城回族区,郑州市管城回族区郑州厨具东门,91b0004095f2a68e96f08cff,1,0,113.709821,34.746435,,life,http://api.map.baidu.com/place/detail?uid=91b0004095f2a68e96f08cff&output=html&source=placeapi_v2,,13:00-24:00,,,,,,,,9,,,,,,,,113.70980780929,34.746309012898,0
bc7f73d893fc964f16764337,菜鸟驿站(郑州升龙凤凰城A区5号楼1单元店),生活服务,物流公司,河南省,郑州市,金水区,郑州市金水区郑汴路127号金泰成名灯广场F1,,1,0,113.723583,34.751161,,life,http://api.map.baidu.com/place/detail?uid=bc7f73d893fc964f16764337&output=html&source=placeapi_v2,,08:00-21:00,5,,,,,,,6,1,,,,,,,,,0
bc7f73d893fc964f16764337,菜鸟驿站(郑州升龙凤凰城A区5号楼1单元店),生活服务,物流公司,河南省,郑州市,金水区,郑州市金水区郑汴路127号金泰成名灯广场F1,,1,0,113.723583,34.751161,,life,http://api.map.baidu.com/place/detail?uid=bc7f73d893fc964f16764337&output=html&source=placeapi_v2,,08:00-21:00,5,,,,,,,6,1,,,,,,,,,0
9b4b1f0d2047d5350c0e6b2a,罗格朗物流配送(金泰成名灯广场店),生活服务,物流公司,河南省,郑州市,金水区,郑州市金水区郑汴路127号金泰成名灯广场F3,9b4b1f0d2047d5350c0e6b2a,1,0,113.723777,34.751043,,life,http://api.map.baidu.com/place/detail?uid=9b4b1f0d2047d5350c0e6b2a&output=html&source=placeapi_v2,,,,,,,,,,,,,,,,,,113.72146165423,34.750255879255,0
778069c9924be16b15c9050b,菜鸟驿站(十里铺路一品中央东门爱心便利店),生活服务,物流公司,河南省,郑州市,金水区,河南省郑州市金水区郑东新区十里铺一品中央东门20米路西爱心便利店,778069c9924be16b15c9050b,1,0,113.736211,34.760281,9519666,life,http://api.map.baidu.com/place/detail?uid=778069c9924be16b15c9050b&output=html&source=placeapi_v2,,09:00-19:00,,,,,,,,,,,,,,,,113.73600780037,34.760355148956,0
bcf1879da77c1d9599005067,杭州鸿雁河南仓储运营中心,生活服务,物流公司,河南省,郑州市,管城回族区,郑州市管城回族区西刘街馨馨花园东院东侧,,1,0,113.748543,34.746836,18638775588,life,http://api.map.baidu.com/place/detail?uid=bcf1879da77c1d9599005067&output=html&source=placeapi_v2,,,,,,,,,,5,,,,,,,,,,0
687e921249e2df95b817e738,鸿泰物流(商都路店),生活服务,物流公司,河南省,郑州市,管城回族区,郑州市管城回族区商都路22号郑东建材家居城C区19栋12号,687e921249e2df95b817e738,1,0,113.758874,34.754269,18236952125,life,http://api.map.baidu.com/place/detail?uid=687e921249e2df95b817e738&output=html&source=placeapi_v2,,09:00-19:00,1,,,,,,,14,1,,,,,,,113.75887654225,34.754316357176,0
f3e8550c8ad2d76621022056,瞻航物流(郑州)有限公司,生活服务,物流公司,河南省,郑州市,管城回族区,河南省郑州市管城回族区第八大街160号经济技术开发区加工区1号厂房二层北侧附1号出口,,1,0,113.775235,34.734028,(0371)66866553,life,http://api.map.baidu.com/place/detail?uid=f3e8550c8ad2d76621022056&output=html&source=placeapi_v2,,09:00-18:00,,,,,,,,,,,,,,,,,,0
0bc6d0fc3427f004a2acc46e,河南豫鑫物流配送中心,生活服务,物流公司,河南省,郑州市,管城回族区,郑州市管城回族区明理路宇鑫物流(潭南街),0bc6d0fc3427f004a2acc46e,1,0,113.807183,34.745897,,life,http://api.map.baidu.com/place/detail?uid=0bc6d0fc3427f004a2acc46e&output=html&source=placeapi_v2,,08:00-18:00,,,,,,,,0,,,,,,,,113.80726518877,34.746062975818,0
8fd5294df01f3b7a8bfc063c,义成物流集团(郑州分公司),生活服务,物流公司,河南省,郑州市,管城回族区,河南省郑州市管城回族区经北四路经开第十五大街圃田站货场3号库房,,1,0,113.807228,34.735451,(0371)63393824,life,http://api.map.baidu.com/place/detail?uid=8fd5294df01f3b7a8bfc063c&output=html&source=placeapi_v2,,08:00-19:30,,,,,,,,,,,,,,,,113.80725533076,34.735301760361,0
7579f391283be5e4d13ce381,中南邮政物流集散中心(郑州邮件处理中心),生活服务,物流公司,河南省,郑州市,管城回族区,郑州市管城回族区商都路街道圃田高速路口郑东新区电子商务大厦向北500米,7579f391283be5e4d13ce381,1,2,113.817014,34.750935,,life,http://api.map.baidu.com/place/detail?uid=7579f391283be5e4d13ce381&output=html&source=placeapi_v2,,08:00-18:00,5,,,,,,,1,3,,,,,,,113.81361029697,34.749637695569,2
a06d825cdfcbf52c8e7727ae,河南宇鑫物流集团有限公司(明理路店),生活服务,物流公司,河南省,郑州市,管城回族区,郑州市管城回族区商都路与明理路交叉口路南,0b6669f8aad37d53e5e9659c,1,5,113.806109,34.745431,4001065566,life,http://api.map.baidu.com/place/detail?uid=a06d825cdfcbf52c8e7727ae&output=html&source=placeapi_v2,,09:00-18:30,4,,,,,,,14,1,,,,,,,113.80428552646,34.744633159422,5
03424b2f5b54da724afc8d8d,菜鸟驿站(博学路恒兴嘉苑花之海超市店),生活服务,物流公司,河南省,郑州市,管城回族区,郑州高铁东站东南1000米博学路38号院,03424b2f5b54da724afc8d8d,1,0,113.794842,34.755956,18638185352,life,http://api.map.baidu.com/place/detail?uid=03424b2f5b54da724afc8d8d&output=html&source=placeapi_v2,,07:00-22:00,5.0,,,,,,,,1,,,,,,,,,0
dfa2a536817b74492dfaa751,金象物流客户服务中心,生活服务,物流公司,河南省,郑州市,中牟县,河南省郑州市中牟县白沙镇南岗郑汴物流通道中央花园西北,dfa2a536817b74492dfaa751,1,0,113.8542,34.763149,,life,http://api.map.baidu.com/place/detail?uid=dfa2a536817b74492dfaa751&output=html&source=placeapi_v2,,,,,,,,,,3,,,,,,,,113.85421885817,34.76289299599,0
276149cbc34366028f1a89f7,郑州邮政物流仓储中心,生活服务,物流公司,河南省,郑州市,中牟县,河南省郑州市中牟县白沙镇富康嘉苑郑开大道,276149cbc34366028f1a89f7,1,0,113.873833,34.75497,,life,http://api.map.baidu.com/place/detail?uid=276149cbc34366028f1a89f7&output=html&source=placeapi_v2,,08:00-18:00,0,,,,,,,11,0,,,,,,,113.87397409524,34.753415545275,0
0ed6859bd31bdcee0bccdd0e,宇鑫物流(白沙水暖门店),生活服务,物流公司,河南省,郑州市,中牟县,河南省郑州市中牟县商都大道中山樱花卫厨东南侧,0ed6859bd31bdcee0bccdd0e,1,0,113.896473,34.736961,,life,http://api.map.baidu.com/place/detail?uid=0ed6859bd31bdcee0bccdd0e&output=html&source=placeapi_v2,,00:00-24:00,1,,,,,,,13,1,,,,,,,113.8964196694,34.737056573872,0
d5ac884ed308348d6118093b,郑州富达仓储基地,生活服务,物流公司,河南省,郑州市,中牟县,郑州市中牟县白沙镇商都路与前程路交叉口向北2公里路西,d5ac884ed308348d6118093b,1,0,113.886721,34.757761,,life,http://api.map.baidu.com/place/detail?uid=d5ac884ed308348d6118093b&output=html&source=placeapi_v2,,08:00-18:30,,,,,,,,,,,,,,,,113.88677502332,34.757728262638,0
c0c48be75e6b0d05465726f8,郑州振飞运输有限公司(白沙分部),生活服务,物流公司,河南省,郑州市,中牟县,郑州市中牟县复兴路与光阳路交叉路口西南侧,,1,0,113.879504,34.74345,,life,http://api.map.baidu.com/place/detail?uid=c0c48be75e6b0d05465726f8&output=html&source=placeapi_v2,,,,,,,,,,0,1,,,,,,,,,0
cd15f1214376c7442e473350,大禹物流,生活服务,物流公司,河南省,郑州市,中牟县,郑州市中牟县白沙镇广惠街商都路与万三路交叉口向北500米路东,,1,0,113.933083,34.735333,,life,http://api.map.baidu.com/place/detail?uid=cd15f1214376c7442e473350&output=html&source=placeapi_v2,,09:00-19:00,,,,,,,,,,,,,,,,113.93329538841,34.734952416437,0
a5cdba88b918410d57bfff85,汇力物流(中牟分公司),生活服务,物流公司,河南省,郑州市,中牟县,郑州市中牟县拥军路中牟县第五初级中学西南侧约230米,,1,0,114.020113,34.746553,"13253332598,15093454506,18569992859",life,http://api.map.baidu.com/place/detail?uid=a5cdba88b918410d57bfff85&output=html&source=placeapi_v2,,08:00-19:00,,,,,,,,3,,,,,,,,,,0
8835414bd99f23986849f350,现代正和物流(中牟分公司),生活服务,物流公司,河南省,郑州市,中牟县,郑州市中牟县荟萃路金阳光温泉酒店西南侧约190米,8835414bd99f23986849f350,1,0,114.014794,34.735334,"(0371)55387563,18137876272",life,http://api.map.baidu.com/place/detail?uid=8835414bd99f23986849f350&output=html&source=placeapi_v2,,08:00-18:00,,,,,,,,9,,,,,,,,,,0
8c21a6264a2f8bd2774ff172,豪翔物流(中牟分公司),生活服务,物流公司,河南省,郑州市,中牟县,郑州市中牟县荟萃路金阳光温泉酒店西南侧约50米,8c21a6264a2f8bd2774ff172,1,0,114.016014,34.736206,(0371)62177080,life,http://api.map.baidu.com/place/detail?uid=8c21a6264a2f8bd2774ff172&output=html&source=placeapi_v2,,08:00-18:00,0,,,,,,,10,1,,,,,,,114.0160220002,34.73632197395,0
10ca484e4067bdcbda2f2863,方圆物流(中牟分公司),生活服务,物流公司,河南省,郑州市,中牟县,河南省郑州市中牟县建安路与西城路交叉口北200米,10ca484e4067bdcbda2f2863,1,0,114.034077,34.741639,13333820913,life,http://api.map.baidu.com/place/detail?uid=10ca484e4067bdcbda2f2863&output=html&source=placeapi_v2,,08:00-18:00,0.0,,,,,,,7,,,,,,,,114.03418308671,34.741620275555,0
26f5e758853201f572455b89,飞腾物流(巩义分公司),生活服务,物流公司,河南省,郑州市,巩义市,河洛路北100米,,1,0,113.013528,34.776378,"13523426336,13592657659",life,http://api.map.baidu.com/place/detail?uid=26f5e758853201f572455b89&output=html&source=placeapi_v2,,07:00-18:30,,,,,,,,6,,,,,,,,113.01392789076,34.776503606052,0
c782107e57c20a73631809ea,中通快递(荥阳公司),生活服务,物流公司,河南省,郑州市,荥阳市,郑州市荥阳市塔山路塔山南路3号院东南侧,c782107e57c20a73631809ea,1,0,113.399466,34.787933,"(0371)64612225,13674984355",life,http://api.map.baidu.com/place/detail?uid=c782107e57c20a73631809ea&output=html&source=placeapi_v2,10,10:00-21:00,0.0,,,,,,,13,,,,,,,,113.39959657119,34.787928842305,0
9a76ea2b048efcd4b6147f4b,郑州市烟草公司物流中心荥阳中转站,生活服务,物流公司,河南省,郑州市,荥阳市,河南省郑州市荥阳市新民街帝龙花园,9a76ea2b048efcd4b6147f4b,1,0,113.393415,34.798613,,life,http://api.map.baidu.com/place/detail?uid=9a76ea2b048efcd4b6147f4b&output=html&source=placeapi_v2,,,,,,,,,,,,,,,,,,113.39347783867,34.798612690114,0
bdda10e728605816f6c59cc2,方圆物流(荥阳分公司),生活服务,物流公司,河南省,郑州市,荥阳市,河南省郑州市荥阳市新310国道与塔山路交叉口南苑春光小区院内,bdda10e728605816f6c59cc2,1,0,113.400138,34.771913,(0371)64677769,life,http://api.map.baidu.com/place/detail?uid=bdda10e728605816f6c59cc2&output=html&source=placeapi_v2,,08:00-22:30,1.0,,,,,,,,1,,,,,,,113.39991302356,34.771875111188,0
89eef2d6d90c7fe4c51e5164,鸿泰物流(荥阳分公司),生活服务,物流公司,河南省,郑州市,荥阳市,河南省郑州市荥阳市310国道和塔山路交叉口南80米,89eef2d6d90c7fe4c51e5164,1,0,113.396744,34.772145,"(0371)64885777,(0371)85091777,13373912666,13838305408",life,http://api.map.baidu.com/place/detail?uid=89eef2d6d90c7fe4c51e5164&output=html&source=placeapi_v2,,08:00-19:00,,,,,,,,9,,,,,,,,113.39693274861,34.772131094463,0
f8ca11b2851db6b2593ac8a9,三江华宇物流有限公司(荥阳分公司),生活服务,物流公司,河南省,郑州市,荥阳市,郑州市荥阳市万山路郑州电子信息中等专业学校(万山路)东北侧约30米,f8ca11b2851db6b2593ac8a9,1,0,113.391996,34.771838,(0371)64655670,life,http://api.map.baidu.com/place/detail?uid=f8ca11b2851db6b2593ac8a9&output=html&source=placeapi_v2,,08:00-18:00,5,,,,,,,13,2,,,,,,,113.39208704974,34.771840223228,0
e480903b8906a52e3904b16f,郑州市煜森汽车运输有限公司,生活服务,物流公司,河南省,郑州市,荥阳市,郑州市荥阳市贾峪路鑫源小区西南侧约40米,,1,0,113.390787,34.773243,"13253620288,13838282834",life,http://api.map.baidu.com/place/detail?uid=e480903b8906a52e3904b16f&output=html&source=placeapi_v2,,08:30-18:30,,,,,,,,4,,,,,,,,,,0
bd4349b4ed6a0aa23b221c1b,达发物流(新达路店),生活服务,物流公司,河南省,郑州市,中原区,郑州市中原区新达路逸阳工业园东侧约90米,bd4349b4ed6a0aa23b221c1b,1,0,113.534037,34.783569,,life,http://api.map.baidu.com/place/detail?uid=bd4349b4ed6a0aa23b221c1b&output=html&source=placeapi_v2,,09:00-19:00,0.0,,,,,,,13,,,,,,,,,,0
2f0a608205b68de60c0e6b34,鸿泰物流(雪松路店),生活服务,物流公司,河南省,郑州市,中原区,河南省郑州市中原区梧桐街28-27号2层,2f0a608205b68de60c0e6b34,1,0,113.562813,34.80096,(0371)55982022,life,http://api.map.baidu.com/place/detail?uid=2f0a608205b68de60c0e6b34&output=html&source=placeapi_v2,,08:00-18:00,,,,,,,,13,,,,,,,,113.56275481104,34.800960124088,0
58051f968cb8f10614948e0f,天地华宇物流(金色嘉园西南),生活服务,物流公司,河南省,郑州市,中原区,河南省郑州市高新区梧桐街19号,58051f968cb8f10614948e0f,1,0,113.574048,34.799359,4008086666,life,http://api.map.baidu.com/place/detail?uid=58051f968cb8f10614948e0f&output=html&source=placeapi_v2,,09:00-19:00,0.0,,,,,,,11,1,,,,,,,113.57406912434,34.799507175421,0
e2f5cb5ebe20e07baf31e5a1,豪翔物流(西开发区分理处),生活服务,物流公司,河南省,郑州市,中原区,郑州市中原区雪松路睿智楠园,e2f5cb5ebe20e07baf31e5a1,1,0,113.562813,34.798872,18637151498,life,http://api.map.baidu.com/place/detail?uid=e2f5cb5ebe20e07baf31e5a1&output=html&source=placeapi_v2,,,,,,,,,,15,,,,,,,,113.56275821023,34.798869252823,0
a925615b2905658f471a3260,邮政速递物流,生活服务,物流公司,河南省,郑州市,中原区,河南省郑州市中原区桐柏北路104号,a925615b2905658f471a3260,1,1,113.623771,34.778743,(0371)65310179,life,http://api.map.baidu.com/place/detail?uid=a925615b2905658f471a3260&output=html&source=placeapi_v2,,09:00-17:00,1.1,,,,,,,12,8,,,,,,,113.62408315856,34.77860219394,1
1c0ee173416495f2b020a84b,中通快递(中原一部),生活服务,物流公司,河南省,郑州市,中原区,郑州市中原区五龙口南路16号院30号,1c0ee173416495f2b020a84b,1,0,113.613413,34.793317,(0371)55807090,life,http://api.map.baidu.com/place/detail?uid=1c0ee173416495f2b020a84b&output=html&source=placeapi_v2,,08:30-17:30,5,,,,,,,13,2,,,,,,,113.6132300371,34.793310319113,0
6a14180a21794755bfa82250,河南省阳光物流园区,生活服务,物流公司,河南省,郑州市,金水区,河南省郑州市金水区沙口路8号,6a14180a21794755bfa82250,1,0,113.637875,34.791256,,life,http://api.map.baidu.com/place/detail?uid=6a14180a21794755bfa82250&output=html&source=placeapi_v2,,08:00-18:00,0.0,,,,,,,7,3,,,,,,,113.63710176942,34.79087712009,0
4530ee0bb7d976f2b64f54ac,宇鑫物流(好易家门店),生活服务,物流公司,河南省,郑州市,金水区,河南郑州市金水区南阳路300号好易家储存仓库,4530ee0bb7d976f2b64f54ac,1,0,113.653829,34.777683,4001065566,life,http://api.map.baidu.com/place/detail?uid=4530ee0bb7d976f2b64f54ac&output=html&source=placeapi_v2,,00:00-24:00,0,,,,,,,9,0,,,,,,,113.65362425955,34.777790730179,0
6cc74254bc75a90e9a005015,圆通速递(大石桥营业部),生活服务,物流公司,河南省,郑州市,金水区,河南省郑州市金水区卫生路33~37号,6cc74254bc75a90e9a005015,1,0,113.658856,34.786089,(0371)55188381,life,http://api.map.baidu.com/place/detail?uid=6cc74254bc75a90e9a005015&output=html&source=placeapi_v2,,08:00-19:00,3,,,,,,,11,9,,,,,,,113.65885963616,34.785930212569,0
983f5e3f9ace8006b23c81e1,顺丰速运(郑州市金水区摩尔花园营业点),生活服务,物流公司,河南省,郑州市,金水区,郑州市金水区黄河路与沙口路交叉口北300米路西,983f5e3f9ace8006b23c81e1,1,0,113.643742,34.778707,18039974040,life,http://api.map.baidu.com/place/detail?uid=983f5e3f9ace8006b23c81e1&output=html&source=placeapi_v2,,09:00-20:00,2.8,,,,,,,13,5,,,,,,,113.64386316498,34.778774380737,0
10168daf9c6bf80ba2d2306f,中通郑纺机二部公司,生活服务,物流公司,河南省,郑州市,金水区,河南省郑州市金水区黄河路76-4号,10168daf9c6bf80ba2d2306f,1,0,113.652717,34.778786,,life,http://api.map.baidu.com/place/detail?uid=10168daf9c6bf80ba2d2306f&output=html&source=placeapi_v2,,08:30-17:30,,,,,,,,6,,,,,,,,113.65271299598,34.778837400691,0
d19404ca552c066dc9e33c19,菜鸟驿站(郑州广厦城市之巅店),生活服务,物流公司,河南省,郑州市,金水区,河南省郑州市金水区广厦城市之巅广厦一街,d19404ca552c066dc9e33c19,1,0,113.66908,34.784814,9519666,life,http://api.map.baidu.com/place/detail?uid=d19404ca552c066dc9e33c19&output=html&source=placeapi_v2,,08:00-22:00,5,,,,,,,8,1,,,,,,,113.66886681973,34.784797838305,0
6835e3a7a2287d4ee21103a5,河南中外运久凌储运公司,生活服务,物流公司,河南省,郑州市,金水区,郑州市金水区沙口路29号,6835e3a7a2287d4ee21103a5,1,0,113.636077,34.797317,,life,http://api.map.baidu.com/place/detail?uid=6835e3a7a2287d4ee21103a5&output=html&source=placeapi_v2,,09:00-18:30,3,,,,,,,7,2,,,,,,,113.63340068604,34.797502528861,0
e173323180a807f0bfa8228b,物流快递(正弘城店),生活服务,物流公司,河南省,郑州市,金水区,郑州市金水区东风路与花园路交汇处正弘城F1,,1,0,113.686741,34.801887,,life,http://api.map.baidu.com/place/detail?uid=e173323180a807f0bfa8228b&output=html&source=placeapi_v2,,,,,,,,,,,,,,,,,,113.68603248312,34.801918054096,0
d19404ca552c066dc9e33c19,菜鸟驿站(郑州广厦城市之巅店),生活服务,物流公司,河南省,郑州市,金水区,河南省郑州市金水区广厦城市之巅广厦一街,d19404ca552c066dc9e33c19,1,0,113.66908,34.784814,9519666,life,http://api.map.baidu.com/place/detail?uid=d19404ca552c066dc9e33c19&output=html&source=placeapi_v2,,08:00-22:00,5,,,,,,,8,1,,,,,,,113.66886681973,34.784797838305,0
e22bd880cd8e08d015c9056c,河南中远国际货运有限公司,生活服务,物流公司,河南省,郑州市,金水区,花园路85号新闻大厦商务楼天福座13层A-B座,e22bd880cd8e08d015c9056c,1,0,113.687809,34.772774,(0371)65582009,life,http://api.map.baidu.com/place/detail?uid=e22bd880cd8e08d015c9056c&output=html&source=placeapi_v2,,,,,,,,,,1,,,,,,,,,,0
1b75dfeb08af32a5441a3280,丰巢(正弘城店),生活服务,物流公司,河南省,郑州市,金水区,郑州市金水区东风路与花园路交汇处正弘城F1,,1,0,113.686825,34.80108,,life,http://api.map.baidu.com/place/detail?uid=1b75dfeb08af32a5441a3280&output=html&source=placeapi_v2,,,,,,,,,,,,,,,,,,,,0
fe199f5325ef2e2426d2bbf7,中国邮政速递物流郑州市速递分公司众意路营业部,生活服务,物流公司,河南省,郑州市,金水区,河南省郑州市金水区农业东路28号,fe199f5325ef2e2426d2bbf7,1,0,113.729267,34.791701,11185,life,http://api.map.baidu.com/place/detail?uid=fe199f5325ef2e2426d2bbf7&output=html&source=placeapi_v2,,08:00-20:30,,,,,,,,12,,,,,,,,113.72904742925,34.791722699859,0
d027fe06491f73c63904b11e,郑州国际会展中心-郑州国际物流展,生活服务,物流公司,河南省,郑州市,金水区,郑东新区商务内环路中央公园1号郑州国际会展中心内,d027fe06491f73c63904b11e,1,0,113.737171,34.779206,,life,http://api.map.baidu.com/place/detail?uid=d027fe06491f73c63904b11e&output=html&source=placeapi_v2,,,,,,,,,,,,,,,,,,,,0
0988429bdffb61e1ae080f3a,河南林德国际物流公司,生活服务,物流公司,河南省,郑州市,金水区,郑州市金水区金水路226号楷林国际15层1511号,0988429bdffb61e1ae080f3a,1,0,113.724723,34.768746,,life,http://api.map.baidu.com/place/detail?uid=0988429bdffb61e1ae080f3a&output=html&source=placeapi_v2,,09:00-19:00,,,,,,,,0,,,,,,,,113.72488821904,34.768756527678,0
f4af57ddf130b99815c9056c,8号伟业财智广场速递易,生活服务,物流公司,河南省,郑州市,金水区,河南省郑州市金水区商务内环路10号伟业财智广场8号楼,f4af57ddf130b99815c9056c,1,0,113.726414,34.778841,,life,http://api.map.baidu.com/place/detail?uid=f4af57ddf130b99815c9056c&output=html&source=placeapi_v2,,09:00-21:00,,,,,,,,,,,,,,,,,,0
09ff38b029b15526882fb5bc,农夫山泉配送中心,生活服务,物流公司,河南省,郑州市,金水区,郑州市金水区如意河西十街蓝城兰园东南侧,09ff38b029b15526882fb5bc,1,0,113.738574,34.796785,,life,http://api.map.baidu.com/place/detail?uid=09ff38b029b15526882fb5bc&output=html&source=placeapi_v2,,,0,,,,,,,0,0,,,,,,,,,0
d31a5124399d8d70bfa82271,中国邮政速递物流(股份有限公司郑州市商务区揽投部),生活服务,物流公司,河南省,郑州市,金水区,金水区郑东新区天时路9号,d31a5124399d8d70bfa82271,1,0,113.759439,34.788681,,life,http://api.map.baidu.com/place/detail?uid=d31a5124399d8d70bfa82271&output=html&source=placeapi_v2,,08:00-20:00,,,,,,,,8,,,,,,,,113.759570565,34.788854534836,0
20840a46fd30284d43afe6fa,顺丰速运(天赋路店),生活服务,物流公司,河南省,郑州市,金水区,河南省郑州市金水区天赋路36-20号,20840a46fd30284d43afe6fa,1,0,113.759881,34.788461,95338,life,http://api.map.baidu.com/place/detail?uid=20840a46fd30284d43afe6fa&output=html&source=placeapi_v2,,09:00-20:00,0,,,,,,,15,1,,,,,,,113.76004003294,34.788562875906,0
2c564ce6f7dd3055a5da39b9,宇鑫物流(郑开仓库门店),生活服务,物流公司,河南省,郑州市,中牟县,郑州市中牟县供销物流园,2c564ce6f7dd3055a5da39b9,1,0,113.849344,34.797717,13203712177,life,http://api.map.baidu.com/place/detail?uid=2c564ce6f7dd3055a5da39b9&output=html&source=placeapi_v2,,00:00-24:00,,,,,,,,14,,,,,,,,113.84933561605,34.797823784562,0
8fcb8d251400d1d1d4851f63,郑州风神物流有限公司(RDC集配中心),生活服务,物流公司,河南省,郑州市,中牟县,郑州市中牟县通商路亨泽物流园,8fcb8d251400d1d1d4851f63,1,0,113.853235,34.795476,,life,http://api.map.baidu.com/place/detail?uid=8fcb8d251400d1d1d4851f63&output=html&source=placeapi_v2,,,5.0,,,,,,,0,2,,,,,,,,,0
59a9e5a26fa5be28336212bd,壹米滴答,生活服务,物流公司,河南省,郑州市,中牟县,郑州市中牟县,59a9e5a26fa5be28336212bd,1,0,113.850282,34.797701,,life,http://api.map.baidu.com/place/detail?uid=59a9e5a26fa5be28336212bd&output=html&source=placeapi_v2,,,,,,,,,,14,,,,,,,,113.85021493932,34.797725730485,0
56b12b9aa4214569631809b4,一汽大众(郑州分拨中心),生活服务,物流公司,河南省,郑州市,上街区,河南省郑州市上街区新安路街道新安西路18号院,56b12b9aa4214569631809b4,1,0,113.27543,34.828521,,life,http://api.map.baidu.com/place/detail?uid=56b12b9aa4214569631809b4&output=html&source=placeapi_v2,,09:00-19:00,,,,,,,,,,,,,,,,113.27536183005,34.828358915289,0
6403bad9a30e4e180869d9f1,昆仑物流园,生活服务,物流公司,河南省,郑州市,上街区,河南省郑州市上街区孟津路与新乡路交叉口东150米,6403bad9a30e4e180869d9f1,1,0,113.300285,34.826056,,life,http://api.map.baidu.com/place/detail?uid=6403bad9a30e4e180869d9f1&output=html&source=placeapi_v2,,,,,,,,,,,,,,,,,,113.30074456972,34.824816787361,0
30bc3eaa3fe85f12250bd079,速通物流上街分公司,生活服务,物流公司,河南省,郑州市,上街区,郑州市上街区工业路白马寺新村西北侧约200米,,1,0,113.318478,34.82377,17703869393,life,http://api.map.baidu.com/place/detail?uid=30bc3eaa3fe85f12250bd079&output=html&source=placeapi_v2,,08:00-18:00,,,,,,,,6,,,,,,,,,,0
6ff0b0384d828f0ef23cba56,诚信物流(上街分公司),生活服务,物流公司,河南省,郑州市,上街区,河南省郑州市上街区新乡路西段7200昆仑物流园b区7号,6ff0b0384d828f0ef23cba56,1,0,113.299996,34.825628,"13298163233,18937622783",life,http://api.map.baidu.com/place/detail?uid=6ff0b0384d828f0ef23cba56&output=html&source=placeapi_v2,,09:00-19:00,,,,,,,,6,,,,,,,,113.30008137322,34.825743746456,0
75289445f03197ef08ccdd3b,正和物流(上街分公司),生活服务,物流公司,河南省,郑州市,上街区,郑州市上街区新乡路西段昆仑物流园院内C区3号,75289445f03197ef08ccdd3b,1,0,113.300617,34.826412,(0371)63276880,life,http://api.map.baidu.com/place/detail?uid=75289445f03197ef08ccdd3b&output=html&source=placeapi_v2,,06:30-18:45,,,,,,,,8,,,,,,,,113.30051267844,34.826376302986,0
733ec810665b6440d22dd6b9,鸿泰物流(上街分公司),生活服务,物流公司,河南省,郑州市,上街区,新乡路昆仑物流园,733ec810665b6440d22dd6b9,1,0,113.300794,34.825756,,life,http://api.map.baidu.com/place/detail?uid=733ec810665b6440d22dd6b9&output=html&source=placeapi_v2,,08:00-19:00,,,,,,,,7,,,,,,,,113.30069790814,34.825750129697,0
552c6706ccd2fd6f9122e0ce,郑州中鑫清运有限公司,生活服务,物流公司,河南省,郑州市,上街区,郑州市上街区祥云路朱寨社区,552c6706ccd2fd6f9122e0ce,1,0,113.315069,34.831546,,life,http://api.map.baidu.com/place/detail?uid=552c6706ccd2fd6f9122e0ce&output=html&source=placeapi_v2,,,,,,,,,,6,,,,,,,,113.31515525409,34.831874683764,0
881a28e710b61947f942b25e,中国邮政速递物流(汝南路),生活服务,物流公司,河南省,郑州市,上街区,河南省郑州市上街区新安东路41号,881a28e710b61947f942b25e,1,0,113.302443,34.821071,(0371)68932444,life,http://api.map.baidu.com/place/detail?uid=881a28e710b61947f942b25e&output=html&source=placeapi_v2,,09:00-17:00,0,,,,,,,5,2,,,,,,,113.30226284527,34.821153900442,0
c4f06dd7f9656eda88db732c,天河物流(新乡路店),生活服务,物流公司,河南省,郑州市,上街区,郑州市上街区新乡路昆仑物流园,c4f06dd7f9656eda88db732c,1,0,113.300758,34.826153,15515620085,life,http://api.map.baidu.com/place/detail?uid=c4f06dd7f9656eda88db732c&output=html&source=placeapi_v2,,08:00-18:30,,,,,,,,9,,,,,,,,113.30065067614,34.82620009776,0
cc2eedb6e8e36b1125e0a0cf,河南三志物流荥阳分公司,生活服务,物流公司,河南省,郑州市,荥阳市,郑州市荥阳市同心路荥阳市金寨回族乡人民政府东侧约120米,cc2eedb6e8e36b1125e0a0cf,1,0,113.369886,34.829389,"(0371)56673160,15617511388,15903689800",life,http://api.map.baidu.com/place/detail?uid=cc2eedb6e8e36b1125e0a0cf&output=html&source=placeapi_v2,,06:30-22:30,0.0,,,,,,,6,,,,,,,,,,0
ff6606cbf0b09a2c81288ae5,方圆物流(郑上路店),生活服务,物流公司,河南省,郑州市,荥阳市,淮阳路,ff6606cbf0b09a2c81288ae5,1,0,113.344693,34.80842,(0371)64677769,life,http://api.map.baidu.com/place/detail?uid=ff6606cbf0b09a2c81288ae5&output=html&source=placeapi_v2,,08:00-18:00,,,,,,,,12,,,,,,,,113.34477473402,34.808535308822,0
8ed676aabe12a99617c8f661,中通金寨公司,生活服务,物流公司,河南省,郑州市,荥阳市,郑州市荥阳市同心路,8ed676aabe12a99617c8f661,1,0,113.364477,34.829457,,life,http://api.map.baidu.com/place/detail?uid=8ed676aabe12a99617c8f661&output=html&source=placeapi_v2,,,,,,,,,,,,,,,,,,,,0
c157ef899bd00d6aeddfca88,郑州供销沃土农资公司配送中心,生活服务,物流公司,河南省,郑州市,荥阳市,郑州市荥阳市建设路与兴华路交叉路口往东约120米,c157ef899bd00d6aeddfca88,1,1,113.38819,34.808852,,life,http://api.map.baidu.com/place/detail?uid=c157ef899bd00d6aeddfca88&output=html&source=placeapi_v2,,08:00-18:00,0.0,,,,,,,5,0,,,,,,,113.38815484134,34.808927900644,1
baad7c4c4b52fca472455b34,豪翔物流(冬青街店),生活服务,物流公司,河南省,郑州市,中原区,郑州市中原区冬青街企业公园西南侧约80米,baad7c4c4b52fca472455b34,1,0,113.530264,34.807476,,life,http://api.map.baidu.com/place/detail?uid=baad7c4c4b52fca472455b34&output=html&source=placeapi_v2,,,4.5,,,,,,,10,2,,,,,,,113.53026717995,34.807704444007,0
dc3ccfac57948718ab175ab9,联诚物流(冬青街店),生活服务,物流公司,河南省,郑州市,中原区,郑州市中原区冬青街企业公园西南侧约80米,dc3ccfac57948718ab175ab9,1,0,113.53022,34.807484,,life,http://api.map.baidu.com/place/detail?uid=dc3ccfac57948718ab175ab9&output=html&source=placeapi_v2,,10:00-18:00,,,,,,,,10,,,,,,,,113.53021980511,34.807704878137,0
e3a7fd132dc5b02f29b97ca4,中铁快运(高新区营业部),生活服务,物流公司,河南省,郑州市,中原区,河南省郑州市中原区冬青街12-6号,e3a7fd132dc5b02f29b97ca4,1,0,113.567157,34.807642,(0371)67993968,life,http://api.map.baidu.com/place/detail?uid=e3a7fd132dc5b02f29b97ca4&output=html&source=placeapi_v2,,08:00-18:00,1,,,,,,,13,2,,,,,,,113.56736950077,34.807642501592,0
041bac3d35e276e197ca0733,中通快递南阳寨公司,生活服务,物流公司,河南省,郑州市,惠济区,河南省郑州市惠济区兴南街3号,041bac3d35e276e197ca0733,1,0,113.631062,34.810172,13523568205,life,http://api.map.baidu.com/place/detail?uid=041bac3d35e276e197ca0733&output=html&source=placeapi_v2,,08:30-17:30,0,,,,,,,9,1,,,,,,,113.6309256235,34.810265326314,0
0f413e31c16d48febe4842e9,中通快递(金水一部营业部),生活服务,物流公司,河南省,郑州市,金水区,河南省郑州市金水区北三环路与信息学院路交叉口西南角,0f413e31c16d48febe4842e9,1,0,113.665531,34.815557,95311,life,http://api.map.baidu.com/place/detail?uid=0f413e31c16d48febe4842e9&output=html&source=placeapi_v2,,09:00-18:00,1.1,,,,,,,11,4,,,,,,,113.66564480088,34.815619147421,0
5f089bd42a119de280a00c8a,圆通速递(龙任小区西),生活服务,物流公司,河南省,郑州市,金水区,河南省郑州市金水区博颂路丰乐五金机电城31号楼,5f089bd42a119de280a00c8a,1,0,113.641816,34.812834,95554,life,http://api.map.baidu.com/place/detail?uid=5f089bd42a119de280a00c8a&output=html&source=placeapi_v2,,00:00-24:00,0,,,,,,,12,2,,,,,,,113.64181048299,34.812716099171,0
8cfa6e47cedd15bd7f29bd13,金象物流,生活服务,物流公司,河南省,郑州市,金水区,郑州市金水区汽配大世界12排北16号,8cfa6e47cedd15bd7f29bd13,1,0,113.68538,34.817891,"13253387976,13526888711",life,http://api.map.baidu.com/place/detail?uid=8cfa6e47cedd15bd7f29bd13&output=html&source=placeapi_v2,,14:30-20:30,1,,,,,,,13,2,,,,,,,113.68537946802,34.817976780317,0
fd857d7805d42cf8b320a86c,安能物流(郑州宏达分公司),生活服务,物流公司,河南省,郑州市,金水区,郑州市金水区宏明路沙门安置小区西北侧约100米,,1,0,113.684175,34.828975,18838207072,life,http://api.map.baidu.com/place/detail?uid=fd857d7805d42cf8b320a86c&output=html&source=placeapi_v2,,,,,,,,,,5,,,,,,,,113.68418830503,34.829081345856,0
75772be1c20364b0095cb3f8,贰仟家物流(宏达营业部),生活服务,物流公司,河南省,郑州市,金水区,河南省郑州市金水区郑花路88号,75772be1c20364b0095cb3f8,1,0,113.685697,34.830219,,life,http://api.map.baidu.com/place/detail?uid=75772be1c20364b0095cb3f8&output=html&source=placeapi_v2,,12:00-20:00,1,,,,,,,7,1,,,,,,,113.68577459398,34.830069328974,0
4c1502e2aad207cb84154135,卓越快运(文化路店),生活服务,物流公司,河南省,郑州市,金水区,河南省郑州市金水区文化路73号-8号,4c1502e2aad207cb84154135,1,0,113.673622,34.809821,(0371)63928603,life,http://api.map.baidu.com/place/detail?uid=4c1502e2aad207cb84154135&output=html&source=placeapi_v2,,08:00-18:00,0.0,,,,,,,3,1,,,,,,,113.67373830446,34.809706467106,0
240e042a778dde6f6f3e1b06,中通快递股份有限公司金水三部营业部,生活服务,物流公司,河南省,郑州市,金水区,河南省郑州市金水区经三路84号,240e042a778dde6f6f3e1b06,1,0,113.697826,34.805809,95311,life,http://api.map.baidu.com/place/detail?uid=240e042a778dde6f6f3e1b06&output=html&source=placeapi_v2,,08:30-17:30,,,,,,,,8,,,,,,,,113.69806125922,34.806164105142,0
8d4a288f0296dbd46168581a,豫德隆物流(汜水分公司),生活服务,物流公司,河南省,郑州市,荥阳市,郑州市荥阳市连霍高速与X017交叉路口往西北约220米,8d4a288f0296dbd46168581a,1,0,113.229277,34.849051,,life,http://api.map.baidu.com/place/detail?uid=8d4a288f0296dbd46168581a&output=html&source=placeapi_v2,,,,,,,,,,1,,,,,,,,,,0
739f17cc49f84ee0a1d2305e,神速物流,生活服务,物流公司,河南省,郑州市,荥阳市,郑州市荥阳市新农村蔬菜食品有限公司南,,1,0,113.377036,34.857906,,life,http://api.map.baidu.com/place/detail?uid=739f17cc49f84ee0a1d2305e&output=html&source=placeapi_v2,,08:00-20:00,,,,,,,,,,,,,,,,113.37757872226,34.857895906212,0
4ab6ccf71a65738854bfff29,新易泰物流有限公司(郑州分公司),生活服务,物流公司,河南省,郑州市,惠济区,河南省郑州市惠济区江山路与纪元路交叉口往西495米路北,,1,0,113.602292,34.856234,,life,http://api.map.baidu.com/place/detail?uid=4ab6ccf71a65738854bfff29&output=html&source=placeapi_v2,,,,,,,,,,,,,,,,,,113.6022881936,34.856144991428,0
5c0c783a070cfab6246e982d,壹米滴答,生活服务,物流公司,河南省,郑州市,惠济区,郑州市惠济区,5c0c783a070cfab6246e982d,1,0,113.599388,34.860866,,life,http://api.map.baidu.com/place/detail?uid=5c0c783a070cfab6246e982d&output=html&source=placeapi_v2,,07:00-20:00,,,,,,,,3,,,,,,,,,,0
53349ee3e2dca8132202627b,郑州信基调味食品城郑州信基农贸物流中心,生活服务,物流公司,河南省,郑州市,惠济区,河南省郑州市惠济区京沙快速路与三全路交叉口信基冷库B座对面,53349ee3e2dca8132202627b,1,0,113.615335,34.843264,,life,http://api.map.baidu.com/place/detail?uid=53349ee3e2dca8132202627b&output=html&source=placeapi_v2,,08:00-18:00,,,,,,,,1,,,,,,,,113.61533504718,34.84326414609,0
a1931b29548d038828b97c08,万里物流,生活服务,物流公司,河南省,郑州市,金水区,河南省郑州市金水区兴达路15号亚邦汽配城a区6号,a1931b29548d038828b97c08,1,0,113.825176,34.854688,,life,http://api.map.baidu.com/place/detail?uid=a1931b29548d038828b97c08&output=html&source=placeapi_v2,,08:00-18:00,0,,,,,,,1,1,,,,,,,113.82535669676,34.854708421864,0
212bbdb2bac0b7fbf5c59c5b,中储郑州物流有限公司物流及物联网示范,生活服务,物流公司,河南省,郑州市,荥阳市,郑州市荥阳市广武镇大河路,212bbdb2bac0b7fbf5c59c5b,1,0,113.487774,34.892118,,life,http://api.map.baidu.com/place/detail?uid=212bbdb2bac0b7fbf5c59c5b&output=html&source=placeapi_v2,,08:30-20:00,,,,,,,,,,,,,,,,,,0
7e2ff559a08dec9801294f6b,河南宏德货物运输有限公司,生活服务,物流公司,河南省,郑州市,惠济区,郑州市惠济区绿源路8号中原四季水产物流港号2-1-11号,7e2ff559a08dec9801294f6b,1,0,113.57891,34.895196,13592590266,life,http://api.map.baidu.com/place/detail?uid=7e2ff559a08dec9801294f6b&output=html&source=placeapi_v2,,08:00-18:00,0.0,,,,,,,3,,,,,,,,113.57870252847,34.895219551458,0
84bfa1c1bdf24db91ef74d91,中原水产物流港交易大厅,生活服务,物流公司,河南省,郑州市,惠济区,河南省郑州市惠济区绿源路8号,84bfa1c1bdf24db91ef74d91,1,0,113.581111,34.894796,17703811918,life,http://api.map.baidu.com/place/detail?uid=84bfa1c1bdf24db91ef74d91&output=html&source=placeapi_v2,,09:00-19:00,,,,,,,,1,,,,,,,,113.58106126674,34.894637974143,0
42f3c470e237767e75e5b686,河南伟恒轿运物流(郑州分公司),生活服务,物流公司,河南省,郑州市,惠济区,郑州市惠济区Y003与文化北路交叉路口往南约70米,42f3c470e237767e75e5b686,1,0,113.649726,34.892095,"18744418109,18844495665",life,http://api.map.baidu.com/place/detail?uid=42f3c470e237767e75e5b686&output=html&source=placeapi_v2,,,,,,,,,,10,,,,,,,,,,0
