uid,name,cat_L1,cat_L2,province,city,area,address,street_id,detail,child_num,loc_lng,loc_lat,telephone,type,detail_url,price,shop_hours,overall_rating,taste_rating,service_rating,environment_rating,facility_rating,hygiene_rating,technology_rating,image_num,comment_num,groupon_num,discount_num,favorite_num,checkin_num,brand,content_tag,naviloc_lng,naviloc_lat,child_num
6f510cced63fd85280a00cb1,啤酒音乐广场,休闲娱乐,休闲广场,河南省,郑州市,新郑市,郑州市新郑市S103观音寺镇南场完全小学东南侧约60米,6f510cced63fd85280a00cb1,1,0,113.692345,34.339832,,life,http://api.map.baidu.com/place/detail?uid=6f510cced63fd85280a00cb1&output=html&source=placeapi_v2,,,,,,,,,,,,,,,,,,,,0
d605ee55d99286e7940319aa,高马文化广场,休闲娱乐,休闲广场,河南省,郑州市,登封市,郑州市登封市登徐线,d605ee55d99286e7940319aa,1,0,113.080847,34.39736,,life,http://api.map.baidu.com/place/detail?uid=d605ee55d99286e7940319aa&output=html&source=placeapi_v2,,,0.0,,,,,,,1,1,,,,,,,113.08058181154,34.39731664958,0
ec4c3a3d18348bfb2b06ce2c,观星台广场,休闲娱乐,休闲广场,河南省,郑州市,登封市,河南省郑州市登封市告成大街登封农商银行(观星台分理处)西北侧约130米,ec4c3a3d18348bfb2b06ce2c,1,0,113.154169,34.40472,,life,http://api.map.baidu.com/place/detail?uid=ec4c3a3d18348bfb2b06ce2c&output=html&source=placeapi_v2,,,,,,,,,,1,,,,,,,,113.15413960044,34.404498874826,0
f569737e02d8df5e52e5c591,辛店村文化娱乐广场,休闲娱乐,休闲广场,河南省,郑州市,新郑市,郑州市新郑市G343与翰林路交叉路口往南约180米,f569737e02d8df5e52e5c591,1,0,113.608695,34.392616,,life,http://api.map.baidu.com/place/detail?uid=f569737e02d8df5e52e5c591&output=html&source=placeapi_v2,,,,,,,,,,,,,,,,,,113.60877751398,34.392207479628,0
133e75c0bde25f24abf729e6,白居易广场,休闲娱乐,休闲广场,河南省,郑州市,新郑市,郑州市新郑市G343郑电幼儿园东南侧约150米,,1,0,113.590345,34.387115,,life,http://api.map.baidu.com/place/detail?uid=133e75c0bde25f24abf729e6&output=html&source=placeapi_v2,,,,,,,,,,,,,,,,,,113.59055751928,34.387550253855,0
d5f93c0e0fb5b05ceddfca70,新郑炎黄广场,休闲娱乐,休闲广场,河南省,郑州市,新郑市,郑州市新郑市文化路272号,d5f93c0e0fb5b05ceddfca70,1,0,113.743467,34.400261,,life,http://api.map.baidu.com/place/detail?uid=d5f93c0e0fb5b05ceddfca70&output=html&source=placeapi_v2,78,,4.4,,,,,,,3,19,,,,,,,113.74267650877,34.401469791925,0
98e945cdfb03e64b5cbe86c9,中华姓氏广场,休闲娱乐,休闲广场,河南省,郑州市,新郑市,郑州市新郑市轩辕路黄帝故里景区内,98e945cdfb03e64b5cbe86c9,1,0,113.733931,34.405038,,life,http://api.map.baidu.com/place/detail?uid=98e945cdfb03e64b5cbe86c9&output=html&source=placeapi_v2,,,,,,,,,,,,,,,,,,113.73379585241,34.405609310021,0
92bfac36a7cd457e4f6d46cc,景观广场,休闲娱乐,休闲广场,河南省,郑州市,新郑市,郑州市新郑市轩辕路228号新郑博物馆,,1,0,113.729132,34.406256,,life,http://api.map.baidu.com/place/detail?uid=92bfac36a7cd457e4f6d46cc&output=html&source=placeapi_v2,,,,,,,,,,,,,,,,,,113.72910729772,34.40625578541,0
20a5ed2e96334e4fb020a84d,三公广场,休闲娱乐,休闲广场,河南省,郑州市,新郑市,郑州市新郑市文化路1号郑国车马坑景区,,1,0,113.742692,34.389739,,life,http://api.map.baidu.com/place/detail?uid=20a5ed2e96334e4fb020a84d&output=html&source=placeapi_v2,,,,,,,,,,,,,,,,,,,,0
462ef7ffee0f32bbf03cbad8,拜祖广场,休闲娱乐,休闲广场,河南省,郑州市,新郑市,河南省郑州市新郑市轩辕路1号,462ef7ffee0f32bbf03cbad8,1,0,113.733561,34.408214,,life,http://api.map.baidu.com/place/detail?uid=462ef7ffee0f32bbf03cbad8&output=html&source=placeapi_v2,,,,,,,,,,2,,,,,,,,,,0
f078f6355fc2727346e274c1,意大利广场,休闲娱乐,休闲广场,河南省,郑州市,新郑市,河南省郑州市新郑市人民路168号郑州大学西亚斯国际学院东区,,1,0,113.773555,34.403554,,life,http://api.map.baidu.com/place/detail?uid=f078f6355fc2727346e274c1&output=html&source=placeapi_v2,,,,,,,,,,,,,,,,,,113.77402771871,34.403506124518,0
d76aec0e658a4117b7265533,荷花仙子广场,休闲娱乐,休闲广场,河南省,郑州市,新郑市,郑州市新郑市玉前路391号郑风苑景区,,1,0,113.767373,34.396717,,life,http://api.map.baidu.com/place/detail?uid=d76aec0e658a4117b7265533&output=html&source=placeapi_v2,,,,,,,,,,,,,,,,,,,,0
6057743aea679bf8c61e5168,莲花广场,休闲娱乐,休闲广场,河南省,郑州市,新郑市,郑州市新郑市玉前路391号郑风苑景区,,1,0,113.767288,34.399092,,life,http://api.map.baidu.com/place/detail?uid=6057743aea679bf8c61e5168&output=html&source=placeapi_v2,,,,,,,,,,,,,,,,,,,,0
78541c3d62c0215aa1d23096,蔚秀园广场,休闲娱乐,休闲广场,河南省,郑州市,新郑市,郑州市新郑市玉前路391号郑风苑景区,,1,0,113.766783,34.396766,,life,http://api.map.baidu.com/place/detail?uid=78541c3d62c0215aa1d23096&output=html&source=placeapi_v2,,,,,,,,,,,,,,,,,,,,0
43cad1e98af50383631c67b4,十二生肖广场,休闲娱乐,休闲广场,河南省,郑州市,新郑市,郑州市新郑市玉前路391号郑风苑景区,,1,0,113.768828,34.396598,,life,http://api.map.baidu.com/place/detail?uid=43cad1e98af50383631c67b4&output=html&source=placeapi_v2,,,,,,,,,,,,,,,,,,,,0
874066b90b93033607026fad,郑银广场,休闲娱乐,休闲广场,河南省,郑州市,新郑市,河南省郑州市新郑市人民路1号,874066b90b93033607026fad,1,0,113.754938,34.401303,,life,http://api.map.baidu.com/place/detail?uid=874066b90b93033607026fad&output=html&source=placeapi_v2,,,5.0,,,,,,,8,4,,,,,,,113.75471125052,34.401294217222,0
cd31e80ece852fdf75e5b66a,火车站啤酒广场,休闲娱乐,休闲广场,河南省,郑州市,新郑市,郑州市新郑市道西路与烟厂大街交叉路口往东约60米,,1,0,113.781433,34.389003,,life,http://api.map.baidu.com/place/detail?uid=cd31e80ece852fdf75e5b66a&output=html&source=placeapi_v2,,,,,,,,,,5,,,,,,,,,,0
7fdfaa3c508126790482c218,乾坤广场,休闲娱乐,休闲广场,河南省,郑州市,新郑市,河南省郑州市新郑市炎黄大道北,7fdfaa3c508126790482c218,1,0,113.808656,34.381648,,life,http://api.map.baidu.com/place/detail?uid=7fdfaa3c508126790482c218&output=html&source=placeapi_v2,,,4,,,,,,,1,1,,,,,,,113.80892001124,34.380889741428,0
cd851509df281e7d57bfffd3,下沉广场,休闲娱乐,休闲广场,河南省,郑州市,新郑市,河南省郑州市新郑市梁州大道526号88号,,1,0,113.852318,34.407231,,life,http://api.map.baidu.com/place/detail?uid=cd851509df281e7d57bfffd3&output=html&source=placeapi_v2,,,,,,,,,,,,,,,,,,,,0
90a59952ef7ba1a95d0d02f8,叠翠广场,休闲娱乐,休闲广场,河南省,郑州市,新郑市,郑州市新郑市梁州大道526号双鹤湖中央公园探索岛,,1,0,113.858201,34.404801,,life,http://api.map.baidu.com/place/detail?uid=90a59952ef7ba1a95d0d02f8&output=html&source=placeapi_v2,,,,,,,,,,,,,,,,,,,,0
f1b619545cf2aa5ce9f85397,跌韵广场,休闲娱乐,休闲广场,河南省,郑州市,新郑市,郑州市新郑市梁州大道526号双鹤湖中央公园探索岛,,1,0,113.85873,34.409871,,life,http://api.map.baidu.com/place/detail?uid=f1b619545cf2aa5ce9f85397&output=html&source=placeapi_v2,,,,,,,,,,,,,,,,,,,,0
f3489ca0ab24a82312882481,双鹤湖音乐喷泉,休闲娱乐,休闲广场,河南省,郑州市,新郑市,郑州市新郑市鹤首内环双鹤湖中央公园西三门东南侧约80米,,1,0,113.844521,34.407151,,life,http://api.map.baidu.com/place/detail?uid=f3489ca0ab24a82312882481&output=html&source=placeapi_v2,,,4.4,,,,,,,11,10,,,,,,,113.84360741646,34.407280706293,0
5f90f691add783fd7069d3ee,跌碧广场,休闲娱乐,休闲广场,河南省,郑州市,新郑市,郑州市新郑市梁州大道526号双鹤湖中央公园探索岛,,1,0,113.856415,34.409645,,life,http://api.map.baidu.com/place/detail?uid=5f90f691add783fd7069d3ee&output=html&source=placeapi_v2,,,,,,,,,,,,,,,,,,,,0
24d882077e2c4139e6e96537,水韵广场,休闲娱乐,休闲广场,河南省,郑州市,新郑市,郑州市新郑市梁州大道526号双鹤湖中央公园探索岛,,1,0,113.85884,34.404975,,life,http://api.map.baidu.com/place/detail?uid=24d882077e2c4139e6e96537&output=html&source=placeapi_v2,,,,,,,,,,,,,,,,,,,,0
bc72e480f1e498db51e5c5f5,星火莲灯广场,休闲娱乐,休闲广场,河南省,郑州市,新郑市,郑州市新郑市鹤首内环双鹤湖中央公园西三门东南侧约50米,bc72e480f1e498db51e5c5f5,1,0,113.84407,34.407098,,life,http://api.map.baidu.com/place/detail?uid=bc72e480f1e498db51e5c5f5&output=html&source=placeapi_v2,,,3.0,,,,,,,2,1,,,,,,,113.84361605097,34.407037247268,0
b388f9fd1853273cb25c6aae,梅村文化广场,休闲娱乐,休闲广场,河南省,郑州市,登封市,郑州市登封市梅村卫生室附近文颖线,b388f9fd1853273cb25c6aae,1,0,112.975096,34.414855,,life,http://api.map.baidu.com/place/detail?uid=b388f9fd1853273cb25c6aae&output=html&source=placeapi_v2,,,0.0,,,,,,,,,,,,,,,112.97504992136,34.414623054639,0
5b8dde2504eb1c5f0b1cc742,凯旋啤酒广场,休闲娱乐,休闲广场,河南省,郑州市,新郑市,郑州市新郑市中兴路河南和美家白金厨具有限公司,,1,0,113.729521,34.430184,,life,http://api.map.baidu.com/place/detail?uid=5b8dde2504eb1c5f0b1cc742&output=html&source=placeapi_v2,,,,,,,,,,4,,,,,,,,,,0
6ddc603d0899fc55734b8794,双猫广场,休闲娱乐,休闲广场,河南省,郑州市,新郑市,郑州市新郑市凯旋城9号楼2单元501号,6ddc603d0899fc55734b8794,1,0,113.727872,34.428133,,life,http://api.map.baidu.com/place/detail?uid=6ddc603d0899fc55734b8794&output=html&source=placeapi_v2,,,,,,,,,,,,,,,,,,113.72786984505,34.428005902586,0
91ca54de746bee31a1046408,轩辕广场,休闲娱乐,休闲广场,河南省,郑州市,新郑市,郑州市新郑市新村镇北区,91ca54de746bee31a1046408,1,0,113.747877,34.425118,,life,http://api.map.baidu.com/place/detail?uid=91ca54de746bee31a1046408&output=html&source=placeapi_v2,,,5,,,,,,,3,6,,,,,,,113.74795051521,34.425562556549,0
c285e4bf80aefb7a1fe999d7,乐堡啤酒广场,休闲娱乐,休闲广场,河南省,郑州市,新郑市,郑州市新郑市学院路与郑新路交叉路口西北侧,,1,0,113.735295,34.422679,,life,http://api.map.baidu.com/place/detail?uid=c285e4bf80aefb7a1fe999d7&output=html&source=placeapi_v2,,,,,,,,,,1,,,,,,,,,,0
0734bb03504dba7731f71d28,太极广场,休闲娱乐,休闲广场,河南省,郑州市,新郑市,郑州市新郑市黄水河公园,,1,0,113.740376,34.425635,,life,http://api.map.baidu.com/place/detail?uid=0734bb03504dba7731f71d28&output=html&source=placeapi_v2,,,,,,,,,,,,,,,,,,,,0
cb8c117cebb8394988b98862,拉膜广场,休闲娱乐,休闲广场,河南省,郑州市,新郑市,郑州市新郑市黄水河公园,,1,0,113.740632,34.424179,,life,http://api.map.baidu.com/place/detail?uid=cb8c117cebb8394988b98862&output=html&source=placeapi_v2,,,,,,,,,,,,,,,,,,,,0
bfe258230516e37e6cc02c95,绿野广场,休闲娱乐,休闲广场,河南省,郑州市,新郑市,郑州市新郑市中心城区新区轩辕湖公园,,1,0,113.742952,34.421229,,life,http://api.map.baidu.com/place/detail?uid=bfe258230516e37e6cc02c95&output=html&source=placeapi_v2,,,,,,,,,,,,,,,,,,,,0
055cf50fee4e892e2efaa7ab,清风广场,休闲娱乐,休闲广场,河南省,郑州市,新郑市,郑州市新郑市中心城区新区轩辕湖公园,,1,0,113.745337,34.423709,,life,http://api.map.baidu.com/place/detail?uid=055cf50fee4e892e2efaa7ab&output=html&source=placeapi_v2,,,,,,,,,,,,,,,,,,,,0
a7352cf8cf0ac2214c3a59fd,琴韵广场,休闲娱乐,休闲广场,河南省,郑州市,新郑市,郑州市新郑市中心城区新区轩辕湖公园,,1,0,113.748061,34.421043,,life,http://api.map.baidu.com/place/detail?uid=a7352cf8cf0ac2214c3a59fd&output=html&source=placeapi_v2,,,,,,,,,,,,,,,,,,,,0
9ea0375c7ef22bb109b93adb,韵动广场,休闲娱乐,休闲广场,河南省,郑州市,新郑市,郑州市新郑市中心城区新区轩辕湖公园,,1,0,113.750234,34.424289,,life,http://api.map.baidu.com/place/detail?uid=9ea0375c7ef22bb109b93adb&output=html&source=placeapi_v2,,,,,,,,,,,,,,,,,,113.75017035299,34.425290375776,0
f6973dd549dfadf12a11d1a7,主题雕塑广场,休闲娱乐,休闲广场,河南省,郑州市,新郑市,郑州市新郑市中心城区新区轩辕湖公园中轴南公园,,1,0,113.747909,34.418963,,life,http://api.map.baidu.com/place/detail?uid=f6973dd549dfadf12a11d1a7&output=html&source=placeapi_v2,,,,,,,,,,,,,,,,,,113.74729104219,34.418954300312,0
05e8676cd4be4db086420e9e,游船码头阶梯广场,休闲娱乐,休闲广场,河南省,郑州市,新郑市,郑州市新郑市中心城区新区轩辕湖公园,,1,0,113.75187,34.42523,,life,http://api.map.baidu.com/place/detail?uid=05e8676cd4be4db086420e9e&output=html&source=placeapi_v2,,,,,,,,,,,,,,,,,,,,0
218d862e85f8c903b34c4946,旱喷广场,休闲娱乐,休闲广场,河南省,郑州市,新郑市,郑州市新郑市中心城区新区轩辕湖公园,,1,0,113.754676,34.425389,,life,http://api.map.baidu.com/place/detail?uid=218d862e85f8c903b34c4946&output=html&source=placeapi_v2,,,,,,,,,,,,,,,,,,,,0
4e56eb3f99f1f0b8eee4a58c,灯塔广场,休闲娱乐,休闲广场,河南省,郑州市,新郑市,郑州市新郑市中心城区新区轩辕湖公园,,1,0,113.754878,34.426095,,life,http://api.map.baidu.com/place/detail?uid=4e56eb3f99f1f0b8eee4a58c&output=html&source=placeapi_v2,,,,,,,,,,,,,,,,,,,,0
a25e32d05a864672e9f8538d,拉膜广场,休闲娱乐,休闲广场,河南省,郑州市,新郑市,郑州市新郑市中心城区新区轩辕湖公园,,1,0,113.754554,34.427338,,life,http://api.map.baidu.com/place/detail?uid=a25e32d05a864672e9f8538d&output=html&source=placeapi_v2,,,,,,,,,,,,,,,,,,,,0
8fffd65d6d545881d1f49ea8,轩辕湖公园-东广场,休闲娱乐,休闲广场,河南省,郑州市,新郑市,郑州市新郑市中心城区新区轩辕湖公园,,1,0,113.756545,34.419743,,life,http://api.map.baidu.com/place/detail?uid=8fffd65d6d545881d1f49ea8&output=html&source=placeapi_v2,,,,,,,,,,,,,,,,,,,,0
05e8676cd4be4db086420e9e,游船码头阶梯广场,休闲娱乐,休闲广场,河南省,郑州市,新郑市,郑州市新郑市中心城区新区轩辕湖公园,,1,0,113.75187,34.42523,,life,http://api.map.baidu.com/place/detail?uid=05e8676cd4be4db086420e9e&output=html&source=placeapi_v2,,,,,,,,,,,,,,,,,,,,0
96ff96b0e0ef59599e82eaf4,申天广场,休闲娱乐,休闲广场,河南省,郑州市,登封市,郑州市登封市嵩阳路中天广场,,1,0,113.038692,34.466161,,life,http://api.map.baidu.com/place/detail?uid=96ff96b0e0ef59599e82eaf4&output=html&source=placeapi_v2,,,,,,,,,,3,,,,,,,,,,0
04225e05fa0b51f03310af31,365新城市广场,休闲娱乐,休闲广场,河南省,郑州市,登封市,郑州市登封市少林大道万佳时代广场(少林大道店)东侧约40米,,1,0,113.041241,34.460611,,life,http://api.map.baidu.com/place/detail?uid=04225e05fa0b51f03310af31&output=html&source=placeapi_v2,,,,,,,,,,4,,,,,,,,,,0
6a5f58a535aadcbea11de91b,迎宾广场,休闲娱乐,休闲广场,河南省,郑州市,登封市,郑州市登封市中岳大街与阳城路交叉口路东迎宾公园内,6a5f58a535aadcbea11de91b,1,0,113.063758,34.461749,,life,http://api.map.baidu.com/place/detail?uid=6a5f58a535aadcbea11de91b&output=html&source=placeapi_v2,,,0.0,,,,,,,1,,,,,,,,113.06314544288,34.461805034179,0
8cba4bb02a94f7f9ad045752,神泉广场,休闲娱乐,休闲广场,河南省,郑州市,登封市,郑州市登封市中岳大街与阳城路交叉口路东迎宾公园内,8cba4bb02a94f7f9ad045752,1,0,113.063722,34.459804,,life,http://api.map.baidu.com/place/detail?uid=8cba4bb02a94f7f9ad045752&output=html&source=placeapi_v2,,,0.0,,,,,,,,,,,,,,,113.06319508144,34.462183251583,0
4c1346f01943bbbe95f08c8e,喷泉广场,休闲娱乐,休闲广场,河南省,郑州市,登封市,郑州市登封市颍河路与守敬路交叉路口往西南约150米棋盘山公园,,1,0,113.053736,34.451664,,life,http://api.map.baidu.com/place/detail?uid=4c1346f01943bbbe95f08c8e&output=html&source=placeapi_v2,,,,,,,,,,,,,,,,,,,,0
59ce7f4547ced98a14764382,儿童活动广场,休闲娱乐,休闲广场,河南省,郑州市,登封市,郑州市登封市颍河路与守敬路交叉路口往西南约150米棋盘山公园,,1,0,113.055728,34.451037,,life,http://api.map.baidu.com/place/detail?uid=59ce7f4547ced98a14764382&output=html&source=placeapi_v2,,,,,,,,,,,,,,,,,,,,0
5e53af1a37295b224151c059,绥洧广场,休闲娱乐,休闲广场,河南省,郑州市,新密市,河南省郑州市新密市超化镇S323(旧)绥洧广场,5e53af1a37295b224151c059,1,0,113.415509,34.457685,,life,http://api.map.baidu.com/place/detail?uid=5e53af1a37295b224151c059&output=html&source=placeapi_v2,,,0.0,,,,,,,,,,,,,,,113.41517441403,34.45691615716,0
37a5d9cfcdfd0f8c41d63e69,申沟文化广场,休闲娱乐,休闲广场,河南省,郑州市,新密市,河南省郑州市新密市超化镇S323(旧),37a5d9cfcdfd0f8c41d63e69,1,0,113.440418,34.453654,,life,http://api.map.baidu.com/place/detail?uid=37a5d9cfcdfd0f8c41d63e69&output=html&source=placeapi_v2,,,0.0,,,,,,,1,1,,,,,,,113.44042935088,34.453504225429,0
fe774463905839100482c226,黄台村文化广场,休闲娱乐,休闲广场,河南省,郑州市,新密市,周甘路与永兴路交叉口东100米,fe774463905839100482c226,1,0,113.603302,34.456282,,life,http://api.map.baidu.com/place/detail?uid=fe774463905839100482c226&output=html&source=placeapi_v2,,,0.0,,,,,,,,,,,,,,,,,0
32e5bc35fa4d2b0a57bfff47,昶博广场,休闲娱乐,休闲广场,河南省,郑州市,新密市,郑州市新密市昶博路,32e5bc35fa4d2b0a57bfff47,1,0,113.615498,34.471151,,life,http://api.map.baidu.com/place/detail?uid=32e5bc35fa4d2b0a57bfff47&output=html&source=placeapi_v2,,,0.0,,,,,,,,0,,,,,,,113.61526385737,34.471131441677,0
7646359d916e3d4e9ff77973,湖滨广场,休闲娱乐,休闲广场,河南省,郑州市,新郑市,郑州市新郑市梅河路梅河公园,,1,0,113.829346,34.461201,,life,http://api.map.baidu.com/place/detail?uid=7646359d916e3d4e9ff77973&output=html&source=placeapi_v2,,,,,,,,,,,,,,,,,,,,0
fce37d5261d72c3826e0a033,超航广场,休闲娱乐,休闲广场,河南省,郑州市,新郑市,郑州市新郑市梅河路梅河公园,,1,0,113.830329,34.466301,,life,http://api.map.baidu.com/place/detail?uid=fce37d5261d72c3826e0a033&output=html&source=placeapi_v2,,,,,,,,,,,,,,,,,,113.83032432111,34.466292054171,0
726f62ce95290430ad31e51d,琴韵广场,休闲娱乐,休闲广场,河南省,郑州市,新郑市,郑州市新郑市梅河路梅河公园,,1,0,113.83286,34.473542,,life,http://api.map.baidu.com/place/detail?uid=726f62ce95290430ad31e51d&output=html&source=placeapi_v2,,,,,,,,,,,,,,,,,,,,0
79e3f12692ab3bbbd22dd6d3,烟花广场,休闲娱乐,休闲广场,河南省,郑州市,新郑市,郑州市新郑市梅河路梅河公园,,1,0,113.833234,34.470329,,life,http://api.map.baidu.com/place/detail?uid=79e3f12692ab3bbbd22dd6d3&output=html&source=placeapi_v2,,,,,,,,,,,,,,,,,,113.83356593379,34.470330174411,0
b62725e19dbb7f9d80a00c3b,南向广场,休闲娱乐,休闲广场,河南省,郑州市,新郑市,郑州市新郑市航空港区梁州大道与苑陵路交汇处东北角郑州园博园内,b62725e19dbb7f9d80a00c3b,1,9,113.881772,34.459537,,life,http://api.map.baidu.com/place/detail?uid=b62725e19dbb7f9d80a00c3b&output=html&source=placeapi_v2,,,,,,,,,,,,,,,,,,113.88219592266,34.460080675588,9
245769dc385f33a594ec84db,太室山广场,休闲娱乐,休闲广场,河南省,郑州市,登封市,郑州市登封市太室路与少室路交叉口北50米嵩阳景区太室山景区内,,1,0,113.048361,34.498207,,life,http://api.map.baidu.com/place/detail?uid=245769dc385f33a594ec84db&output=html&source=placeapi_v2,,,4.8,,,,,,,1,4,,,,,,,,,0
b8ea7bfd2d211332abf0cd59,牛店广场,休闲娱乐,休闲广场,河南省,郑州市,新密市,郑州市新密市牛店镇二初中东北侧,,1,0,113.272402,34.512821,,life,http://api.map.baidu.com/place/detail?uid=b8ea7bfd2d211332abf0cd59&output=html&source=placeapi_v2,,,,,,,,,,,,,,,,,,113.27241053337,34.51285629727,0
a18553f57d145b4959bbbc06,节庆广场,休闲娱乐,休闲广场,河南省,郑州市,新密市,郑州市新密市(银基国际旅游度假区)银基动物王国生命岛,,1,0,113.556882,34.493821,,life,http://api.map.baidu.com/place/detail?uid=a18553f57d145b4959bbbc06&output=html&source=placeapi_v2,,,,,,,,,,,,,,,,,,,,0
95cbe2bbaf6b3953b020a81b,牛集文化广场,休闲娱乐,休闲广场,河南省,郑州市,新密市,郑州市新密市电厂路曲梁乡牛集小学东北侧约240米,,1,0,113.615655,34.491092,,life,http://api.map.baidu.com/place/detail?uid=95cbe2bbaf6b3953b020a81b&output=html&source=placeapi_v2,,,,,,,,,,1,,,,,,,,,,0
764672e599a7fdad94ec8470,薛店世纪广场,休闲娱乐,休闲广场,河南省,郑州市,新郑市,薛店镇薛店大道,764672e599a7fdad94ec8470,1,0,113.806858,34.496594,,life,http://api.map.baidu.com/place/detail?uid=764672e599a7fdad94ec8470&output=html&source=placeapi_v2,,,3,,,,,,,7,5,,,,,,,113.80588486959,34.496518804851,0
7696958a06b408a2aeb22a05,市民广场,休闲娱乐,休闲广场,河南省,郑州市,新郑市,郑州市新郑市梅河路梅河公园,,1,0,113.827026,34.500014,,life,http://api.map.baidu.com/place/detail?uid=7696958a06b408a2aeb22a05&output=html&source=placeapi_v2,,,,,,,,,,,,,,,,,,113.82703511709,34.499521633604,0
02f65981de3a273580a12ed5,湖畔广场,休闲娱乐,休闲广场,河南省,郑州市,新郑市,郑州市新郑市梅河路梅河公园,,1,0,113.826991,34.501159,,life,http://api.map.baidu.com/place/detail?uid=02f65981de3a273580a12ed5&output=html&source=placeapi_v2,,,,,,,,,,,,,,,,,,,,0
a56f09f7013640881ef74d61,银杏广场,休闲娱乐,休闲广场,河南省,郑州市,新郑市,郑州市新郑市梅河路梅河公园,a56f09f7013640881ef74d61,1,0,113.830666,34.499988,,life,http://api.map.baidu.com/place/detail?uid=a56f09f7013640881ef74d61&output=html&source=placeapi_v2,,,,,,,,,,,,,,,,,,,,0
95611db57d50233d9de32178,大台阶广场,休闲娱乐,休闲广场,河南省,郑州市,新郑市,郑州市新郑市梅河路梅河公园,,1,0,113.831875,34.49428,,life,http://api.map.baidu.com/place/detail?uid=95611db57d50233d9de32178&output=html&source=placeapi_v2,,,,,,,,,,,,,,,,,,113.83189727921,34.494281785636,0
3a591ab41679d08d11882445,大草坪广场,休闲娱乐,休闲广场,河南省,郑州市,新郑市,郑州市新郑市梅河路梅河公园,,1,0,113.831665,34.498072,,life,http://api.map.baidu.com/place/detail?uid=3a591ab41679d08d11882445&output=html&source=placeapi_v2,,,,,,,,,,,,,,,,,,,,0
fafeaf142b52ff6f0f0e6bab,特色广场,休闲娱乐,休闲广场,河南省,郑州市,新郑市,郑州市新郑市梅河路梅河公园,,1,0,113.831898,34.491045,,life,http://api.map.baidu.com/place/detail?uid=fafeaf142b52ff6f0f0e6bab&output=html&source=placeapi_v2,,,,,,,,,,,,,,,,,,,,0
a626857d24031598db1318ab,古城广场,休闲娱乐,休闲广场,河南省,郑州市,新密市,郑州市新密市牛店镇北召村戏曲文化大舞台北侧,,1,0,113.24601,34.542236,,life,http://api.map.baidu.com/place/detail?uid=a626857d24031598db1318ab&output=html&source=placeapi_v2,,,,,,,,,,,,,,,,,,,,0
69fcd6df34e69152cb2915b4,北召村文化游园广场,休闲娱乐,休闲广场,河南省,郑州市,新密市,河南省郑州市新密市牛店镇北召完全小学东南350米,,1,0,113.246395,34.539901,,life,http://api.map.baidu.com/place/detail?uid=69fcd6df34e69152cb2915b4&output=html&source=placeapi_v2,,,,,,,,,,,,,,,,,,113.24657290991,34.539943842686,0
2632c991acdb0cb0e856fac8,下庄河社区居民文化广场,休闲娱乐,休闲广场,河南省,郑州市,新密市,郑州市新密市S316新密农商银行(开发区分理处),,1,0,113.324632,34.525003,,life,http://api.map.baidu.com/place/detail?uid=2632c991acdb0cb0e856fac8&output=html&source=placeapi_v2,,,,,,,,,,2,,,,,,,,113.32470572386,34.524790486427,0
b703e96b5d19d8878e1a89a7,前士郭村文化广场,休闲娱乐,休闲广场,河南省,郑州市,新密市,郑州市新密市嵩山大道,,1,0,113.330474,34.529049,,life,http://api.map.baidu.com/place/detail?uid=b703e96b5d19d8878e1a89a7&output=html&source=placeapi_v2,,,0.0,,,,,,,,0,,,,,,,,,0
803708f1a19014790189727f,青屏广场,休闲娱乐,休闲广场,河南省,郑州市,新密市,郑州市新密市西大街与雪花街交叉口(金博大购物中心),803708f1a19014790189727f,1,6,113.374462,34.541416,,life,http://api.map.baidu.com/place/detail?uid=803708f1a19014790189727f&output=html&source=placeapi_v2,,,4.5,,,,,,,20,13,,,,,,,113.37423110593,34.542114494864,6
b1d35ed8f1d5d469f603b848,五四广场,休闲娱乐,休闲广场,河南省,郑州市,新密市,河南省郑州市新密市东大街与北密新路交叉口,b1d35ed8f1d5d469f603b848,1,0,113.401809,34.542438,,life,http://api.map.baidu.com/place/detail?uid=b1d35ed8f1d5d469f603b848&output=html&source=placeapi_v2,,,4,,,,,,,9,2,,,,,,,113.40187543124,34.54243712874,0
3c1fca0e90f0868235b06cbe,平价广场,休闲娱乐,休闲广场,河南省,郑州市,新密市,郑州市新密市嵩山大道惠丰街-16号院东南侧约60米,3c1fca0e90f0868235b06cbe,1,0,113.40575,34.539421,,life,http://api.map.baidu.com/place/detail?uid=3c1fca0e90f0868235b06cbe&output=html&source=placeapi_v2,,,,,,,,,,5,,,,,,,,113.40562569774,34.539429164202,0
f59f458212fc46306c4760c8,水上乐园国际广场,休闲娱乐,休闲广场,河南省,郑州市,新密市,郑州市新密市西大街天园・城中城南侧,,1,0,113.381353,34.542601,,life,http://api.map.baidu.com/place/detail?uid=f59f458212fc46306c4760c8&output=html&source=placeapi_v2,,,,,,,,,,,,,,,,,,,,0
9651522613d9df5dcbe33c65,新密市新华党群文化广场,休闲娱乐,休闲广场,河南省,郑州市,新密市,郑州市新密市新华路全民健身活动中心,,1,0,113.404346,34.531685,,life,http://api.map.baidu.com/place/detail?uid=9651522613d9df5dcbe33c65&output=html&source=placeapi_v2,,,,,,,,,,3,,,,,,,,113.40433937366,34.531928847153,0
8a0f84b934acc7c9da2f28c3,车友广场,休闲娱乐,休闲广场,河南省,郑州市,新密市,郑州市新密市岳打路亚立石化加油站(五里店南寨东)东北侧约60米,,1,0,113.408457,34.523835,,life,http://api.map.baidu.com/place/detail?uid=8a0f84b934acc7c9da2f28c3&output=html&source=placeapi_v2,,,,,,,,,,4,,,,,,,,113.40832009865,34.523622473327,0
582cccab6b81b649d02dd659,溱园,休闲娱乐,休闲广场,河南省,郑州市,新密市,文峰路与溱水路交叉口东北100米,,1,0,113.388807,34.54906,,life,http://api.map.baidu.com/place/detail?uid=582cccab6b81b649d02dd659&output=html&source=placeapi_v2,,,,,,,,,,,,,,,,,,113.38837169229,34.549054462912,0
6b1ec1cfdb27c2d75d0d0201,郑州稼祥广场,休闲娱乐,休闲广场,河南省,郑州市,新密市,郑州市新密市大学南路金阳光幼儿园南侧约130米,6b1ec1cfdb27c2d75d0d0201,1,0,113.654471,34.52876,,life,http://api.map.baidu.com/place/detail?uid=6b1ec1cfdb27c2d75d0d0201&output=html&source=placeapi_v2,,,,,,,,,,,,,,,,,,113.65468529939,34.52874414169,0
9421a1bdbec6ea19a204648f,紫峰广场,休闲娱乐,休闲广场,河南省,郑州市,新郑市,河南省郑州市新郑市黄金大道,9421a1bdbec6ea19a204648f,1,0,113.71322,34.542252,,life,http://api.map.baidu.com/place/detail?uid=9421a1bdbec6ea19a204648f&output=html&source=placeapi_v2,,,,,,,,,,2,,,,,,,,,,0
560c638afd34cc49c829154b,天成广场,休闲娱乐,休闲广场,河南省,郑州市,新郑市,郑州市新郑市长安路花筑天成酒店(郑州国际机场店),560c638afd34cc49c829154b,1,0,113.840645,34.547004,,life,http://api.map.baidu.com/place/detail?uid=560c638afd34cc49c829154b&output=html&source=placeapi_v2,,,,,,,,,,3,,,,,,,,113.84086484932,34.546965840385,0
04c10973ace782e049fc8d16,遛娃广场,休闲娱乐,休闲广场,河南省,郑州市,新密市,河南省郑州市新密市慢城幸福路,,1,0,113.268458,34.576437,,life,http://api.map.baidu.com/place/detail?uid=04c10973ace782e049fc8d16&output=html&source=placeapi_v2,,,,,,,,,,,,,,,,,,,,0
b21abd931d51885721f01729,昌平广场,休闲娱乐,休闲广场,河南省,郑州市,新密市,郑州市新密市郑少高速,b21abd931d51885721f01729,1,0,113.303306,34.568175,,life,http://api.map.baidu.com/place/detail?uid=b21abd931d51885721f01729&output=html&source=placeapi_v2,,,4.0,,,,,,,2,2,,,,,,,113.30366775377,34.568242317515,0
a638f597e01fce111df74d34,夜市广场,休闲娱乐,休闲广场,河南省,郑州市,新密市,郑州市新密市G234孟庄铭苑,,1,0,113.319189,34.560389,,life,http://api.map.baidu.com/place/detail?uid=a638f597e01fce111df74d34&output=html&source=placeapi_v2,,,,,,,,,,5,,,,,,,,113.31888781499,34.560381629995,0
3eb43adda3823d8a095cb372,枣福广场,休闲娱乐,休闲广场,河南省,郑州市,新郑市,郑州市新郑市孟祥路新郑市孟庄镇便民服务中心,3eb43adda3823d8a095cb372,1,0,113.823737,34.585442,,life,http://api.map.baidu.com/place/detail?uid=3eb43adda3823d8a095cb372&output=html&source=placeapi_v2,,,0.0,,,,,,,1,,,,,,,,113.82373329997,34.585630012506,0
53c642c1f8006336cac3db89,酒孙广场,休闲娱乐,休闲广场,河南省,郑州市,新郑市,郑州市新郑市酒坊街与振兴路交叉路口西北侧,,1,0,113.800829,34.581714,,life,http://api.map.baidu.com/place/detail?uid=53c642c1f8006336cac3db89&output=html&source=placeapi_v2,,,,,,,,,,17,1,,,,,,,113.80100447187,34.581694203439,0
ce3bfc1074583af2f503b8c2,恩平湖,休闲娱乐,休闲广场,河南省,郑州市,新郑市,河南省郑州市新郑市雍州路,ce3bfc1074583af2f503b8c2,1,0,113.865445,34.576181,,life,http://api.map.baidu.com/place/detail?uid=ce3bfc1074583af2f503b8c2&output=html&source=placeapi_v2,,,4.7,,,,,,,14,7,,,,,,,113.86603540654,34.576190702269,0
b9da786ce2f2b261fe0eb025,合凯中心广场,休闲娱乐,休闲广场,河南省,郑州市,新郑市,郑州市新郑市凌飞街锦绣御园东北侧约150米,,1,0,113.864289,34.578267,,life,http://api.map.baidu.com/place/detail?uid=b9da786ce2f2b261fe0eb025&output=html&source=placeapi_v2,,,3.0,,,,,,,,,,,,,,,113.86428901079,34.578267000238,0
5161b7492e42540195f08ca4,树阵休憩广场,休闲娱乐,休闲广场,河南省,郑州市,新郑市,郑州市新郑市远航路青年公园玉兰园,,1,0,113.848861,34.566535,,life,http://api.map.baidu.com/place/detail?uid=5161b7492e42540195f08ca4&output=html&source=placeapi_v2,,,,,,,,,,,,,,,,,,113.84887514914,34.56650675438,0
4a02012eee4f3b0ef603b824,职工文化广场,休闲娱乐,休闲广场,河南省,郑州市,中牟县,郑州市中牟县相州街豫康新城(南区),,1,0,113.871181,34.573247,,life,http://api.map.baidu.com/place/detail?uid=4a02012eee4f3b0ef603b824&output=html&source=placeapi_v2,,,,,,,,,,3,,,,,,,,,,0
f18002a2e0470df197ec8423,恩平湖广场,休闲娱乐,休闲广场,河南省,郑州市,新郑市,河南省郑州市新郑市鄱阳湖路华鸿小区1栋,,1,0,113.865748,34.57625,,life,http://api.map.baidu.com/place/detail?uid=f18002a2e0470df197ec8423&output=html&source=placeapi_v2,,,,,,,,,,1,,,,,,,,113.86601619627,34.576246124567,0
417a5474ce1dd979b9df8f1c,枫叶广场,休闲娱乐,休闲广场,河南省,郑州市,新郑市,河南省郑州市新郑市高新路63号2期b座,,1,0,113.845073,34.56686,,life,http://api.map.baidu.com/place/detail?uid=417a5474ce1dd979b9df8f1c&output=html&source=placeapi_v2,,,,,,,,,,,,,,,,,,113.84494578208,34.566254218686,0
199594e46aa5c7571d1d1141,旱喷广场,休闲娱乐,休闲广场,河南省,郑州市,新郑市,郑州市新郑市郑港十路青年公园槭树园,,1,0,113.84316,34.567076,,life,http://api.map.baidu.com/place/detail?uid=199594e46aa5c7571d1d1141&output=html&source=placeapi_v2,,,,,,,,,,,,,,,,,,113.84303740209,34.566540545518,0
a432c4f1ecd61d246ca3ccd7,祈福广场,休闲娱乐,休闲广场,河南省,郑州市,二七区,郑州市二七区樱花路豫见樱桃沟,,1,0,113.595881,34.616775,,life,http://api.map.baidu.com/place/detail?uid=a432c4f1ecd61d246ca3ccd7&output=html&source=placeapi_v2,,,,,,,,,,,,,,,,,,,,0
f3578878bf6f85162bb97cac,灵犀广场,休闲娱乐,休闲广场,河南省,郑州市,二七区,郑州市二七区樱花路豫见樱桃沟,,1,0,113.595037,34.61715,,life,http://api.map.baidu.com/place/detail?uid=f3578878bf6f85162bb97cac&output=html&source=placeapi_v2,,,,,,,,,,,,,,,,,,,,0
03c77d174505cf9208ccdd62,炫彩广场,休闲娱乐,休闲广场,河南省,郑州市,二七区,郑州市二七区樱花路豫见樱桃沟,,1,0,113.595454,34.616854,,life,http://api.map.baidu.com/place/detail?uid=03c77d174505cf9208ccdd62&output=html&source=placeapi_v2,,,,,,,,,,,,,,,,,,,,0
8e002850650f13f84f6d4647,古城村文化广场,休闲娱乐,休闲广场,河南省,郑州市,新郑市,郑州市新郑市大学南路小博士幼儿园南侧,,1,0,113.650837,34.620643,,life,http://api.map.baidu.com/place/detail?uid=8e002850650f13f84f6d4647&output=html&source=placeapi_v2,,,,,,,,,,1,,,,,,,,113.65083395734,34.620544554072,0
0181f27d9ae975ee3517dc19,小乔社区文化广场,休闲娱乐,休闲广场,河南省,郑州市,新郑市,郑州市新郑市祥安路新嘉苑小区南侧约40米,,1,0,113.687399,34.607898,,life,http://api.map.baidu.com/place/detail?uid=0181f27d9ae975ee3517dc19&output=html&source=placeapi_v2,,,,,,,,,,4,,,,,,,,113.68736947254,34.607990617551,0
7ede7972206c39ac4c6d4640,怀若谷文化广场,休闲娱乐,休闲广场,河南省,郑州市,新郑市,郑州市新郑市敏行环路河南工程学院(龙湖校区)-南区,,1,0,113.704753,34.617145,,life,http://api.map.baidu.com/place/detail?uid=7ede7972206c39ac4c6d4640&output=html&source=placeapi_v2,,,5.0,,,,,,,5,2,,,,,,,113.70475469078,34.617043520471,0
4cabb12e7e5cb28a932ca32d,龙湖镇党群文化活动广场,休闲娱乐,休闲广场,河南省,郑州市,新郑市,郑州市新郑市双湖大道怡心园,4cabb12e7e5cb28a932ca32d,1,0,113.693555,34.615463,,life,http://api.map.baidu.com/place/detail?uid=4cabb12e7e5cb28a932ca32d&output=html&source=placeapi_v2,,,0,,,,,,,1,1,,,,,,,113.69358569007,34.615823065296,0
b3544abf485f430cb54f54f1,三里岗村文化广场,休闲娱乐,休闲广场,河南省,郑州市,新郑市,河南省郑州市新郑市祥安路8号,b3544abf485f430cb54f54f1,1,0,113.70677,34.61288,,life,http://api.map.baidu.com/place/detail?uid=b3544abf485f430cb54f54f1&output=html&source=placeapi_v2,,,,,,,,,,,,,,,,,,113.70741029926,34.612910550762,0
b6278f22f26d47ec2ce67bf7,中原工学院-紫薇广场,休闲娱乐,休闲广场,河南省,郑州市,新郑市,郑州市新郑市渤海路中原工学院-国际教育学院,,1,0,113.695519,34.591088,,life,http://api.map.baidu.com/place/detail?uid=b6278f22f26d47ec2ce67bf7&output=html&source=placeapi_v2,,,,,,,,,,1,1,,,,,,,,,0
9c0d08df199b0838631c67e7,新密虾尾啤酒广场,休闲娱乐,休闲广场,河南省,郑州市,新郑市,郑州市新郑市祥安路林锦店社区,9c0d08df199b0838631c67e7,1,0,113.73066,34.609927,,life,http://api.map.baidu.com/place/detail?uid=9c0d08df199b0838631c67e7&output=html&source=placeapi_v2,,,,,,,,,,1,,,,,,,,113.73065695737,34.610262454924,0
ec555c95c6e5b8c025d2bb0b,天城音乐啤酒广场,休闲娱乐,休闲广场,河南省,郑州市,新郑市,河南省郑州市新郑市双湖大道世纪公元商业广场旁万佳商业广场F3,,1,0,113.721821,34.618482,,life,http://api.map.baidu.com/place/detail?uid=ec555c95c6e5b8c025d2bb0b&output=html&source=placeapi_v2,,,,,,,,,,5,,,,,,,,113.7231499889,34.617172539954,0
8be59ac84095bf61f60e77c4,王宗店村文化广场,休闲娱乐,休闲广场,河南省,郑州市,荥阳市,郑州市荥阳市232省道附近,,1,0,113.330897,34.643466,,life,http://api.map.baidu.com/place/detail?uid=8be59ac84095bf61f60e77c4&output=html&source=placeapi_v2,,,0.0,,,,,,,,0,,,,,,,113.33089481886,34.643486753499,0
509f4d839c451d463c9a5e26,高庙文化广场,休闲娱乐,休闲广场,河南省,郑州市,二七区,高庙村附近兴西路,509f4d839c451d463c9a5e26,1,0,113.521248,34.650645,,life,http://api.map.baidu.com/place/detail?uid=509f4d839c451d463c9a5e26&output=html&source=placeapi_v2,,,0,,,,,,,1,1,,,,,,,113.52098734447,34.650708885247,0
ddc7be77cfd59aa887330469,马老大夜市啤酒广场,休闲娱乐,休闲广场,河南省,郑州市,二七区,郑州市二七区郑密路绿兴生态园度假村,,1,0,113.555842,34.647587,,life,http://api.map.baidu.com/place/detail?uid=ddc7be77cfd59aa887330469&output=html&source=placeapi_v2,,,,,,,,,,,,,,,,,,,,0
af253d19c79e90c24f2fdf73,三李啤酒广场,休闲娱乐,休闲广场,河南省,郑州市,二七区,郑州市二七区郑密路欣欣幼儿园(三李)东侧约110米,af253d19c79e90c24f2fdf73,1,0,113.553556,34.633839,,life,http://api.map.baidu.com/place/detail?uid=af253d19c79e90c24f2fdf73&output=html&source=placeapi_v2,,,,,,,,,,1,,,,,,,,,,0
ec088c7bc231385cfbdc8557,侯庄文化广场,休闲娱乐,休闲广场,河南省,郑州市,新郑市,郑州市新郑市金太阳幼儿园东南侧约240米,ec088c7bc231385cfbdc8557,1,0,113.672929,34.639488,,life,http://api.map.baidu.com/place/detail?uid=ec088c7bc231385cfbdc8557&output=html&source=placeapi_v2,,,,,,,,,,1,,,,,,,,113.6727253015,34.639623570781,0
0fa5cbc6147f287addee8b10,夜市广场,休闲娱乐,休闲广场,河南省,郑州市,新郑市,郑州市新郑市金菊街威龙逸品西侧,,1,0,113.690885,34.628876,,life,http://api.map.baidu.com/place/detail?uid=0fa5cbc6147f287addee8b10&output=html&source=placeapi_v2,,,,,,,,,,,,,,,,,,,,0
e0b1233202d96dfbbadf8f5b,亲水小广场,休闲娱乐,休闲广场,河南省,郑州市,新郑市,祥和路新郑十七里河省级湿地公园,,1,0,113.719828,34.633145,,life,http://api.map.baidu.com/place/detail?uid=e0b1233202d96dfbbadf8f5b&output=html&source=placeapi_v2,,,,,,,,,,,,,,,,,,,,0
5ca4fa7e162cb9fe7f29bd2a,枫叶广场,休闲娱乐,休闲广场,河南省,郑州市,新郑市,祥和路新郑十七里河省级湿地公园,,1,0,113.720258,34.640194,,life,http://api.map.baidu.com/place/detail?uid=5ca4fa7e162cb9fe7f29bd2a&output=html&source=placeapi_v2,,,,,,,,,,,,,,,,,,113.72031118449,34.641157719801,0
9595d291bc8e0cdfc72ba139,环形广场,休闲娱乐,休闲广场,河南省,郑州市,新郑市,祥和路新郑十七里河省级湿地公园,,1,0,113.717946,34.63106,,life,http://api.map.baidu.com/place/detail?uid=9595d291bc8e0cdfc72ba139&output=html&source=placeapi_v2,,,,,,,,,,,,,,,,,,,,0
a40c4a08cd6561181d1d110a,健身广场,休闲娱乐,休闲广场,河南省,郑州市,新郑市,河南郑州市新郑市泰山路一期3号楼,,1,0,113.719219,34.637929,,life,http://api.map.baidu.com/place/detail?uid=a40c4a08cd6561181d1d110a&output=html&source=placeapi_v2,,,,,,,,,,,,,,,,,,,,0
1daf1f92b076deac6e20b9af,祥云路入口广场,休闲娱乐,休闲广场,河南省,郑州市,新郑市,祥和路新郑十七里河省级湿地公园,,1,0,113.717591,34.634263,,life,http://api.map.baidu.com/place/detail?uid=1daf1f92b076deac6e20b9af&output=html&source=placeapi_v2,,,,,,,,,,,,,,,,,,,,0
58aa463258f8749304fef5f3,龙龟广场,休闲娱乐,休闲广场,河南省,郑州市,巩义市,郑州市巩义市竹林镇长寿山景区,,1,0,113.127959,34.683406,,life,http://api.map.baidu.com/place/detail?uid=58aa463258f8749304fef5f3&output=html&source=placeapi_v2,,,,,,,,,,,,,,,,,,,,0
e9d278a925f9d762940319a8,孝拜广场,休闲娱乐,休闲广场,河南省,郑州市,巩义市,郑州市巩义市竹林镇长寿山景区,,1,0,113.128669,34.683512,,life,http://api.map.baidu.com/place/detail?uid=e9d278a925f9d762940319a8&output=html&source=placeapi_v2,,,,,,,,,,1,,,,,,,,,,0
15a9381045b2dfc314c8f6d0,群众广场,休闲娱乐,休闲广场,河南省,郑州市,荥阳市,河南省郑州市荥阳市贾峪镇楚村洞林路贾峪名苑,15a9381045b2dfc314c8f6d0,1,0,113.452779,34.678732,,life,http://api.map.baidu.com/place/detail?uid=15a9381045b2dfc314c8f6d0&output=html&source=placeapi_v2,,,5,,,,,,,3,2,,,,,,,113.45326996699,34.678771832926,0
576fb3c2d7d78df0eee4a554,草坪广场,休闲娱乐,休闲广场,河南省,郑州市,荥阳市,郑州市荥阳市北大路新田城实验幼儿园斜对面农夫乐园,,1,0,113.475571,34.682528,,life,http://api.map.baidu.com/place/detail?uid=576fb3c2d7d78df0eee4a554&output=html&source=placeapi_v2,,,,,,,,,,,,,,,,,,,,0
03d209d56595d736eedfca73,腕龙广场,休闲娱乐,休闲广场,河南省,郑州市,荥阳市,郑州市荥阳市滨湖西路郑州松鼠部落森林假日公园远古发现,03d209d56595d736eedfca73,1,0,113.484441,34.669008,,life,http://api.map.baidu.com/place/detail?uid=03d209d56595d736eedfca73&output=html&source=placeapi_v2,,,,,,,,,,,,,,,,,,,,0
c7b479f9395f7d04ad045747,松果广场,休闲娱乐,休闲广场,河南省,郑州市,荥阳市,郑州市荥阳市滨湖西路郑州松鼠部落湿地奇幻乐园松果村,,1,0,113.483258,34.670285,,life,http://api.map.baidu.com/place/detail?uid=c7b479f9395f7d04ad045747&output=html&source=placeapi_v2,,,,,,,,,,,,,,,,,,,,0
fd6f826264d80d0795ec848b,操岗邓湾文化广场,休闲娱乐,休闲广场,河南省,郑州市,荥阳市,郑州市荥阳市,,1,0,113.479779,34.693483,,life,http://api.map.baidu.com/place/detail?uid=fd6f826264d80d0795ec848b&output=html&source=placeapi_v2,,,,,,,,,,,,,,,,,,113.47976193521,34.693612728384,0
a80cc3acc20b545dfda778c7,新田城・360广场,休闲娱乐,休闲广场,河南省,郑州市,荥阳市,郑州市荥阳市奥莱大道郑州碧桂园东北侧约90米,,1,0,113.503987,34.680714,,life,http://api.map.baidu.com/place/detail?uid=a80cc3acc20b545dfda778c7&output=html&source=placeapi_v2,,,,,,,,,,,,,,,,,,113.50325700264,34.680292894634,0
2cfc6f285d4e78f041ab9af7,休闲广场,休闲娱乐,休闲广场,河南省,郑州市,二七区,郑州市二七区316省道附近郑州树木花卉博览园,,1,0,113.573331,34.674276,,life,http://api.map.baidu.com/place/detail?uid=2cfc6f285d4e78f041ab9af7&output=html&source=placeapi_v2,,,,,,,,,,,,,,,,,,,,0
aaf7f8c4832b6b4e1e1d1106,健身广场,休闲娱乐,休闲广场,河南省,郑州市,二七区,河南郑州市二七区侯寨乡刘庄村铁路信号总厂西,,1,0,113.568228,34.681536,,life,http://api.map.baidu.com/place/detail?uid=aaf7f8c4832b6b4e1e1d1106&output=html&source=placeapi_v2,,,,,,,,,,,,,,,,,,,,0
dd048f7ead2a8ec76fa3cc82,蝶恋花广场,休闲娱乐,休闲广场,河南省,郑州市,二七区,郑州市二七区316省道附近郑州树木花卉博览园,,1,0,113.571617,34.673461,,life,http://api.map.baidu.com/place/detail?uid=dd048f7ead2a8ec76fa3cc82&output=html&source=placeapi_v2,,,,,,,,,,,,,,,,,,,,0
a1fd00743758bf1da6da399c,节庆广场,休闲娱乐,休闲广场,河南省,郑州市,二七区,河南省郑州市二七区马寨节庆广场(杨西线东100米),a1fd00743758bf1da6da399c,1,0,113.556774,34.68913,,life,http://api.map.baidu.com/place/detail?uid=a1fd00743758bf1da6da399c&output=html&source=placeapi_v2,,,,,,,,,,2,,,,,,,,113.55690787971,34.68970093663,0
992bee42cb3bf9ae02294fae,马寨生态广场,休闲娱乐,休闲广场,河南省,郑州市,二七区,河南省郑州市二七区杨西线1872号,,1,0,113.552641,34.68956,,life,http://api.map.baidu.com/place/detail?uid=992bee42cb3bf9ae02294fae&output=html&source=placeapi_v2,,,4.5,,,,,,,3,2,,,,,,,113.55256974052,34.689566134908,0
950f8ad7df41eaf2fb2d61b7,桐之韵广场,休闲娱乐,休闲广场,河南省,郑州市,二七区,郑州市二七区316省道附近郑州树木花卉博览园,,1,0,113.56946,34.676248,,life,http://api.map.baidu.com/place/detail?uid=950f8ad7df41eaf2fb2d61b7&output=html&source=placeapi_v2,,,,,,,,,,,,,,,,,,,,0
e96b44204875fa2483288aa9,张李垌村文化娱乐广场,休闲娱乐,休闲广场,河南省,郑州市,二七区,河南省郑州市二七区侯寨乡湖滨路张李垌村小学,e96b44204875fa2483288aa9,1,0,113.6111,34.66733,,life,http://api.map.baidu.com/place/detail?uid=e96b44204875fa2483288aa9&output=html&source=placeapi_v2,,,2.5,,,,,,,,2,,,,,,,113.61140763573,34.667301153321,0
4ecf0c0ac120059ef423106c,奥马广场,休闲娱乐,休闲广场,河南省,郑州市,二七区,郑州市二七区嵩山南路奥马和园西侧约160米,,1,0,113.635571,34.678466,,life,http://api.map.baidu.com/place/detail?uid=4ecf0c0ac120059ef423106c&output=html&source=placeapi_v2,,,,,,,,,,,,,,,,,,113.63433226299,34.680357161023,0
a4861aec6f2fefd061685892,月季广场,休闲娱乐,休闲广场,河南省,郑州市,二七区,郑州市二七区南四环与大学南路交叉口东北角南环公园,,1,0,113.654104,34.673271,,life,http://api.map.baidu.com/place/detail?uid=a4861aec6f2fefd061685892&output=html&source=placeapi_v2,,,,,,,,,,,,,,,,,,,,0
59d75303480f266b5a3ac8ae,市树广场,休闲娱乐,休闲广场,河南省,郑州市,二七区,郑州市二七区南四环与大学南路交叉口东北角南环公园,,1,0,113.651884,34.672382,,life,http://api.map.baidu.com/place/detail?uid=59d75303480f266b5a3ac8ae&output=html&source=placeapi_v2,,,,,,,,,,,,,,,,,,,,0
96db96372f547b7603ff2d92,隆发广场,休闲娱乐,休闲广场,河南省,郑州市,中牟县,郑州市中牟县正中大道北大新世纪实验学校南侧约190米,96db96372f547b7603ff2d92,1,0,114.024526,34.690066,(0371)66939499,life,http://api.map.baidu.com/place/detail?uid=96db96372f547b7603ff2d92&output=html&source=placeapi_v2,,,0.0,,,,,,,16,3,,,,,,,,,0
d3190dbe6726127e46e274ca,党建文化广场,休闲娱乐,休闲广场,河南省,郑州市,巩义市,河南省郑州市巩义市,,1,0,112.975711,34.728334,,life,http://api.map.baidu.com/place/detail?uid=d3190dbe6726127e46e274ca&output=html&source=placeapi_v2,,,,,,,,,,,,,,,,,,112.97572048576,34.728400390887,0
d24e2a2ae635bf4bc256ac5f,高庙文化广场,休闲娱乐,休闲广场,河南省,郑州市,巩义市,河南省郑州市巩义市310国道北,d24e2a2ae635bf4bc256ac5f,1,1,113.231923,34.722737,,life,http://api.map.baidu.com/place/detail?uid=d24e2a2ae635bf4bc256ac5f&output=html&source=placeapi_v2,,,,,,,,,,,,,,,,,,113.2326491745,34.722887819127,1
ce95b4dfd3ed19f749fd3f0e,吉祥广场,休闲娱乐,休闲广场,河南省,郑州市,荥阳市,郑州市荥阳市塔山路悦来西路交叉口路南西侧郑州索河郊野公园三标段,,1,0,113.376355,34.705463,,life,http://api.map.baidu.com/place/detail?uid=ce95b4dfd3ed19f749fd3f0e&output=html&source=placeapi_v2,,,,,,,,,,,,,,,,,,,,0
10d413b4ea7466224e776e8e,坝头广场,休闲娱乐,休闲广场,河南省,郑州市,荥阳市,郑州市荥阳市塔山路悦来西路交叉口路南西侧郑州索河郊野公园三标段,,1,0,113.387622,34.714317,,life,http://api.map.baidu.com/place/detail?uid=10d413b4ea7466224e776e8e&output=html&source=placeapi_v2,,,,,,,,,,,,,,,,,,,,0
482842fd8d55a2c6430245c4,儿童广场,休闲娱乐,休闲广场,河南省,郑州市,荥阳市,郑州市荥阳市塔山路悦来西路交叉口路南西侧郑州索河郊野公园二标段,,1,0,113.38797,34.727801,,life,http://api.map.baidu.com/place/detail?uid=482842fd8d55a2c6430245c4&output=html&source=placeapi_v2,,,,,,,,,,,,,,,,,,,,0
795e543dd3076d010482c2ea,日晷广场,休闲娱乐,休闲广场,河南省,郑州市,荥阳市,郑州市荥阳市塔山路悦来西路交叉口路南西侧郑州索河郊野公园三标段,,1,0,113.386651,34.71143,,life,http://api.map.baidu.com/place/detail?uid=795e543dd3076d010482c2ea&output=html&source=placeapi_v2,,,,,,,,,,,,,,,,,,,,0
2fb7235c6fa949a5601809bd,杏园广场,休闲娱乐,休闲广场,河南省,郑州市,荥阳市,郑州市荥阳市塔山路悦来西路交叉口路南西侧郑州索河郊野公园三标段,,1,0,113.381207,34.711163,,life,http://api.map.baidu.com/place/detail?uid=2fb7235c6fa949a5601809bd&output=html&source=placeapi_v2,,,,,,,,,,,,,,,,,,,,0
189e1e473a0531a1f33cba91,儿童游戏广场,休闲娱乐,休闲广场,河南省,郑州市,荥阳市,郑州市荥阳市塔山路悦来西路交叉口路南西侧郑州索河郊野公园三标段,,1,0,113.379989,34.710462,,life,http://api.map.baidu.com/place/detail?uid=189e1e473a0531a1f33cba91&output=html&source=placeapi_v2,,,,,,,,,,,,,,,,,,,,0
37d60a46c2753b631e1d1164,马寨工贸广场,休闲娱乐,休闲广场,河南省,郑州市,二七区,河南省郑州市二七区先锋路7号,37d60a46c2753b631e1d1164,1,0,113.541186,34.713229,,life,http://api.map.baidu.com/place/detail?uid=37d60a46c2753b631e1d1164&output=html&source=placeapi_v2,,,,,,,,,,1,,,,,,,,113.54119184515,34.713085457714,0
480b24d0ddd18df19cec2bcb,盛豪帝湖国际广场,休闲娱乐,休闲广场,河南省,郑州市,中原区,河南省郑州市中原区航海西路街道航海西路与桐柏南路交叉路口往东南约100米航海便民市场东侧,480b24d0ddd18df19cec2bcb,1,3,113.621485,34.725998,,life,http://api.map.baidu.com/place/detail?uid=480b24d0ddd18df19cec2bcb&output=html&source=placeapi_v2,,,0,,,,,,,3,2,,,,,,,113.62166036572,34.726744921207,3
123a0f034931341cb817e737,健身广场,休闲娱乐,休闲广场,河南省,郑州市,二七区,郑州市二七区人和路万千世纪城,123a0f034931341cb817e737,1,0,113.646857,34.720232,,life,http://api.map.baidu.com/place/detail?uid=123a0f034931341cb817e737&output=html&source=placeapi_v2,,,,,,,,,,1,,,,,,,,113.64675539162,34.720225131926,0
a59078df3da2c322a2a934df,灯火辉煌啤酒广场,休闲娱乐,休闲广场,河南省,郑州市,二七区,大学路与端午路交叉口向东300米路北王胡砦社区居民管理委员会,,1,0,113.65471,34.710183,,life,http://api.map.baidu.com/place/detail?uid=a59078df3da2c322a2a934df&output=html&source=placeapi_v2,,,,,,,,,,6,3,,,,,,,113.65471120652,34.710083647889,0
739625c2c811d542e81e9798,二七生活居民广场,休闲娱乐,休闲广场,河南省,郑州市,二七区,郑州市二七区行云路郑州市二七区社区居民生活商场,,1,0,113.656723,34.716642,,life,http://api.map.baidu.com/place/detail?uid=739625c2c811d542e81e9798&output=html&source=placeapi_v2,,,,,,,,,,,,,,,,,,113.6567210555,34.716694101861,0
f8a0ce760c81de034c6d464b,天骄广场,休闲娱乐,休闲广场,河南省,郑州市,二七区,河南省郑州市二七区京广南路72号,,1,0,113.659825,34.711962,,life,http://api.map.baidu.com/place/detail?uid=f8a0ce760c81de034c6d464b&output=html&source=placeapi_v2,,,,,,,,,,,,,,,,,,113.65943728613,34.711990500385,0
30b365fd485fc7264c6d46f7,郑州市绿城广场,休闲娱乐,休闲广场,河南省,郑州市,二七区,郑州市二七区嵩山南路齐礼阎小区三号院东南侧,,1,0,113.634416,34.72739,,life,http://api.map.baidu.com/place/detail?uid=30b365fd485fc7264c6d46f7&output=html&source=placeapi_v2,,09:00-18:00,,,,,,,,,,,,,,,,,,0
5dda6984ac142720ea56fa7d,新象城广场,休闲娱乐,休闲广场,河南省,郑州市,二七区,河南省郑州市二七区新悦城广场(政通路南),5dda6984ac142720ea56fa7d,1,0,113.651099,34.730731,"(0371)68692111,(0371)68693111",life,http://api.map.baidu.com/place/detail?uid=5dda6984ac142720ea56fa7d&output=html&source=placeapi_v2,,10:00-22:00,,,,,,,,5,,,,,,,,113.65082293334,34.73076170848,0
a32d8973f766380d1994c68a,紫辰社区文化活动广场,休闲娱乐,休闲广场,河南省,郑州市,管城回族区,郑州市管城回族区紫辰路鸿基・紫荆苑,,1,0,113.696825,34.714083,,life,http://api.map.baidu.com/place/detail?uid=a32d8973f766380d1994c68a&output=html&source=placeapi_v2,,,,,,,,,,7,,,,,,,,113.69703637489,34.714107689162,0
8074ca2f2a7c6390a1a93407,爱馨文化广场,休闲娱乐,休闲广场,河南省,郑州市,二七区,河南省郑州市二七区长江东路爱馨文化广场(爱馨阳光城北),,1,0,113.68128,34.71568,,life,http://api.map.baidu.com/place/detail?uid=8074ca2f2a7c6390a1a93407&output=html&source=placeapi_v2,,,0.0,,,,,,,1,1,,,,,,,113.68127453343,34.715788682178,0
3349da7c7a13ab72cae33c29,滨河广场,休闲娱乐,休闲广场,河南省,郑州市,管城回族区,郑州市管城回族区紫辰路鸿基・紫荆苑东侧约60米,3349da7c7a13ab72cae33c29,1,0,113.698956,34.714881,,life,http://api.map.baidu.com/place/detail?uid=3349da7c7a13ab72cae33c29&output=html&source=placeapi_v2,,,,,,,,,,,,,,,,,,,,0
9d152047e58419882b06ce3f,花架广场,休闲娱乐,休闲广场,河南省,郑州市,管城回族区,河南省郑州市管城回族区紫荆山路鑫泰大厦西侧约140米,,1,0,113.687036,34.730747,,life,http://api.map.baidu.com/place/detail?uid=9d152047e58419882b06ce3f&output=html&source=placeapi_v2,,,,,,,,,,,,,,,,,,113.68729204219,34.730747543071,0
dab4a4b2b0e8944b8936ee52,祥和广场,休闲娱乐,休闲广场,河南省,郑州市,二七区,郑州市二七区红云路金祥花园,,1,0,113.675662,34.718897,,life,http://api.map.baidu.com/place/detail?uid=dab4a4b2b0e8944b8936ee52&output=html&source=placeapi_v2,,,,,,,,,,,,,,,,,,,,0
f4678bcc1a0e7de2c1f1cfc3,青花广场,休闲娱乐,休闲广场,河南省,郑州市,管城回族区,郑州市管城回族区尚义路美景鸿城三期・鸿福,,1,0,113.727463,34.723689,,life,http://api.map.baidu.com/place/detail?uid=f4678bcc1a0e7de2c1f1cfc3&output=html&source=placeapi_v2,,,,,,,,,,,,,,,,,,,,0
ce699e407adeb02edf1e52a3,兴华七二广场,休闲娱乐,休闲广场,河南省,郑州市,管城回族区,郑州市管城回族区经开第二大街与经南三路交叉路口往西北约200米,ce699e407adeb02edf1e52a3,1,0,113.748841,34.724366,,life,http://api.map.baidu.com/place/detail?uid=ce699e407adeb02edf1e52a3&output=html&source=placeapi_v2,,,,,,,,,,0,,,,,,,,113.7497385573,34.724601578409,0
c24580f59ab1a72157bfff82,篷绻愠,休闲娱乐,休闲广场,河南省,郑州市,管城回族区,郑州市管城回族区航海东路1058号4楼,c24580f59ab1a72157bfff82,1,0,113.725405,34.726403,,life,http://api.map.baidu.com/place/detail?uid=c24580f59ab1a72157bfff82&output=html&source=placeapi_v2,,,3.0,,,,,,,4,2,,,,,,,113.72520805174,34.726381298741,0
db6ecebe0673ecc1c72ba132,河南新月广场,休闲娱乐,休闲广场,河南省,郑州市,管城回族区,河南省郑州市管城回族区文治路18号河南新月广场a区,db6ecebe0673ecc1c72ba132,1,0,113.727153,34.698431,,life,http://api.map.baidu.com/place/detail?uid=db6ecebe0673ecc1c72ba132&output=html&source=placeapi_v2,,,,,,,,,,,,,,,,,,113.72738195107,34.698629617772,0
50f7d146f60711c472210bc0,中心广场(广场北路),休闲娱乐,休闲广场,河南省,郑州市,管城回族区,郑州市管城回族区经济技术开发区航海东路1405号,50f7d146f60711c472210bc0,1,0,113.773376,34.727316,,life,http://api.map.baidu.com/place/detail?uid=50f7d146f60711c472210bc0&output=html&source=placeapi_v2,,,3.8,,,,,,,2,6,,,,,,,113.77346499588,34.726069538145,0
5a07b7293c79d96dab0dd887,九龙社区文化广场,休闲娱乐,休闲广场,河南省,郑州市,中牟县,郑州市中牟县金秋路九龙中心幼儿园东侧约70米,,1,0,113.844717,34.711016,,life,http://api.map.baidu.com/place/detail?uid=5a07b7293c79d96dab0dd887&output=html&source=placeapi_v2,,,,,,,,,,1,,,,,,,,,,0
d4cecc350ec8d545e81e97cf,聚源广场,休闲娱乐,休闲广场,河南省,郑州市,中牟县,郑州市中牟县花溪路聚源商务酒店北侧约60米,d4cecc350ec8d545e81e97cf,1,1,113.915617,34.712436,,life,http://api.map.baidu.com/place/detail?uid=d4cecc350ec8d545e81e97cf&output=html&source=placeapi_v2,,,,,,,,,,8,,,,,,,,113.91479179777,34.71248309991,1
144be847a5f16d879868b471,占杨文体广场,休闲娱乐,休闲广场,河南省,郑州市,中牟县,郑州市中牟县郑庵镇万邦蔬菜批发市场,144be847a5f16d879868b471,1,0,113.953709,34.705215,,life,http://api.map.baidu.com/place/detail?uid=144be847a5f16d879868b471&output=html&source=placeapi_v2,,,,,,,,,,5,,,,,,,,113.95354775979,34.705444428625,0
d5f93c0ec6014b22eddfcadb,中牟人民文化广场,休闲娱乐,休闲广场,河南省,郑州市,中牟县,河南省郑州市中牟县商都大道1号,d5f93c0ec6014b22eddfcadb,1,3,113.981816,34.723777,,life,http://api.map.baidu.com/place/detail?uid=d5f93c0ec6014b22eddfcadb&output=html&source=placeapi_v2,,,4.5,,,,,,,16,3,,,,,,,113.98174195317,34.724661091283,3
824a991453e3b78ad1ff23d4,文化广场,休闲娱乐,休闲广场,河南省,郑州市,巩义市,郑州市巩义市杜甫路84号永昭陵内,824a991453e3b78ad1ff23d4,1,0,112.992839,34.752337,,life,http://api.map.baidu.com/place/detail?uid=824a991453e3b78ad1ff23d4&output=html&source=placeapi_v2,,,,,,,,,,2,,,,,,,,,,0
a41518a215e5c6a9ebe58244,人民广场,休闲娱乐,休闲广场,河南省,郑州市,巩义市,郑州市巩义市杜甫路84号永昭陵,,1,1,112.992106,34.754917,,life,http://api.map.baidu.com/place/detail?uid=a41518a215e5c6a9ebe58244&output=html&source=placeapi_v2,,,,,,,,,,,,,,,,,,,,1
97c9a8970945e4dcc9e33c1e,永昭陵-南门广场,休闲娱乐,休闲广场,河南省,郑州市,巩义市,郑州市巩义市杜甫路84号永昭陵内,97c9a8970945e4dcc9e33c1e,1,0,112.992523,34.745292,,life,http://api.map.baidu.com/place/detail?uid=97c9a8970945e4dcc9e33c1e&output=html&source=placeapi_v2,,,,,,,,,,,,,,,,,,112.99259685077,34.74494881239,0
5bb1556bc01e586a9e9d6807,文化广场,休闲娱乐,休闲广场,河南省,郑州市,巩义市,河南省郑州市巩义市金好来旁边,,1,0,113.030818,34.748029,,life,http://api.map.baidu.com/place/detail?uid=5bb1556bc01e586a9e9d6807&output=html&source=placeapi_v2,,,,,,,,,,,,,,,,,,113.03054996302,34.748031906947,0
78d29f2c3b3cd311d8d891db,现代文化园,休闲娱乐,休闲广场,河南省,郑州市,巩义市,郑州市巩义市广场东街与中原西路交叉路口往南约130米,78d29f2c3b3cd311d8d891db,1,0,113.02883,34.750478,,life,http://api.map.baidu.com/place/detail?uid=78d29f2c3b3cd311d8d891db&output=html&source=placeapi_v2,,,5.0,,,,,,,1,2,,,,,,,113.03023174818,34.75052695845,0
f2e1fa8c7d4b24faadcb6601,科迪食文化广场,休闲娱乐,休闲广场,河南省,郑州市,巩义市,河南省郑州市巩义市桐本路安乐街31号,f2e1fa8c7d4b24faadcb6601,1,0,113.025986,34.765154,,life,http://api.map.baidu.com/place/detail?uid=f2e1fa8c7d4b24faadcb6601&output=html&source=placeapi_v2,,,,,,,,,,2,,,,,,,,113.02571047324,34.765158999189,0
fc0ac81cbf9f82169d82eae1,文化广场,休闲娱乐,休闲广场,河南省,郑州市,巩义市,郑州市巩义市连共线,,1,0,113.258852,34.758452,,life,http://api.map.baidu.com/place/detail?uid=fc0ac81cbf9f82169d82eae1&output=html&source=placeapi_v2,,,,,,,,,,,,,,,,,,113.25887864528,34.758588273068,0
fdf7d748454d7eca601c674e,草店村文化广场,休闲娱乐,休闲广场,河南省,郑州市,巩义市,郑州市巩义市连共线宾鑫家园南侧约190米,,1,0,113.258524,34.758309,,life,http://api.map.baidu.com/place/detail?uid=fdf7d748454d7eca601c674e&output=html&source=placeapi_v2,,,,,,,,,,,,,,,,,,,,0
ee1d953548770b4dbd48425d,晨练广场,休闲娱乐,休闲广场,河南省,郑州市,荥阳市,郑州市荥阳市塔山路悦来西路交叉口路南西侧郑州索河郊野公园一标段,,1,0,113.388119,34.750237,,life,http://api.map.baidu.com/place/detail?uid=ee1d953548770b4dbd48425d&output=html&source=placeapi_v2,,,,,,,,,,,,,,,,,,,,0
1c055c4cf775c1e1373a71ab,月季广场,休闲娱乐,休闲广场,河南省,郑州市,荥阳市,郑州市荥阳市塔山路悦来西路交叉口路南西侧郑州索河郊野公园二标段,,1,0,113.393036,34.735695,,life,http://api.map.baidu.com/place/detail?uid=1c055c4cf775c1e1373a71ab&output=html&source=placeapi_v2,,,,,,,,,,,,,,,,,,113.39270310496,34.735670388434,0
d48b0d59477f210df90cad89,文曦广场,休闲娱乐,休闲广场,河南省,郑州市,荥阳市,郑州市荥阳市塔山路悦来西路交叉口路南西侧郑州索河郊野公园一标段,,1,0,113.383289,34.745137,,life,http://api.map.baidu.com/place/detail?uid=d48b0d59477f210df90cad89&output=html&source=placeapi_v2,,,,,,,,,,,,,,,,,,113.38289321085,34.745128452337,0
2916b882eeb4ca9848cc4ac8,槐西锦龙华苑中心广场,休闲娱乐,休闲广场,河南省,郑州市,荥阳市,河南省郑州市荥阳市豫龙镇中原西路辅路槐西,2916b882eeb4ca9848cc4ac8,1,0,113.444645,34.753578,,life,http://api.map.baidu.com/place/detail?uid=2916b882eeb4ca9848cc4ac8&output=html&source=placeapi_v2,,,,,,,,,,,,,,,,,,113.44403556511,34.753577429077,0
5db91173ca3f7704c036448b,蜡烛广场,休闲娱乐,休闲广场,河南省,郑州市,荥阳市,郑州市荥阳市豫龙镇中原西路与商隐路交口北李商隐公园,,1,0,113.455561,34.761598,,life,http://api.map.baidu.com/place/detail?uid=5db91173ca3f7704c036448b&output=html&source=placeapi_v2,,,,,,,,,,,,,,,,,,,,0
e6ea0f57078a3999a1a9348e,青鸟广场,休闲娱乐,休闲广场,河南省,郑州市,荥阳市,郑州市荥阳市豫龙镇中原西路与商隐路交口北李商隐公园青鸟苑,,1,0,113.454336,34.761691,,life,http://api.map.baidu.com/place/detail?uid=e6ea0f57078a3999a1a9348e&output=html&source=placeapi_v2,,,,,,,,,,,,,,,,,,113.45374645878,34.761690481086,0
e23d53522e28ed63c6effbbe,李商隐公园-小广场,休闲娱乐,休闲广场,河南省,郑州市,荥阳市,郑州市荥阳市豫龙镇中原西路与商隐路交口北李商隐公园,,1,0,113.455026,34.760029,,life,http://api.map.baidu.com/place/detail?uid=e23d53522e28ed63c6effbbe&output=html&source=placeapi_v2,,,,,,,,,,,,,,,,,,,,0
759503c70c2dbd7ac17da26f,灵犀广场,休闲娱乐,休闲广场,河南省,郑州市,荥阳市,郑州市荥阳市豫龙镇中原西路与商隐路交口北李商隐公园,,1,0,113.454271,34.759949,,life,http://api.map.baidu.com/place/detail?uid=759503c70c2dbd7ac17da26f&output=html&source=placeapi_v2,,,,,,,,,,,,,,,,,,,,0
bc77309db5de9d879d95deb0,春晖广场,休闲娱乐,休闲广场,河南省,郑州市,中原区,郑州市中原区中原西路郑州西流湖公园南区郑州西流湖公园-南园内,,1,0,113.580037,34.754371,,life,http://api.map.baidu.com/place/detail?uid=bc77309db5de9d879d95deb0&output=html&source=placeapi_v2,,,4.0,,,,,,,,2,,,,,,,,,0
e7b18a65390fd378a1a93468,保吉广场,休闲娱乐,休闲广场,河南省,郑州市,中原区,郑州市中原区中原西路郑州西流湖公园南园,,1,0,113.578343,34.754464,,life,http://api.map.baidu.com/place/detail?uid=e7b18a65390fd378a1a93468&output=html&source=placeapi_v2,,,,,,,,,,,,,,,,,,,,0
93e85a3a1e057ea6aeb22a36,三磨所健身广场,休闲娱乐,休闲广场,河南省,郑州市,中原区,河南郑州市中原区中原路177号郑州三磨研究所家属院4号楼1楼3单元,93e85a3a1e057ea6aeb22a36,1,0,113.611254,34.752824,,life,http://api.map.baidu.com/place/detail?uid=93e85a3a1e057ea6aeb22a36&output=html&source=placeapi_v2,,,0.0,,,,,,,3,,,,,,,,113.61125154617,34.75303286936,0
2984386f985b1f1b08ccdd9f,中原文化广场,休闲娱乐,休闲广场,河南省,郑州市,中原区,郑州市中原区桐柏南路博雅西城,2984386f985b1f1b08ccdd9f,1,0,113.619505,34.751785,,life,http://api.map.baidu.com/place/detail?uid=2984386f985b1f1b08ccdd9f&output=html&source=placeapi_v2,,,,,,,,,,,,,,,,,,113.61950489153,34.751785019432,0
aba7fc9ee5d85e6ab1077dd9,颖河港湾休闲广场,休闲娱乐,休闲广场,河南省,郑州市,中原区,河南省郑州市中原区颖河路西三环14-2-1102号5号楼1单元,aba7fc9ee5d85e6ab1077dd9,1,0,113.596147,34.74723,,life,http://api.map.baidu.com/place/detail?uid=aba7fc9ee5d85e6ab1077dd9&output=html&source=placeapi_v2,,,,,,,,,,1,,,,,,,,,,0
7ffce32f754a5ce1c26c14c7,社区文化广场,休闲娱乐,休闲广场,河南省,郑州市,中原区,河南郑州市中原区桐柏路61号院,7ffce32f754a5ce1c26c14c7,1,0,113.622317,34.757366,,life,http://api.map.baidu.com/place/detail?uid=7ffce32f754a5ce1c26c14c7&output=html&source=placeapi_v2,,,,,,,,,,1,,,,,,,,,,0
25b7b30b377e925b3310af6f,西郊记忆广场,休闲娱乐,休闲广场,河南省,郑州市,中原区,河南省郑州市中原区建设西路110号4楼3单元401号,25b7b30b377e925b3310af6f,1,0,113.619413,34.761509,,life,http://api.map.baidu.com/place/detail?uid=25b7b30b377e925b3310af6f&output=html&source=placeapi_v2,,,5.0,,,,,,,8,2,,,,,,,113.61942640029,34.761851818654,0
f5e3bcae4ad772bc5f17c3ac,郑州市绿城广场,休闲娱乐,休闲广场,河南省,郑州市,二七区,河南省郑州市二七区嵩山南路与中原路交汇处,f5e3bcae4ad772bc5f17c3ac,1,0,113.636935,34.752621,,life,http://api.map.baidu.com/place/detail?uid=f5e3bcae4ad772bc5f17c3ac&output=html&source=placeapi_v2,7,,4.6,,,,,,,32,28,,,,,,,113.63615004348,34.751587788305,0
da40657a0481f0d7e6e96569,郑州站-西广场,休闲娱乐,休闲广场,河南省,郑州市,二七区,大同路与一马路交叉口郑州火车站,da40657a0481f0d7e6e96569,1,0,113.662954,34.75114,,life,http://api.map.baidu.com/place/detail?uid=da40657a0481f0d7e6e96569&output=html&source=placeapi_v2,209,00:00-24:00,4.3,,,,,,,15,32,,,,,,,113.66287678025,34.749545106903,0
504d61130bb444b2465726dc,郑州站-东广场,休闲娱乐,休闲广场,河南省,郑州市,二七区,河南省郑州市二七区大同路与一马路交叉口郑州火车站,504d61130bb444b2465726dc,1,0,113.66831,34.752964,,life,http://api.map.baidu.com/place/detail?uid=504d61130bb444b2465726dc&output=html&source=placeapi_v2,,,3.5,,,,,,,17,27,,,,,,,113.66901271891,34.751890767596,0
4fc3161a3de882d43b13fda6,二七区文化艺术广场,休闲娱乐,休闲广场,河南省,郑州市,二七区,二七区交通路8号,4fc3161a3de882d43b13fda6,1,0,113.654068,34.736754,,life,http://api.map.baidu.com/place/detail?uid=4fc3161a3de882d43b13fda6&output=html&source=placeapi_v2,,,5,,,,,,,17,3,,,,,,,113.65384115092,34.736850597931,0
8fcc668911379de428b97c8b,郑州市碧沙岗公园-南广场,休闲娱乐,休闲广场,河南省,郑州市,中原区,河南省郑州市中原区建设东路31号碧沙岗公园南广场,8fcc668911379de428b97c8b,1,0,113.636849,34.755917,,life,http://api.map.baidu.com/place/detail?uid=8fcc668911379de428b97c8b&output=html&source=placeapi_v2,,,,,,,,,,,,,,,,,,113.636814927,34.755580059686,0
70269c6fccf075248f1a8901,轮滑广场,休闲娱乐,休闲广场,河南省,郑州市,中原区,郑州市中原区建设东路31号郑州市碧沙岗公园,,1,0,113.636597,34.757976,,life,http://api.map.baidu.com/place/detail?uid=70269c6fccf075248f1a8901&output=html&source=placeapi_v2,,,,,,,,,,,,,,,,,,,,0
cf1c832ca8d3d186a11de97e,碧沙广场,休闲娱乐,休闲广场,河南省,郑州市,中原区,河南郑州市中原区建设路187号,,1,0,113.632926,34.760234,,life,http://api.map.baidu.com/place/detail?uid=cf1c832ca8d3d186a11de97e&output=html&source=placeapi_v2,,,,,,,,,,,,,,,,,,,,0
eb22524007b3f05ba8f729d9,升龙国际中心-金茂广场,休闲娱乐,休闲广场,河南省,郑州市,二七区,河南郑州市二七区政通路c区1楼2904室,eb22524007b3f05ba8f729d9,1,0,113.649198,34.731994,,life,http://api.map.baidu.com/place/detail?uid=eb22524007b3f05ba8f729d9&output=html&source=placeapi_v2,,,,,,,,,,1,,,,,,,,,,0
504d61130bb444b2465726dc,郑州站-东广场,休闲娱乐,休闲广场,河南省,郑州市,二七区,河南省郑州市二七区大同路与一马路交叉口郑州火车站,504d61130bb444b2465726dc,1,0,113.66831,34.752964,,life,http://api.map.baidu.com/place/detail?uid=504d61130bb444b2465726dc&output=html&source=placeapi_v2,,,3.5,,,,,,,17,27,,,,,,,113.66901271891,34.751890767596,0
968d00fb4ae859fffda778d4,红房子啤酒广场,休闲娱乐,休闲广场,河南省,郑州市,管城回族区,河南省郑州市管城回族区豫筑路57号,,1,0,113.697318,34.736173,,life,http://api.map.baidu.com/place/detail?uid=968d00fb4ae859fffda778d4&output=html&source=placeapi_v2,,,5.0,,,,,,,5,2,,,,,,,113.69711611607,34.736280115863,0
c7e74a4ae8c3516e3be4a67a,殊秀园广场,休闲娱乐,休闲广场,河南省,郑州市,管城回族区,河南省郑州市管城回族区新郑路与陇海南里交叉口向北约100米路西,c7e74a4ae8c3516e3be4a67a,1,0,113.685605,34.736135,,life,http://api.map.baidu.com/place/detail?uid=c7e74a4ae8c3516e3be4a67a&output=html&source=placeapi_v2,,,,,,,,,,,,,,,,,,113.68553296957,34.736212414411,0
8ef22f3b5381b27ecae33cef,圣诞广场,休闲娱乐,休闲广场,河南省,郑州市,二七区,郑州市二七区福寿街万博商城2期,8ef22f3b5381b27ecae33cef,1,0,113.66945,34.756111,"13592559089,13949060916",life,http://api.map.baidu.com/place/detail?uid=8ef22f3b5381b27ecae33cef&output=html&source=placeapi_v2,,,,,,,,,,1,,,,,,,,113.66948115919,34.756126021549,0
24501625de24eb0b9a0050b7,唐人街文化广场G区,休闲娱乐,休闲广场,河南省,郑州市,金水区,河南省郑州市金水区唐人街文化广场(英协路东150米),24501625de24eb0b9a0050b7,1,0,113.727346,34.761747,,life,http://api.map.baidu.com/place/detail?uid=24501625de24eb0b9a0050b7&output=html&source=placeapi_v2,,,,,,,,,,2,,,,,,,,113.72733869047,34.761653326609,0
91c13f934308d7fa21f017c6,塞提那勒广场,休闲娱乐,休闲广场,河南省,郑州市,管城回族区,河南省郑州市管城回族区石化路70号,91c13f934308d7fa21f017c6,1,0,113.72702,34.732664,,life,http://api.map.baidu.com/place/detail?uid=91c13f934308d7fa21f017c6&output=html&source=placeapi_v2,,,5,,,,,,,11,9,,,,,,,113.72748442468,34.73245936015,0
1f6073835fa690993010af32,河_闲居,,,河南省,郑州市,金水区,郑州市金水区建业路唐人街文化广场,,1,0,113.726829,34.761754,,life,http://api.map.baidu.com/place/detail?uid=1f6073835fa690993010af32&output=html&source=placeapi_v2,,,,,,,,,,,,,,,,,,,,0
b9fae6d56def24e54f6d46fa,开龙广场,休闲娱乐,休闲广场,河南省,郑州市,管城回族区,河南省郑州市管城回族区商鼎路78号3号楼1单元,b9fae6d56def24e54f6d46fa,1,0,113.779962,34.760849,,life,http://api.map.baidu.com/place/detail?uid=b9fae6d56def24e54f6d46fa&output=html&source=placeapi_v2,,,,,,,,,,,1,,,,,,,,,0
b1689d50bdde4cd6ea12e443,开封夜市广场,休闲娱乐,休闲广场,河南省,郑州市,管城回族区,郑州市管城回族区经北六路昔悦酒店(郑州东站店)西南侧约80米,b1689d50bdde4cd6ea12e443,1,0,113.767134,34.740157,,life,http://api.map.baidu.com/place/detail?uid=b1689d50bdde4cd6ea12e443&output=html&source=placeapi_v2,,,,,,,,,,2,,,,,,,,113.76697977717,34.740155757586,0
33714370341071109a005023,郑州东站-西广场,休闲娱乐,休闲广场,河南省,郑州市,金水区,郑州市金水区广场南路,,1,3,113.781594,34.7653,,life,http://api.map.baidu.com/place/detail?uid=33714370341071109a005023&output=html&source=placeapi_v2,,,4.7,,,,,,,14,7,,,,,,,113.78362485905,34.762968581171,3
b424234f3437aad0b726552a,福建新纪升龙广场项目,休闲娱乐,休闲广场,河南省,郑州市,金水区,郑州市金水区心怡路升龙广场东侧,b424234f3437aad0b726552a,1,0,113.779899,34.762952,,life,http://api.map.baidu.com/place/detail?uid=b424234f3437aad0b726552a&output=html&source=placeapi_v2,,,,,,,,,,,,,,,,,,113.78004267179,34.762964196571,0
418dd53507fa0c958b2fb57e,林荫广场,休闲娱乐,休闲广场,河南省,郑州市,金水区,郑州市金水区客文一街与七里河围合处七里河公园,418dd53507fa0c958b2fb57e,1,0,113.758408,34.763007,,life,http://api.map.baidu.com/place/detail?uid=418dd53507fa0c958b2fb57e&output=html&source=placeapi_v2,,,,,,,,,,,,,,,,,,,,0
51dd31dc2d91d9185abbbc30,小芳夜市啤酒广场,休闲娱乐,休闲广场,河南省,郑州市,管城回族区,郑州市管城回族区列子国学幼儿园西侧约40米,51dd31dc2d91d9185abbbc30,1,0,113.839648,34.737097,,life,http://api.map.baidu.com/place/detail?uid=51dd31dc2d91d9185abbbc30&output=html&source=placeapi_v2,,,,,,,,,,1,,,,,,,,113.8397663178,34.736965729695,0
d7273b878a38d43a047ce888,戏水广场,休闲娱乐,休闲广场,河南省,郑州市,中牟县,郑州市中牟县万三公路与郑汴物流通道交叉口向东770米路南郑州・中国绿化博览园,,1,0,113.9378,34.762755,,life,http://api.map.baidu.com/place/detail?uid=d7273b878a38d43a047ce888&output=html&source=placeapi_v2,,,,,,,,,,,,,,,,,,,,0
59019c67307ff7d1f60e7749,岩庄店村文化广场,休闲娱乐,休闲广场,河南省,郑州市,中牟县,郑州市中牟县刘城路,59019c67307ff7d1f60e7749,1,0,113.991991,34.755121,,life,http://api.map.baidu.com/place/detail?uid=59019c67307ff7d1f60e7749&output=html&source=placeapi_v2,,,,,,,,,,4,,,,,,,,,,0
e87095c348326976b9df8fe6,观澜广场,休闲娱乐,休闲广场,河南省,郑州市,中牟县,郑州市中牟县大孟镇石狮冉郑州牟山湿地公园南园,,1,0,114.033745,34.763305,,life,http://api.map.baidu.com/place/detail?uid=e87095c348326976b9df8fe6&output=html&source=placeapi_v2,,,,,,,,,,,,,,,,,,114.03391524524,34.76333458996,0
59f5972d4922cb2cbda24019,西街社区文化广场,休闲娱乐,休闲广场,河南省,郑州市,中牟县,郑州市中牟县西城路泰安小区-东区南侧约120米,59f5972d4922cb2cbda24019,1,0,114.033839,34.738679,,life,http://api.map.baidu.com/place/detail?uid=59f5972d4922cb2cbda24019&output=html&source=placeapi_v2,,,,,,,,,,1,,,,,,,,,,0
cfbd1a3f406931e272210bb3,石灰务文化广场,休闲娱乐,休闲广场,河南省,郑州市,巩义市,郑州市巩义市,cfbd1a3f406931e272210bb3,1,1,113.006104,34.778568,,life,http://api.map.baidu.com/place/detail?uid=cfbd1a3f406931e272210bb3&output=html&source=placeapi_v2,,,,,,,,,,3,,,,,,,,113.00565132468,34.778473197309,1
3fccb4306f9b62ee4f3a596d,站街镇文化广场,休闲娱乐,休闲广场,河南省,郑州市,巩义市,郑州市巩义市南环路,,1,0,113.075753,34.786943,,life,http://api.map.baidu.com/place/detail?uid=3fccb4306f9b62ee4f3a596d&output=html&source=placeapi_v2,,,,,,,,,,,,,,,,,,,,0
5a1604cd7ba17ce9f1193774,秋兴八首广场,休闲娱乐,休闲广场,河南省,郑州市,巩义市,郑州市巩义市杜甫故里(连霍高速公路南),,1,0,113.068836,34.801956,,life,http://api.map.baidu.com/place/detail?uid=5a1604cd7ba17ce9f1193774&output=html&source=placeapi_v2,,,,,,,,,,,,,,,,,,,,0
1a30a01e61628208fea77833,竹川村体育文化广场,休闲娱乐,休闲广场,河南省,郑州市,荥阳市,郑州市荥阳市X019荥阳农商银行金融便利店西侧约60米,1a30a01e61628208fea77833,1,0,113.253118,34.782465,,life,http://api.map.baidu.com/place/detail?uid=1a30a01e61628208fea77833&output=html&source=placeapi_v2,,,0.0,,,,,,,,0,,,,,,,113.25308871503,34.782539165097,0
5029b6796760c0ab1d58006b,高山群众文化广场,休闲娱乐,休闲广场,河南省,郑州市,荥阳市,郑州市荥阳市政通路与人和路交叉路口往东约90米,5029b6796760c0ab1d58006b,1,0,113.22374,34.79134,,life,http://api.map.baidu.com/place/detail?uid=5029b6796760c0ab1d58006b&output=html&source=placeapi_v2,,,0.0,,,,,,,,0,,,,,,,113.22390243125,34.791522712429,0
1a30a01e61628208fea77833,竹川村体育文化广场,休闲娱乐,休闲广场,河南省,郑州市,荥阳市,郑州市荥阳市X019荥阳农商银行金融便利店西侧约60米,1a30a01e61628208fea77833,1,0,113.253118,34.782465,,life,http://api.map.baidu.com/place/detail?uid=1a30a01e61628208fea77833&output=html&source=placeapi_v2,,,0.0,,,,,,,,0,,,,,,,113.25308871503,34.782539165097,0
d775061bf35944e26f476056,金色时代娱乐广场,休闲娱乐,休闲广场,河南省,郑州市,上街区,郑州市上街区登封路柏庙安置区西北侧约260米,d775061bf35944e26f476056,1,0,113.301996,34.784342,,life,http://api.map.baidu.com/place/detail?uid=d775061bf35944e26f476056&output=html&source=placeapi_v2,,08:00-22:00,,,,,,,,3,,,,,,,,113.30236589349,34.78435364508,0
14d8aeb70a3d22e071210bc9,郊段文化广场,休闲娱乐,休闲广场,河南省,郑州市,上街区,郑州市上街区郊段路与金屏路交叉路口往东南约300米,14d8aeb70a3d22e071210bc9,1,0,113.315684,34.794375,,life,http://api.map.baidu.com/place/detail?uid=14d8aeb70a3d22e071210bc9&output=html&source=placeapi_v2,,,0.0,,,,,,,2,0,,,,,,,113.31581344972,34.794718658028,0
1c1709cfbfaaaf69715e80e5,五云文化广场,休闲娱乐,休闲广场,河南省,郑州市,上街区,河南省郑州市上街区登封路79-21号正北方向50米,1c1709cfbfaaaf69715e80e5,1,0,113.301173,34.779899,,life,http://api.map.baidu.com/place/detail?uid=1c1709cfbfaaaf69715e80e5&output=html&source=placeapi_v2,,,,,,,,,,9,,,,,,,,113.3025228607,34.779789160606,0
80c5d11b5499524f4d2fdf94,柏庙文化广场,休闲娱乐,休闲广场,河南省,郑州市,上街区,郑州市上街区五云路方顶新村西南侧约70米,80c5d11b5499524f4d2fdf94,1,0,113.306212,34.777013,,life,http://api.map.baidu.com/place/detail?uid=80c5d11b5499524f4d2fdf94&output=html&source=placeapi_v2,,,,,,,,,,,,,,,,,,,,0
b6e155499a28aa9714c8f6d4,美食苑啤酒广场,休闲娱乐,休闲广场,河南省,郑州市,荥阳市,郑州市荥阳市龙港路荥阳市乔楼镇第一中心小学北侧约170米,b6e155499a28aa9714c8f6d4,1,0,113.402123,34.779114,,life,http://api.map.baidu.com/place/detail?uid=b6e155499a28aa9714c8f6d4&output=html&source=placeapi_v2,,,,,,,,,,1,,,,,,,,113.40213270863,34.779286861872,0
eec5ef2d56be77808bf15df2,荥阳市广场,休闲娱乐,休闲广场,河南省,郑州市,荥阳市,郑州市荥阳市索河路西段南侧,,1,0,113.38622,34.792629,,life,http://api.map.baidu.com/place/detail?uid=eec5ef2d56be77808bf15df2&output=html&source=placeapi_v2,,,5,,,,,,,4,4,,,,,,,113.38672653558,34.793811093217,0
0fd0af44de847767d8d89142,石寨村文化广场,休闲娱乐,休闲广场,河南省,郑州市,荥阳市,郑州市荥阳市广武路盛世新城(广武路),0fd0af44de847767d8d89142,1,0,113.407636,34.780437,,life,http://api.map.baidu.com/place/detail?uid=0fd0af44de847767d8d89142&output=html&source=placeapi_v2,,,,,,,,,,2,,,,,,,,113.40765813552,34.780318164459,0
42f9b55668c852c2a20464b8,好人广场,休闲娱乐,休闲广场,河南省,郑州市,荥阳市,郑州市荥阳市京城南路031号荥阳植物园内,,1,0,113.41415,34.779238,,life,http://api.map.baidu.com/place/detail?uid=42f9b55668c852c2a20464b8&output=html&source=placeapi_v2,,,,,,,,,,1,,,,,,,,,,0
235c56adfe14e5993904b1fd,人民公园博弈林下广场,休闲娱乐,休闲广场,河南省,郑州市,荥阳市,郑州市荥阳市京城南路荥阳植物园,,1,0,113.412036,34.777029,,life,http://api.map.baidu.com/place/detail?uid=235c56adfe14e5993904b1fd&output=html&source=placeapi_v2,,,,,,,,,,,,,,,,,,,,0
96f9dd0b75e698599de321f1,喷泉广场,休闲娱乐,休闲广场,河南省,郑州市,荥阳市,郑州市荥阳市京城南路荥阳植物园,,1,0,113.413965,34.779097,,life,http://api.map.baidu.com/place/detail?uid=96f9dd0b75e698599de321f1&output=html&source=placeapi_v2,,,,,,,,,,,,,,,,,,,,0
2d425bf5afbd404ec7f50d26,人民公园修身林下广场,休闲娱乐,休闲广场,河南省,郑州市,荥阳市,郑州市荥阳市京城南路荥阳植物园,,1,0,113.410487,34.77489,,life,http://api.map.baidu.com/place/detail?uid=2d425bf5afbd404ec7f50d26&output=html&source=placeapi_v2,,,,,,,,,,,,,,,,,,,,0
e2a74ee359894e8a17c8f623,人民公园人民林下广场,休闲娱乐,休闲广场,河南省,郑州市,荥阳市,郑州市荥阳市京城南路荥阳植物园,,1,0,113.410689,34.773766,,life,http://api.map.baidu.com/place/detail?uid=e2a74ee359894e8a17c8f623&output=html&source=placeapi_v2,,,,,,,,,,,,,,,,,,,,0
fbcb815fafbfb71af50e77c0,人民公园休闲林下广场,休闲娱乐,休闲广场,河南省,郑州市,荥阳市,郑州市荥阳市京城南路荥阳植物园,,1,0,113.412829,34.775034,,life,http://api.map.baidu.com/place/detail?uid=fbcb815fafbfb71af50e77c0&output=html&source=placeapi_v2,,,,,,,,,,,,,,,,,,,,0
ea171783a6eb76c5d0ff23f5,索园,休闲娱乐,休闲广场,河南省,郑州市,荥阳市,郑州市荥阳市京城路与索河路交叉路口往西北约70米,,1,0,113.415909,34.794179,,scope,http://api.map.baidu.com/place/detail?uid=ea171783a6eb76c5d0ff23f5&output=html&source=placeapi_v2,,,5.0,,,,,,,,4,,,,,,,113.41593667835,34.793706033252,0
02594733c9ce3802a7c756c8,宝翔广场,休闲娱乐,休闲广场,河南省,郑州市,荥阳市,郑州市荥阳市索河路与荥泽大道交叉路口往西北约90米,02594733c9ce3802a7c756c8,1,0,113.434601,34.793819,,life,http://api.map.baidu.com/place/detail?uid=02594733c9ce3802a7c756c8&output=html&source=placeapi_v2,,,4.0,,,,,,,4,1,,,,,,,113.43451139772,34.793229291364,0
e2b9a1e76024b339047ce8ea,郑氏三公广场,休闲娱乐,休闲广场,河南省,郑州市,荥阳市,河南郑州市荥阳市三公路51-1号,e2b9a1e76024b339047ce8ea,1,0,113.421535,34.778515,,life,http://api.map.baidu.com/place/detail?uid=e2b9a1e76024b339047ce8ea&output=html&source=placeapi_v2,,,5.0,,,,,,,4,4,,,,,,,113.42223646435,34.778083098584,0
264875ed320e189f220262d2,罗垌人民广场,休闲娱乐,休闲广场,河南省,郑州市,荥阳市,郑州市荥阳市汜河路宝翔花园东北侧约210米,264875ed320e189f220262d2,1,0,113.437703,34.79878,,life,http://api.map.baidu.com/place/detail?uid=264875ed320e189f220262d2&output=html&source=placeapi_v2,,,,,,,,,,2,,,,,,,,113.43763993441,34.798775339396,0
c1927d9bff38fb5d2902e124,文化广场,休闲娱乐,休闲广场,河南省,郑州市,中原区,郑州市中原区郑上路郑州鹤立中等专业学校西南侧约50米,,1,0,113.520193,34.769243,,life,http://api.map.baidu.com/place/detail?uid=c1927d9bff38fb5d2902e124&output=html&source=placeapi_v2,,,,,,,,,,1,,,,,,,,,,0
337ee16fbbc71ad92b201a18,好教育广场1号馆,休闲娱乐,休闲广场,河南省,郑州市,中原区,郑州市中原区郁金里祝福红城-二期,337ee16fbbc71ad92b201a18,1,0,113.556937,34.797017,,life,http://api.map.baidu.com/place/detail?uid=337ee16fbbc71ad92b201a18&output=html&source=placeapi_v2,,,,,,,,,,5,,,,,,,,113.5569380529,34.79713589935,0
a2de32bc1019e1f81b94c683,教育广场(2号馆),休闲娱乐,休闲广场,河南省,郑州市,中原区,河南省郑州市中原区冉屯路天誉龙邸小区2楼,,1,0,113.612571,34.78385,,life,http://api.map.baidu.com/place/detail?uid=a2de32bc1019e1f81b94c683&output=html&source=placeapi_v2,,,,,,,,,,4,,,,,,,,113.61252701063,34.783705134781,0
9f97b1c561095106b64f54c3,文化休闲广场,休闲娱乐,休闲广场,河南省,郑州市,中原区,河南省郑州市中原区西流湖路18号,9f97b1c561095106b64f54c3,1,0,113.602023,34.780569,,life,http://api.map.baidu.com/place/detail?uid=9f97b1c561095106b64f54c3&output=html&source=placeapi_v2,,,0.0,,,,,,,3,1,,,,,,,113.60190822834,34.780539292348,0
d4e9a9c21a14c5ba95f08ca1,下沉喷泉广场,休闲娱乐,休闲广场,河南省,郑州市,中原区,郑州市中原区化工路郑州西流湖公园北园,,1,0,113.59774,34.781811,,life,http://api.map.baidu.com/place/detail?uid=d4e9a9c21a14c5ba95f08ca1&output=html&source=placeapi_v2,,,,,,,,,,,1,,,,,,,113.59839690013,34.782158978553,0
38477efb27cc0a777c29bd2f,郑州西流湖公园北园-休闲广场,休闲娱乐,休闲广场,河南省,郑州市,中原区,郑州市中原区化工路郑州西流湖公园北园,,1,0,113.596948,34.781711,,life,http://api.map.baidu.com/place/detail?uid=38477efb27cc0a777c29bd2f&output=html&source=placeapi_v2,,,,,,,,,,,,,,,,,,,,0
549350f6a2346a24db13181d,花船广场,休闲娱乐,休闲广场,河南省,郑州市,中原区,郑州市中原区化工路西流湖公园北园内,,1,0,113.592798,34.782954,,life,http://api.map.baidu.com/place/detail?uid=549350f6a2346a24db13181d&output=html&source=placeapi_v2,,,0,,,,,,,3,1,,,,,,,,,0
53aceac2ab5db4866f4760a6,楸木广场,休闲娱乐,休闲广场,河南省,郑州市,中原区,郑州市中原区化工路西流湖公园北园内,,1,0,113.590962,34.782163,,life,http://api.map.baidu.com/place/detail?uid=53aceac2ab5db4866f4760a6&output=html&source=placeapi_v2,,,5,,,,,,,3,1,,,,,,,,,0
b581f1ee3224b3cb6240a9f3,郑州西流湖公园北园-小广场,休闲娱乐,休闲广场,河南省,郑州市,中原区,郑州市中原区化工路郑州西流湖公园北园,,1,0,113.593081,34.785329,,life,http://api.map.baidu.com/place/detail?uid=b581f1ee3224b3cb6240a9f3&output=html&source=placeapi_v2,,,,,,,,,,,,,,,,,,,,0
ca8520237dda872a21f01730,飞狮广场,休闲娱乐,休闲广场,河南省,郑州市,中原区,郑州市中原区董寨街城开绿城绿园-2期,,1,0,113.624274,34.787549,,life,http://api.map.baidu.com/place/detail?uid=ca8520237dda872a21f01730&output=html&source=placeapi_v2,,,,,,,,,,1,,,,,,,,,,0
af494484ec4ae8e02bd7ab55,江小白文艺广场,休闲娱乐,休闲广场,河南省,郑州市,金水区,河南省郑州市金水区沙口路103号院,af494484ec4ae8e02bd7ab55,1,0,113.637436,34.78769,,life,http://api.map.baidu.com/place/detail?uid=af494484ec4ae8e02bd7ab55&output=html&source=placeapi_v2,,,0.0,,,,,,,3,1,,,,,,,113.63798258672,34.788030398172,0
1f2c94b334f8e1758d772785,沙口路胖孩夜市广场,休闲娱乐,休闲广场,河南省,郑州市,金水区,河南省郑州市金水区沙口路101号,1f2c94b334f8e1758d772785,1,0,113.645663,34.77741,,life,http://api.map.baidu.com/place/detail?uid=1f2c94b334f8e1758d772785&output=html&source=placeapi_v2,,,,,,,,,,2,1,,,,,,,113.64567012268,34.777391335972,0
2069ac699fca39699c09f7ee,泉舜城市公益广场,休闲娱乐,休闲广场,河南省,郑州市,金水区,黄河路46号附1号附近,2069ac699fca39699c09f7ee,1,0,113.660179,34.781001,,life,http://api.map.baidu.com/place/detail?uid=2069ac699fca39699c09f7ee&output=html&source=placeapi_v2,,,,,,,,,,1,,,,,,,,,,0
ec517a75898b1322f4e73ba9,健身广场,休闲娱乐,休闲广场,河南省,郑州市,金水区,河南省郑州市金水区卫生路26号,ec517a75898b1322f4e73ba9,1,0,113.642605,34.793266,,life,http://api.map.baidu.com/place/detail?uid=ec517a75898b1322f4e73ba9&output=html&source=placeapi_v2,,,,,,,,,,1,,,,,,,,113.64230406773,34.793287731037,0
c7437ef19a9228627c29bd6c,河南全民健身广场,休闲娱乐,休闲广场,河南省,郑州市,金水区,河南省郑州市金水区黄河北街2号,c7437ef19a9228627c29bd6c,1,0,113.668309,34.7797,,life,http://api.map.baidu.com/place/detail?uid=c7437ef19a9228627c29bd6c&output=html&source=placeapi_v2,,,5,,,,,,,5,1,,,,,,,113.66763482696,34.779735834271,0
3f826ed32418fb3bd0f49ebe,同乐文化广场,休闲娱乐,休闲广场,河南省,郑州市,金水区,郑州市金水区东风路同乐社区-北区南侧约30米,3f826ed32418fb3bd0f49ebe,1,0,113.643425,34.802683,,life,http://api.map.baidu.com/place/detail?uid=3f826ed32418fb3bd0f49ebe&output=html&source=placeapi_v2,,,3.0,,,,,,,1,1,,,,,,,113.64340228215,34.802725503621,0
a4babb64753ad107d4851f13,月季公园-东广场,休闲娱乐,休闲广场,河南省,郑州市,中原区,郑州市中原区西站路80号月季公园,,1,0,113.636113,34.774482,,life,http://api.map.baidu.com/place/detail?uid=a4babb64753ad107d4851f13&output=html&source=placeapi_v2,,,,,,,,,,,,,,,,,,113.63652749169,34.774627308345,0
defdac281a0c933446e2744c,月季公园-西广场,休闲娱乐,休闲广场,河南省,郑州市,中原区,郑州市中原区西站路80号月季公园,,1,0,113.634733,34.773761,,life,http://api.map.baidu.com/place/detail?uid=defdac281a0c933446e2744c&output=html&source=placeapi_v2,,,,,,,,,,,,,,,,,,113.63474654802,34.773738586647,0
32640576d04609a9b23c8124,月季公园-南广场,休闲娱乐,休闲广场,河南省,郑州市,中原区,河南省郑州市中原区西站路80号,,1,0,113.635724,34.77121,,life,http://api.map.baidu.com/place/detail?uid=32640576d04609a9b23c8124&output=html&source=placeapi_v2,,,,,,,,,,,,,,,,,,113.63561943777,34.770815668551,0
d4034eb3c902628bc13644ae,郑州市经纬广场,休闲娱乐,休闲广场,河南省,郑州市,金水区,河南省郑州市金水区纬四路20-1号,d4034eb3c902628bc13644ae,1,0,113.702997,34.773855,(0371)65951659,life,http://api.map.baidu.com/place/detail?uid=d4034eb3c902628bc13644ae&output=html&source=placeapi_v2,,00:00-24:00,4.3,,,,,,,22,40,,,,,,,113.70300348911,34.773352049318,0
1bf2802207671b90adcb661a,人民广场,休闲娱乐,休闲广场,河南省,郑州市,金水区,郑州市金水区人民路11号,1bf2802207671b90adcb661a,1,0,113.686312,34.768963,,life,http://api.map.baidu.com/place/detail?uid=1bf2802207671b90adcb661a&output=html&source=placeapi_v2,,,4.7,,,,,,,7,4,,,,,,,113.68689532174,34.768395216128,0
e3082848d53009bfb34c49fe,紫荆山广场,休闲娱乐,休闲广场,河南省,郑州市,金水区,郑州市金水区紫荆山路4号,e3082848d53009bfb34c49fe,1,0,113.689824,34.768858,,life,http://api.map.baidu.com/place/detail?uid=e3082848d53009bfb34c49fe&output=html&source=placeapi_v2,,,4.5,,,,,,,5,3,,,,,,,113.69247376841,34.767604220058,0
1c8e190ead65f48bf8f0cb20,文博公园,休闲娱乐,休闲广场,河南省,郑州市,金水区,河南省郑州市金水区农业路五号院5号楼,1c8e190ead65f48bf8f0cb20,1,0,113.680918,34.793959,,scope,http://api.map.baidu.com/place/detail?uid=1c8e190ead65f48bf8f0cb20&output=html&source=placeapi_v2,,,4.4,,,,,,,,49,,,,,,,113.68093057315,34.792906960201,0
be7b0d4745cba741f5c59c8e,科迪食文化广场,休闲娱乐,休闲广场,河南省,郑州市,金水区,郑州市金水区经七路希瑞商务,be7b0d4745cba741f5c59c8e,1,0,113.678885,34.77842,,life,http://api.map.baidu.com/place/detail?uid=be7b0d4745cba741f5c59c8e&output=html&source=placeapi_v2,,,,,,,,,,4,,,,,,,,113.67875123368,34.778420087295,0
f8200fa5ba5a6d3036b06c2b,林下广场,休闲娱乐,休闲广场,河南省,郑州市,金水区,郑州市金水区金水路108号紫荆山公园内,,1,0,113.690288,34.768282,,life,http://api.map.baidu.com/place/detail?uid=f8200fa5ba5a6d3036b06c2b&output=html&source=placeapi_v2,,,,,,,,,,,,,,,,,,,,0
680fb7037ee3759f8bb9881a,如意湖文化广场,休闲娱乐,休闲广场,河南省,郑州市,金水区,河南省郑州市金水区CBD东环步行街,680fb7037ee3759f8bb9881a,1,0,113.732647,34.780572,,life,http://api.map.baidu.com/place/detail?uid=680fb7037ee3759f8bb9881a&output=html&source=placeapi_v2,,,4.8,,,,,,,22,15,,,,,,,113.73552958205,34.781671161333,0
d59dd5800bc7ca776cc02c62,河南艺术中心-文化广场,休闲娱乐,休闲广场,河南省,郑州市,金水区,河南省郑州市金水区商城路176~177号,d59dd5800bc7ca776cc02c62,1,0,113.730579,34.776627,,life,http://api.map.baidu.com/place/detail?uid=d59dd5800bc7ca776cc02c62&output=html&source=placeapi_v2,,,5,,,,,,,18,2,,,,,,,,,0
e06eaaf33f1eb9dcc7f02583,银杏广场,休闲娱乐,休闲广场,河南省,郑州市,金水区,郑州市金水区如意湖街道商务外环路郑州之林旁,e06eaaf33f1eb9dcc7f02583,1,0,113.724374,34.780726,,life,http://api.map.baidu.com/place/detail?uid=e06eaaf33f1eb9dcc7f02583&output=html&source=placeapi_v2,,,0.0,,,,,,,,,,,,,,,113.72463620662,34.780654622443,0
cd0f653a5de7248482288add,喷雾广场,休闲娱乐,休闲广场,河南省,郑州市,金水区,郑州市金水区众意西路郑州之林,,1,0,113.721749,34.78124,,life,http://api.map.baidu.com/place/detail?uid=cd0f653a5de7248482288add&output=html&source=placeapi_v2,,,,,,,,,,,,,,,,,,,,0
6620035fe18b2e53b45f1ed5,柳荫广场,休闲娱乐,休闲广场,河南省,郑州市,金水区,郑州市金水区众意西路郑州之林,,1,0,113.721742,34.779551,,life,http://api.map.baidu.com/place/detail?uid=6620035fe18b2e53b45f1ed5&output=html&source=placeapi_v2,,,,,,,,,,,,,,,,,,,,0
be3bb7e2a1b292a9b75f1e3d,下沉广场,休闲娱乐,休闲广场,河南省,郑州市,金水区,河南省郑州市金水区金水东路51号楷林中心8座,,1,0,113.76671,34.771286,,life,http://api.map.baidu.com/place/detail?uid=be3bb7e2a1b292a9b75f1e3d&output=html&source=placeapi_v2,,,,,,,,,,,,,,,,,,,,0
f0dadce2bdc94dec0ab93a93,阿伟啤酒广场,休闲娱乐,休闲广场,河南省,郑州市,金水区,郑州市金水区金水东路贾岗社区,,1,0,113.790955,34.779529,,life,http://api.map.baidu.com/place/detail?uid=f0dadce2bdc94dec0ab93a93&output=html&source=placeapi_v2,,,,,,,,,,1,,,,,,,,113.79103300762,34.779331499181,0
17ccca307f3cbd3c15c9051a,下沉广场,休闲娱乐,休闲广场,河南省,郑州市,金水区,河南省郑州市金水区明理路266号,,1,0,113.815605,34.800303,,life,http://api.map.baidu.com/place/detail?uid=17ccca307f3cbd3c15c9051a&output=html&source=placeapi_v2,,,,,,,,,,,,,,,,,,113.81486258157,34.79987104224,0
1e58a590bd29e06217764307,风雅广场,休闲娱乐,休闲广场,河南省,郑州市,金水区,郑州市金水区内环东路河南财经政法大学(郑东校区),1e58a590bd29e06217764307,1,0,113.829098,34.787643,,life,http://api.map.baidu.com/place/detail?uid=1e58a590bd29e06217764307&output=html&source=placeapi_v2,,,0,,,,,,,1,0,,,,,,,113.82929573345,34.787264239963,0
abcb42fc2c5c7f760bccddfe,滨水广场,休闲娱乐,休闲广场,河南省,郑州市,金水区,郑州市金水区平安大道与龙子湖西路交叉口龙子湖公园,,1,0,113.803162,34.792813,,life,http://api.map.baidu.com/place/detail?uid=abcb42fc2c5c7f760bccddfe&output=html&source=placeapi_v2,,,,,,,,,,,,,,,,,,,,0
38ef8e87f2e57494d81318ab,生活广场,休闲娱乐,休闲广场,河南省,郑州市,中牟县,郑州市中牟县永顺路恒一雅居,38ef8e87f2e57494d81318ab,1,0,113.862804,34.774674,,life,http://api.map.baidu.com/place/detail?uid=38ef8e87f2e57494d81318ab&output=html&source=placeapi_v2,,,,,,,,,,13,1,,,,,,,,,0
567b9e2c9f55a294e015f98e,团沙广场,休闲娱乐,休闲广场,河南省,郑州市,中牟县,郑州市中牟县大孟镇石狮冉郑州牟山湿地公园北园,,1,0,114.032954,34.7746,,life,http://api.map.baidu.com/place/detail?uid=567b9e2c9f55a294e015f98e&output=html&source=placeapi_v2,,,,,,,,,,,,,,,,,,,,0
60f75117b7fcc29cab0dd87a,滨水广场,休闲娱乐,休闲广场,河南省,郑州市,中牟县,郑州市中牟县大孟镇石狮冉郑州牟山湿地公园北园,,1,0,114.02467,34.771211,,life,http://api.map.baidu.com/place/detail?uid=60f75117b7fcc29cab0dd87a&output=html&source=placeapi_v2,,,,,,,,,,,,,,,,,,,,0
2bbcbab263e065e33586f491,河洛广场,休闲娱乐,休闲广场,河南省,郑州市,巩义市,郑州市巩义市河洛镇寺弯村石窟寺南侧偃月古城,,1,0,113.035833,34.812282,,life,http://api.map.baidu.com/place/detail?uid=2bbcbab263e065e33586f491&output=html&source=placeapi_v2,,,,,,,,,,,,,,,,,,,,0
0f385b28fa179b265cd4feb4,戏曲广场,休闲娱乐,休闲广场,河南省,郑州市,巩义市,郑州市巩义市河洛镇寺弯村石窟寺南侧偃月古城,,1,0,113.037066,34.8123,,life,http://api.map.baidu.com/place/detail?uid=0f385b28fa179b265cd4feb4&output=html&source=placeapi_v2,,,,,,,,,,,,,,,,,,,,0
be93149c6d6fd70796f08cbf,十二生肖广场,休闲娱乐,休闲广场,河南省,郑州市,巩义市,郑州市巩义市河洛镇寺弯村石窟寺南侧偃月古城,,1,0,113.035287,34.811896,,life,http://api.map.baidu.com/place/detail?uid=be93149c6d6fd70796f08cbf&output=html&source=placeapi_v2,,,,,,,,,,,,,,,,,,,,0
a08bc6e444f3dabfb21e3685,老君堂文化广场,休闲娱乐,休闲广场,河南省,郑州市,荥阳市,郑州市荥阳市G30连霍高速,a08bc6e444f3dabfb21e3685,1,0,113.225979,34.834775,,life,http://api.map.baidu.com/place/detail?uid=a08bc6e444f3dabfb21e3685&output=html&source=placeapi_v2,,,0.0,,,,,,,,0,,,,,,,113.22568045004,34.834834989513,0
e521beb9f43dc7b081a12e25,樱花后街,休闲娱乐,休闲广场,河南省,郑州市,上街区,郑州市上街区孟津路与许昌路交叉口西北150米,e521beb9f43dc7b081a12e25,1,2,113.292807,34.813396,,life,http://api.map.baidu.com/place/detail?uid=e521beb9f43dc7b081a12e25&output=html&source=placeapi_v2,,,,,,,,,,1,,,,,,,,113.29214673048,34.811863262243,2
e96b4420d64a542783288a93,人民广场,休闲娱乐,休闲广场,河南省,郑州市,上街区,河南省郑州市上街区中心路与廿峡线交叉口南150米,e96b4420d64a542783288a93,1,2,113.314834,34.807633,,life,http://api.map.baidu.com/place/detail?uid=e96b4420d64a542783288a93&output=html&source=placeapi_v2,,,3.0,,,,,,,5,2,,,,,,,113.3152909602,34.808570179859,2
3ccc50a8f41eb32540024501,交叉口中盟财富中心广场,休闲娱乐,休闲广场,河南省,郑州市,上街区,河南省郑州市上街区登封路许昌路交叉口中盟财富中心广场,3ccc50a8f41eb32540024501,1,0,113.302058,34.808266,,life,http://api.map.baidu.com/place/detail?uid=3ccc50a8f41eb32540024501&output=html&source=placeapi_v2,,,,,,,,,,,,,,,,,,113.30249457665,34.808134529299,0
c879fa013b71bf4ac909f05e,世纪广场(中心路),休闲娱乐,休闲广场,河南省,郑州市,荥阳市,河南省郑州市荥阳市中心路155号西北方向90米,c879fa013b71bf4ac909f05e,1,0,113.330227,34.812525,,life,http://api.map.baidu.com/place/detail?uid=c879fa013b71bf4ac909f05e&output=html&source=placeapi_v2,,,3,,,,,,,7,2,,,,,,,113.33176838683,34.812737321995,0
198f188966f95164f4eafc4f,西史村四组中心广场,休闲娱乐,休闲广场,河南省,郑州市,荥阳市,河南省郑州市荥阳市,,1,0,113.334714,34.826201,,life,http://api.map.baidu.com/place/detail?uid=198f188966f95164f4eafc4f&output=html&source=placeapi_v2,,,,,,,,,,2,,,,,,,,,,0
0b8fa5a31561713fce04eff6,张楼行政村文化广场,休闲娱乐,休闲广场,河南省,郑州市,荥阳市,郑州市荥阳市,,1,0,113.382307,34.812337,,life,http://api.map.baidu.com/place/detail?uid=0b8fa5a31561713fce04eff6&output=html&source=placeapi_v2,,,,,,,,,,1,,,,,,,,113.38229966626,34.812734443682,0
4174607c509bf10aeedfca14,贺寨文化广场,休闲娱乐,休闲广场,河南省,郑州市,荥阳市,郑州市荥阳市桃贾路,4174607c509bf10aeedfca14,1,0,113.456679,34.828911,,life,http://api.map.baidu.com/place/detail?uid=4174607c509bf10aeedfca14&output=html&source=placeapi_v2,,,0.0,,,,,,,,0,,,,,,,113.45653020205,34.828976416818,0
89a6e377d33712abca1b9543,天健广场,休闲娱乐,休闲广场,河南省,郑州市,中原区,郑州市中原区沟赵乡枫香西街与七叶路交叉口路北天健湖公园,89a6e377d33712abca1b9543,1,0,113.489609,34.820891,,life,http://api.map.baidu.com/place/detail?uid=89a6e377d33712abca1b9543&output=html&source=placeapi_v2,,,,,,,,,,,,,,,,,,113.48962102772,34.820389178077,0
845a97db35d49a442f473343,五星广场,休闲娱乐,休闲广场,河南省,郑州市,中原区,河南郑州市中原区科学大道100号,845a97db35d49a442f473343,1,0,113.542038,34.815276,,life,http://api.map.baidu.com/place/detail?uid=845a97db35d49a442f473343&output=html&source=placeapi_v2,,,5.0,,,,,,,4,2,,,,,,,113.54198176202,34.814996435981,0
2f2e080ceec05bb4b6147f63,郑州大学新校区-圆形广场,休闲娱乐,休闲广场,河南省,郑州市,中原区,河南郑州市中原区科学大道100号,,1,0,113.539354,34.828778,,life,http://api.map.baidu.com/place/detail?uid=2f2e080ceec05bb4b6147f63&output=html&source=placeapi_v2,,,,,,,,,,,,,,,,,,113.53938423259,34.828596638696,0
3fb593fbd10faa1ac51b7598,中心广场,休闲娱乐,休闲广场,河南省,郑州市,中原区,郑州市中原区银屏路与银杏路交叉口西100米,,1,0,113.565376,34.826424,,life,http://api.map.baidu.com/place/detail?uid=3fb593fbd10faa1ac51b7598&output=html&source=placeapi_v2,,,4.7,,,,,,,14,7,,,,,,,113.56393526353,34.825338324935,0
db818bfe67e9ff99cb09f018,小蜜蜂智慧服务中心(高新区保利文化广场服务中心),休闲娱乐,休闲广场,河南省,郑州市,中原区,河南郑州市中原区科学大道保利文化广场1号楼,,1,0,113.565651,34.817751,,life,http://api.map.baidu.com/place/detail?uid=db818bfe67e9ff99cb09f018&output=html&source=placeapi_v2,,,,,,,,,,5,,,,,,,,,,0
2e6d832c3a14284d7bf79626,启明广场,休闲娱乐,休闲广场,河南省,郑州市,中原区,河南省郑州市中原区科学大道100号,2e6d832c3a14284d7bf79626,1,0,113.547099,34.822917,,life,http://api.map.baidu.com/place/detail?uid=2e6d832c3a14284d7bf79626&output=html&source=placeapi_v2,,,0,,,,,,,,0,,,,,,,113.54739735129,34.823190153717,0
35d4e8602e57fff22eb17e8f,八角星广场,休闲娱乐,休闲广场,河南省,郑州市,中原区,郑州市中原区西湖花园西郑州绿谷・质量文化公园,,1,0,113.600664,34.814995,,life,http://api.map.baidu.com/place/detail?uid=35d4e8602e57fff22eb17e8f&output=html&source=placeapi_v2,,,,,,,,,,,,,,,,,,,,0
03fded0b2b770586471a325d,九鼎广场,休闲娱乐,休闲广场,河南省,郑州市,中原区,郑州市中原区西湖花园西郑州绿谷・质量文化公园,,1,0,113.597684,34.813719,,life,http://api.map.baidu.com/place/detail?uid=03fded0b2b770586471a325d&output=html&source=placeapi_v2,,,,,,,,,,,,,,,,,,,,0
08a7d5f016365fab36b06c05,早喷广场,休闲娱乐,休闲广场,河南省,郑州市,中原区,郑州市中原区西湖花园西郑州绿谷・质量文化公园,,1,0,113.600248,34.814501,,life,http://api.map.baidu.com/place/detail?uid=08a7d5f016365fab36b06c05&output=html&source=placeapi_v2,,,,,,,,,,,,,,,,,,,,0
76818793a8ed6c107169d397,绿荫广场,休闲娱乐,休闲广场,河南省,郑州市,金水区,郑州市金水区东风路与天明路交叉路口往北约170米,76818793a8ed6c107169d397,1,0,113.649275,34.806647,,life,http://api.map.baidu.com/place/detail?uid=76818793a8ed6c107169d397&output=html&source=placeapi_v2,,,5,,,,,,,6,2,,,,,,,113.64871793853,34.805906243809,0
00d920a64b84c766eddfcacc,驻春园,休闲娱乐,休闲广场,河南省,郑州市,金水区,河南省郑州市金水区索凌路,,1,0,113.643986,34.813571,,life,http://api.map.baidu.com/place/detail?uid=00d920a64b84c766eddfcacc&output=html&source=placeapi_v2,,,5.0,,,,,,,3,1,,,,,,,,,0
e7cbef6c13a5a0397ec876bb,慕尼黑自酿啤酒广场,休闲娱乐,休闲广场,河南省,郑州市,金水区,郑州市金水区东风路瀚海海尚,e7cbef6c13a5a0397ec876bb,1,0,113.653466,34.806161,,life,http://api.map.baidu.com/place/detail?uid=e7cbef6c13a5a0397ec876bb&output=html&source=placeapi_v2,,,,,,,,,,,,,,,,,,,,0
f565f5847a8c166c35b06c49,21世纪社区-健身广场,休闲娱乐,休闲广场,河南省,郑州市,金水区,河南省郑州市金水区郑花路59号世纪社区14号楼,,1,0,113.692341,34.822274,,life,http://api.map.baidu.com/place/detail?uid=f565f5847a8c166c35b06c49&output=html&source=placeapi_v2,,,0.0,,,,,,,,,,,,,,,113.69358716689,34.822821799309,0
5ea61c8f244cf3e72fb908dd,万通广场,休闲娱乐,休闲广场,河南省,郑州市,金水区,宏明路与花园北路交叉口西北100米,5ea61c8f244cf3e72fb908dd,1,1,113.688267,34.830569,,life,http://api.map.baidu.com/place/detail?uid=5ea61c8f244cf3e72fb908dd&output=html&source=placeapi_v2,,,0,,,,,,,3,1,,,,,,,113.68725368365,34.830064630262,1
e939197c9df12c292806ce86,安泰家园健身广场,休闲娱乐,休闲广场,河南省,郑州市,金水区,河南省郑州市金水区安泰嘉园(福彩路东90米),e939197c9df12c292806ce86,1,0,113.706203,34.809541,,life,http://api.map.baidu.com/place/detail?uid=e939197c9df12c292806ce86&output=html&source=placeapi_v2,,,,,,,,,,1,,,,,,,,113.70644738941,34.809540335064,0
7fe6bcfd1d2b72fa6e20b9a1,入口广场,休闲娱乐,休闲广场,河南省,郑州市,金水区,郑州市金水区众意路西100米西运河公园,,1,0,113.725241,34.813135,,life,http://api.map.baidu.com/place/detail?uid=7fe6bcfd1d2b72fa6e20b9a1&output=html&source=placeapi_v2,,,,,,,,,,,,,,,,,,113.72515593385,34.813203017722,0
8dec883f72a2b221fa0cad7e,节点广场,休闲娱乐,休闲广场,河南省,郑州市,金水区,郑州市金水区众意路西100米西运河公园,,1,0,113.731025,34.807773,,life,http://api.map.baidu.com/place/detail?uid=8dec883f72a2b221fa0cad7e&output=html&source=placeapi_v2,,,,,,,,,,,,,,,,,,113.73144433293,34.807773767392,0
a36c279428ea6b1f306212a7,入口台阶广场,休闲娱乐,休闲广场,河南省,郑州市,金水区,郑州市金水区众意路西100米西运河公园,,1,0,113.728648,34.805717,,life,http://api.map.baidu.com/place/detail?uid=a36c279428ea6b1f306212a7&output=html&source=placeapi_v2,,,,,,,,,,,,,,,,,,113.72858201267,34.805446819422,0
2efada6739497295a6da3976,郑东新区规划纪念广场,休闲娱乐,休闲广场,河南省,郑州市,金水区,郑州市金水区龙湖内环路东商业公园龙湖公共艺术中心,,1,0,113.756663,34.818694,,life,http://api.map.baidu.com/place/detail?uid=2efada6739497295a6da3976&output=html&source=placeapi_v2,,,,,,,,,,1,4,,,,,,,113.75761317796,34.818034509573,0
438c1982d8aa147788db733b,新密虾尾啤酒广场,休闲娱乐,休闲广场,河南省,郑州市,中牟县,郑州市中牟县通惠路宁馨苑小区南侧约130米,,1,0,113.897501,34.805953,,life,http://api.map.baidu.com/place/detail?uid=438c1982d8aa147788db733b&output=html&source=placeapi_v2,,,,,,,,,,1,,,,,,,,113.89723748788,34.806025214096,0
3f26a23ccbbf1245a80dd814,董岗村文化活动广场,休闲娱乐,休闲广场,河南省,郑州市,中牟县,郑州市中牟县兆祥路,,1,0,113.968475,34.823578,,life,http://api.map.baidu.com/place/detail?uid=3f26a23ccbbf1245a80dd814&output=html&source=placeapi_v2,,,,,,,,,,,,,,,,,,,,0
f825d4f5bf91cb9cb1077dca,武庄文化广场,休闲娱乐,休闲广场,河南省,郑州市,上街区,河南省郑州市上街区安阳路二期1号楼,f825d4f5bf91cb9cb1077dca,1,0,113.277679,34.839151,,life,http://api.map.baidu.com/place/detail?uid=f825d4f5bf91cb9cb1077dca&output=html&source=placeapi_v2,,,0.0,,,,,,,,,,,,,,,113.2775973729,34.838757445316,0
9e366ad4b8b04945da2f2847,插闫村文化广场,休闲娱乐,休闲广场,河南省,郑州市,荥阳市,郑州市荥阳市,9e366ad4b8b04945da2f2847,1,0,113.484399,34.856276,,life,http://api.map.baidu.com/place/detail?uid=9e366ad4b8b04945da2f2847&output=html&source=placeapi_v2,,,0.0,,,,,,,1,,,,,,,,113.48440115946,34.856490165157,0
ec664b10511fd6e4626858fa,天悦滨河广场,休闲娱乐,休闲广场,河南省,郑州市,金水区,郑州市金水区杭州路南50米,ec664b10511fd6e4626858fa,1,0,113.654017,34.845634,,life,http://api.map.baidu.com/place/detail?uid=ec664b10511fd6e4626858fa&output=html&source=placeapi_v2,,,2,,,,,,,3,2,,,,,,,113.65433306661,34.845826659753,0
06d2bc6ed3e1ebe34207c140,新田花园广场,休闲娱乐,休闲广场,河南省,郑州市,金水区,郑州市金水区临花路与纬一路交叉路口往西北约240米,06d2bc6ed3e1ebe34207c140,1,0,113.68412,34.84354,,life,http://api.map.baidu.com/place/detail?uid=06d2bc6ed3e1ebe34207c140&output=html&source=placeapi_v2,,,0,,,,,,,,1,,,,,,,113.6840207441,34.84270088763,0
fa01e937b31ce94a774ff1fa,鹿港广场,休闲娱乐,休闲广场,河南省,郑州市,金水区,河南省郑州市金水区郑花路116号,fa01e937b31ce94a774ff1fa,1,1,113.685063,34.840803,,life,http://api.map.baidu.com/place/detail?uid=fa01e937b31ce94a774ff1fa&output=html&source=placeapi_v2,,,1,,,,,,,3,2,,,,,,,113.68532928867,34.840861098567,1
ca5fb15c1dd9202e4f3a597c,清水苑广场,休闲娱乐,休闲广场,河南省,郑州市,金水区,河南省郑州市金水区鸿宝路鸿苑路68-5号,ca5fb15c1dd9202e4f3a597c,1,0,113.810565,34.838802,,life,http://api.map.baidu.com/place/detail?uid=ca5fb15c1dd9202e4f3a597c&output=html&source=placeapi_v2,,,,,,,,,,3,,,,,,,,113.81049273219,34.838751310702,0
6663b8c1ff88bd898bdb734e,樱缘广场,休闲娱乐,休闲广场,河南省,郑州市,荥阳市,郑州市荥阳市连霍高速古柏渡飞黄旅游区内丰乐樱花园,,1,0,113.245099,34.881305,,life,http://api.map.baidu.com/place/detail?uid=6663b8c1ff88bd898bdb734e&output=html&source=placeapi_v2,,,,,,,,,,,,,,,,,,,,0
3c2fd2dca8a2ea9f9d9d68da,景区入口广场,休闲娱乐,休闲广场,河南省,郑州市,荥阳市,郑州市荥阳市连霍高速古柏渡飞黄旅游区内丰乐樱花园,,1,0,113.246639,34.880354,,life,http://api.map.baidu.com/place/detail?uid=3c2fd2dca8a2ea9f9d9d68da&output=html&source=placeapi_v2,,,,,,,,,,,,,,,,,,,,0
950273e98be654c1230262ee,盛樱广场,休闲娱乐,休闲广场,河南省,郑州市,荥阳市,郑州市荥阳市连霍高速古柏渡飞黄旅游区内丰乐樱花园,,1,0,113.244786,34.881944,,life,http://api.map.baidu.com/place/detail?uid=950273e98be654c1230262ee&output=html&source=placeapi_v2,,,,,,,,,,,,,,,,,,,,0
0e9510665ea8d3f4ab175a98,美食广场,休闲娱乐,休闲广场,河南省,郑州市,荥阳市,河南省郑州市荥阳市露门山路32号32491室,,1,0,113.244484,34.897386,,life,http://api.map.baidu.com/place/detail?uid=0e9510665ea8d3f4ab175a98&output=html&source=placeapi_v2,,,,,,,,,,,,,,,,,,,,0
8b6385a53528c8ed1d58001a,文化广场(中共荥阳市王村镇委员会东南),休闲娱乐,休闲广场,河南省,郑州市,荥阳市,314省道附近,,1,0,113.284119,34.88419,,life,http://api.map.baidu.com/place/detail?uid=8b6385a53528c8ed1d58001a&output=html&source=placeapi_v2,,,,,,,,,,,,,,,,,,113.28409479869,34.884638369621,0
2f9d3674a71bf041f8dc8525,木楼文化广场,休闲娱乐,休闲广场,河南省,郑州市,荥阳市,郑州市荥阳市S314荥阳市王村镇第二小学南侧约180米,2f9d3674a71bf041f8dc8525,1,1,113.316212,34.89286,,life,http://api.map.baidu.com/place/detail?uid=2f9d3674a71bf041f8dc8525&output=html&source=placeapi_v2,,,0.0,,,,,,,1,0,,,,,,,113.31602816899,34.892879069373,1
d96ce0273fb0a24ea80dd84d,广武大樱桃园,休闲娱乐,休闲广场,河南省,郑州市,荥阳市,河南省郑州市荥阳市S314,,1,0,113.412265,34.900332,,life,http://api.map.baidu.com/place/detail?uid=d96ce0273fb0a24ea80dd84d&output=html&source=placeapi_v2,,,0,,,,,,,2,0,,,,,,,,,0
53ea66981c25b6f0e115f9c6,月湖广场A馆,休闲娱乐,休闲广场,河南省,郑州市,惠济区,郑州市惠济区开元路惠济万达广场,53ea66981c25b6f0e115f9c6,1,0,113.644006,34.877205,,life,http://api.map.baidu.com/place/detail?uid=53ea66981c25b6f0e115f9c6&output=html&source=placeapi_v2,,,0,,,,,,,3,1,,,,,,,113.64398571361,34.877434961329,0
f8b78953ff7420ca9868b42a,牛口峪村文化广场,休闲娱乐,休闲广场,河南省,郑州市,荥阳市,郑州市荥阳市,,1,0,113.343878,34.924121,,life,http://api.map.baidu.com/place/detail?uid=f8b78953ff7420ca9868b42a&output=html&source=placeapi_v2,,,5,,,,,,,,1,,,,,,,113.34385512071,34.924309935859,0
15a93810cc3c54c014c8f65b,草坪广场,休闲娱乐,休闲广场,河南省,郑州市,惠济区,郑州市惠济区古荥镇黄河南岸86号思念果岭国际社区近,,1,0,113.526338,34.918718,,life,http://api.map.baidu.com/place/detail?uid=15a93810cc3c54c014c8f65b&output=html&source=placeapi_v2,,,0.0,,,,,,,,,,,,,,,113.52659270348,34.918293059416,0
d9538b0a8d3f1f85b01e36b8,思念果岭国际草坪广场,休闲娱乐,休闲广场,河南省,郑州市,惠济区,郑州市惠济区古荥镇黄河南岸86号思念果岭国际社区近,,1,0,113.526338,34.918718,,life,http://api.map.baidu.com/place/detail?uid=d9538b0a8d3f1f85b01e36b8&output=html&source=placeapi_v2,,,,,,,,,,,,,,,,,,113.52679595768,34.918505609343,0
1a8197084e7521cb4207c1a6,文化苑,休闲娱乐,休闲广场,河南省,郑州市,惠济区,河南省郑州市惠济区文化苑(邙岭大道东120米),,1,0,113.533555,34.937397,,life,http://api.map.baidu.com/place/detail?uid=1a8197084e7521cb4207c1a6&output=html&source=placeapi_v2,,,0.0,,,,,,,,,,,,,,,,,0
9d08691ed35324cb6849f387,南裹头广场,休闲娱乐,休闲广场,河南省,郑州市,惠济区,郑州市惠济区黄河大堤路,,1,0,113.619435,34.935131,,life,http://api.map.baidu.com/place/detail?uid=9d08691ed35324cb6849f387&output=html&source=placeapi_v2,,,4.4,,,,,,,40,19,,,,,,,113.61972890826,34.933505284729,0
2be8a0a1ef89645e740269d5,郑州黄河国家湿地公园-入口广场,休闲娱乐,休闲广场,河南省,郑州市,惠济区,郑州市惠济区黄河大坝路郑州黄河国家湿地公园,,1,0,113.657544,34.913263,,life,http://api.map.baidu.com/place/detail?uid=2be8a0a1ef89645e740269d5&output=html&source=placeapi_v2,,,,,,,,,,,,,,,,,,113.65745387068,34.913061455409,0
