uid,name,cat_L1,cat_L2,province,city,area,address,street_id,detail,child_num,loc_lng,loc_lat,telephone,type,detail_url,price,shop_hours,overall_rating,taste_rating,service_rating,environment_rating,facility_rating,hygiene_rating,technology_rating,image_num,comment_num,groupon_num,discount_num,favorite_num,checkin_num,brand,content_tag,naviloc_lng,naviloc_lat,child_num
86aa2c57a131d56fdc1e52c0,报刊亭,生活服务,报刊亭,山东省,济南市,莱芜区,山东省济南市莱芜区花园南路54,,1,0,117.689128,36.211447,,life,http://api.map.baidu.com/place/detail?uid=86aa2c57a131d56fdc1e52c0&output=html&source=placeapi_v2,,,,,,,,,,,,,,,,,,,,0
183c0630b3411c9821026242,报刊亭,生活服务,报刊亭,山东省,济南市,莱芜区,济南市莱芜区鲁中西大街文化广场,,1,0,117.681581,36.218215,,life,http://api.map.baidu.com/place/detail?uid=183c0630b3411c9821026242&output=html&source=placeapi_v2,,,,,,,,,,,,,,,,,,,,0
183c0630b3411c9821026242,报刊亭,生活服务,报刊亭,山东省,济南市,莱芜区,济南市莱芜区鲁中西大街文化广场,,1,0,117.681581,36.218215,,life,http://api.map.baidu.com/place/detail?uid=183c0630b3411c9821026242&output=html&source=placeapi_v2,,,,,,,,,,,,,,,,,,,,0
eeb31bb6596cf8e3abf7296b,济南大学(舜耕校区)-书报亭,生活服务,报刊亭,山东省,济南市,市中区,济南市市中区舜耕路济南大学(舜耕校区),,1,0,117.026257,36.636017,,life,http://api.map.baidu.com/place/detail?uid=eeb31bb6596cf8e3abf7296b&output=html&source=placeapi_v2,,,,,,,,,,0,1,,,,,,,,,0
663bed8817a0739d3586f4f4,报刊亭,生活服务,报刊亭,山东省,济南市,历下区,山东济南市历下区趵突泉北路23号工人新村28组团6-3104室,663bed8817a0739d3586f4f4,1,0,117.024082,36.667627,,life,http://api.map.baidu.com/place/detail?uid=663bed8817a0739d3586f4f4&output=html&source=placeapi_v2,,,,,,,,,,,,,,,,,,117.02433707116,36.667703319853,0
4b4c4aad536ceb85a204649f,报刊亭,生活服务,报刊亭,山东省,济南市,市中区,山东省济南市市中区经一路64号,,1,0,117.001103,36.674081,,life,http://api.map.baidu.com/place/detail?uid=4b4c4aad536ceb85a204649f&output=html&source=placeapi_v2,,,,,,,,,,,,,,,,,,,,0
