uid,name,cat_L1,cat_L2,province,city,area,address,street_id,detail,child_num,loc_lng,loc_lat,telephone,type,detail_url,price,shop_hours,overall_rating,taste_rating,service_rating,environment_rating,facility_rating,hygiene_rating,technology_rating,image_num,comment_num,groupon_num,discount_num,favorite_num,checkin_num,brand,content_tag,naviloc_lng,naviloc_lat,child_num
8ee10592e709f8929f09f7d7,西关商贸楼,房地产,写字楼,山东省,济南市,莱芜区,济南市莱芜区北坛南路交运苑西侧约50米,,1,0,117.659051,36.21022,"(0531)75631288,13506341606",house,http://api.map.baidu.com/place/detail?uid=8ee10592e709f8929f09f7d7&output=html&source=placeapi_v2,,,,,,,,,,,,,,,,,,,,0
24f69167c1985e5bad045794,银座写字间,房地产,写字楼,山东省,济南市,莱芜区,山东省济南市莱芜区文化南路8号银座商城F1,24f69167c1985e5bad045794,1,1,117.683884,36.216863,(0531)78778188,house,http://api.map.baidu.com/place/detail?uid=24f69167c1985e5bad045794&output=html&source=placeapi_v2,,,0,,,,,,,,,,,,,,,117.68377785771,36.216813864416,1
bb242cab6cd8ed43c5effbfc,正顺写字楼,房地产,写字楼,山东省,济南市,莱芜区,济南市莱芜区鲁中西大街新东方华庭,,1,0,117.679989,36.21728,,house,http://api.map.baidu.com/place/detail?uid=bb242cab6cd8ed43c5effbfc&output=html&source=placeapi_v2,,,,,,,,,,,,,,,,,,,,0
f61b889b2bfd7247c51b7583,金缔大厦,房地产,写字楼,山东省,济南市,莱芜区,济南市莱芜区花园南路28号,f61b889b2bfd7247c51b7583,1,0,117.684767,36.2146,(0531)76281888,house,http://api.map.baidu.com/place/detail?uid=f61b889b2bfd7247c51b7583&output=html&source=placeapi_v2,,,,,,,,,,,,,,,,,,,,0
c5ddcc081c6529c7d81318df,莱芜区劳动大厦,房地产,写字楼,山东省,济南市,莱芜区,山东省济南市莱芜区凤城东大街60号,c5ddcc081c6529c7d81318df,1,2,117.690239,36.210856,,house,http://api.map.baidu.com/place/detail?uid=c5ddcc081c6529c7d81318df&output=html&source=placeapi_v2,,,0,,,,,,,,,,,,,,,117.69014891168,36.211062835356,2
fb127d652f61494e26d2bb90,劳服大厦,房地产,写字楼,山东省,济南市,莱芜区,山东省济南市莱芜区鹏泉西大街137号院,fb127d652f61494e26d2bb90,1,0,117.668979,36.214084,,house,http://api.map.baidu.com/place/detail?uid=fb127d652f61494e26d2bb90&output=html&source=placeapi_v2,,,,,,,,,,,,,,,,,,117.66898872802,36.213943830667,0
6c795fd5659053a28f55ec03,蓝天大厦,房地产,写字楼,山东省,济南市,莱芜区,济南市莱芜区文化南路168号,6c795fd5659053a28f55ec03,1,0,117.683495,36.210356,,house,http://api.map.baidu.com/place/detail?uid=6c795fd5659053a28f55ec03&output=html&source=placeapi_v2,,,,,,,,,,,,,,,,,,117.68343456128,36.210369591927,0
f630586cd669d79da1046446,市机关办公大楼,房地产,写字楼,山东省,济南市,莱芜区,山东省济南市莱芜区文化北路1号,f630586cd669d79da1046446,1,0,117.683221,36.219356,,house,http://api.map.baidu.com/place/detail?uid=f630586cd669d79da1046446&output=html&source=placeapi_v2,,,,,,,,,,,,,,,,,,,,0
e98b5ea86b1773ce5b10933f,莱芜大厦,房地产,写字楼,山东省,济南市,莱芜区,济南市莱芜区文化北路1号,e98b5ea86b1773ce5b10933f,1,0,117.682361,36.219889,,house,http://api.map.baidu.com/place/detail?uid=e98b5ea86b1773ce5b10933f&output=html&source=placeapi_v2,,,0,,,,,,,,,,,,,,,117.68230501576,36.219594494448,0
1afa94a436db52974e554716,东风贸易大楼,房地产,写字楼,山东省,济南市,莱芜区,济南市莱芜区凤城西大街金贝儿艺术幼儿园东侧约170米,,1,0,117.670878,36.20866,,house,http://api.map.baidu.com/place/detail?uid=1afa94a436db52974e554716&output=html&source=placeapi_v2,,,,,,,,,,,,,,,,,,,,0
bba87388843860a1bca822df,泰钢光明大厦,房地产,写字楼,山东省,济南市,莱芜区,济南市莱芜区鹏泉东大街35号,bba87388843860a1bca822df,1,1,117.689157,36.214826,,house,http://api.map.baidu.com/place/detail?uid=bba87388843860a1bca822df&output=html&source=placeapi_v2,,,0,,,,,,,,,,,,,,,117.68905297895,36.214644561565,1
015b07b0378474fb88fc06f5,爱好眯孔办公楼,房地产,写字楼,山东省,济南市,莱芜区,山东省济南市莱芜区鲁中东大街5号,015b07b0378474fb88fc06f5,1,0,117.686156,36.217767,,house,http://api.map.baidu.com/place/detail?uid=015b07b0378474fb88fc06f5&output=html&source=placeapi_v2,,,,,,,,,,,,,,,,,,,,0
b507ab1a109eaacc354aaeb7,济南市劳动服务大厦,房地产,写字楼,山东省,济南市,莱芜区,山东省济南市莱芜区胜利南路如家酒店(胜利南路店)北侧约200米,b507ab1a109eaacc354aaeb7,1,0,117.669919,36.213821,,house,http://api.map.baidu.com/place/detail?uid=b507ab1a109eaacc354aaeb7&output=html&source=placeapi_v2,,,,,,,,,,,,,,,,,,,,0
0feba20d72226e046849f331,珠宝大厦,房地产,写字楼,山东省,济南市,莱芜区,济南市莱芜区凤城西大街大鑫珠宝大厦,0feba20d72226e046849f331,1,0,117.669242,36.209064,,house,http://api.map.baidu.com/place/detail?uid=0feba20d72226e046849f331&output=html&source=placeapi_v2,,,,,,,,,,,,,,,,,,,,0
dffd631c18922dbd38221cdf,农信大厦,房地产,写字楼,山东省,济南市,莱芜区,济南市莱芜区鲁中东大街28号,dffd631c18922dbd38221cdf,1,0,117.688883,36.217757,,house,http://api.map.baidu.com/place/detail?uid=dffd631c18922dbd38221cdf&output=html&source=placeapi_v2,,,3.7,,,,,,,,,,,,,,,117.68889325485,36.217953724716,0
125ef9a0caa9997188b98855,人保大厦,房地产,写字楼,山东省,济南市,莱芜区,山东省济南市莱芜区鲁中东大街15号馨百酒店人保大厦,125ef9a0caa9997188b98855,1,0,117.688557,36.21865,,house,http://api.map.baidu.com/place/detail?uid=125ef9a0caa9997188b98855&output=html&source=placeapi_v2,,,,,,,,,,,,,,,,,,,,0
8558a8179642cec66849f3d9,九羊大厦,房地产,写字楼,山东省,济南市,莱芜区,济南市莱芜区大众街与鲁中西大街交叉路口东南侧,8558a8179642cec66849f3d9,1,1,117.674327,36.217498,,house,http://api.map.baidu.com/place/detail?uid=8558a8179642cec66849f3d9&output=html&source=placeapi_v2,,,1,,,,,,,,,,,,,,,117.67445551442,36.21792766529,1
2a7a25ec3b39d5626c3e1bdf,华贸汽车大厦,房地产,写字楼,山东省,济南市,莱芜区,山东省济南市莱芜区鲁中东大街8号,2a7a25ec3b39d5626c3e1bdf,1,1,117.685217,36.217695,(0531)76280666,house,http://api.map.baidu.com/place/detail?uid=2a7a25ec3b39d5626c3e1bdf&output=html&source=placeapi_v2,,,5,,,,,,,,,,,,,,,117.68542074351,36.217940914334,1
ef91346cbb59c2d6b817e767,莱芜区中心,房地产,写字楼,山东省,济南市,莱芜区,济南市莱芜区公园路济南市莱芜区人民政府,,1,0,117.682235,36.219986,,house,http://api.map.baidu.com/place/detail?uid=ef91346cbb59c2d6b817e767&output=html&source=placeapi_v2,,,5,,,,,,,,,,,,,,,117.68225196992,36.219595929852,0
942af3726c2b9b17a80dd856,嘉信大厦(鹏泉东大街),房地产,写字楼,山东省,济南市,莱芜区,山东省济南市莱芜区鹏泉东大街60号,942af3726c2b9b17a80dd856,1,1,117.692341,36.21444,,house,http://api.map.baidu.com/place/detail?uid=942af3726c2b9b17a80dd856&output=html&source=placeapi_v2,,,0,,,,,,,,,,,,,,,117.69192677776,36.214329918641,1
32bf9ec6e56b6699c61b75db,山东莱芜强盛五金机电大厦,房地产,写字楼,山东省,济南市,莱芜区,山东省济南市莱芜区鲁中西大街5号,32bf9ec6e56b6699c61b75db,1,2,117.67569,36.218312,(0531)75966066,shopping,http://api.map.baidu.com/place/detail?uid=32bf9ec6e56b6699c61b75db&output=html&source=placeapi_v2,,,2.5,,,,,,,,2,,,,,,,117.67566758726,36.21799428101,2
0ebabb926380c57c1b94c62c,电脑大厦,房地产,写字楼,山东省,济南市,莱芜区,山东省济南市莱芜区鲁中西大街22号,0ebabb926380c57c1b94c62c,1,2,117.67532,36.218353,(0531)76117678,house,http://api.map.baidu.com/place/detail?uid=0ebabb926380c57c1b94c62c&output=html&source=placeapi_v2,,,3,,,,,,,,,,,,,,,117.67531848328,36.217996370867,2
504d6113b0b239b2465726df,新世纪广场,房地产,写字楼,山东省,济南市,莱芜区,济南市莱芜区汇源大街108号,504d6113b0b239b2465726df,1,0,117.722687,36.205483,,house,http://api.map.baidu.com/place/detail?uid=504d6113b0b239b2465726df&output=html&source=placeapi_v2,,,0,,,,,,,,,,,,,,,117.7227503455,36.205672256437,0
e74350adc8380f858405bf73,济南市高创中心,房地产,写字楼,山东省,济南市,莱芜区,济南市莱芜区汇源大街49号附近,,1,2,117.725308,36.206843,,house,http://api.map.baidu.com/place/detail?uid=e74350adc8380f858405bf73&output=html&source=placeapi_v2,,,1,,,,,,,,,,,,,,,117.72413423454,36.207020454836,2
334cea51795bf5032911d153,广电大厦,房地产,写字楼,山东省,济南市,莱芜区,济南市莱芜区汶河大道,334cea51795bf5032911d153,1,2,117.715432,36.208721,,house,http://api.map.baidu.com/place/detail?uid=334cea51795bf5032911d153&output=html&source=placeapi_v2,,,,,,,,,,,,,,,,,,117.71610293413,36.209306564293,2
f27d977e620cdf69b5f42f17,莱芜艺术大厦,房地产,写字楼,山东省,济南市,莱芜区,济南市莱芜区鹏泉东大街154号,f27d977e620cdf69b5f42f17,1,1,117.713875,36.214464,,house,http://api.map.baidu.com/place/detail?uid=f27d977e620cdf69b5f42f17&output=html&source=placeapi_v2,,,,,,,,,,,,,,,,,,117.71387484182,36.214674959303,1
4ea3f2f12d2da8d7aecb66c5,金石科技大厦,房地产,写字楼,山东省,济南市,莱芜区,山东省济南市莱芜区鹏泉东大街188号,4ea3f2f12d2da8d7aecb66c5,1,1,117.731136,36.214446,"(0531)75607008,(0531)75607067",house,http://api.map.baidu.com/place/detail?uid=4ea3f2f12d2da8d7aecb66c5&output=html&source=placeapi_v2,,,,,,,,,,,,,,,,,,117.73113785369,36.214642057399,1
07701aadff265be8725e80e8,金盾大厦,房地产,写字楼,山东省,济南市,莱芜区,山东省济南市莱芜区鲁中东大街莱芜京莱医院东侧约290米,07701aadff265be8725e80e8,1,2,117.728111,36.218401,15263442628,house,http://api.map.baidu.com/place/detail?uid=07701aadff265be8725e80e8&output=html&source=placeapi_v2,,,0,,,,,,,,,,,,,,,,,2
29d526c3b847ba1e43e1920f,冯家林集贸楼,房地产,写字楼,山东省,济南市,莱芜区,山东省济南市莱芜区鲁中东大街冯家林集贸楼,,1,0,117.721069,36.217302,,house,http://api.map.baidu.com/place/detail?uid=29d526c3b847ba1e43e1920f&output=html&source=placeapi_v2,,,,,,,,,,,,,,,,,,,,0
c237dd4948f210c61894c681,山能电器科技楼,房地产,写字楼,山东省,济南市,莱芜区,济南市莱芜区盘龙河大街001号,c237dd4948f210c61894c681,1,0,117.741891,36.207372,,house,http://api.map.baidu.com/place/detail?uid=c237dd4948f210c61894c681&output=html&source=placeapi_v2,,,,,,,,,,,,,,,,,,,,0
9338d1ad149cf1780bf5eb28,泰山钢铁集团办公大楼,房地产,写字楼,山东省,济南市,莱芜区,济南市莱芜区汶秀北路与汶源西大街交叉路口往东北约180米,,1,0,117.630135,36.22976,(0531)76117211,house,http://api.map.baidu.com/place/detail?uid=9338d1ad149cf1780bf5eb28&output=html&source=placeapi_v2,,,5,,,,,,,,,,,,,,,117.630162959,36.228648922781,0
eb21fba6618f3ea59ef7797e,泽宏彭魄商务楼,房地产,写字楼,山东省,济南市,莱芜区,龙潭西大街004号附近,eb21fba6618f3ea59ef7797e,1,0,117.678386,36.232678,,house,http://api.map.baidu.com/place/detail?uid=eb21fba6618f3ea59ef7797e&output=html&source=placeapi_v2,,,,,,,,,,,,,,,,,,,,0
3a0fbba82f4ddc409ee321df,图书大厦,房地产,写字楼,山东省,济南市,莱芜区,济南市莱芜区龙潭西大街2号,3a0fbba82f4ddc409ee321df,1,1,117.68361,36.232407,,house,http://api.map.baidu.com/place/detail?uid=3a0fbba82f4ddc409ee321df&output=html&source=placeapi_v2,,,0,,,,,,,,,,,,,,,117.68372665609,36.232838486299,1
c2ccb2df319241ae130daa55,政商集团大厦,房地产,写字楼,山东省,济南市,莱芜区,山东省济南市莱芜区长勺北路185号,,1,0,117.675602,36.236422,15563431391,house,http://api.map.baidu.com/place/detail?uid=c2ccb2df319241ae130daa55&output=html&source=placeapi_v2,,,,,,,,,,,,,,,,,,117.67558414187,36.23651579508,0
623a5bfe9ef16c445bf6be11,房管大厦,房地产,写字楼,山东省,济南市,莱芜区,济南市莱芜区文化北路10号,623a5bfe9ef16c445bf6be11,1,2,117.683957,36.221075,,house,http://api.map.baidu.com/place/detail?uid=623a5bfe9ef16c445bf6be11&output=html&source=placeapi_v2,,,3,,,,,,,,,,,,,,,117.68363015652,36.221159131938,2
cf00cc9055a6bd2701897292,寅昊光济办公楼,房地产,写字楼,山东省,济南市,莱芜区,济南市莱芜区文化北路建设大厦,cf00cc9055a6bd2701897292,1,0,117.684049,36.241717,,house,http://api.map.baidu.com/place/detail?uid=cf00cc9055a6bd2701897292&output=html&source=placeapi_v2,,,,,,,,,,,,,,,,,,,,0
49a02a7a76296a412b201adf,建设大厦,房地产,写字楼,山东省,济南市,莱芜区,济南市莱芜区,49a02a7a76296a412b201adf,1,2,117.68364,36.24145,,house,http://api.map.baidu.com/place/detail?uid=49a02a7a76296a412b201adf&output=html&source=placeapi_v2,,,1,,,,,,,,,,,,,,,117.68425602753,36.241182036243,2
814bf084142ae6827369d3e6,石花园写字楼,房地产,写字楼,山东省,济南市,莱芜区,济南市莱芜区龙升街石花园生活小区西侧约80米,814bf084142ae6827369d3e6,1,0,117.688855,36.231357,,house,http://api.map.baidu.com/place/detail?uid=814bf084142ae6827369d3e6&output=html&source=placeapi_v2,,,,,,,,,,,,,,,,,,,,0
247dbfc13fcb9596c17da21f,颐高创业大厦,房地产,写字楼,山东省,济南市,莱芜区,济南市莱芜区文化北路安泰首府东南侧约60米,,1,0,117.684067,36.24402,,house,http://api.map.baidu.com/place/detail?uid=247dbfc13fcb9596c17da21f&output=html&source=placeapi_v2,,,,,,,,,,,,,,,,,,,,0
bb242cab6cd8ed43c5effbfc,正顺写字楼,房地产,写字楼,山东省,济南市,莱芜区,济南市莱芜区鲁中西大街新东方华庭,,1,0,117.679989,36.21728,,house,http://api.map.baidu.com/place/detail?uid=bb242cab6cd8ed43c5effbfc&output=html&source=placeapi_v2,,,,,,,,,,,,,,,,,,,,0
f630586cd669d79da1046446,市机关办公大楼,房地产,写字楼,山东省,济南市,莱芜区,山东省济南市莱芜区文化北路1号,f630586cd669d79da1046446,1,0,117.683221,36.219356,,house,http://api.map.baidu.com/place/detail?uid=f630586cd669d79da1046446&output=html&source=placeapi_v2,,,,,,,,,,,,,,,,,,,,0
9166a4394882a47078f79681,恒丰大厦,房地产,写字楼,山东省,济南市,莱芜区,济南市莱芜区龙潭东大街39号,9166a4394882a47078f79681,1,1,117.689587,36.233406,,house,http://api.map.baidu.com/place/detail?uid=9166a4394882a47078f79681&output=html&source=placeapi_v2,,,,,,,,,,,,,,,,,,117.68953414013,36.233199869861,1
f577f98ba6ae53fa14b54b4c,长鑫商务楼,房地产,写字楼,山东省,济南市,莱芜区,济南市莱芜区凤城街道长勺北路69号,f577f98ba6ae53fa14b54b4c,1,1,117.674303,36.227799,,house,http://api.map.baidu.com/place/detail?uid=f577f98ba6ae53fa14b54b4c&output=html&source=placeapi_v2,,,0,,,,,,,,,,,,,,,117.67447679078,36.227902088214,1
2542e09a903cfa762afc480e,嬴昊财富广场,房地产,写字楼,山东省,济南市,莱芜区,山东省济南市莱芜区长勺北路77号,,1,0,117.674181,36.229716,,house,http://api.map.baidu.com/place/detail?uid=2542e09a903cfa762afc480e&output=html&source=placeapi_v2,,,,,,,,,,,,,,,,,,,,0
69fcd6dfc1043c2eca2915df,保险大厦,房地产,写字楼,山东省,济南市,莱芜区,济南市莱芜区文化北路40号,69fcd6dfc1043c2eca2915df,1,1,117.684407,36.227863,,house,http://api.map.baidu.com/place/detail?uid=69fcd6dfc1043c2eca2915df&output=html&source=placeapi_v2,,,5,,,,,,,,,,,,,,,117.68405062818,36.227680203201,1
a844de445a506c4836b06c98,运营大厦,房地产,写字楼,山东省,济南市,莱芜区,山东省济南市莱芜区龙潭东大街57号,a844de445a506c4836b06c98,1,1,117.689326,36.233738,,house,http://api.map.baidu.com/place/detail?uid=a844de445a506c4836b06c98&output=html&source=placeapi_v2,,,,,,,,,,,,,,,,,,,,1
7cadbbebcd48c0058bb9888f,莲河置业大厦,房地产,写字楼,山东省,济南市,莱芜区,济南市莱芜区赢牟东大街99号,7cadbbebcd48c0058bb9888f,1,0,117.688163,36.246192,,house,http://api.map.baidu.com/place/detail?uid=7cadbbebcd48c0058bb9888f&output=html&source=placeapi_v2,,,,,,,,,,,,,,,,,,117.68799871413,36.246085330329,0
e98b5ea86b1773ce5b10933f,莱芜大厦,房地产,写字楼,山东省,济南市,莱芜区,济南市莱芜区文化北路1号,e98b5ea86b1773ce5b10933f,1,0,117.682361,36.219889,,house,http://api.map.baidu.com/place/detail?uid=e98b5ea86b1773ce5b10933f&output=html&source=placeapi_v2,,,0,,,,,,,,,,,,,,,117.68230501576,36.219594494448,0
a7c56ee0c4f7b6cea3acc4c4,广润大厦,房地产,写字楼,山东省,济南市,莱芜区,山东省济南市莱芜区花园北路34号,a7c56ee0c4f7b6cea3acc4c4,1,2,117.690854,36.22226,,house,http://api.map.baidu.com/place/detail?uid=a7c56ee0c4f7b6cea3acc4c4&output=html&source=placeapi_v2,,,0,,,,,,,,,,,,,,,117.69109213246,36.222149634288,2
125ef9a0caa9997188b98855,人保大厦,房地产,写字楼,山东省,济南市,莱芜区,山东省济南市莱芜区鲁中东大街15号馨百酒店人保大厦,125ef9a0caa9997188b98855,1,0,117.688557,36.21865,,house,http://api.map.baidu.com/place/detail?uid=125ef9a0caa9997188b98855&output=html&source=placeapi_v2,,,,,,,,,,,,,,,,,,,,0
c9734a83a1a954b08af15d5a,祥云大厦,房地产,写字楼,山东省,济南市,莱芜区,山东省济南市莱芜区花园北路98号,,1,0,117.691724,36.227401,(0531)76137788,house,http://api.map.baidu.com/place/detail?uid=c9734a83a1a954b08af15d5a&output=html&source=placeapi_v2,,,,,,,,,,,,,,,,,,117.69141647195,36.22742199389,0
ef91346cbb59c2d6b817e767,莱芜区中心,房地产,写字楼,山东省,济南市,莱芜区,济南市莱芜区公园路济南市莱芜区人民政府,,1,0,117.682235,36.219986,,house,http://api.map.baidu.com/place/detail?uid=ef91346cbb59c2d6b817e767&output=html&source=placeapi_v2,,,5,,,,,,,,,,,,,,,117.68225196992,36.219595929852,0
3bdeae1cd40a9d13d5b74e06,莱芜区信誉楼商厦有限公司,房地产,写字楼,山东省,济南市,莱芜区,山东省济南市莱芜区信誉楼商厦有限公司,,1,0,117.685718,36.247538,,house,http://api.map.baidu.com/place/detail?uid=3bdeae1cd40a9d13d5b74e06&output=html&source=placeapi_v2,,,,,,,,,,,,,,,,,,,,0
54f2436ad921bba46140a977,平安保险大厦,房地产,写字楼,山东省,济南市,莱芜区,济南市莱芜区龙潭东大街81号,54f2436ad921bba46140a977,1,0,117.698586,36.233225,,house,http://api.map.baidu.com/place/detail?uid=54f2436ad921bba46140a977&output=html&source=placeapi_v2,,,,,,,,,,,,,,,,,,117.69865586486,36.233147511904,0
2a7a25ec3b39d5626c3e1bdf,华贸汽车大厦,房地产,写字楼,山东省,济南市,莱芜区,山东省济南市莱芜区鲁中东大街8号,2a7a25ec3b39d5626c3e1bdf,1,1,117.685217,36.217695,(0531)76280666,house,http://api.map.baidu.com/place/detail?uid=2a7a25ec3b39d5626c3e1bdf&output=html&source=placeapi_v2,,,5,,,,,,,,,,,,,,,117.68542074351,36.217940914334,1
32bf9ec6e56b6699c61b75db,山东莱芜强盛五金机电大厦,房地产,写字楼,山东省,济南市,莱芜区,山东省济南市莱芜区鲁中西大街5号,32bf9ec6e56b6699c61b75db,1,2,117.67569,36.218312,(0531)75966066,shopping,http://api.map.baidu.com/place/detail?uid=32bf9ec6e56b6699c61b75db&output=html&source=placeapi_v2,,,2.5,,,,,,,,2,,,,,,,117.67566758726,36.21799428101,2
0ebabb926380c57c1b94c62c,电脑大厦,房地产,写字楼,山东省,济南市,莱芜区,山东省济南市莱芜区鲁中西大街22号,0ebabb926380c57c1b94c62c,1,2,117.67532,36.218353,(0531)76117678,house,http://api.map.baidu.com/place/detail?uid=0ebabb926380c57c1b94c62c&output=html&source=placeapi_v2,,,3,,,,,,,,,,,,,,,117.67531848328,36.217996370867,2
bf599e87911f9c0a6d20b9a4,人防大楼,房地产,写字楼,山东省,济南市,莱芜区,济南市莱芜区黄山路1号,bf599e87911f9c0a6d20b9a4,1,0,117.732831,36.233401,,house,http://api.map.baidu.com/place/detail?uid=bf599e87911f9c0a6d20b9a4&output=html&source=placeapi_v2,,,,,,,,,,,,,,,,,,117.73280045729,36.233314906324,0
917a4b6774b7130ac336444e,东硕大厦,房地产,写字楼,山东省,济南市,莱芜区,济南市莱芜区汇河大道,,1,1,117.610252,36.3003,,house,http://api.map.baidu.com/place/detail?uid=917a4b6774b7130ac336444e&output=html&source=placeapi_v2,,,,,,,,,,,,,,,,,,117.61023393415,36.299583667358,1
afd58834422ee2c4774ff1bf,莱芜口镇新政府办公楼,房地产,写字楼,山东省,济南市,莱芜区,济南市莱芜区澳门南路济南市莱芜区口镇派出所西侧约100米,afd58834422ee2c4774ff1bf,1,0,117.629406,36.311893,,house,http://api.map.baidu.com/place/detail?uid=afd58834422ee2c4774ff1bf&output=html&source=placeapi_v2,,,5,,,,,,,,,,,,,,,117.62939436937,36.311617674424,0
ea902cc4b5b14047d8d891f6,金族鞋服商座,房地产,写字楼,山东省,济南市,莱芜区,区吐丝口东路济南市第二中学南200米,ea902cc4b5b14047d8d891f6,1,0,117.628067,36.322438,,house,http://api.map.baidu.com/place/detail?uid=ea902cc4b5b14047d8d891f6&output=html&source=placeapi_v2,,,,,,,,,,,,,,,,,,,,0
f92c296ea620ee412902e1db,张夏供销大楼,房地产,写字楼,山东省,济南市,长清区,济南市长清区张夏南街济南市公安局长清区分局张夏派出所西侧约170米,f92c296ea620ee412902e1db,1,0,116.906757,36.456115,15105419988,house,http://api.map.baidu.com/place/detail?uid=f92c296ea620ee412902e1db&output=html&source=placeapi_v2,,,,,,,,,,,,,,,,,,,,0
06fb466ead009916bfa8221f,西城软件园-A3座,房地产,写字楼,山东省,济南市,长清区,济南市长清区海棠路8588号西城软件园,,1,0,116.813979,36.512573,(0531)59898087,house,http://api.map.baidu.com/place/detail?uid=06fb466ead009916bfa8221f&output=html&source=placeapi_v2,,,,,,,,,,,,,,,,,,,,0
d7f4188af341e96702294f8c,西城软件园-A2座,房地产,写字楼,山东省,济南市,长清区,山东省济南市长清区海棠路8588号,,1,0,116.814433,36.513021,(0531)59898087,house,http://api.map.baidu.com/place/detail?uid=d7f4188af341e96702294f8c&output=html&source=placeapi_v2,,,,,,,,,,,,,,,,,,,,0
96b1401b5e4a3a655cbe864d,创新谷-A3座,房地产,写字楼,山东省,济南市,长清区,济南市长清区海棠路济南高新区创新谷发展中心,,1,0,116.813908,36.512916,,house,http://api.map.baidu.com/place/detail?uid=96b1401b5e4a3a655cbe864d&output=html&source=placeapi_v2,,,,,,,,,,,,,,,,,,,,0
dce18fc760cde15f41d63e43,西城软件园A1座,房地产,写字楼,山东省,济南市,长清区,济南市长清区海棠路8588号西城软件园A1,dce18fc760cde15f41d63e43,1,0,116.813868,36.514141,(0531)59898087,house,http://api.map.baidu.com/place/detail?uid=dce18fc760cde15f41d63e43&output=html&source=placeapi_v2,,,,,,,,,,,,,,,,,,116.81375468465,36.514211800129,0
548f7e75e138a54ef8f0cb24,西城软件园-D座,房地产,写字楼,山东省,济南市,长清区,山东省济南市长清区海棠路8588号西城软件园,548f7e75e138a54ef8f0cb24,1,0,116.811834,36.513846,(0531)59898087,house,http://api.map.baidu.com/place/detail?uid=548f7e75e138a54ef8f0cb24&output=html&source=placeapi_v2,,,,,,,,,,,,,,,,,,,,0
555f7725aceef884b23c813d,创新大厦,房地产,写字楼,山东省,济南市,长清区,山东省济南市长清区芙蓉路辅路,555f7725aceef884b23c813d,1,3,116.846107,36.515441,,house,http://api.map.baidu.com/place/detail?uid=555f7725aceef884b23c813d&output=html&source=placeapi_v2,,,,,,,,,,,,,,,,,,116.84628969866,36.514976477532,3
65406eff67f265b290114cfb,智慧南山运营中心,房地产,写字楼,山东省,济南市,历城区,济南市历城区S103绿锦园西北侧约200米,65406eff67f265b290114cfb,1,0,117.023573,36.508861,,house,http://api.map.baidu.com/place/detail?uid=65406eff67f265b290114cfb&output=html&source=placeapi_v2,,,,,,,,,,,,,,,,,,,,0
69e5c688161f72d2b14c4917,农业科技大楼,房地产,写字楼,山东省,济南市,历城区,山东省济南市历城区农业科技大楼(济南市仲宫镇政府西),69e5c688161f72d2b14c4917,1,0,117.030925,36.504711,,house,http://api.map.baidu.com/place/detail?uid=69e5c688161f72d2b14c4917&output=html&source=placeapi_v2,,,,,,,,,,,,,,,,,,117.03084593687,36.504707993274,0
bd59e030a663217f3a13fdbc,财富广场,房地产,写字楼,山东省,济南市,历城区,济南市历城区88路车终点站,bd59e030a663217f3a13fdbc,1,0,117.025527,36.506375,,house,http://api.map.baidu.com/place/detail?uid=bd59e030a663217f3a13fdbc&output=html&source=placeapi_v2,,,,,,,,,,,,,,,,,,,,0
7f1202fce8c1c1221c1d1116,凤凰北区E商业楼,房地产,写字楼,山东省,济南市,长清区,凤凰北区E商业楼,7f1202fce8c1c1221c1d1116,1,0,116.766262,36.548569,,house,http://api.map.baidu.com/place/detail?uid=7f1202fce8c1c1221c1d1116&output=html&source=placeapi_v2,,,,,,,,,,,,,,,,,,116.76645504402,36.548520790989,0
8b4a16554ae02e8e78f79631,凤凰北区D商业楼,房地产,写字楼,山东省,济南市,长清区,凤凰北区D商业楼,8b4a16554ae02e8e78f79631,1,0,116.766985,36.548426,,house,http://api.map.baidu.com/place/detail?uid=8b4a16554ae02e8e78f79631&output=html&source=placeapi_v2,,,,,,,,,,,,,,,,,,,,0
504d6113b02739b246572650,长泰大厦,房地产,写字楼,山东省,济南市,长清区,济南市长清区大学路8076号,504d6113b02739b246572650,1,1,116.769237,36.564323,,house,http://api.map.baidu.com/place/detail?uid=504d6113b02739b246572650&output=html&source=placeapi_v2,,,,,,,,,,,,,,,,,,116.7690447016,36.564451479879,1
ff6051edd2992f1f86420e54,国泰大厦,房地产,写字楼,山东省,济南市,长清区,济南市长清区中川街14-16号附近,ff6051edd2992f1f86420e54,1,0,116.761514,36.565335,(0531)87268888,house,http://api.map.baidu.com/place/detail?uid=ff6051edd2992f1f86420e54&output=html&source=placeapi_v2,,,,,,,,,,,,,,,,,,116.7612330818,36.565654936429,0
fee304b370f60115ad31e599,明珠国际广场,房地产,写字楼,山东省,济南市,长清区,山东省济南市长清区大学路7588号,fee304b370f60115ad31e599,1,1,116.774943,36.563688,(0531)87266111,house,http://api.map.baidu.com/place/detail?uid=fee304b370f60115ad31e599&output=html&source=placeapi_v2,,,,,,,,,,,,,,,,,,116.7749937496,36.564119233111,1
a6747c69c32940e1d7851fd6,大舜商务中心,房地产,写字楼,山东省,济南市,长清区,济南市长清区凤凰路2589号大舜商务中心,a6747c69c32940e1d7851fd6,1,0,116.778782,36.567561,,house,http://api.map.baidu.com/place/detail?uid=a6747c69c32940e1d7851fd6&output=html&source=placeapi_v2,,,,,,,,,,,,,,,,,,,,0
c5fec932bffb18cf52e5c59f,华天大厦,房地产,写字楼,山东省,济南市,长清区,济南市长清区莲台山路1303号,c5fec932bffb18cf52e5c59f,1,1,116.765726,36.562481,,house,http://api.map.baidu.com/place/detail?uid=c5fec932bffb18cf52e5c59f&output=html&source=placeapi_v2,,,,,,,,,,,,,,,,,,116.76605796065,36.562648634024,1
59be9a2ed8dbfb5109b93a01,汇富大厦,房地产,写字楼,山东省,济南市,长清区,长清区凤凰路4119正北方向140米,59be9a2ed8dbfb5109b93a01,1,1,116.774819,36.555388,,house,http://api.map.baidu.com/place/detail?uid=59be9a2ed8dbfb5109b93a01&output=html&source=placeapi_v2,,,,,,,,,,,,,,,,,,116.7744971223,36.555450773062,1
8e5d3f15a20bb9c3471a32e8,麒麟大厦,房地产,写字楼,山东省,济南市,长清区,济南市长清区中川街10号,8e5d3f15a20bb9c3471a32e8,1,0,116.761787,36.565307,,house,http://api.map.baidu.com/place/detail?uid=8e5d3f15a20bb9c3471a32e8&output=html&source=placeapi_v2,,,0.0,,,,,,,,,,,,,,,,,0
a8185461a1f5f903f4e73b94,坤伦大厦,房地产,写字楼,山东省,济南市,长清区,济南市长清区经十西路16336号,a8185461a1f5f903f4e73b94,1,1,116.762249,36.563586,,house,http://api.map.baidu.com/place/detail?uid=a8185461a1f5f903f4e73b94&output=html&source=placeapi_v2,,,,,,,,,,,,,,,,,,116.76211903831,36.563613802997,1
bef90b7a52d119611811d511,港基大厦,房地产,写字楼,山东省,济南市,长清区,中川街长清实验小学对面,bef90b7a52d119611811d511,1,0,116.762795,36.564876,,house,http://api.map.baidu.com/place/detail?uid=bef90b7a52d119611811d511&output=html&source=placeapi_v2,,,5,,,,,,,,,,,,,,,116.76232764102,36.564336795642,0
5508504d0143eccac7f02550,人口大厦,房地产,写字楼,山东省,济南市,长清区,济南市长清区经十西路16233号,5508504d0143eccac7f02550,1,2,116.761483,36.564639,,house,http://api.map.baidu.com/place/detail?uid=5508504d0143eccac7f02550&output=html&source=placeapi_v2,,,0,,,,,,,,,,,,,,,116.76175016711,36.564524288971,2
9a94f6ffedbb2272acee7a10,供销大厦,房地产,写字楼,山东省,济南市,长清区,文昌街道济南市长清区五峰路与清河街交叉路口富群百货一楼原供销大厦,9a94f6ffedbb2272acee7a10,1,0,116.753243,36.560249,,house,http://api.map.baidu.com/place/detail?uid=9a94f6ffedbb2272acee7a10&output=html&source=placeapi_v2,,,,,,,,,,,,,,,,,,116.75348336513,36.560198793775,0
f0f143e15be968309fec2bd7,营销中心,房地产,写字楼,山东省,济南市,长清区,济南市长清区牛山路恒大绿洲运动中心-1期,f0f143e15be968309fec2bd7,1,0,116.783885,36.565185,,house,http://api.map.baidu.com/place/detail?uid=f0f143e15be968309fec2bd7&output=html&source=placeapi_v2,,,,,,,,,,,,,,,,,,,,0
521c3fd1aecff9202f4733d3,长清银河商厦综合楼,房地产,写字楼,山东省,济南市,长清区,济南市长清区清河街1335号,521c3fd1aecff9202f4733d3,1,0,116.76177,36.559371,,house,http://api.map.baidu.com/place/detail?uid=521c3fd1aecff9202f4733d3&output=html&source=placeapi_v2,,,,,,,,,,,,,,,,,,,,0
f9df14f82219a55c43ab9ab8,长清县运输公司综合楼,房地产,写字楼,山东省,济南市,长清区,济南市长清区中川街长运小区,f9df14f82219a55c43ab9ab8,1,0,116.753476,36.566666,,house,http://api.map.baidu.com/place/detail?uid=f9df14f82219a55c43ab9ab8&output=html&source=placeapi_v2,,,,,,,,,,,,,,,,,,,,0
a1b5dde87427a508a5da391e,广材综合楼,房地产,写字楼,山东省,济南市,长清区,济南市长清区经十西路17413号,a1b5dde87427a508a5da391e,1,0,116.758767,36.554246,,house,http://api.map.baidu.com/place/detail?uid=a1b5dde87427a508a5da391e&output=html&source=placeapi_v2,,,,,,,,,,,,,,,,,,,,0
00586108d6dd62d846e274d3,粮贸大厦(清河街),房地产,写字楼,山东省,济南市,长清区,济南市长清区文昌街道清河街2229号,00586108d6dd62d846e274d3,1,1,116.751664,36.56131,,house,http://api.map.baidu.com/place/detail?uid=00586108d6dd62d846e274d3&output=html&source=placeapi_v2,,,,,,,,,,,,,,,,,,116.75140890193,36.561323317311,1
750368356d6d4dd25e0d02d1,大柿子园社区龙泉大厦,房地产,写字楼,山东省,济南市,长清区,济南市长清区龙泉街1346号,750368356d6d4dd25e0d02d1,1,1,116.759388,36.5531,,house,http://api.map.baidu.com/place/detail?uid=750368356d6d4dd25e0d02d1&output=html&source=placeapi_v2,,,0,,,,,,,,,,,,,,,116.75943673578,36.55329407113,1
4855f7ba1e50d0f6932ca3b3,齐鲁工业大学长清校区实验楼-B座,房地产,写字楼,山东省,济南市,长清区,济南市长清区崮云湖街道大学路中段齐鲁工业大学长清校区,4855f7ba1e50d0f6932ca3b3,1,0,116.816942,36.561962,,house,http://api.map.baidu.com/place/detail?uid=4855f7ba1e50d0f6932ca3b3&output=html&source=placeapi_v2,,,,,,,,,,,,,,,,,,116.81678528627,36.562150826541,0
f95ca807c28ecd72c92915f7,济南西部创新园-A座,房地产,写字楼,山东省,济南市,长清区,山东省济南市长清区紫薇路2687号,f95ca807c28ecd72c92915f7,1,0,116.82523,36.559923,(0531)87236956,house,http://api.map.baidu.com/place/detail?uid=f95ca807c28ecd72c92915f7&output=html&source=placeapi_v2,,,,,,,,,,,,,,,,,,116.82523555907,36.560055144552,0
444733b9b31c9b851fe99901,齐鲁工业大学长清校区实验楼-A座,房地产,写字楼,山东省,济南市,长清区,济南市长清区泰和西路齐鲁工业大学(山东省科学院)(长清校区),444733b9b31c9b851fe99901,1,0,116.816797,36.561349,,house,http://api.map.baidu.com/place/detail?uid=444733b9b31c9b851fe99901&output=html&source=placeapi_v2,,,,,,,,,,,,,,,,,,116.81678502756,36.561135772662,0
9d7c3fd42c809af2bfa822c0,济南西部创新园-B座,房地产,写字楼,山东省,济南市,长清区,山东省济南市长清区紫薇路2687号,9d7c3fd42c809af2bfa822c0,1,0,116.825786,36.561023,(0531)87236956,house,http://api.map.baidu.com/place/detail?uid=9d7c3fd42c809af2bfa822c0&output=html&source=placeapi_v2,,,,,,,,,,,,,,,,,,116.82612241837,36.561125293632,0
d329ca992d61b746e6073857,济南西部创新园-C座,房地产,写字楼,山东省,济南市,长清区,济南市长清区紫薇路2687号,d329ca992d61b746e6073857,1,0,116.825722,36.561497,(0531)87236956,house,http://api.map.baidu.com/place/detail?uid=d329ca992d61b746e6073857&output=html&source=placeapi_v2,,,0,,,,,,,,,,,,,,,116.82581904353,36.561277725704,0
971bba136f441548d33ce34a,大学城商业街1区-5号楼,房地产,写字楼,山东省,济南市,长清区,山东省济南市长清区大学城商业街1区5号楼,05d8af332e9c506a9b68b4eb,1,0,116.824165,36.563129,,house,http://api.map.baidu.com/place/detail?uid=971bba136f441548d33ce34a&output=html&source=placeapi_v2,,,,,,,,,,,,,,,,,,116.82435375812,36.563115746407,0
59107eca032efa8a4c6d465e,大学城商业街8号楼,房地产,写字楼,山东省,济南市,长清区,山东省济南市长清区大学城商业街8号楼,59107eca032efa8a4c6d465e,1,0,116.824273,36.565437,,house,http://api.map.baidu.com/place/detail?uid=59107eca032efa8a4c6d465e&output=html&source=placeapi_v2,,,,,,,,,,,,,,,,,,116.82437643405,36.565656663675,0
60b736f65b9d72e581a00ce4,济南西部创新园-5号楼,房地产,写字楼,山东省,济南市,长清区,济南市长清区西部创新园5号楼,60b736f65b9d72e581a00ce4,1,0,116.825242,36.561733,,house,http://api.map.baidu.com/place/detail?uid=60b736f65b9d72e581a00ce4&output=html&source=placeapi_v2,,,,,,,,,,,,,,,,,,,,0
9dfd71480a6dc584acee7a45,常春藤智安中心,房地产,写字楼,山东省,济南市,长清区,济南市长清区紫薇路鲁商・常春藤西门东侧约90米,,1,0,116.827885,36.554035,,house,http://api.map.baidu.com/place/detail?uid=9dfd71480a6dc584acee7a45&output=html&source=placeapi_v2,,,,,,,,,,,,,,,,,,,,0
e29ff2248b8c1d77b4f42fa5,南汝小区-2临时,房地产,写字楼,山东省,济南市,长清区,济南市长清区紫薇路南汝小区,e29ff2248b8c1d77b4f42fa5,1,0,116.804929,36.579442,,house,http://api.map.baidu.com/place/detail?uid=e29ff2248b8c1d77b4f42fa5&output=html&source=placeapi_v2,,,,,,,,,,,,,,,,,,116.80488270323,36.579312198069,0
f5019037dc793b0c9cec2bf8,长清商会大厦,房地产,写字楼,山东省,济南市,长清区,济南市长清区经十西路晶恒工业园西北侧约110米,f5019037dc793b0c9cec2bf8,1,0,116.778436,36.584868,,house,http://api.map.baidu.com/place/detail?uid=f5019037dc793b0c9cec2bf8&output=html&source=placeapi_v2,,,,,,,,,,,,,,,,,,,,0
f074359a567dc2452906ce94,王宿铺文化大楼,房地产,写字楼,山东省,济南市,长清区,济南市长清区文清路联东U谷东南侧约140米,f074359a567dc2452906ce94,1,0,116.78104,36.588807,,house,http://api.map.baidu.com/place/detail?uid=f074359a567dc2452906ce94&output=html&source=placeapi_v2,,,,,,,,,,,,,,,,,,,,0
9cadf130f59beebc97ec84e6,范村车辆基地控制中心大楼,房地产,写字楼,山东省,济南市,长清区,济南市长清区G35济广高速附近,,1,0,116.839143,36.590935,,house,http://api.map.baidu.com/place/detail?uid=9cadf130f59beebc97ec84e6&output=html&source=placeapi_v2,,,,,,,,,,,,,,,,,,116.83803409945,36.590429793023,0
9f7139a4d2391d53c9fa5fcc,兆津商务,房地产,写字楼,山东省,济南市,市中区,济南市市中区党杨路济南西山汽配城,,1,0,116.900997,36.601409,13335112004,house,http://api.map.baidu.com/place/detail?uid=9f7139a4d2391d53c9fa5fcc&output=html&source=placeapi_v2,,,,,,,,,,,,,,,,,,,,0
c21d7515cd941164f119374d,经纬综合楼,房地产,写字楼,山东省,济南市,市中区,济南市市中区党杨路山东华洋职业学院南侧约180米,,1,0,116.906695,36.598063,,house,http://api.map.baidu.com/place/detail?uid=c21d7515cd941164f119374d&output=html&source=placeapi_v2,,,,,,,,,,,,,,,,,,,,0
0bd4d16b23812a8d17b54b01,学生公寓办公楼出租,房地产,写字楼,山东省,济南市,市中区,济南市市中区京岚线蓝天幼儿园实验园东北侧约40米,0bd4d16b23812a8d17b54b01,1,0,116.900299,36.588325,,house,http://api.map.baidu.com/place/detail?uid=0bd4d16b23812a8d17b54b01&output=html&source=placeapi_v2,,,,,,,,,,,,,,,,,,,,0
74f53dfbd04199f7b6147f11,领秀城e中心一楼底商2-112,房地产,写字楼,山东省,济南市,市中区,济南市市中区舜耕路领秀城菜市场东侧约60米,,1,0,117.018719,36.600532,,house,http://api.map.baidu.com/place/detail?uid=74f53dfbd04199f7b6147f11&output=html&source=placeapi_v2,,,,,,,,,,,,,,,,,,117.01828315318,36.600518043344,0
637df60a9813467140afe6e0,山东投资大厦,房地产,写字楼,山东省,济南市,市中区,济南市市中区二环南路2169号,637df60a9813467140afe6e0,1,2,117.014358,36.60407,,house,http://api.map.baidu.com/place/detail?uid=637df60a9813467140afe6e0&output=html&source=placeapi_v2,,,0,,,,,,,,,,,,,,,117.01517107794,36.603870474128,2
434b0205eb892bb36849f33c,领秀城睦邻中心,房地产,写字楼,山东省,济南市,市中区,济南市市中区领仁路贵和金街,434b0205eb892bb36849f33c,1,0,117.011506,36.60026,13864080569,house,http://api.map.baidu.com/place/detail?uid=434b0205eb892bb36849f33c&output=html&source=placeapi_v2,,,,,,,,,,,,,,,,,,117.0109472625,36.60015906731,0
29e2cb6b8537ab94c6effbc3,济南巡警办公楼,房地产,写字楼,山东省,济南市,市中区,济南市市中区二环南路2011号,,1,0,117.015666,36.60399,,house,http://api.map.baidu.com/place/detail?uid=29e2cb6b8537ab94c6effbc3&output=html&source=placeapi_v2,,,,,,,,,,,,,,,,,,,,0
4ad90ff81c30f2a34d776eac,市政设计大厦,房地产,写字楼,山东省,济南市,市中区,山东省济南市市中区二环南路3377号市政设计大厦,4ad90ff81c30f2a34d776eac,1,1,117.003906,36.605466,(0531)82704207,house,http://api.map.baidu.com/place/detail?uid=4ad90ff81c30f2a34d776eac&output=html&source=placeapi_v2,,,5,,,,,,,,,,,,,,,117.00394012559,36.605367712162,1
a4ee9f1963557f9e704b873d,科创大厦,房地产,写字楼,山东省,济南市,市中区,济南市市中区绿地新都会2号楼,,1,0,117.004778,36.605325,(0531)58170888,house,http://api.map.baidu.com/place/detail?uid=a4ee9f1963557f9e704b873d&output=html&source=placeapi_v2,,,5,,,,,,,,,,,,,,,,,0
be3609891f24f2fc8405bf29,正大南环国际中心,房地产,写字楼,山东省,济南市,市中区,山东省济南市市中区二环南路889号(普利利源花园北侧),be3609891f24f2fc8405bf29,1,0,117.002622,36.604226,(0531)62367777,house,http://api.map.baidu.com/place/detail?uid=be3609891f24f2fc8405bf29&output=html&source=placeapi_v2,,,,,,,,,,,,,,,,,,,,0
dd503e979297540d8f55ec80,济南国际创新设计产业园B1座,房地产,写字楼,山东省,济南市,市中区,济南市市中区舜耕路济南国际创新设计产业园,dd503e979297540d8f55ec80,1,0,117.017484,36.607533,,house,http://api.map.baidu.com/place/detail?uid=dd503e979297540d8f55ec80&output=html&source=placeapi_v2,,,,,,,,,,,,,,,,,,,,0
7d5244c2b077ce9208f5eb2d,质监大厦,房地产,写字楼,山东省,济南市,市中区,山东省济南市市中区英雄山路238号,7d5244c2b077ce9208f5eb2d,1,2,117.011419,36.614934,,house,http://api.map.baidu.com/place/detail?uid=7d5244c2b077ce9208f5eb2d&output=html&source=placeapi_v2,,,,,,,,,,,,,,,,,,117.01110892965,36.614994663926,2
a566708c69003649db13184e,济南文联大厦,房地产,写字楼,山东省,济南市,市中区,济南市市中区十六里河街道英雄山路231号,a566708c69003649db13184e,1,2,117.009543,36.611067,,house,http://api.map.baidu.com/place/detail?uid=a566708c69003649db13184e&output=html&source=placeapi_v2,,,0,,,,,,,,,,,,,,,117.00970045398,36.611288015375,2
44dc3a6e1fed6f0af72310e5,山东省省级宗教团体办公楼,房地产,写字楼,山东省,济南市,市中区,济南市市中区十六里河街道英雄山路217号,44dc3a6e1fed6f0af72310e5,1,0,117.009723,36.611997,,house,http://api.map.baidu.com/place/detail?uid=44dc3a6e1fed6f0af72310e5&output=html&source=placeapi_v2,,,,,,,,,,,,,,,,,,117.00956612676,36.611768625719,0
bf8e630b65aad5319d9d68a3,阿里中心,房地产,写字楼,山东省,济南市,市中区,济南市市中区二环南路与英雄山立交桥交叉路口往西北约270米,,1,0,117.00476,36.605298,,house,http://api.map.baidu.com/place/detail?uid=bf8e630b65aad5319d9d68a3&output=html&source=placeapi_v2,,,,,,,,,,,,,,,,,,117.00452800007,36.605615246552,0
c10eb2889c5d60be43afe64b,太阳树商务中心,房地产,写字楼,山东省,济南市,市中区,济南市市中区舜德路1号,c10eb2889c5d60be43afe64b,1,0,117.028861,36.611422,,house,http://api.map.baidu.com/place/detail?uid=c10eb2889c5d60be43afe64b&output=html&source=placeapi_v2,,,,,,,,,,,,,,,,,,,,0
2b29440fa7a91a2341d63eb2,凯瑞大厦,房地产,写字楼,山东省,济南市,市中区,二环南路3377号,,1,2,117.006098,36.605482,18615502926,house,http://api.map.baidu.com/place/detail?uid=2b29440fa7a91a2341d63eb2&output=html&source=placeapi_v2,,,5,,,,,,,,,,,,,,,117.00605000179,36.606006729014,2
c7eca12b1e731336e015f9ad,商银大厦,房地产,写字楼,山东省,济南市,市中区,济南市市中区英雄山路306号,c7eca12b1e731336e015f9ad,1,2,117.009372,36.607632,,house,http://api.map.baidu.com/place/detail?uid=c7eca12b1e731336e015f9ad&output=html&source=placeapi_v2,,,0,,,,,,,,,,,,,,,117.00924206125,36.607543137867,2
8d1de54b52818abc6e20b995,雷格斯商务中心,房地产,写字楼,山东省,济南市,市中区,济南市市中区二环南路2666号鲁能国际中心,8d1de54b52818abc6e20b995,1,0,117.009126,36.600996,,house,http://api.map.baidu.com/place/detail?uid=8d1de54b52818abc6e20b995&output=html&source=placeapi_v2,,,,,,,,,,,,,,,,,,,,0
ce44d29b6f483fea100daa0c,天泰商务中心,房地产,写字楼,山东省,济南市,市中区,济南市市中区舜德路1号天泰商务中心,ce44d29b6f483fea100daa0c,1,0,117.028798,36.611462,,house,http://api.map.baidu.com/place/detail?uid=ce44d29b6f483fea100daa0c&output=html&source=placeapi_v2,,,,,,,,,,,,,,,,,,,,0
9959a68f459a013417c8f6f4,龙玺大厦,房地产,写字楼,山东省,济南市,市中区,济南市市中区二环南路绿地新都会,,1,0,117.004873,36.604549,,house,http://api.map.baidu.com/place/detail?uid=9959a68f459a013417c8f6f4&output=html&source=placeapi_v2,,,,,,,,,,,,,,,,,,,,0
22bfe9f1c28ef9b015a1903b,山大新苑烂尾楼,房地产,写字楼,山东省,济南市,市中区,济南市市中区二环南高架路山东中胜石油(第8加油站)东北侧约40米,22bfe9f1c28ef9b015a1903b,1,0,117.039951,36.604638,,house,http://api.map.baidu.com/place/detail?uid=22bfe9f1c28ef9b015a1903b&output=html&source=placeapi_v2,,,,,,,,,,,,,,,,,,,,0
dc13d98d7077a45ee8e5825d,检测楼,房地产,写字楼,山东省,济南市,市中区,济南市市中区二环南高架路山东广信工程试验检测集团有限公司,,1,0,117.051181,36.609572,,house,http://api.map.baidu.com/place/detail?uid=dc13d98d7077a45ee8e5825d&output=html&source=placeapi_v2,,,,,,,,,,,,,,,,,,,,0
e0ce04ff62b41b2b7169d386,紫云府维保中心,房地产,写字楼,山东省,济南市,市中区,济南市市中区济南华润城紫云府,e0ce04ff62b41b2b7169d386,1,0,117.046513,36.588577,,house,http://api.map.baidu.com/place/detail?uid=e0ce04ff62b41b2b7169d386&output=html&source=placeapi_v2,,,,,,,,,,,,,,,,,,117.04640197873,36.588210780335,0
1cb4effbd41b96a7eb1e9715,招商中心,房地产,写字楼,山东省,济南市,槐荫区,济南市槐荫区党杨东路腊山南苑,,1,0,116.902891,36.630791,,house,http://api.map.baidu.com/place/detail?uid=1cb4effbd41b96a7eb1e9715&output=html&source=placeapi_v2,,,,,,,,,,,,,,,,,,,,0
1d2dc3c82331e8294d2fdf09,国家储备局三三四处商务楼,房地产,写字楼,山东省,济南市,市中区,山东省济南市市中区白马山南路8号,1d2dc3c82331e8294d2fdf09,1,0,116.954562,36.626995,,house,http://api.map.baidu.com/place/detail?uid=1d2dc3c82331e8294d2fdf09&output=html&source=placeapi_v2,,,,,,,,,,,,,,,,,,116.9545877356,36.627114232597,0
58b7f158844288ec0c0a70a7,济铁设备租赁办公楼,房地产,写字楼,山东省,济南市,市中区,济南市市中区七贤街道二环南路9887号,58b7f158844288ec0c0a70a7,1,0,116.946973,36.617861,,house,http://api.map.baidu.com/place/detail?uid=58b7f158844288ec0c0a70a7&output=html&source=placeapi_v2,,,,,,,,,,,,,,,,,,116.94727113604,36.617832849565,0
a17e713dca2e6dc1102935f8,南红庙市场楼,房地产,写字楼,山东省,济南市,市中区,济南市市中区腊山路龙泉家园西南侧约170米,a17e713dca2e6dc1102935f8,1,0,116.939951,36.642348,,house,http://api.map.baidu.com/place/detail?uid=a17e713dca2e6dc1102935f8&output=html&source=placeapi_v2,,,,,,,,,,,,,,,,,,,,0
99e17b6bb55ad62b73455b19,韩家庄-275号,房地产,写字楼,山东省,济南市,市中区,济南市市中区刘长山路韩家庄村,99e17b6bb55ad62b73455b19,1,0,116.943005,36.63717,,house,http://api.map.baidu.com/place/detail?uid=99e17b6bb55ad62b73455b19&output=html&source=placeapi_v2,,,,,,,,,,,,,,,,,,,,0
33fbfa83fed060c00af5ebb2,蓝天写字楼,房地产,写字楼,山东省,济南市,市中区,济南市市中区二七新村南路10-2号,33fbfa83fed060c00af5ebb2,1,1,116.99933,36.636425,,house,http://api.map.baidu.com/place/detail?uid=33fbfa83fed060c00af5ebb2&output=html&source=placeapi_v2,,,,,,,,,,,,,,,,,,116.99926381031,36.636627535546,1
99041d73fab8b2ad0e3ddac5,三运写字楼,房地产,写字楼,山东省,济南市,市中区,南辛庄西路185-2号,99041d73fab8b2ad0e3ddac5,1,0,116.965299,36.631507,,house,http://api.map.baidu.com/place/detail?uid=99041d73fab8b2ad0e3ddac5&output=html&source=placeapi_v2,,,0,,,,,,,,,,,,,,,,,0
b3639666cf834350a2046402,中海广场,房地产,写字楼,山东省,济南市,市中区,二环南路6636号,b3639666cf834350a2046402,1,3,116.989771,36.619416,(0531)58688888,house,http://api.map.baidu.com/place/detail?uid=b3639666cf834350a2046402&output=html&source=placeapi_v2,,,4.8,,,,,,,,,,,,,,,116.99012549029,36.618900727706,3
b9836baeaef6b3ce5e17c37f,北写字楼,房地产,写字楼,山东省,济南市,槐荫区,济南市槐荫区王官庄街道济微路30号,b9836baeaef6b3ce5e17c37f,1,0,116.967417,36.642569,,house,http://api.map.baidu.com/place/detail?uid=b9836baeaef6b3ce5e17c37f&output=html&source=placeapi_v2,,,,,,,,,,,,,,,,,,,,0
75d0881a1723b0303a04b1d8,新东方商务大厦,房地产,写字楼,山东省,济南市,市中区,济南市市中区卧龙路40号新东方商务大厦,75d0881a1723b0303a04b1d8,1,2,116.978608,36.638719,(0531)55778555,house,http://api.map.baidu.com/place/detail?uid=75d0881a1723b0303a04b1d8&output=html&source=placeapi_v2,,,3.7,,,,,,,,,,,,,,,116.97862811041,36.638579388828,2
4e8ce35c4d2ff5d7e812e4a0,绿地泉景雅园商务大厦,房地产,写字楼,山东省,济南市,槐荫区,阳光新路69号,4e8ce35c4d2ff5d7e812e4a0,1,3,116.985629,36.638053,(0531)66696668,house,http://api.map.baidu.com/place/detail?uid=4e8ce35c4d2ff5d7e812e4a0&output=html&source=placeapi_v2,,,5,,,,,,,,,,,,,,,116.98509586606,36.637899055341,3
7e8704b8bca42c3a0d3dda04,山东省建筑节能示范项目大厦,房地产,写字楼,山东省,济南市,市中区,山东省济南市市中区卧龙路128号,7e8704b8bca42c3a0d3dda04,1,2,116.986946,36.637819,,house,http://api.map.baidu.com/place/detail?uid=7e8704b8bca42c3a0d3dda04&output=html&source=placeapi_v2,,,,,,,,,,,,,,,,,,116.98610581567,36.638371559107,2
aa40108b192ca568c5effbda,泉景・鸿园商务大厦,房地产,写字楼,山东省,济南市,市中区,阳光新路69号,aa40108b192ca568c5effbda,1,2,116.988804,36.637544,(0531)86910416,house,http://api.map.baidu.com/place/detail?uid=aa40108b192ca568c5effbda&output=html&source=placeapi_v2,,,5,,,,,,,,,,,,,,,116.98820400312,36.638043851971,2
cdda8865373efeae04fef55f,海珀天润商业楼,房地产,写字楼,山东省,济南市,市中区,济南市市中区郎茂山路绿地海珀天沅,cdda8865373efeae04fef55f,1,0,116.986492,36.627885,,house,http://api.map.baidu.com/place/detail?uid=cdda8865373efeae04fef55f&output=html&source=placeapi_v2,,,,,,,,,,,,,,,,,,116.98675128142,36.62785371472,0
6e4ace9ed4a26fa333169b17,人民药业办公楼,房地产,写字楼,山东省,济南市,市中区,济南市市中区二环南路8060号,6e4ace9ed4a26fa333169b17,1,0,116.968487,36.618098,,house,http://api.map.baidu.com/place/detail?uid=6e4ace9ed4a26fa333169b17&output=html&source=placeapi_v2,,,,,,,,,,,,,,,,,,116.96852440571,36.618289275163,0
1052f5fcc55d9fce2811d141,欧亚大观商都C座,房地产,写字楼,山东省,济南市,市中区,济南市市中区刘长山路与阳光新路交叉路口往西南约120米,1052f5fcc55d9fce2811d141,1,0,116.989157,36.639793,,house,http://api.map.baidu.com/place/detail?uid=1052f5fcc55d9fce2811d141&output=html&source=placeapi_v2,,,,,,,,,,,,,,,,,,116.9894270353,36.640010064935,0
0820d94201d10216bda240f4,中泰山水大厦(二七新村南路),房地产,写字楼,山东省,济南市,市中区,山东省济南市市中区二七南路14号,0820d94201d10216bda240f4,1,4,116.997454,36.636375,(0531)67816778,house,http://api.map.baidu.com/place/detail?uid=0820d94201d10216bda240f4&output=html&source=placeapi_v2,,,0,,,,,,,,,,,,,,,116.99706129545,36.636603113278,4
44bb12ae0bbb7a6e02294f8a,办公楼,房地产,写字楼,山东省,济南市,槐荫区,济南市槐荫区南辛庄西路138号,44bb12ae0bbb7a6e02294f8a,1,0,116.967759,36.644632,,house,http://api.map.baidu.com/place/detail?uid=44bb12ae0bbb7a6e02294f8a&output=html&source=placeapi_v2,,,,,,,,,,,,,,,,,,,,0
c9dde6d40662de7bad080fe6,全景天沅商务大厦,房地产,写字楼,山东省,济南市,市中区,济南市市中区郎茂山路双龙庄西北侧,c9dde6d40662de7bad080fe6,1,0,116.985074,36.624991,,house,http://api.map.baidu.com/place/detail?uid=c9dde6d40662de7bad080fe6&output=html&source=placeapi_v2,,,,,,,,,,,,,,,,,,116.9848412225,36.624870828493,0
8f755f092d01a94c03ff2ddf,海珀天沅5座,房地产,写字楼,山东省,济南市,市中区,济南市市中区郎茂山路绿地海珀天沅,,1,0,116.986689,36.62895,,house,http://api.map.baidu.com/place/detail?uid=8f755f092d01a94c03ff2ddf&output=html&source=placeapi_v2,,,,,,,,,,,,,,,,,,,,0
7708409b9b58a680d518b709,中海国际大厦,房地产,写字楼,山东省,济南市,市中区,山东省济南市市中区二环南路6636号中海广场2501号中海国际大厦,,1,0,116.989738,36.619389,(0531)58688888,house,http://api.map.baidu.com/place/detail?uid=7708409b9b58a680d518b709&output=html&source=placeapi_v2,,,,,,,,,,,,,,,,,,,,0
0184a60736b7cd15ca09f035,圣邦大厦,房地产,写字楼,山东省,济南市,市中区,济南市市中区二七新村南路12-3号,0184a60736b7cd15ca09f035,1,1,116.998642,36.636517,,house,http://api.map.baidu.com/place/detail?uid=0184a60736b7cd15ca09f035&output=html&source=placeapi_v2,,,,,,,,,,,,,,,,,,116.99864168434,36.63651731969,1
dbb07e346a770817fea778a5,营销中心,房地产,写字楼,山东省,济南市,市中区,济南市市中区兴澜路峰景鉴筑,dbb07e346a770817fea778a5,1,0,116.992047,36.634733,,house,http://api.map.baidu.com/place/detail?uid=dbb07e346a770817fea778a5&output=html&source=placeapi_v2,,,,,,,,,,,,,,,,,,,,0
2b007a27e736834b8e1a8929,泉联广厦,房地产,写字楼,山东省,济南市,市中区,济南市市中区七里山西路26号,2b007a27e736834b8e1a8929,1,2,117.001158,36.628977,,house,http://api.map.baidu.com/place/detail?uid=2b007a27e736834b8e1a8929&output=html&source=placeapi_v2,,,,,,,,,,,,,,,,,,117.0008967833,36.628602868864,2
18b5f29b15d60801fa0cadce,济南欧亚大观A座B座项目,房地产,写字楼,山东省,济南市,市中区,济南市市中区刘长山路欧亚大观乐活城,18b5f29b15d60801fa0cadce,1,0,116.988856,36.640295,,house,http://api.map.baidu.com/place/detail?uid=18b5f29b15d60801fa0cadce&output=html&source=placeapi_v2,,,,,,,,,,,,,,,,,,,,0
1cea15a98822cbc406fef5b2,中天万运大厦,房地产,写字楼,山东省,济南市,市中区,济南市市中区二七新村南路12-3号,1cea15a98822cbc406fef5b2,1,0,116.998838,36.63643,,house,http://api.map.baidu.com/place/detail?uid=1cea15a98822cbc406fef5b2&output=html&source=placeapi_v2,,,,,,,,,,,,,,,,,,,,0
33fbfa83fed060c00af5ebb2,蓝天写字楼,房地产,写字楼,山东省,济南市,市中区,济南市市中区二七新村南路10-2号,33fbfa83fed060c00af5ebb2,1,1,116.99933,36.636425,,house,http://api.map.baidu.com/place/detail?uid=33fbfa83fed060c00af5ebb2&output=html&source=placeapi_v2,,,,,,,,,,,,,,,,,,116.99926381031,36.636627535546,1
fa835ce212f3c5b4e812e411,紫宸大厦,房地产,写字楼,山东省,济南市,市中区,山东省济南市市中区玉函路61号,fa835ce212f3c5b4e812e411,1,3,117.016383,36.637656,(0531)66956666,house,http://api.map.baidu.com/place/detail?uid=fa835ce212f3c5b4e812e411&output=html&source=placeapi_v2,,,5,,,,,,,,,,,,,,,117.01630326897,36.638086494527,3
aaf2a8f6e996a082f03cba92,银丰大厦,房地产,写字楼,山东省,济南市,市中区,济南市市中区历阳大街6号,aaf2a8f6e996a082f03cba92,1,4,117.026398,36.625734,(0531)89018880,house,http://api.map.baidu.com/place/detail?uid=aaf2a8f6e996a082f03cba92&output=html&source=placeapi_v2,,,5,,,,,,,,,,,,,,,117.0259201503,36.626127323118,4
eb88b4f0b54c510df4b9161e,紫宸大厦居民楼,房地产,写字楼,山东省,济南市,市中区,山东省济南市市中区玉函路61号,eb88b4f0b54c510df4b9161e,1,0,117.016357,36.637211,,house,http://api.map.baidu.com/place/detail?uid=eb88b4f0b54c510df4b9161e&output=html&source=placeapi_v2,,,,,,,,,,,,,,,,,,,,0
74d61883f28d94c4bca8228e,宝威大厦,房地产,写字楼,山东省,济南市,市中区,山东省济南市市中区玉函路38-10号,74d61883f28d94c4bca8228e,1,0,117.018586,36.640305,,house,http://api.map.baidu.com/place/detail?uid=74d61883f28d94c4bca8228e&output=html&source=placeapi_v2,,,,,,,,,,,,,,,,,,117.01847689881,36.64044743593,0
9d0d093c270ca746bca2404c,国威商务楼,房地产,写字楼,山东省,济南市,历下区,山东省济南市历下区玉函路42号,9d0d093c270ca746bca2404c,1,0,117.017908,36.639772,(0531)81767387,house,http://api.map.baidu.com/place/detail?uid=9d0d093c270ca746bca2404c&output=html&source=placeapi_v2,,,,,,,,,,,,,,,,,,117.01784658299,36.639802701215,0
3dc9befd646a9968bea240e6,山东天舜大厦,房地产,写字楼,山东省,济南市,市中区,济南市市中区舜耕路42-1号,3dc9befd646a9968bea240e6,1,1,117.025544,36.627846,(0531)81958388,house,http://api.map.baidu.com/place/detail?uid=3dc9befd646a9968bea240e6&output=html&source=placeapi_v2,,,5,,,,,,,,,,,,,,,117.02497177251,36.627508380657,1
1cea15a98823cbc406fef5ad,金钟大厦,房地产,写字楼,山东省,济南市,市中区,英雄山路147号,1cea15a98823cbc406fef5ad,1,1,117.011281,36.622062,(0531)82987774,house,http://api.map.baidu.com/place/detail?uid=1cea15a98823cbc406fef5ad&output=html&source=placeapi_v2,,,4.2,,,,,,,,,,,,,,,117.01167550351,36.62236710721,1
a3df4a596e6202556fa3ccb0,济空招飞大厦,房地产,写字楼,山东省,济南市,市中区,济南市市中区英雄山路105号(肛肠医院南200米),a3df4a596e6202556fa3ccb0,1,2,117.007605,36.62682,(0531)51655338,house,http://api.map.baidu.com/place/detail?uid=a3df4a596e6202556fa3ccb0&output=html&source=placeapi_v2,,,0,,,,,,,,,,,,,,,117.00803858879,36.627002321394,2
adf2ae790a15613a0ab93a3f,华夏保险大厦,房地产,写字楼,山东省,济南市,历下区,山东省济南市历下区舜耕路20号,adf2ae790a15613a0ab93a3f,1,1,117.029788,36.643159,,house,http://api.map.baidu.com/place/detail?uid=adf2ae790a15613a0ab93a3f&output=html&source=placeapi_v2,,,0,,,,,,,,,,,,,,,117.02987558726,36.642995514302,1
adc1c2f0d84190ccaecb66a4,鲁润名商广场,房地产,写字楼,山东省,济南市,市中区,英雄山路84号(二七汽车站南站南100米路东),adc1c2f0d84190ccaecb66a4,1,0,117.006752,36.634401,,house,http://api.map.baidu.com/place/detail?uid=adc1c2f0d84190ccaecb66a4&output=html&source=placeapi_v2,,,4,,,,,,,,,,,,,,,117.00669215728,36.63490083195,0
50d192588c843b597c29bd08,济南南郊宾馆写字楼,房地产,写字楼,山东省,济南市,历下区,山东省济南市历下区南郊宾馆宿舍东南(玉函路东),50d192588c843b597c29bd08,1,0,117.022457,36.647291,,house,http://api.map.baidu.com/place/detail?uid=50d192588c843b597c29bd08&output=html&source=placeapi_v2,,,,,,,,,,,,,,,,,,,,0
6a91f74df58a5f5a46e274b3,红创中心,房地产,写字楼,山东省,济南市,市中区,济南市市中区舜玉北路财政学院宿舍(市中),,1,0,117.028118,36.633607,,house,http://api.map.baidu.com/place/detail?uid=6a91f74df58a5f5a46e274b3&output=html&source=placeapi_v2,,,,,,,,,,,,,,,,,,,,0
05f2c03c52dd407d82288ab4,科研综合楼,房地产,写字楼,山东省,济南市,市中区,济南市市中区舜耕路56号,05f2c03c52dd407d82288ab4,1,0,117.024064,36.623585,,house,http://api.map.baidu.com/place/detail?uid=05f2c03c52dd407d82288ab4&output=html&source=placeapi_v2,,,,,,,,,,,,,,,,,,,,0
18024d80f97e2fdcd7851f0f,鲁润名商广场-B座,房地产,写字楼,山东省,济南市,市中区,山东省济南市市中区英雄山路84号,18024d80f97e2fdcd7851f0f,1,0,117.006653,36.634353,,house,http://api.map.baidu.com/place/detail?uid=18024d80f97e2fdcd7851f0f&output=html&source=placeapi_v2,,,,,,,,,,,,,,,,,,117.00630187767,36.633882827153,0
4c6a299db72c31a502294faf,济南市总工会老干部楼,房地产,写字楼,山东省,济南市,市中区,山东省济南市市中区六里山南路10-2号,4c6a299db72c31a502294faf,1,0,117.009547,36.636038,,house,http://api.map.baidu.com/place/detail?uid=4c6a299db72c31a502294faf&output=html&source=placeapi_v2,,,0,,,,,,,,,,,,,,,117.00991153242,36.636031166799,0
9d57ef5ea0b1dae12cb17e3a,澳鲁国际商务中心,房地产,写字楼,山东省,济南市,市中区,济南市市中区玉函小区北路伟东新都-四区,9d57ef5ea0b1dae12cb17e3a,1,0,117.015673,36.622707,,house,http://api.map.baidu.com/place/detail?uid=9d57ef5ea0b1dae12cb17e3a&output=html&source=placeapi_v2,,,,,,,,,,,,,,,,,,,,0
4def8d74145e52ef077ce805,拱北楼,房地产,写字楼,山东省,济南市,市中区,济南市市中区舜耕路28号,4def8d74145e52ef077ce805,1,4,117.033867,36.641196,,house,http://api.map.baidu.com/place/detail?uid=4def8d74145e52ef077ce805&output=html&source=placeapi_v2,,,0,,,,,,,,,,,,,,,117.03325404511,36.641627393348,4
139eac6898083f0915a19093,新金融产业大厦,房地产,写字楼,山东省,济南市,市中区,山东省济南市市中区英西南路7号,,1,0,117.008104,36.623516,,house,http://api.map.baidu.com/place/detail?uid=139eac6898083f0915a19093&output=html&source=placeapi_v2,,,,,,,,,,,,,,,,,,,,0
70ebec115c0b904336b06c85,新华书店集团有限公司综合业务楼,房地产,写字楼,山东省,济南市,市中区,济南市市中区英雄山路189号,70ebec115c0b904336b06c85,1,0,117.010643,36.61705,,house,http://api.map.baidu.com/place/detail?uid=70ebec115c0b904336b06c85&output=html&source=placeapi_v2,,,0,,,,,,,,,,,,,,,117.01113258113,36.617012054462,0
a73e08c13469144790114cf7,鲁润名商广场b2座,房地产,写字楼,山东省,济南市,市中区,全国济南市市中区英雄山路84号鲁润名商广场b2座,a73e08c13469144790114cf7,1,0,117.006498,36.634221,,house,http://api.map.baidu.com/place/detail?uid=a73e08c13469144790114cf7&output=html&source=placeapi_v2,,,,,,,,,,,,,,,,,,117.00684211951,36.634298763284,0
2b007a27e736834b8e1a8929,泉联广厦,房地产,写字楼,山东省,济南市,市中区,济南市市中区七里山西路26号,2b007a27e736834b8e1a8929,1,2,117.001158,36.628977,,house,http://api.map.baidu.com/place/detail?uid=2b007a27e736834b8e1a8929&output=html&source=placeapi_v2,,,,,,,,,,,,,,,,,,117.0008967833,36.628602868864,2
3ceac8dcf4c06aa111882413,鲁润名商广场c2座,房地产,写字楼,山东省,济南市,市中区,山东省济南市市中区七里山街道六里山街道英雄山路84号名商广场c2座,3ceac8dcf4c06aa111882413,1,0,117.006606,36.634387,,house,http://api.map.baidu.com/place/detail?uid=3ceac8dcf4c06aa111882413&output=html&source=placeapi_v2,,,,,,,,,,,,,,,,,,117.00682965642,36.634400698356,0
de1a22c3575672fdfca7789b,新华大厦,房地产,写字楼,山东省,济南市,市中区,山东省济南市市中区英雄山路189号,de1a22c3575672fdfca7789b,1,1,117.010702,36.6178,,house,http://api.map.baidu.com/place/detail?uid=de1a22c3575672fdfca7789b&output=html&source=placeapi_v2,,,4,,,,,,,,,,,,,,,117.01077301459,36.618062217867,1
68b65736dcbc1559b21e36c4,弘舜阁,房地产,写字楼,山东省,济南市,市中区,山东省济南市市中区舜耕路28号,68b65736dcbc1559b21e36c4,1,0,117.030861,36.640381,(0531)82928888,house,http://api.map.baidu.com/place/detail?uid=68b65736dcbc1559b21e36c4&output=html&source=placeapi_v2,,,0,,,,,,,,,,,,,,,117.03105072474,36.640465331558,0
f85d4fa15a917b296d20b929,鲁润名商广场A座,房地产,写字楼,山东省,济南市,市中区,济南市市中区英雄山路84号鲁润名商广场,f85d4fa15a917b296d20b929,1,0,117.007086,36.634641,,house,http://api.map.baidu.com/place/detail?uid=f85d4fa15a917b296d20b929&output=html&source=placeapi_v2,,,,,,,,,,,,,,,,,,117.00695965111,36.634527694163,0
d3a278f9d518451f30169b74,祥泰广场-5号楼,房地产,写字楼,山东省,济南市,市中区,山东省济南市市中区英雄山路159-1号,d3a278f9d518451f30169b74,1,0,117.009816,36.621488,,house,http://api.map.baidu.com/place/detail?uid=d3a278f9d518451f30169b74&output=html&source=placeapi_v2,,,,,,,,,,,,,,,,,,117.00980497173,36.621757659403,0
633a77484bc2df71d81318cb,山东新金融产业园综合服务楼,房地产,写字楼,山东省,济南市,市中区,山东省济南市市中区英雄山路129号祥泰广场10号楼,633a77484bc2df71d81318cb,1,0,117.008851,36.622956,,house,http://api.map.baidu.com/place/detail?uid=633a77484bc2df71d81318cb&output=html&source=placeapi_v2,,,,,,,,,,,,,,,,,,,,0
4e73c8f3dcbd0110a4da3972,鲁鹰B座,房地产,写字楼,山东省,济南市,市中区,济南市市中区英雄山路42号,4e73c8f3dcbd0110a4da3972,1,0,117.005058,36.640942,(0531)51651700,house,http://api.map.baidu.com/place/detail?uid=4e73c8f3dcbd0110a4da3972&output=html&source=placeapi_v2,,,,,,,,,,,,,,,,,,,,0
4631af13e0bab94c901fc93b,鲁鹰大厦-A座,房地产,写字楼,山东省,济南市,市中区,山东省济南市市中区英雄山路联勤宾馆南(七里山北村附近),4631af13e0bab94c901fc93b,1,0,117.004747,36.640857,(0531)51651700,house,http://api.map.baidu.com/place/detail?uid=4631af13e0bab94c901fc93b&output=html&source=placeapi_v2,,,5,,,,,,,,,,,,,,,,,0
1cea15a98822cbc406fef5b2,中天万运大厦,房地产,写字楼,山东省,济南市,市中区,济南市市中区二七新村南路12-3号,1cea15a98822cbc406fef5b2,1,0,116.998838,36.63643,,house,http://api.map.baidu.com/place/detail?uid=1cea15a98822cbc406fef5b2&output=html&source=placeapi_v2,,,,,,,,,,,,,,,,,,,,0
06b9d98cd6559a82afee7aa5,鸿瑞宝座坊,房地产,写字楼,山东省,济南市,市中区,济南市市中区马鞍山路善居西南侧约160米,06b9d98cd6559a82afee7aa5,1,0,117.013789,36.649161,13706409976,house,http://api.map.baidu.com/place/detail?uid=06b9d98cd6559a82afee7aa5&output=html&source=placeapi_v2,,,,,,,,,,,,,,,,,,,,0
346f2201daf69e83077ce8d2,舜城・商务中心,房地产,写字楼,山东省,济南市,市中区,山东省济南市市中区阳光舜城中区二区舜城・商务中心,346f2201daf69e83077ce8d2,1,0,117.032632,36.619196,,life,http://api.map.baidu.com/place/detail?uid=346f2201daf69e83077ce8d2&output=html&source=placeapi_v2,,,5,,,,,,,16,2,,,,,,,117.03247900329,36.61892780571,0
2ad2fb360fe078784d5547fc,祥泰广场-4号楼,房地产,写字楼,山东省,济南市,市中区,山东省济南市市中区六里山街道英雄山路129号祥泰广场4号楼楼,2ad2fb360fe078784d5547fc,1,0,117.009603,36.622777,,house,http://api.map.baidu.com/place/detail?uid=2ad2fb360fe078784d5547fc&output=html&source=placeapi_v2,,,,,,,,,,,,,,,,,,117.00980641271,36.622869919921,0
78344d386cd7225af119370a,综合楼,房地产,写字楼,山东省,济南市,历下区,济南市历下区环山路148号,78344d386cd7225af119370a,1,0,117.064288,36.644214,,house,http://api.map.baidu.com/place/detail?uid=78344d386cd7225af119370a&output=html&source=placeapi_v2,,,,,,,,,,,,,,,,,,,,0
341c35deca09b4bfe7073880,山东重工大厦,房地产,写字楼,山东省,济南市,历下区,济南市历下区燕子山西路40-1号,341c35deca09b4bfe7073880,1,2,117.062842,36.649037,(0531)82623823,house,http://api.map.baidu.com/place/detail?uid=341c35deca09b4bfe7073880&output=html&source=placeapi_v2,,,3,,,,,,,,,,,,,,,117.06247590269,36.648931772009,2
d6ee872405b691e1a9f0cd80,环山商务楼,房地产,写字楼,山东省,济南市,历下区,济南市历下区环山路45号,d6ee872405b691e1a9f0cd80,1,0,117.057482,36.647294,,house,http://api.map.baidu.com/place/detail?uid=d6ee872405b691e1a9f0cd80&output=html&source=placeapi_v2,,,,,,,,,,,,,,,,,,117.0576325987,36.647359779666,0
9c1aacafcbf0a414c51b7599,左右空间商务中心,房地产,写字楼,山东省,济南市,历下区,济南市历下区环山路37号,9c1aacafcbf0a414c51b7599,1,2,117.05711,36.648001,(0531)82958111,house,http://api.map.baidu.com/place/detail?uid=9c1aacafcbf0a414c51b7599&output=html&source=placeapi_v2,,,0,,,,,,,,,,,,,,,117.0573730477,36.647673031619,2
005bc024d05561437f29bd75,济南万有商务中心,房地产,写字楼,山东省,济南市,历下区,济南市历下区科院路19号院内,,1,0,117.054686,36.646855,,house,http://api.map.baidu.com/place/detail?uid=005bc024d05561437f29bd75&output=html&source=placeapi_v2,,,,,,,,,,,,,,,,,,,,0
d4a465296b348ecc3be4a6a1,创博大厦,房地产,写字楼,山东省,济南市,历下区,济南市历下区龙泽路龙泉,d4a465296b348ecc3be4a6a1,1,0,117.120964,36.638126,(0531)88883288,house,http://api.map.baidu.com/place/detail?uid=d4a465296b348ecc3be4a6a1&output=html&source=placeapi_v2,,,,,,,,,,,,,,,,,,117.12116168244,36.637768682393,0
fa8f90111d7d2639266e9849,济南绿城中心,房地产,写字楼,山东省,济南市,历下区,济南市历下区龙景路颐馨苑小区东北侧约30米,fa8f90111d7d2639266e9849,1,0,117.128461,36.630615,,house,http://api.map.baidu.com/place/detail?uid=fa8f90111d7d2639266e9849&output=html&source=placeapi_v2,,,,,,,,,,,,,,,,,,,,0
ffa53c0396b7aebe8c1a89c2,正大商厦,房地产,写字楼,山东省,济南市,章丘区,济南市章丘区零九路金星恒大花园东北侧约170米,ffa53c0396b7aebe8c1a89c2,1,0,117.467899,36.640542,,house,http://api.map.baidu.com/place/detail?uid=ffa53c0396b7aebe8c1a89c2&output=html&source=placeapi_v2,,,,,,,,,,,,,,,,,,117.46811638447,36.640567812376,0
e025da2208486463dc1e526c,营销中心,房地产,写字楼,山东省,济南市,槐荫区,济南市槐荫区经十西路田欣苑东南侧约30米,e025da2208486463dc1e526c,1,0,116.859373,36.650224,,house,http://api.map.baidu.com/place/detail?uid=e025da2208486463dc1e526c&output=html&source=placeapi_v2,,,,,,,,,,,,,,,,,,,,0
856c6fc06f771e77b04c495e,西元大厦,房地产,写字楼,山东省,济南市,槐荫区,烟台路西元大厦,856c6fc06f771e77b04c495e,1,3,116.896447,36.668448,(0531)66666088,house,http://api.map.baidu.com/place/detail?uid=856c6fc06f771e77b04c495e&output=html&source=placeapi_v2,,,4,,,,,,,,,,,,,,,116.8956611444,36.668545536896,3
6958009081fb7f7b0782c2dd,A栋写字楼,房地产,写字楼,山东省,济南市,槐荫区,济南市槐荫区水秀路全季酒店(济南西站店)西北侧约50米,6958009081fb7f7b0782c2dd,1,0,116.90578,36.672365,,house,http://api.map.baidu.com/place/detail?uid=6958009081fb7f7b0782c2dd&output=html&source=placeapi_v2,,,,,,,,,,,,,,,,,,116.90553296411,36.672357629744,0
87d3cf569eb43488b817e7b5,商务写字间,房地产,写字楼,山东省,济南市,槐荫区,济南市槐荫区经十路浙商大厦东侧约80米,87d3cf569eb43488b817e7b5,1,0,116.889693,36.656712,,house,http://api.map.baidu.com/place/detail?uid=87d3cf569eb43488b817e7b5&output=html&source=placeapi_v2,,,,,,,,,,,,,,,,,,,,0
b81561667ffc83e76140a95b,绿地中央广场-A座,房地产,写字楼,山东省,济南市,槐荫区,西城大厦南100米(济南西站东南),b81561667ffc83e76140a95b,1,1,116.902993,36.672642,,house,http://api.map.baidu.com/place/detail?uid=b81561667ffc83e76140a95b&output=html&source=placeapi_v2,,,,,,,,,,,,,,,,,,116.90328038848,36.67206085755,1
9a9fc43cfd22bcc454bfff69,氢能大厦,房地产,写字楼,山东省,济南市,槐荫区,山东省济南市槐荫区齐鲁大道3189号,9a9fc43cfd22bcc454bfff69,1,0,116.900436,36.660101,,house,http://api.map.baidu.com/place/detail?uid=9a9fc43cfd22bcc454bfff69&output=html&source=placeapi_v2,,,,,,,,,,,,,,,,,,116.90041443548,36.659952584955,0
5c40f2f56c3755b5c27da288,西元大厦西楼,房地产,写字楼,山东省,济南市,槐荫区,济南市槐荫区烟台路西元大厦,5c40f2f56c3755b5c27da288,1,0,116.896242,36.668434,,house,http://api.map.baidu.com/place/detail?uid=5c40f2f56c3755b5c27da288&output=html&source=placeapi_v2,,,,,,,,,,,,,,,,,,116.89624313498,36.66851916551,0
2b206cb89e54f292882fb5a4,西城・西进时代中心A座,房地产,写字楼,山东省,济南市,槐荫区,济南市槐荫区齐鲁大道与枣庄路交叉路口往西南约120米,2b206cb89e54f292882fb5a4,1,0,116.900493,36.661092,,house,http://api.map.baidu.com/place/detail?uid=2b206cb89e54f292882fb5a4&output=html&source=placeapi_v2,,,,,,,,,,,,,,,,,,116.90087107831,36.66137131058,0
a9cc35a32ce24b41a8175a17,西城・汇金金融中心,房地产,写字楼,山东省,济南市,槐荫区,济南市槐荫区腊山河西路与日照路交汇处南行200米路西,a9cc35a32ce24b41a8175a17,1,1,116.910168,36.670598,(0531)86037777,house,http://api.map.baidu.com/place/detail?uid=a9cc35a32ce24b41a8175a17&output=html&source=placeapi_v2,,,5,,,,,,,,,,,,,,,116.91011463482,36.670144975443,1
809368b205ccc6ebc17da20e,西城・西进时代中心B座,房地产,写字楼,山东省,济南市,槐荫区,济南市槐荫区齐鲁大道与枣庄路交叉路口往西南约140米,809368b205ccc6ebc17da20e,1,0,116.90002,36.661267,,house,http://api.map.baidu.com/place/detail?uid=809368b205ccc6ebc17da20e&output=html&source=placeapi_v2,,,,,,,,,,,,,,,,,,116.89942521157,36.66093095348,0
a1029c10c8fcb2aca1acc465,济南报业大厦,房地产,写字楼,山东省,济南市,槐荫区,山东省济南市槐荫区日照路与腊山河西路交叉口,a1029c10c8fcb2aca1acc465,1,1,116.910148,36.671921,(0531)67976110,house,http://api.map.baidu.com/place/detail?uid=a1029c10c8fcb2aca1acc465&output=html&source=placeapi_v2,,,4.8,,,,,,,,,,,,,,,116.91012226503,36.671180786683,1
add38a8c7491b564213bf2c7,浙商大厦,房地产,写字楼,山东省,济南市,槐荫区,济南市槐荫区经十西路,add38a8c7491b564213bf2c7,1,2,116.887946,36.656238,,house,http://api.map.baidu.com/place/detail?uid=add38a8c7491b564213bf2c7&output=html&source=placeapi_v2,,,5,,,,,,,,,,,,,,,116.88773246551,36.65564588625,2
5b60ccdd66073a8b28d7ab99,善能大厦,房地产,写字楼,山东省,济南市,槐荫区,山东省济南市槐荫区段店镇经十路槐荫区政府东,5b60ccdd66073a8b28d7ab99,1,0,116.909472,36.657864,,house,http://api.map.baidu.com/place/detail?uid=5b60ccdd66073a8b28d7ab99&output=html&source=placeapi_v2,,,,,,,,,,,,,,,,,,116.90948811344,36.65851057684,0
6e568fe5f2d62cd4a2a93496,善信大厦,房地产,写字楼,山东省,济南市,槐荫区,山东省济南市槐荫区齐州路2066号,6e568fe5f2d62cd4a2a93496,1,6,116.906173,36.679334,(0531)66666099,house,http://api.map.baidu.com/place/detail?uid=6e568fe5f2d62cd4a2a93496&output=html&source=placeapi_v2,,,4.5,,,,,,,,,,,,,,,116.90550075451,36.679893107348,6
c736e6cbb5828a44b21e36f6,连城中心,房地产,写字楼,山东省,济南市,槐荫区,威海路与腊山河西路交叉口西100米,c736e6cbb5828a44b21e36f6,1,0,116.911073,36.677653,,house,http://api.map.baidu.com/place/detail?uid=c736e6cbb5828a44b21e36f6&output=html&source=placeapi_v2,,,,,,,,,,,,,,,,,,116.91136746289,36.677233857472,0
219024c9dd291b7730169b4c,西元大厦-二期,房地产,写字楼,山东省,济南市,槐荫区,段店镇大金庄烟台路西元大厦,219024c9dd291b7730169b4c,1,0,116.896986,36.667957,(0531)66666088,house,http://api.map.baidu.com/place/detail?uid=219024c9dd291b7730169b4c&output=html&source=placeapi_v2,,,5,,,,,,,,,,,,,,,116.89698676127,36.667860070698,0
79ec7e19068ecf48b8df8f97,西城・西进时代中心D座,房地产,写字楼,山东省,济南市,槐荫区,济南市槐荫区菏泽路与小康路交叉路口往东北约110米,,1,0,116.899582,36.660524,,house,http://api.map.baidu.com/place/detail?uid=79ec7e19068ecf48b8df8f97&output=html&source=placeapi_v2,,,,,,,,,,,,,,,,,,116.89921258625,36.660390933013,0
f7295ff61b2270a45d0d0276,中泽大厦,房地产,写字楼,山东省,济南市,槐荫区,山东省济南市槐荫区日照路2048号,,1,1,116.905303,36.672257,13465910186,house,http://api.map.baidu.com/place/detail?uid=f7295ff61b2270a45d0d0276&output=html&source=placeapi_v2,,,,,,,,,,,,,,,,,,116.90548803177,36.672171995779,1
9cf159739c6773c202ff2d3d,阳光保险大厦,房地产,写字楼,山东省,济南市,槐荫区,山东省济南市槐荫区齐州路2066号,9cf159739c6773c202ff2d3d,1,2,116.905812,36.679325,,house,http://api.map.baidu.com/place/detail?uid=9cf159739c6773c202ff2d3d&output=html&source=placeapi_v2,,,5,,,,,,,,,,,,,,,116.90579044802,36.678872621882,2
1d2c8d8959413297f4b91612,西城・西进时代中心C座,房地产,写字楼,山东省,济南市,槐荫区,济南市槐荫区菏泽路西城西进时代中心,1d2c8d8959413297f4b91612,1,0,116.900431,36.660093,,house,http://api.map.baidu.com/place/detail?uid=1d2c8d8959413297f4b91612&output=html&source=placeapi_v2,,,,,,,,,,,,,,,,,,116.9004285299,36.659955014377,0
39a3f246f62cbbd5b9df8fde,绿地中央广场B座(济南西客站),房地产,写字楼,山东省,济南市,槐荫区,山东省济南市槐荫区齐鲁大道,39a3f246f62cbbd5b9df8fde,1,0,116.902238,36.671579,,house,http://api.map.baidu.com/place/detail?uid=39a3f246f62cbbd5b9df8fde&output=html&source=placeapi_v2,,,,,,,,,,,,,,,,,,116.9022314039,36.671402994044,0
b925d9632a9efa326d20b9cd,营销中心,房地产,写字楼,山东省,济南市,槐荫区,济南市槐荫区菏泽路西城西进时代中心,,1,0,116.900351,36.66007,,house,http://api.map.baidu.com/place/detail?uid=b925d9632a9efa326d20b9cd&output=html&source=placeapi_v2,,,,,,,,,,,,,,,,,,,,0
c5e0a1464cc81e64e9f853d9,荣宝斋大厦,房地产,写字楼,山东省,济南市,槐荫区,济南市槐荫区开创路善信大厦,c5e0a1464cc81e64e9f853d9,1,0,116.906041,36.678997,,house,http://api.map.baidu.com/place/detail?uid=c5e0a1464cc81e64e9f853d9&output=html&source=placeapi_v2,,,,,,,,,,,,,,,,,,,,0
450722e7a472ace0a1d23040,商务办公楼,房地产,写字楼,山东省,济南市,槐荫区,济南市槐荫区经十路浙商大厦东侧约90米,450722e7a472ace0a1d23040,1,0,116.889721,36.656625,,house,http://api.map.baidu.com/place/detail?uid=450722e7a472ace0a1d23040&output=html&source=placeapi_v2,,,5,,,,,,,,,,,,,,,,,0
c85b8204a78780689d82ea7c,济南报业大厦B座,房地产,写字楼,山东省,济南市,槐荫区,济南市槐荫区复兴路与腊山河西路交叉路口往西北约100米,c85b8204a78780689d82ea7c,1,0,116.910178,36.671677,,house,http://api.map.baidu.com/place/detail?uid=c85b8204a78780689d82ea7c&output=html&source=placeapi_v2,,,,,,,,,,,,,,,,,,116.91017944936,36.671625949605,0
dfa2ee507ae2759eef74f841,济南报业大厦A座,房地产,写字楼,山东省,济南市,槐荫区,济南市槐荫区复兴路与济宁路交叉路口往东北约100米,dfa2ee507ae2759eef74f841,1,0,116.910141,36.671651,,house,http://api.map.baidu.com/place/detail?uid=dfa2ee507ae2759eef74f841&output=html&source=placeapi_v2,,,,,,,,,,,,,,,,,,116.91012977935,36.671626403849,0
4830899967c6b52dd7851f8c,绿地中央广场-缤纷城,房地产,写字楼,山东省,济南市,槐荫区,山东省济南市槐荫区齐州路2477号绿地中央广场,4830899967c6b52dd7851f8c,1,0,116.902533,36.676804,(0531)68827777,house,http://api.map.baidu.com/place/detail?uid=4830899967c6b52dd7851f8c&output=html&source=placeapi_v2,,,0,,,,,,,,,,,,,,,116.90326715555,36.676670672653,0
4c079431831a2be9b817e725,山东省文联大厦,房地产,写字楼,山东省,济南市,槐荫区,山东省济南市槐荫区省会文化艺术中心山东高速广场,4c079431831a2be9b817e725,1,0,116.914036,36.675876,,house,http://api.map.baidu.com/place/detail?uid=4c079431831a2be9b817e725&output=html&source=placeapi_v2,,,,,,,,,,,,,,,,,,116.91381476689,36.676085711855,0
fb4b31a1f6f4235dc8213db0,法律服务大厦,房地产,写字楼,山东省,济南市,槐荫区,济南市槐荫区腊山河东路梦世界LOMO公馆,fb4b31a1f6f4235dc8213db0,1,0,116.916303,36.656992,,house,http://api.map.baidu.com/place/detail?uid=fb4b31a1f6f4235dc8213db0&output=html&source=placeapi_v2,,,,,,,,,,,,,,,,,,,,0
e6a00b19f80d8e9b4d776e6e,善信大厦17楼,房地产,写字楼,山东省,济南市,槐荫区,济南市槐荫区开创路善信大厦,,1,0,116.905784,36.679177,,house,http://api.map.baidu.com/place/detail?uid=e6a00b19f80d8e9b4d776e6e&output=html&source=placeapi_v2,,,,,,,,,,,,,,,,,,116.90552287973,36.679172684433,0
78f104ac5f1c7803e812e476,实力大厦,房地产,写字楼,山东省,济南市,槐荫区,济南市槐荫区经十路27317号,78f104ac5f1c7803e812e476,1,2,116.936289,36.657528,,house,http://api.map.baidu.com/place/detail?uid=78f104ac5f1c7803e812e476&output=html&source=placeapi_v2,,,0,,,,,,,,,,,,,,,116.93600346994,36.657350023391,2
321b18414247e02614948e7c,宝力大厦写字楼,房地产,写字楼,山东省,济南市,槐荫区,济南市槐荫区经十路实力大厦,321b18414247e02614948e7c,1,0,116.936295,36.657508,,house,http://api.map.baidu.com/place/detail?uid=321b18414247e02614948e7c&output=html&source=placeapi_v2,,,,,,,,,,,,,,,,,,,,0
2884c2af18a65150b35c6a8c,前城商务中心,房地产,写字楼,山东省,济南市,槐荫区,济南市槐荫区张庄路190号,2884c2af18a65150b35c6a8c,1,2,116.941503,36.668052,,house,http://api.map.baidu.com/place/detail?uid=2884c2af18a65150b35c6a8c&output=html&source=placeapi_v2,,,5,,,,,,,,,,,,,,,116.94112405209,36.668110682219,2
865f103af0e8c1dc4e776ed4,龙腾国际广场A、B座,房地产,写字楼,山东省,济南市,槐荫区,济南市槐荫区二环西高架路前城杰座北侧约50米,865f103af0e8c1dc4e776ed4,1,0,116.94136,36.669148,,house,http://api.map.baidu.com/place/detail?uid=865f103af0e8c1dc4e776ed4&output=html&source=placeapi_v2,,,0,,,,,,,,,,,,,,,116.94132157241,36.668918420077,0
b0098da7b414676395f08c33,实力大厦-写字间,房地产,写字楼,山东省,济南市,槐荫区,济南市槐荫区经十路27317号实力大厦,b0098da7b414676395f08c33,1,0,116.935911,36.657455,,house,http://api.map.baidu.com/place/detail?uid=b0098da7b414676395f08c33&output=html&source=placeapi_v2,,,,,,,,,,,,,,,,,,116.93604639098,36.657417447521,0
e3083e0a86a1f517c92915f2,铭邦大厦,房地产,写字楼,山东省,济南市,槐荫区,山东省济南市槐荫区经六路865-3号,e3083e0a86a1f517c92915f2,1,2,116.95055,36.663008,(0531)87155599,house,http://api.map.baidu.com/place/detail?uid=e3083e0a86a1f517c92915f2&output=html&source=placeapi_v2,,,0,,,,,,,,,,,,,,,116.95045699809,36.662756008149,2
c61bd30500593a69c27da25e,财税大厦,房地产,写字楼,山东省,济南市,槐荫区,山东省济南市槐荫区张庄路367号,c61bd30500593a69c27da25e,1,2,116.944006,36.669339,,house,http://api.map.baidu.com/place/detail?uid=c61bd30500593a69c27da25e&output=html&source=placeapi_v2,,,0,,,,,,,,,,,,,,,116.94443814546,36.668785219446,2
8ea410711235fc5df603b836,前城杰座,房地产,写字楼,山东省,济南市,槐荫区,济南市槐荫区张庄路192号,8ea410711235fc5df603b836,1,1,116.941658,36.66812,,house,http://api.map.baidu.com/place/detail?uid=8ea410711235fc5df603b836&output=html&source=placeapi_v2,,,,,,,,,,,,,,,,,,116.94283957487,36.668459535677,1
29b5d69b4ed59da0d518b739,恒大财富中心,房地产,写字楼,山东省,济南市,槐荫区,山东省济南市槐荫区张庄路街道恒大财富中心,29b5d69b4ed59da0d518b739,1,1,116.92371,36.677602,,house,http://api.map.baidu.com/place/detail?uid=29b5d69b4ed59da0d518b739&output=html&source=placeapi_v2,,,3.5,,,,,,,,,,,,,,,116.92415111224,36.677251786693,1
409d4e111d09bf003904b165,科研办公楼,房地产,写字楼,山东省,济南市,槐荫区,济南市槐荫区刘庄东街山东省皮肤病性病防治研究所,3190ad75d7609c719cf77904,1,0,116.935289,36.658392,,house,http://api.map.baidu.com/place/detail?uid=409d4e111d09bf003904b165&output=html&source=placeapi_v2,,,,,,,,,,,,,,,,,,116.9353429998,36.658254913284,0
02e70cfe18c187a5306212aa,融创财富时代中心,房地产,写字楼,山东省,济南市,槐荫区,山东省济南市槐荫区经十路26448号,02e70cfe18c187a5306212aa,1,0,116.943774,36.656583,,house,http://api.map.baidu.com/place/detail?uid=02e70cfe18c187a5306212aa&output=html&source=placeapi_v2,,,,,,,,,,,,,,,,,,116.94378716232,36.656935583046,0
051266d2ae21d6c893114cec,建委大楼,房地产,写字楼,山东省,济南市,槐荫区,济南市槐荫区张庄路街道张庄路327号,051266d2ae21d6c893114cec,1,2,116.947666,36.668694,,house,http://api.map.baidu.com/place/detail?uid=051266d2ae21d6c893114cec&output=html&source=placeapi_v2,,,,,,,,,,,,,,,,,,116.94758231446,36.668661868901,2
862560c55f82a04af32d83da,济南癜痫科大楼,房地产,写字楼,山东省,济南市,槐荫区,山东省济南市槐荫区张庄路190号,,1,0,116.944293,36.668248,,house,http://api.map.baidu.com/place/detail?uid=862560c55f82a04af32d83da&output=html&source=placeapi_v2,,,,,,,,,,,,,,,,,,,,0
902e005d0bde5bd09fec2b7b,地产客户关系中心,房地产,写字楼,山东省,济南市,槐荫区,济南市槐荫区段店东街财富壹号-二期,902e005d0bde5bd09fec2b7b,1,0,116.945999,36.655489,,house,http://api.map.baidu.com/place/detail?uid=902e005d0bde5bd09fec2b7b&output=html&source=placeapi_v2,,,,,,,,,,,,,,,,,,,,0
012e372f79205d728e7727fd,恒大国际金融中心,房地产,写字楼,山东省,济南市,槐荫区,山东省济南市槐荫区张庄路街道威海路和潍坊路交叉口西南处,,1,0,116.932892,36.675943,,house,http://api.map.baidu.com/place/detail?uid=012e372f79205d728e7727fd&output=html&source=placeapi_v2,,,5,,,,,,,,,,,,,,,,,0
f55807c60cd2d114d0ff2343,九阳创意创新中心,房地产,写字楼,山东省,济南市,槐荫区,山东省济南市槐荫区经十路28038号,,1,0,116.92771,36.656804,,house,http://api.map.baidu.com/place/detail?uid=f55807c60cd2d114d0ff2343&output=html&source=placeapi_v2,,,,,,,,,,,,,,,,,,,,0
8cc14f4aeff03167774ff188,优玛施工中心,房地产,写字楼,山东省,济南市,槐荫区,济南市槐荫区兴济桥西路山东糖酒大厦西3门西北侧约100米,8cc14f4aeff03167774ff188,1,0,116.952336,36.67049,,house,http://api.map.baidu.com/place/detail?uid=8cc14f4aeff03167774ff188&output=html&source=placeapi_v2,,,,,,,,,,,,,,,,,,,,0
df67999c7ef5772cebe582cf,济南电磁线厂职工集资建房-B座,房地产,写字楼,山东省,济南市,市中区,济南市市中区电磁线厂职工集资建房B座,df67999c7ef5772cebe582cf,1,0,116.938686,36.649829,,house,http://api.map.baidu.com/place/detail?uid=df67999c7ef5772cebe582cf&output=html&source=placeapi_v2,,,,,,,,,,,,,,,,,,,,0
f74ee5a9a980635e3a13fd82,山东运营中心,房地产,写字楼,山东省,济南市,槐荫区,济南市槐荫区兴济桥西路山东老屯汽配城,f74ee5a9a980635e3a13fd82,1,0,116.952039,36.676382,"(0531)87521776,15905413939",house,http://api.map.baidu.com/place/detail?uid=f74ee5a9a980635e3a13fd82&output=html&source=placeapi_v2,,,,,,,,,,,,,,,,,,116.95204391136,36.676418174196,0
42d4a6ac9dcc55b0d2f49e4b,济南电磁线厂职工集资建房-A座,房地产,写字楼,山东省,济南市,槐荫区,济南市槐荫区电磁线厂职工集资建房A座,42d4a6ac9dcc55b0d2f49e4b,1,0,116.939495,36.649873,,house,http://api.map.baidu.com/place/detail?uid=42d4a6ac9dcc55b0d2f49e4b&output=html&source=placeapi_v2,,,,,,,,,,,,,,,,,,116.93951773003,36.649636822429,0
3b6e2fa62f15d401f90cad4d,恒大财富中心2号楼,房地产,写字楼,山东省,济南市,槐荫区,济南市槐荫区兴福寺南路与淄博路交叉路口往东南约150米,3b6e2fa62f15d401f90cad4d,1,0,116.924102,36.678053,,house,http://api.map.baidu.com/place/detail?uid=3b6e2fa62f15d401f90cad4d&output=html&source=placeapi_v2,,,,,,,,,,,,,,,,,,116.92421609728,36.678038115448,0
d4a827f1df94f35878b55cea,时代广场A座,房地产,写字楼,山东省,济南市,槐荫区,山东省济南市槐荫区经二路383号,d4a827f1df94f35878b55cea,1,0,116.985006,36.667844,,house,http://api.map.baidu.com/place/detail?uid=d4a827f1df94f35878b55cea&output=html&source=placeapi_v2,,,,,,,,,,,,,,,,,,,,0
c1683d97be13de7259bbbc0f,佰祥大厦,房地产,写字楼,山东省,济南市,槐荫区,山东省济南市槐荫区纬十路30号,c1683d97be13de7259bbbc0f,1,0,116.981819,36.665978,,house,http://api.map.baidu.com/place/detail?uid=c1683d97be13de7259bbbc0f&output=html&source=placeapi_v2,,,,,,,,,,,,,,,,,,116.98162188509,36.666044649343,0
6fe79fbaefacde502b11d140,绿地新城D-2商务中心,房地产,写字楼,山东省,济南市,槐荫区,山东省济南市槐荫区经四路640号,6fe79fbaefacde502b11d140,1,0,116.97705,36.662974,(0531)66695766,house,http://api.map.baidu.com/place/detail?uid=6fe79fbaefacde502b11d140&output=html&source=placeapi_v2,,,5,,,,,,,,,,,,,,,116.97705152135,36.663131343592,0
8fa14fc3b1e01b6df7eafce4,军泰写字楼,房地产,写字楼,山东省,济南市,槐荫区,济南市槐荫区经十路24330号,8fa14fc3b1e01b6df7eafce4,1,3,116.966391,36.654283,(0531)87963588,house,http://api.map.baidu.com/place/detail?uid=8fa14fc3b1e01b6df7eafce4&output=html&source=placeapi_v2,,,0,,,,,,,,,,,,,,,116.96679713838,36.65416285959,3
28e700f12dbd0700095cb35e,阳光商务中心,房地产,写字楼,山东省,济南市,槐荫区,济南市槐荫区经六路490号,28e700f12dbd0700095cb35e,1,2,116.977306,36.659406,,house,http://api.map.baidu.com/place/detail?uid=28e700f12dbd0700095cb35e&output=html&source=placeapi_v2,,,4,,,,,,,,,,,,,,,116.97700216486,36.659238964776,2
56f2f696b4c97a990ba8d4ed,泰山国际大厦,房地产,写字楼,山东省,济南市,槐荫区,济南市槐荫区经七路843号,56f2f696b4c97a990ba8d4ed,1,3,116.977773,36.656354,"(0531)82342516,(0531)82342517",house,http://api.map.baidu.com/place/detail?uid=56f2f696b4c97a990ba8d4ed&output=html&source=placeapi_v2,,,4.2,,,,,,,,,,,,,,,116.97827775329,36.656054347532,3
a14f46e213015f63ca1b95c0,商务写字楼,房地产,写字楼,山东省,济南市,天桥区,济南市天桥区济齐路2号,a14f46e213015f63ca1b95c0,1,0,116.967956,36.678171,(0531)85973233,house,http://api.map.baidu.com/place/detail?uid=a14f46e213015f63ca1b95c0&output=html&source=placeapi_v2,,,,,,,,,,,,,,,,,,,,0
3b748bcf4b749f434f3a5937,普利・槐荫大厦,房地产,写字楼,山东省,济南市,槐荫区,山东省济南市槐荫区北小辛庄西街55号,3b748bcf4b749f434f3a5937,1,2,116.973145,36.657185,(0531)86327800,house,http://api.map.baidu.com/place/detail?uid=3b748bcf4b749f434f3a5937&output=html&source=placeapi_v2,,,0,,,,,,,,,,,,,,,116.97326518249,36.657125645243,2
9fbfeef2356e3244ede4a55e,槐荫电力大厦,房地产,写字楼,山东省,济南市,槐荫区,济南市槐荫区北小辛庄西街55号,9fbfeef2356e3244ede4a55e,1,2,116.976712,36.663776,,house,http://api.map.baidu.com/place/detail?uid=9fbfeef2356e3244ede4a55e&output=html&source=placeapi_v2,,,0,,,,,,,,,,,,,,,116.97692128592,36.663538257476,2
c253dd1688da21199d9d68fe,泉景・恒基商务写字楼,房地产,写字楼,山东省,济南市,市中区,济南市市中区经七纬五路75号,c253dd1688da21199d9d68fe,1,1,116.996338,36.660497,,house,http://api.map.baidu.com/place/detail?uid=c253dd1688da21199d9d68fe&output=html&source=placeapi_v2,,,3,,,,,,,,,,,,,,,116.99643540828,36.660501881098,1
85e191331075dc140a5cb35c,建邦大厦,房地产,写字楼,山东省,济南市,槐荫区,山东省济南市槐荫区北小辛庄西街48号,85e191331075dc140a5cb35c,1,1,116.974204,36.655091,,house,http://api.map.baidu.com/place/detail?uid=85e191331075dc140a5cb35c&output=html&source=placeapi_v2,,,5,,,,,,,,,,,,,,,116.97354376769,36.655301051408,1
2cc3c8e8600163d74c2fdfb2,房金大厦,房地产,写字楼,山东省,济南市,市中区,济南市市中区经七路386号,2cc3c8e8600163d74c2fdfb2,1,3,116.996866,36.661347,(0531)87905949,house,http://api.map.baidu.com/place/detail?uid=2cc3c8e8600163d74c2fdfb2&output=html&source=placeapi_v2,,,4,,,,,,,,,,,,,,,116.9967109563,36.661432142908,3
149f57be69335c754f3a59db,卢浮商务中心,房地产,写字楼,山东省,济南市,槐荫区,济南市槐荫区绿地新城d2号,149f57be69335c754f3a59db,1,1,116.979736,36.66247,,house,http://api.map.baidu.com/place/detail?uid=149f57be69335c754f3a59db&output=html&source=placeapi_v2,,,3,,,,,,,,,,,,,,,,,1
bdcc478a240b6adb283a9fcc,银汇广场,房地产,写字楼,山东省,济南市,槐荫区,山东省济南市槐荫区经二路385号,bdcc478a240b6adb283a9fcc,1,0,116.984305,36.667767,,house,http://api.map.baidu.com/place/detail?uid=bdcc478a240b6adb283a9fcc&output=html&source=placeapi_v2,,,,,,,,,,,,,,,,,,116.98416143699,36.667726987919,0
1f9502af8c79dc881ce999b5,农投大厦,房地产,写字楼,山东省,济南市,槐荫区,济南市槐荫区经五纬九路330号,1f9502af8c79dc881ce999b5,1,1,116.985826,36.662692,,house,http://api.map.baidu.com/place/detail?uid=1f9502af8c79dc881ce999b5&output=html&source=placeapi_v2,,,,,,,,,,,,,,,,,,,,1
bca7feab1b278c01b42655a8,槐荫区连城广场写字楼,房地产,写字楼,山东省,济南市,槐荫区,济南市槐荫区纬十二路连城广场,bca7feab1b278c01b42655a8,1,0,116.987342,36.655629,,house,http://api.map.baidu.com/place/detail?uid=bca7feab1b278c01b42655a8&output=html&source=placeapi_v2,,,,,,,,,,,,,,,,,,,,0
7aa50d530b675e3e8bb98878,名泉春晓写字楼,房地产,写字楼,山东省,济南市,天桥区,天桥区堤口路大润发向东100米(区政府对面),7aa50d530b675e3e8bb98878,1,0,116.98678,36.681207,,house,http://api.map.baidu.com/place/detail?uid=7aa50d530b675e3e8bb98878&output=html&source=placeapi_v2,,,,,,,,,,,,,,,,,,,,0
c7eca12b1e1f1336e115f941,益康写字楼,房地产,写字楼,山东省,济南市,天桥区,山东省济南市天桥区堤口路149号,c7eca12b1e1f1336e115f941,1,2,116.978872,36.68082,,house,http://api.map.baidu.com/place/detail?uid=c7eca12b1e1f1336e115f941&output=html&source=placeapi_v2,,,,,,,,,,,,,,,,,,,,2
2a95ca725d7383fe25e0a064,山东省畜牧兽医局综合楼,房地产,写字楼,山东省,济南市,槐荫区,济南市槐荫区槐村街68号,2a95ca725d7383fe25e0a064,1,0,116.971923,36.662684,,house,http://api.map.baidu.com/place/detail?uid=2a95ca725d7383fe25e0a064&output=html&source=placeapi_v2,,,,,,,,,,,,,,,,,,,,0
97afd3fdf4dedfd7132935d3,营销中心,房地产,写字楼,山东省,济南市,槐荫区,济南市槐荫区纬十二路绿地新里卢浮公馆,97afd3fdf4dedfd7132935d3,1,0,116.980276,36.662587,,house,http://api.map.baidu.com/place/detail?uid=97afd3fdf4dedfd7132935d3&output=html&source=placeapi_v2,,,,,,,,,,,,,,,,,,116.98055889323,36.662855297138,0
1c90ba3de0996127c8213d08,名泉春晓写字楼E3座,房地产,写字楼,山东省,济南市,天桥区,济南市天桥区堤口路街道堤口路名泉春晓写字楼e3座,,1,0,116.986836,36.681164,,house,http://api.map.baidu.com/place/detail?uid=1c90ba3de0996127c8213d08&output=html&source=placeapi_v2,,,,,,,,,,,,,,,,,,,,0
ef3dc195b05f1639167643f9,经一路保利中心经一路331号A座,房地产,写字楼,山东省,济南市,槐荫区,山东省济南市槐荫区经一路331号,,1,0,116.982078,36.669429,,house,http://api.map.baidu.com/place/detail?uid=ef3dc195b05f1639167643f9&output=html&source=placeapi_v2,,,,,,,,,,,,,,,,,,,,0
933d41a2e1da3c335fd4fe1a,发祥商务楼,房地产,写字楼,山东省,济南市,市中区,济南市市中区纬五路17号,933d41a2e1da3c335fd4fe1a,1,0,116.994212,36.670981,,house,http://api.map.baidu.com/place/detail?uid=933d41a2e1da3c335fd4fe1a&output=html&source=placeapi_v2,,,0,,,,,,,,,,,,,,,116.99442407619,36.671091390447,0
f7a14243d8f1798bd618b74e,海佑重华-B座,房地产,写字楼,山东省,济南市,槐荫区,山东省济南市槐荫区经四路海右重华(长城大厦东南150米),f7a14243d8f1798bd618b74e,1,0,116.985629,36.664125,,house,http://api.map.baidu.com/place/detail?uid=f7a14243d8f1798bd618b74e&output=html&source=placeapi_v2,,,,,,,,,,,,,,,,,,116.98552915833,36.664362657467,0
15ed53ce206245559322e0b2,财税大厦,房地产,写字楼,山东省,济南市,市中区,山东省济南市市中区经五路169号,15ed53ce206245559322e0b2,1,5,116.995183,36.665282,(0531)87085577,house,http://api.map.baidu.com/place/detail?uid=15ed53ce206245559322e0b2&output=html&source=placeapi_v2,,,5,,,,,,,,,,,,,,,116.99554558457,36.665037037419,5
dfc496b6d59826ae8836eeb2,泉舜大厦,房地产,写字楼,山东省,济南市,槐荫区,山东省济南市槐荫区纬六路21号,dfc496b6d59826ae8836eeb2,1,1,116.990265,36.668393,(0531)87913677,house,http://api.map.baidu.com/place/detail?uid=dfc496b6d59826ae8836eeb2&output=html&source=placeapi_v2,,,,,,,,,,,,,,,,,,116.99031470667,36.668408560316,1
637df60a8adf507341afe6b2,济南公共卫生大厦,房地产,写字楼,山东省,济南市,槐荫区,济南市槐荫区经二纬六路2号,637df60a8adf507341afe6b2,1,2,116.990647,36.670814,,house,http://api.map.baidu.com/place/detail?uid=637df60a8adf507341afe6b2&output=html&source=placeapi_v2,,,,,,,,,,,,,,,,,,116.99037790246,36.670304933164,2
6113ef77643db8158f7727b2,汇统大厦,房地产,写字楼,山东省,济南市,市中区,济南市市中区经七路516号,6113ef77643db8158f7727b2,1,5,116.99399,36.660732,"(0531)87080971,(0531)87081980",house,http://api.map.baidu.com/place/detail?uid=6113ef77643db8158f7727b2&output=html&source=placeapi_v2,,,2.5,,,,,,,,,,,,,,,116.99434841281,36.660563625127,5
290fcfbcd3c44703b13c8161,银座中心-2号楼,房地产,写字楼,山东省,济南市,槐荫区,山东省济南市槐荫区经十路银座中心,290fcfbcd3c44703b13c8161,1,1,116.98371,36.655416,,house,http://api.map.baidu.com/place/detail?uid=290fcfbcd3c44703b13c8161&output=html&source=placeapi_v2,,,1,,,,,,,,,,,,,,,116.98323423569,36.655171827124,1
c41c7e2ffed54eff0a5cb317,优秀大厦,房地产,写字楼,山东省,济南市,槐荫区,济南市槐荫区经五路283号,c41c7e2ffed54eff0a5cb317,1,0,116.98495,36.662687,,house,http://api.map.baidu.com/place/detail?uid=c41c7e2ffed54eff0a5cb317&output=html&source=placeapi_v2,,,,,,,,,,,,,,,,,,,,0
e8b8467cbe8807e05cd4fea6,新泉城大厦,房地产,写字楼,山东省,济南市,槐荫区,山东济南市槐荫区经七路586号,e8b8467cbe8807e05cd4fea6,1,1,116.989227,36.659558,,house,http://api.map.baidu.com/place/detail?uid=e8b8467cbe8807e05cd4fea6&output=html&source=placeapi_v2,,,,,,,,,,,,,,,,,,116.98967722416,36.659253592109,1
124264be0ab83965fda7788d,阳光大姐大厦,房地产,写字楼,山东省,济南市,槐荫区,山东省济南市槐荫区振兴街经七路泰山国际大厦西,124264be0ab83965fda7788d,1,2,116.976919,36.65599,(0531)58672618,house,http://api.map.baidu.com/place/detail?uid=124264be0ab83965fda7788d&output=html&source=placeapi_v2,,,1,,,,,,,,,,,,,,,116.97725370477,36.655750228103,2
51deba42273d6306eb56fac7,海佑重华-A座,房地产,写字楼,山东省,济南市,槐荫区,山东省济南市槐荫区经二路海右重华(长城大厦东南200米),51deba42273d6306eb56fac7,1,0,116.98617,36.664219,,house,http://api.map.baidu.com/place/detail?uid=51deba42273d6306eb56fac7&output=html&source=placeapi_v2,,,,,,,,,,,,,,,,,,116.98641642457,36.664258688316,0
307cf66a9fa7fccc33169ba3,连城国际A座,房地产,写字楼,山东省,济南市,槐荫区,济南市槐荫区纬十二路连城国际,307cf66a9fa7fccc33169ba3,1,0,116.985207,36.658168,(0531)69906888,house,http://api.map.baidu.com/place/detail?uid=307cf66a9fa7fccc33169ba3&output=html&source=placeapi_v2,,,,,,,,,,,,,,,,,,116.98515629148,36.65827965122,0
96b672aa83217774cf04efb2,青年大厦(经五路),房地产,写字楼,山东省,济南市,市中区,山东省济南市市中区经五路256号,96b672aa83217774cf04efb2,1,1,116.994201,36.664471,(0531)87912243,house,http://api.map.baidu.com/place/detail?uid=96b672aa83217774cf04efb2&output=html&source=placeapi_v2,,,5,,,,,,,,,,,,,,,116.99450823035,36.664756361289,1
6fddd7fdb3e12f7e3417dcb2,恒昌大厦,房地产,写字楼,山东省,济南市,市中区,济南市市中区经四路288号,6fddd7fdb3e12f7e3417dcb2,1,5,117.00067,36.667622,,house,http://api.map.baidu.com/place/detail?uid=6fddd7fdb3e12f7e3417dcb2&output=html&source=placeapi_v2,,,5,,,,,,,,,,,,,,,117.00088807693,36.66785163026,5
749e1b00944a78cbab059d0a,新泉城大厦A座,房地产,写字楼,山东省,济南市,槐荫区,济南市槐荫区经七路586号,749e1b00944a78cbab059d0a,1,0,116.98897,36.659686,,house,http://api.map.baidu.com/place/detail?uid=749e1b00944a78cbab059d0a&output=html&source=placeapi_v2,,,,,,,,,,,,,,,,,,116.98870109575,36.659112212725,0
e96b4420c7bc675a82288ae4,新联谊大厦,房地产,写字楼,山东省,济南市,槐荫区,济南市槐荫区经十路24516号,e96b4420c7bc675a82288ae4,1,2,116.964253,36.654699,(0531)80995511,house,http://api.map.baidu.com/place/detail?uid=e96b4420c7bc675a82288ae4&output=html&source=placeapi_v2,,,,,,,,,,,,,,,,,,116.96391699405,36.65486421347,2
9f3adabe33e9b5af84154177,山东省住房和城乡建设厅-综合办公楼,房地产,写字楼,山东省,济南市,市中区,济南市市中区三里庄五号,9f3adabe33e9b5af84154177,1,0,116.998746,36.664023,,house,http://api.map.baidu.com/place/detail?uid=9f3adabe33e9b5af84154177&output=html&source=placeapi_v2,,,0,,,,,,,,,,,,,,,116.99878537908,36.663889309494,0
41ebb203d6c143b48d772705,银座佳悦大厦,房地产,写字楼,山东省,济南市,槐荫区,济南市槐荫区振兴街街道经十路23377号,41ebb203d6c143b48d772705,1,1,116.978919,36.65554,(0531)68618888,house,http://api.map.baidu.com/place/detail?uid=41ebb203d6c143b48d772705&output=html&source=placeapi_v2,,,,,,,,,,,,,,,,,,116.97871960821,36.655071897328,1
282719b38958c333fda778c1,山东出版智能产业大厦,房地产,写字楼,山东省,济南市,市中区,山东省济南市市中区经十路22068号,282719b38958c333fda778c1,1,1,116.993114,36.654377,(0531)68826999,house,http://api.map.baidu.com/place/detail?uid=282719b38958c333fda778c1&output=html&source=placeapi_v2,,,,,,,,,,,,,,,,,,116.99243170463,36.653974303242,1
00f1c7fbedfbf71ec056ac5e,新空间大厦,房地产,写字楼,山东省,济南市,槐荫区,济南市槐荫区经十路425号,00f1c7fbedfbf71ec056ac5e,1,0,116.97415,36.655125,,house,http://api.map.baidu.com/place/detail?uid=00f1c7fbedfbf71ec056ac5e&output=html&source=placeapi_v2,,,,,,,,,,,,,,,,,,116.97343581383,36.655306512983,0
00ea6b5de72ed529fe0eb050,建邦,房地产,写字楼,山东省,济南市,槐荫区,济南市槐荫区经十路建邦大厦,,1,0,116.973913,36.654997,,house,http://api.map.baidu.com/place/detail?uid=00ea6b5de72ed529fe0eb050&output=html&source=placeapi_v2,,,,,,,,,,,,,,,,,,,,0
64755c4aba5d2b4dfb2213fc,银座中心-3号楼,房地产,写字楼,山东省,济南市,槐荫区,山东省济南市槐荫区银座商城(和谐广场店)西,64755c4aba5d2b4dfb2213fc,1,2,116.982866,36.655748,,house,http://api.map.baidu.com/place/detail?uid=64755c4aba5d2b4dfb2213fc&output=html&source=placeapi_v2,,,0,,,,,,,,,,,,,,,116.98311357888,36.655780602614,2
a7dcc979483ad1e1b4265520,经一纬六济南车辆段综合楼,房地产,写字楼,山东省,济南市,天桥区,济南市天桥区经一路187号内,a7dcc979483ad1e1b4265520,1,0,116.98703,36.673138,(0531)82424746,house,http://api.map.baidu.com/place/detail?uid=a7dcc979483ad1e1b4265520&output=html&source=placeapi_v2,,,,,,,,,,,,,,,,,,116.98711734361,36.672927566241,0
3d7d8c7602a566cad4851f1d,综合办公楼,房地产,写字楼,山东省,济南市,天桥区,车站街161号,3d7d8c7602a566cad4851f1d,1,0,116.996591,36.675187,,house,http://api.map.baidu.com/place/detail?uid=3d7d8c7602a566cad4851f1d&output=html&source=placeapi_v2,,,0,,,,,,,,,,,,,,,116.99729485489,36.675341555574,0
74296fd6cf1985808f1a89b5,槐荫区连城广场商务楼,房地产,写字楼,山东省,济南市,槐荫区,济南市槐荫区纬十二路连城广场,74296fd6cf1985808f1a89b5,1,0,116.987342,36.655629,,house,http://api.map.baidu.com/place/detail?uid=74296fd6cf1985808f1a89b5&output=html&source=placeapi_v2,,,,,,,,,,,,,,,,,,,,0
3810c8795433ea8a9d09f7b2,银工大厦,房地产,写字楼,山东省,济南市,市中区,山东省济南市市中区经四路310号,3810c8795433ea8a9d09f7b2,1,5,116.998466,36.667108,,house,http://api.map.baidu.com/place/detail?uid=3810c8795433ea8a9d09f7b2&output=html&source=placeapi_v2,,,5,,,,,,,,,,,,,,,116.99830095706,36.667468068397,5
3e4653e151fe621b4f55479e,第二座楼,房地产,写字楼,山东省,济南市,市中区,济南市市中区经七路556号3单元103室第2座楼,3e4653e151fe621b4f55479e,1,0,116.992643,36.660426,,house,http://api.map.baidu.com/place/detail?uid=3e4653e151fe621b4f55479e&output=html&source=placeapi_v2,,,,,,,,,,,,,,,,,,,,0
a43ae952135bf924a8175a38,西街工坊创意文化产业园-F座,房地产,写字楼,山东省,济南市,槐荫区,济南市槐荫区营市西街西街工坊f座,a43ae952135bf924a8175a38,1,0,116.963258,36.656416,,house,http://api.map.baidu.com/place/detail?uid=a43ae952135bf924a8175a38&output=html&source=placeapi_v2,,,,,,,,,,,,,,,,,,116.96327240505,36.656505954609,0
ec59800d529facbf901fc90b,济南站-办公楼,房地产,写字楼,山东省,济南市,天桥区,济南市天桥区车站街33号,ec59800d529facbf901fc90b,1,0,116.996016,36.676285,,house,http://api.map.baidu.com/place/detail?uid=ec59800d529facbf901fc90b&output=html&source=placeapi_v2,,,5,,,,,,,,,,,,,,,116.99602111696,36.676031835812,0
bed36d8ba62c82caadcb66fd,办公区(综合楼),房地产,写字楼,山东省,济南市,槐荫区,济南市槐荫区经十路24297号综合楼F3层,,1,0,116.968847,36.65505,,house,http://api.map.baidu.com/place/detail?uid=bed36d8ba62c82caadcb66fd&output=html&source=placeapi_v2,,,,,,,,,,,,,,,,,,,,0
4c33bcc01ce45ea005fef54d,经七纬五房金大厦,房地产,写字楼,山东省,济南市,市中区,山东济南市市中区七里山街道经七路386号,4c33bcc01ce45ea005fef54d,1,0,116.996795,36.661229,(0531)87905949,house,http://api.map.baidu.com/place/detail?uid=4c33bcc01ce45ea005fef54d&output=html&source=placeapi_v2,,,,,,,,,,,,,,,,,,116.99649954549,36.661206263953,0
ffaf36de1bcc7174afcb668b,山东众筹创客大厦,房地产,写字楼,山东省,济南市,市中区,山东省济南市市中区纬四路6号,ffaf36de1bcc7174afcb668b,1,1,116.997056,36.671853,,house,http://api.map.baidu.com/place/detail?uid=ffaf36de1bcc7174afcb668b&output=html&source=placeapi_v2,,,0,,,,,,,,,,,,,,,116.9967553326,36.671878262096,1
50d7e1074a885c6395ca07a9,主任办公室(综合楼),房地产,写字楼,山东省,济南市,槐荫区,济南市槐荫区经十路24297号综合楼F8层,,1,0,116.968023,36.655459,,house,http://api.map.baidu.com/place/detail?uid=50d7e1074a885c6395ca07a9&output=html&source=placeapi_v2,,,,,,,,,,,,,,,,,,,,0
072c9fc8a82073c51b94c67a,天龙集团办公楼,房地产,写字楼,山东省,济南市,天桥区,济南市天桥区纬北路街道车站街161号,072c9fc8a82073c51b94c67a,1,1,116.996941,36.675232,,house,http://api.map.baidu.com/place/detail?uid=072c9fc8a82073c51b94c67a&output=html&source=placeapi_v2,,,0,,,,,,,,,,,,,,,116.99728587183,36.675363264434,1
07f3c8b529a94d626240a95e,泉景・同润商务大厦,房地产,写字楼,山东省,济南市,槐荫区,南辛庄街70号,07f3c8b529a94d626240a95e,1,1,116.971889,36.652224,(0531)55567267,house,http://api.map.baidu.com/place/detail?uid=07f3c8b529a94d626240a95e&output=html&source=placeapi_v2,,,0,,,,,,,,,,,,,,,116.971360941,36.652036299618,1
32397e8b0ace630685420ec4,凯旋中心配套商业楼,房地产,写字楼,山东省,济南市,槐荫区,济南市槐荫区经十路24586号,32397e8b0ace630685420ec4,1,0,116.962746,36.65465,,house,http://api.map.baidu.com/place/detail?uid=32397e8b0ace630685420ec4&output=html&source=placeapi_v2,,,,,,,,,,,,,,,,,,,,0
2257d1a8b172fa95343a716b,济铁迎宾楼,房地产,写字楼,山东省,济南市,天桥区,山东省济南市天桥区站前街107-1号,2257d1a8b172fa95343a716b,1,0,116.995364,36.675704,,life,http://api.map.baidu.com/place/detail?uid=2257d1a8b172fa95343a716b&output=html&source=placeapi_v2,,,,,,,,,,2,1,,,,,,,116.99532051861,36.675858800542,0
0b6a99eec558a5fe09a8d430,济南市房地产大厦,房地产,写字楼,山东省,济南市,市中区,济南市市中区经七路88号,0b6a99eec558a5fe09a8d430,1,2,117.006814,36.662209,,house,http://api.map.baidu.com/place/detail?uid=0b6a99eec558a5fe09a8d430&output=html&source=placeapi_v2,,,0,,,,,,,,,,,,,,,117.00741251925,36.661979774765,2
e96b4420dda3692782288afa,齐鲁国际大厦,房地产,写字楼,山东省,济南市,历下区,泉城路180号,e96b4420dda3692782288afa,1,4,117.03315,36.670405,(0531)86079338,house,http://api.map.baidu.com/place/detail?uid=e96b4420dda3692782288afa&output=html&source=placeapi_v2,,,3.7,,,,,,,,,,,,,,,117.0335235161,36.671325310256,4
94ad23b6cd19830bc42ba1c9,山东数字产业大厦,房地产,写字楼,山东省,济南市,市中区,山东省济南市市中区经七路28-1号,94ad23b6cd19830bc42ba1c9,1,0,117.010564,36.66305,,house,http://api.map.baidu.com/place/detail?uid=94ad23b6cd19830bc42ba1c9&output=html&source=placeapi_v2,,,5,,,,,,,,,,,,,,,117.01045663318,36.663200000215,0
081021681fef1344d23ce30a,绿地・泉景商务大厦,房地产,写字楼,山东省,济南市,历下区,济南市历下区黑虎泉西路183号,081021681fef1344d23ce30a,1,3,117.024674,36.668926,,house,http://api.map.baidu.com/place/detail?uid=081021681fef1344d23ce30a&output=html&source=placeapi_v2,,,,,,,,,,,,,,,,,,117.02416874218,36.668569392353,3
50fb64ffe6e11223e8f8539e,金龙大厦,房地产,写字楼,山东省,济南市,市中区,山东省济南市市中区泺源大街229号,50fb64ffe6e11223e8f8539e,1,4,117.014442,36.664908,(0531)55516569,house,http://api.map.baidu.com/place/detail?uid=50fb64ffe6e11223e8f8539e&output=html&source=placeapi_v2,,,3.8,,,,,,,,,,,,,,,117.01374958852,36.664802737043,4
b2d7bafadf3f7edbf5c59ce1,普利商务中心(普利街),房地产,写字楼,山东省,济南市,天桥区,济南市天桥区花店街2号,b2d7bafadf3f7edbf5c59ce1,1,1,117.018067,36.671262,(0531)86123999,house,http://api.map.baidu.com/place/detail?uid=b2d7bafadf3f7edbf5c59ce1&output=html&source=placeapi_v2,,,,,,,,,,,,,,,,,,117.01796486467,36.670912819032,1
0a15c7ec1418a9fdec74f8ad,文博写字楼,房地产,写字楼,山东省,济南市,市中区,济南市市中区经十路137号东门,0a15c7ec1418a9fdec74f8ad,1,2,117.010917,36.655349,,house,http://api.map.baidu.com/place/detail?uid=0a15c7ec1418a9fdec74f8ad&output=html&source=placeapi_v2,,,,,,,,,,,,,,,,,,117.0105883086,36.65506886032,2
08f1f1f5e0dbffcb89db7386,中银大厦,房地产,写字楼,山东省,济南市,历下区,济南市历下区泺源大街22号,08f1f1f5e0dbffcb89db7386,1,4,117.040686,36.666005,,house,http://api.map.baidu.com/place/detail?uid=08f1f1f5e0dbffcb89db7386&output=html&source=placeapi_v2,,,1.4,,,,,,,,,,,,,,,117.04141873491,36.666033939779,4
72e06f997c988822fea778f5,天业国际,房地产,写字楼,山东省,济南市,历下区,历下泉城路264号,72e06f997c988822fea778f5,1,4,117.028435,36.670319,(0531)67618500,house,http://api.map.baidu.com/place/detail?uid=72e06f997c988822fea778f5&output=html&source=placeapi_v2,,,0,,,,,,,,,,,,,,,117.02759006538,36.669917776814,4
8de8bd45d4f4c351e215f95c,办公写字楼,房地产,写字楼,山东省,济南市,历下区,济南市历下区文化西路13号海辰大厦,8de8bd45d4f4c351e215f95c,1,0,117.038222,36.660343,,house,http://api.map.baidu.com/place/detail?uid=8de8bd45d4f4c351e215f95c&output=html&source=placeapi_v2,,,,,,,,,,,,,,,,,,,,0
cd9d05dd3a7f39b784420e80,丰利大厦,房地产,写字楼,山东省,济南市,历下区,山东省济南市历下区泉城路街道泉城路318号,cd9d05dd3a7f39b784420e80,1,4,117.02583,36.669977,(0531)86901866,house,http://api.map.baidu.com/place/detail?uid=cd9d05dd3a7f39b784420e80&output=html&source=placeapi_v2,,,0,,,,,,,,,,,,,,,117.02637055995,36.670305274088,4
e5362584bcec17484251c06a,明湖广场,房地产,写字楼,山东省,济南市,天桥区,明湖西路777号,e5362584bcec17484251c06a,1,5,117.013162,36.681462,,house,http://api.map.baidu.com/place/detail?uid=e5362584bcec17484251c06a&output=html&source=placeapi_v2,,,4.1,,,,,,,,,,,,,,,117.01227859079,36.680602155182,5
f444bb4fad3be2673ce23134,绿地中心,房地产,写字楼,山东省,济南市,市中区,济南市市中区共青团路25号,f444bb4fad3be2673ce23134,1,0,117.013774,36.669414,(0531)66696565,house,http://api.map.baidu.com/place/detail?uid=f444bb4fad3be2673ce23134&output=html&source=placeapi_v2,,,4.4,,,,,,,,,,,,,,,117.01355472809,36.669681873345,0
1bf85b2585660aa5a0a93480,山东轻工大厦,房地产,写字楼,山东省,济南市,历下区,济南市历下区泉城路342号,1bf85b2585660aa5a0a93480,1,1,117.024048,36.670043,,house,http://api.map.baidu.com/place/detail?uid=1bf85b2585660aa5a0a93480&output=html&source=placeapi_v2,,,0,,,,,,,,,,,,,,,117.02444768311,36.66997184866,1
550fd5f9b82ea478921fc980,中信广场,房地产,写字楼,山东省,济南市,历下区,山东省济南市历下区泺源大街150号,550fd5f9b82ea478921fc980,1,0,117.025227,36.665334,(0531)85180114,house,http://api.map.baidu.com/place/detail?uid=550fd5f9b82ea478921fc980&output=html&source=placeapi_v2,,,0,,,,,,,,,,,,,,,117.02557351234,36.665369299534,0
e9c63fcf082d73be58109339,万达广场写字楼-A座,房地产,写字楼,山东省,济南市,市中区,济南市市中区经四路5号,e9c63fcf082d73be58109339,1,0,117.008803,36.668489,(0531)67619066,house,http://api.map.baidu.com/place/detail?uid=e9c63fcf082d73be58109339&output=html&source=placeapi_v2,,,4.6,,,,,,,,,,,,,,,117.00867886053,36.668295791547,0
b7e9411bb1d9ed601811d528,万达广场写字楼-B座,房地产,写字楼,山东省,济南市,市中区,山东省济南市市中区经四路7号,b7e9411bb1d9ed601811d528,1,0,117.010129,36.668575,(0531)86266666,house,http://api.map.baidu.com/place/detail?uid=b7e9411bb1d9ed601811d528&output=html&source=placeapi_v2,,,4,,,,,,,,,,,,,,,117.01012016926,36.668283645545,0
ab6abdc74c2c264fc9c3db65,中国建设银行大楼,房地产,写字楼,山东省,济南市,历下区,济南市历下区趵突泉街道泺源大街178号中国建设银行大楼,ab6abdc74c2c264fc9c3db65,1,0,117.022223,36.665351,,house,http://api.map.baidu.com/place/detail?uid=ab6abdc74c2c264fc9c3db65&output=html&source=placeapi_v2,,,,,,,,,,,,,,,,,,117.021666028,36.665535331261,0
ef773a0fe688703523022080,泺源大厦,房地产,写字楼,山东省,济南市,历下区,济南市历下区泺源大街118号,ef773a0fe688703523022080,1,2,117.026181,36.66583,(0531)80989999,house,http://api.map.baidu.com/place/detail?uid=ef773a0fe688703523022080&output=html&source=placeapi_v2,,,0,,,,,,,,,,,,,,,117.02632652232,36.66607734998,2
4caaaeea1e24767b931fc9fc,万达广场写字楼-C座,房地产,写字楼,山东省,济南市,市中区,山东省济南市市中区经四路5号,4caaaeea1e24767b931fc9fc,1,2,117.00764,36.669245,,house,http://api.map.baidu.com/place/detail?uid=4caaaeea1e24767b931fc9fc&output=html&source=placeapi_v2,,,5,,,,,,,,,,,,,,,117.00792148209,36.66815860016,2
35debf2970caab39a6da39d7,山东商会大厦,房地产,写字楼,山东省,济南市,市中区,济南市市中区纬二路51号,35debf2970caab39a6da39d7,1,5,117.003725,36.665572,(0531)86057778,house,http://api.map.baidu.com/place/detail?uid=35debf2970caab39a6da39d7&output=html&source=placeapi_v2,,,5,,,,,,,,,,,,,,,117.0037395699,36.665657142948,5
2e00c5dd88f65c1fd7851fe0,海辰大厦,房地产,写字楼,山东省,济南市,历下区,山东省济南市历下区文化西路13号,2e00c5dd88f65c1fd7851fe0,1,2,117.038576,36.660525,,house,http://api.map.baidu.com/place/detail?uid=2e00c5dd88f65c1fd7851fe0&output=html&source=placeapi_v2,,,4,,,,,,,,,,,,,,,117.03879656945,36.660180026627,2
15531bf872261805c9291508,银座写字间,房地产,写字楼,山东省,济南市,历下区,济南市历下区泺源大街66号,15531bf872261805c9291508,1,0,117.03745,36.665876,,house,http://api.map.baidu.com/place/detail?uid=15531bf872261805c9291508&output=html&source=placeapi_v2,,,5,,,,,,,,,,,,,,,,,0
2e74e55985f5c2f65abbbcc3,金龙大厦-东楼,房地产,写字楼,山东省,济南市,市中区,济南市市中区泺源大街229号,2e74e55985f5c2f65abbbcc3,1,1,117.015091,36.664727,,house,http://api.map.baidu.com/place/detail?uid=2e74e55985f5c2f65abbbcc3&output=html&source=placeapi_v2,,,,,,,,,,,,,,,,,,,,1
5105bf66e9a0f78114948e8b,招商大厦,房地产,写字楼,山东省,济南市,天桥区,济南市天桥区共青团路7号,5105bf66e9a0f78114948e8b,1,5,117.019482,36.670788,,house,http://api.map.baidu.com/place/detail?uid=5105bf66e9a0f78114948e8b&output=html&source=placeapi_v2,,,0,,,,,,,,,,,,,,,117.01895596514,36.671187885796,5
99d90e7940736d5b047ce865,银座晶都国际B座,房地产,写字楼,山东省,济南市,市中区,济南市市中区顺河东街66号,99d90e7940736d5b047ce865,1,1,117.013899,36.666914,,house,http://api.map.baidu.com/place/detail?uid=99d90e7940736d5b047ce865&output=html&source=placeapi_v2,,,,,,,,,,,,,,,,,,117.01366252924,36.666859731855,1
26f5cd195c2f04bac51b75b9,万达广场写字楼-D座,房地产,写字楼,山东省,济南市,市中区,济南市市中区经四路与林祥南街交叉口西北100米,26f5cd195c2f04bac51b75b9,1,0,117.007299,36.668703,(0531)67609699,house,http://api.map.baidu.com/place/detail?uid=26f5cd195c2f04bac51b75b9&output=html&source=placeapi_v2,,,4,,,,,,,,,,,,,,,117.00724919653,36.668283955215,0
3bbdc876c75d266597ec84d0,绿城金融中心,房地产,写字楼,山东省,济南市,历下区,山东省济南市历下区泺源大厦8号绿城金融中心,3bbdc876c75d266597ec84d0,1,0,117.026159,36.665838,,house,http://api.map.baidu.com/place/detail?uid=3bbdc876c75d266597ec84d0&output=html&source=placeapi_v2,,,,,,,,,,,,,,,,,,117.02612355199,36.666050553136,0
a316f9cee852eabb8bb988e6,金龙大厦-西楼,房地产,写字楼,山东省,济南市,市中区,济南市市中区泺源大街229号11层,a316f9cee852eabb8bb988e6,1,1,117.01442,36.66453,,house,http://api.map.baidu.com/place/detail?uid=a316f9cee852eabb8bb988e6&output=html&source=placeapi_v2,,,0,,,,,,,,,,,,,,,117.01453866278,36.664409555851,1
850815e162a2618243e192fc,济南新业商厦,房地产,写字楼,山东省,济南市,历下区,济南市历下区趵突泉北路22号,850815e162a2618243e192fc,1,0,117.024374,36.669738,(0531)86922697,house,http://api.map.baidu.com/place/detail?uid=850815e162a2618243e192fc&output=html&source=placeapi_v2,,,5,,,,,,,,,,,,,,,117.0245828224,36.669652544517,0
b7021bf82905f7fbf5e73b80,山东文教大厦,房地产,写字楼,山东省,济南市,历下区,济南市历下区青年东路1号,b7021bf82905f7fbf5e73b80,1,2,117.030863,36.659393,,house,http://api.map.baidu.com/place/detail?uid=b7021bf82905f7fbf5e73b80&output=html&source=placeapi_v2,,,3.7,,,,,,,,,,,,,,,117.03130470149,36.659275305547,2
35debf29c3221845a7da3980,山东邮政大厦,房地产,写字楼,山东省,济南市,历下区,济南市历下区黑虎泉西路181号,35debf29c3221845a7da3980,1,4,117.025939,36.669061,(0531)85056328,house,http://api.map.baidu.com/place/detail?uid=35debf29c3221845a7da3980&output=html&source=placeapi_v2,,,3.5,,,,,,,,,,,,,,,117.02654902272,36.668694966736,4
fcc137f5716ab1ae704b87b2,三箭银苑-B座,房地产,写字楼,山东省,济南市,市中区,山东省济南市市中区民生大街22号三箭银苑,fcc137f5716ab1ae704b87b2,1,1,117.014207,36.661746,,house,http://api.map.baidu.com/place/detail?uid=fcc137f5716ab1ae704b87b2&output=html&source=placeapi_v2,,,0,,,,,,,,,,,,,,,117.01393713585,36.661618435066,1
294323ac6689f55c220262d5,山东广电中心-媒体产业大厦,房地产,写字楼,山东省,济南市,历下区,济南市历下区青年东路18号,294323ac6689f55c220262d5,1,4,117.032037,36.656024,(0531)85036178,house,http://api.map.baidu.com/place/detail?uid=294323ac6689f55c220262d5&output=html&source=placeapi_v2,,,4,,,,,,,,,,,,,,,117.03169097286,36.656018220851,4
bd55b314a01bb84700ec01d7,银座晶都国际-C座,房地产,写字楼,山东省,济南市,市中区,济南市市中区石棚街12号,bd55b314a01bb84700ec01d7,1,2,117.014153,36.666189,,house,http://api.map.baidu.com/place/detail?uid=bd55b314a01bb84700ec01d7&output=html&source=placeapi_v2,,,,,,,,,,,,,,,,,,117.01418037183,36.665972315103,2
069c2f2b9907e530ca1b95b2,三联大厦,房地产,写字楼,山东省,济南市,历下区,山东省济南市历下区趵突泉北路12号,069c2f2b9907e530ca1b95b2,1,1,117.023083,36.671626,,house,http://api.map.baidu.com/place/detail?uid=069c2f2b9907e530ca1b95b2&output=html&source=placeapi_v2,,,4.5,,,,,,,,,,,,,,,117.02270082115,36.671104446811,1
e2ce5e2d1652a50f39221c24,cosmos tours international,房地产,写字楼,山东省,济南市,市中区,济南市市中区银座晶都国际广场1号楼3009号,e2ce5e2d1652a50f39221c24,1,0,117.013778,36.667644,,house,http://api.map.baidu.com/place/detail?uid=e2ce5e2d1652a50f39221c24&output=html&source=placeapi_v2,,,,,,,,,,,,,,,,,,,,0
27ee70cad8a7995a455726ff,济南市中医药研究所办公楼,房地产,写字楼,山东省,济南市,市中区,济南市市中区共青团路济南市中医医院,27ee70cad8a7995a455726ff,1,0,117.015652,36.668937,,house,http://api.map.baidu.com/place/detail?uid=27ee70cad8a7995a455726ff&output=html&source=placeapi_v2,,,,,,,,,,,,,,,,,,,,0
77981d7acddd8c288b2fb5ed,银座晶都国际广场-1号楼,房地产,写字楼,山东省,济南市,市中区,山东省济南市市中区顺河街66号,77981d7acddd8c288b2fb5ed,1,0,117.013778,36.667644,,house,http://api.map.baidu.com/place/detail?uid=77981d7acddd8c288b2fb5ed&output=html&source=placeapi_v2,,,,,,,,,,,,,,,,,,117.01375261222,36.667756797374,0
8ad8e324ef9546cace04efdb,银座晶都国际广场-3号楼,房地产,写字楼,山东省,济南市,市中区,济南市市中区顺河街66号,8ad8e324ef9546cace04efdb,1,0,117.014415,36.666393,,house,http://api.map.baidu.com/place/detail?uid=8ad8e324ef9546cace04efdb&output=html&source=placeapi_v2,,,4,,,,,,,,,,,,,,,117.01460611115,36.666224061821,0
5254a6db6673597acb213d08,揽月楼,房地产,写字楼,山东省,济南市,历下区,济南市历下区经十路18762号济南泉城公园,,1,0,117.026147,36.651835,,house,http://api.map.baidu.com/place/detail?uid=5254a6db6673597acb213d08&output=html&source=placeapi_v2,,,,,,,,,,,,,,,,,,,,0
50d192588c843b597c29bd08,济南南郊宾馆写字楼,房地产,写字楼,山东省,济南市,历下区,山东省济南市历下区南郊宾馆宿舍东南(玉函路东),50d192588c843b597c29bd08,1,0,117.022457,36.647291,,house,http://api.map.baidu.com/place/detail?uid=50d192588c843b597c29bd08&output=html&source=placeapi_v2,,,,,,,,,,,,,,,,,,,,0
1088c3a0e4bab7afa80dd81e,银座晶都国际广场-2号楼,房地产,写字楼,山东省,济南市,市中区,济南市市中区顺河街66号,1088c3a0e4bab7afa80dd81e,1,0,117.013928,36.667063,,house,http://api.map.baidu.com/place/detail?uid=1088c3a0e4bab7afa80dd81e&output=html&source=placeapi_v2,,,2,,,,,,,,,,,,,,,117.01361705343,36.667053373109,0
73440d50c96487e09c09f7e7,联合创新中心,房地产,写字楼,山东省,济南市,市中区,济南市市中区饮虎池街回民小区北侧约50米,73440d50c96487e09c09f7e7,1,0,117.018569,36.669523,,house,http://api.map.baidu.com/place/detail?uid=73440d50c96487e09c09f7e7&output=html&source=placeapi_v2,,,,,,,,,,,,,,,,,,,,0
0f5cbb88d9ff989787154181,证券大厦,房地产,写字楼,山东省,济南市,市中区,济南市市中区经七路86号,0f5cbb88d9ff989787154181,1,4,117.007908,36.662077,,house,http://api.map.baidu.com/place/detail?uid=0f5cbb88d9ff989787154181&output=html&source=placeapi_v2,,,5,,,,,,,,,,,,,,,117.00780403403,36.662621121931,4
f3c2373c7866e553d32dd6b3,汇宝大厦,房地产,写字楼,山东省,济南市,市中区,山东省济南市市中区纬二路49号欧亚大观园商场F1,f3c2373c7866e553d32dd6b3,1,1,117.003574,36.666452,,house,http://api.map.baidu.com/place/detail?uid=f3c2373c7866e553d32dd6b3&output=html&source=placeapi_v2,,,4,,,,,,,,,,,,,,,117.00325086206,36.666107847972,1
8ab0dfc4f16f360fd8eced23,济南惠尔商厦,房地产,写字楼,山东省,济南市,历下区,济南市历下区泉城路322号西箭道1号楼,8ab0dfc4f16f360fd8eced23,1,0,117.02481,36.670035,(0531)86107899,shopping,http://api.map.baidu.com/place/detail?uid=8ab0dfc4f16f360fd8eced23&output=html&source=placeapi_v2,,,5,,,,,,,,43,,,,,,,117.02516079575,36.66990588624,0
6fddd7fdb3e12f7e3417dcb2,恒昌大厦,房地产,写字楼,山东省,济南市,市中区,济南市市中区经四路288号,6fddd7fdb3e12f7e3417dcb2,1,5,117.00067,36.667622,,house,http://api.map.baidu.com/place/detail?uid=6fddd7fdb3e12f7e3417dcb2&output=html&source=placeapi_v2,,,5,,,,,,,,,,,,,,,117.00088807693,36.66785163026,5
ea4a3dc97a9c8f374e55475a,济南大厦,房地产,写字楼,山东省,济南市,市中区,山东省济南市市中区经八路122号,ea4a3dc97a9c8f374e55475a,1,2,117.004352,36.657508,(0531)82078345,house,http://api.map.baidu.com/place/detail?uid=ea4a3dc97a9c8f374e55475a&output=html&source=placeapi_v2,,,0,,,,,,,,,,,,,,,117.00389740038,36.657545448983,2
25bcbc17be87a3e2f7e73ba8,电信大楼,房地产,写字楼,山东省,济南市,市中区,济南市市中区二七街道英雄山路1号,25bcbc17be87a3e2f7e73ba8,1,0,117.003193,36.653891,,house,http://api.map.baidu.com/place/detail?uid=25bcbc17be87a3e2f7e73ba8&output=html&source=placeapi_v2,,,0,,,,,,,,,,,,,,,117.00329025725,36.65398156689,0
322189ab29b41b5007026fe8,玉泉写字间-C座,房地产,写字楼,山东省,济南市,历下区,济南市历下区泺源大街68号,322189ab29b41b5007026fe8,1,1,117.03484,36.665892,(0531)86921911,house,http://api.map.baidu.com/place/detail?uid=322189ab29b41b5007026fe8&output=html&source=placeapi_v2,,,,,,,,,,,,,,,,,,117.03487995742,36.666085782292,1
a7c56ee0910005b2a2acc480,永安大厦,房地产,写字楼,山东省,济南市,历下区,济南市历下区泉城路268号,a7c56ee0910005b2a2acc480,1,3,117.02786,36.670279,,shopping,http://api.map.baidu.com/place/detail?uid=a7c56ee0910005b2a2acc480&output=html&source=placeapi_v2,,,,,,,,,,,5,,,,,,,117.02760368279,36.669914146834,3
b9e5d0b854cd59bd81a12eed,龙泉商城,房地产,写字楼,山东省,济南市,历下区,山东省济南市历下区泉城路322-2号,b9e5d0b854cd59bd81a12eed,1,2,117.025236,36.669519,,shopping,http://api.map.baidu.com/place/detail?uid=b9e5d0b854cd59bd81a12eed&output=html&source=placeapi_v2,,,0,,,,,,,,3,,,,,,,117.02451351184,36.66950164798,2
7d760cf1cecea3b97adbd2cd,绿城济南中心,房地产,写字楼,山东省,济南市,历下区,济南市历下区泺源大街8号,7d760cf1cecea3b97adbd2cd,1,0,117.042054,36.665689,,house,http://api.map.baidu.com/place/detail?uid=7d760cf1cecea3b97adbd2cd&output=html&source=placeapi_v2,,,4.5,,,,,,,,,,,,,,,117.04160876246,36.666054575338,0
bc5482984b30c11b26d2bb86,济南恩邦商务中心,房地产,写字楼,山东省,济南市,天桥区,济南市天桥区普利街59号,bc5482984b30c11b26d2bb86,1,0,117.015529,36.670819,,house,http://api.map.baidu.com/place/detail?uid=bc5482984b30c11b26d2bb86&output=html&source=placeapi_v2,,,,,,,,,,,,,,,,,,,,0
f64c591344478c0695ca07b4,山东文教大厦-北楼,房地产,写字楼,山东省,济南市,历下区,济南市历下区青年东路1号,f64c591344478c0695ca07b4,1,0,117.030784,36.65956,,house,http://api.map.baidu.com/place/detail?uid=f64c591344478c0695ca07b4&output=html&source=placeapi_v2,,,,,,,,,,,,,,,,,,117.0311476723,36.659563441774,0
0232436859733b8951e5c52c,山东省民主党派办公大楼,房地产,写字楼,山东省,济南市,历下区,济南市历下区经十路18262号(舜耕路口),0232436859733b8951e5c52c,1,2,117.031898,36.654109,,house,http://api.map.baidu.com/place/detail?uid=0232436859733b8951e5c52c&output=html&source=placeapi_v2,,,0,,,,,,,,,,,,,,,117.03210757298,36.654462150051,2
afc35ab9895e0b317c29bdd9,国际财富中心,房地产,写字楼,山东省,济南市,市中区,济南市市中区经七路156号南门,afc35ab9895e0b317c29bdd9,1,5,117.004837,36.661723,(0531)55768888,house,http://api.map.baidu.com/place/detail?uid=afc35ab9895e0b317c29bdd9&output=html&source=placeapi_v2,,,5,,,,,,,,,,,,,,,117.00438276024,36.661425132851,5
29481c69508d2622c4f50d30,山东省人大常委会-办公楼,房地产,写字楼,山东省,济南市,历下区,济南市历下区大明湖街道院前街1号,29481c69508d2622c4f50d30,1,0,117.032239,36.673467,,house,http://api.map.baidu.com/place/detail?uid=29481c69508d2622c4f50d30&output=html&source=placeapi_v2,,,,,,,,,,,,,,,,,,,,0
df33a0aa77b58aba3ce23141,吉华大厦建行楼,房地产,写字楼,山东省,济南市,天桥区,济南市天桥区英贤街19号,df33a0aa77b58aba3ce23141,1,0,117.01545,36.674288,,house,http://api.map.baidu.com/place/detail?uid=df33a0aa77b58aba3ce23141&output=html&source=placeapi_v2,,,,,,,,,,,,,,,,,,,,0
0be7150da8c01851c4f02577,绿城济南中心主楼,房地产,写字楼,山东省,济南市,历下区,济南市历下区解放路街道泺源大街8号绿城济南中心主楼,0be7150da8c01851c4f02577,1,0,117.042048,36.665717,,house,http://api.map.baidu.com/place/detail?uid=0be7150da8c01851c4f02577&output=html&source=placeapi_v2,,,,,,,,,,,,,,,,,,117.04173949735,36.6660392756,0
9a6a2b7dc2968e251e5800c4,济南华能大厦,房地产,写字楼,山东省,济南市,历下区,山东省济南市历下区泉城路17号,9a6a2b7dc2968e251e5800c4,1,1,117.03717,36.672251,(0531)86096888,house,http://api.map.baidu.com/place/detail?uid=9a6a2b7dc2968e251e5800c4&output=html&source=placeapi_v2,,,3.7,,,,,,,,,,,,,,,117.03682029732,36.672027263877,1
52cdef3a04ad32f55e17c3fc,丰泽金融产业大厦,房地产,写字楼,山东省,济南市,市中区,山东省济南市市中区小纬二路71号,52cdef3a04ad32f55e17c3fc,1,0,117.001984,36.66259,,house,http://api.map.baidu.com/place/detail?uid=52cdef3a04ad32f55e17c3fc&output=html&source=placeapi_v2,,,0,,,,,,,,,,,,,,,,,0
924b63a781d91881f4231025,济南山东省民主党派办公大楼管理处,房地产,写字楼,山东省,济南市,历下区,济南市历下区经十路18262号,924b63a781d91881f4231025,1,0,117.03196,36.653992,,house,http://api.map.baidu.com/place/detail?uid=924b63a781d91881f4231025&output=html&source=placeapi_v2,,,,,,,,,,,,,,,,,,,,0
b2f2bbfab1474adf97ec846e,写字间,房地产,写字楼,山东省,济南市,历下区,济南市历下区泺源大街泺源大厦,b2f2bbfab1474adf97ec846e,1,0,117.02626,36.665875,,house,http://api.map.baidu.com/place/detail?uid=b2f2bbfab1474adf97ec846e&output=html&source=placeapi_v2,,,,,,,,,,,,,,,,,,,,0
91c13f9379f609fb20f01780,华特广场,房地产,写字楼,山东省,济南市,历下区,济南市历下区经十路17703号,91c13f9379f609fb20f01780,1,0,117.037618,36.655241,,house,http://api.map.baidu.com/place/detail?uid=91c13f9379f609fb20f01780&output=html&source=placeapi_v2,,,0,,,,,,,,,,,,,,,117.03817673865,36.655236499841,0
1020060f2173aca71994c680,银座燕山写字楼,房地产,写字楼,山东省,济南市,历下区,济南市历下区和平路18号,1020060f2173aca71994c680,1,1,117.064887,36.666431,,house,http://api.map.baidu.com/place/detail?uid=1020060f2173aca71994c680&output=html&source=placeapi_v2,,,5,,,,,,,,,,,,,,,117.06514000734,36.666273586507,1
