uid,name,cat_L1,cat_L2,province,city,area,address,street_id,detail,child_num,loc_lng,loc_lat,telephone,type,detail_url,price,shop_hours,overall_rating,taste_rating,service_rating,environment_rating,facility_rating,hygiene_rating,technology_rating,image_num,comment_num,groupon_num,discount_num,favorite_num,checkin_num,brand,content_tag,naviloc_lng,naviloc_lat,child_num
2bcc7a4bb0ae72511b94c627,遇见公寓酒店(世纪城店),酒店,公寓式酒店,山东省,济南市,莱芜区,山东省济南市莱芜区山财大街1号,,1,0,117.720648,36.244797,13054826299,hotel,http://api.map.baidu.com/place/detail?uid=2bcc7a4bb0ae72511b94c627&output=html&source=placeapi_v2,,,,,0,,0,0,,0,0,,,0,0,,,,,0
6c5e6fe017e582914354d734,济南鑫舒宾馆,酒店,公寓式酒店,山东省,济南市,历城区,济南历城区济南历城区中国石化济南47站6号,6c5e6fe017e582914354d734,1,0,117.224141,36.51167,18453123555,hotel,http://api.map.baidu.com/place/detail?uid=6c5e6fe017e582914354d734&output=html&source=placeapi_v2,,,4.7,,4.7,,4.7,4.7,,50,14,,,0,0,,,117.22407919366,36.511869874172,0
13405e2cae1da89882288a4c,济南久爱酒店式公寓,酒店,公寓式酒店,山东省,济南市,长清区,济南市长清区环城南路丹凤小区5号楼101号,,1,0,116.786876,36.542964,15650572393,hotel,http://api.map.baidu.com/place/detail?uid=13405e2cae1da89882288a4c&output=html&source=placeapi_v2,,,0.0,,0.0,,0.0,0.0,,7,0,,,0,0,,,,,0
333dea65f25a9d1afbf0cb95,宜家主题公寓,酒店,公寓式酒店,山东省,济南市,长清区,山东省济南市长清区常春藤小区45号楼11层,333dea65f25a9d1afbf0cb95,1,0,116.768769,36.550038,,hotel,http://api.map.baidu.com/place/detail?uid=333dea65f25a9d1afbf0cb95&output=html&source=placeapi_v2,,,,,0,,0,0,,0,0,,,0,0,,,,,0
07634bcbad3f9ad340afe68d,雨沫E精品酒店公寓,酒店,公寓式酒店,山东省,济南市,长清区,山东省济南市长清区海棠路8888号63号楼,07634bcbad3f9ad340afe68d,1,0,116.812177,36.518145,18866877303,hotel,http://api.map.baidu.com/place/detail?uid=07634bcbad3f9ad340afe68d&output=html&source=placeapi_v2,,,4.0,,4.2,,4.2,4.2,,110,56,,,0,0,,,116.81198992844,36.518440998331,0
e5950b297860913fa3d23043,济南幸福公寓,酒店,公寓式酒店,山东省,济南市,长清区,山东省济南市长清区山艺教职工公寓(山艺正门往西500米往南200米),,1,0,116.824546,36.525769,15194157838,hotel,http://api.map.baidu.com/place/detail?uid=e5950b297860913fa3d23043&output=html&source=placeapi_v2,,,0.0,,0.0,,0.0,0.0,,0,0,,,0,0,,,,,0
45d60ab6c69eb9f80ab93aa4,斯维登度假公寓(济南经十西路店),酒店,公寓式酒店,山东省,济南市,长清区,山东省济南市长清区经十西路16290号,45d60ab6c69eb9f80ab93aa4,1,0,116.763779,36.564991,15550032819,hotel,http://api.map.baidu.com/place/detail?uid=45d60ab6c69eb9f80ab93aa4&output=html&source=placeapi_v2,,,4.5,,4.5,,4.5,4.5,,129,28,,,0,0,,,,,0
333dea65f25a9d1afbf0cb95,宜家主题公寓,酒店,公寓式酒店,山东省,济南市,长清区,山东省济南市长清区常春藤小区45号楼11层,333dea65f25a9d1afbf0cb95,1,0,116.768769,36.550038,,hotel,http://api.map.baidu.com/place/detail?uid=333dea65f25a9d1afbf0cb95&output=html&source=placeapi_v2,,,,,0,,0,0,,0,0,,,0,0,,,,,0
c86cea877b205fed8bf15d1e,济南梧桐夜雨公寓,酒店,公寓式酒店,山东省,济南市,长清区,山东省济南市长清区大学路三庆青年城4号1416室,c86cea877b205fed8bf15d1e,1,0,116.82579,36.566148,(0531)87461077,hotel,http://api.map.baidu.com/place/detail?uid=c86cea877b205fed8bf15d1e&output=html&source=placeapi_v2,,,4.3,,4.3,,4.3,4.3,,120,5,,,0,0,,,116.82578982794,36.566153494494,0
e6002d87ddcd305f4e5547cb,济南塞纳风情公寓,酒店,公寓式酒店,山东省,济南市,长清区,山东省济南市长清区紫薇路4号楼,e6002d87ddcd305f4e5547cb,1,0,116.825769,36.564479,13287727568,hotel,http://api.map.baidu.com/place/detail?uid=e6002d87ddcd305f4e5547cb&output=html&source=placeapi_v2,,,1,,4.7,,4.7,4.7,,102,2,,,0,0,,,116.82576934657,36.564478851597,0
d02e6dbbbe60114b6d20b9a1,24格影吧公寓,酒店,公寓式酒店,山东省,济南市,长清区,山东省济南市长清区大学路2166号银座购物广场F3,d02e6dbbbe60114b6d20b9a1,1,0,116.827017,36.555865,(0531)87212111,hotel,http://api.map.baidu.com/place/detail?uid=d02e6dbbbe60114b6d20b9a1&output=html&source=placeapi_v2,,,4,,0.0,,0.0,0.0,,95,1,,,0,0,,,116.82737508564,36.556741347985,0
08adc78c9fc71054fbf0cbd5,济南雅轩舒心公寓,酒店,公寓式酒店,山东省,济南市,长清区,大学路常春藤小区60号楼,,1,0,116.83052,36.555138,13854141337,hotel,http://api.map.baidu.com/place/detail?uid=08adc78c9fc71054fbf0cbd5&output=html&source=placeapi_v2,0.0,,0.0,,0,,0,0,,9,0,,,0,0,,,,,0
5ee546697ebf4baf86420eef,济南市米家公寓,酒店,公寓式酒店,山东省,济南市,长清区,山东济南市长清区博雅路鲁商常春藤小区53栋1单元,,1,0,116.832384,36.555319,,hotel,http://api.map.baidu.com/place/detail?uid=5ee546697ebf4baf86420eef&output=html&source=placeapi_v2,,,,,,,,,,0,0,,,,,,,,,0
fb57e432025d30c92811d193,济南七色空间主题公寓,酒店,公寓式酒店,山东省,济南市,长清区,大学路2166号鲁商常春藤小区64号楼,fb57e432025d30c92811d193,1,0,116.830568,36.554138,"13969129705,15254143119",hotel,http://api.map.baidu.com/place/detail?uid=fb57e432025d30c92811d193&output=html&source=placeapi_v2,58.0,,3.5,,3.0,,3.0,4.0,,1,0,,,0,0,,,,,0
20bd19698cd0b6d99222e0f4,欢乐颂青年公寓,酒店,公寓式酒店,山东省,济南市,长清区,博雅路鲁商常春藤小区53号楼(山东女子学院南门对面),,1,0,116.832358,36.555298,15634026008,hotel,http://api.map.baidu.com/place/detail?uid=20bd19698cd0b6d99222e0f4&output=html&source=placeapi_v2,,,0.0,,0.0,,0.0,0.0,,0,0,,,0,0,,,,,0
899773837929934e3617dc0c,济南尚客主题公寓,酒店,公寓式酒店,山东省,济南市,长清区,常春藤小区64号楼2单元1301,899773837929934e3617dc0c,1,0,116.830113,36.555844,18954103316,hotel,http://api.map.baidu.com/place/detail?uid=899773837929934e3617dc0c&output=html&source=placeapi_v2,38.0,,0.0,,0.0,,0.0,0.0,,1,0,,,0,0,,,,,0
3bda1317f593a2075e0d0219,济南费列罗主题公寓,酒店,公寓式酒店,山东省,济南市,长清区,济南市长清区博雅路常春藤小区50号楼2单元,3bda1317f593a2075e0d0219,1,0,116.830972,36.555976,18888334822,hotel,http://api.map.baidu.com/place/detail?uid=3bda1317f593a2075e0d0219&output=html&source=placeapi_v2,30.0,,0.0,,0.0,,0.0,0.0,,13,1,,,0,0,,,,,0
17b38621766c5e0e2806cedd,快捷公寓,酒店,公寓式酒店,山东省,济南市,市中区,山东省济南市市中区济微公路3012号,17b38621766c5e0e2806cedd,1,0,116.901254,36.589375,13280000139,hotel,http://api.map.baidu.com/place/detail?uid=17b38621766c5e0e2806cedd&output=html&source=placeapi_v2,0.0,,5,,0,,0,0,,11,1,,,0,0,,,116.9013166082,36.589242547745,0
2cc42c3d1964f016734b87fc,诚信公寓,酒店,公寓式酒店,山东省,济南市,市中区,山东省济南市市中区济微路389号,2cc42c3d1964f016734b87fc,1,0,116.897985,36.587628,13698631317,hotel,http://api.map.baidu.com/place/detail?uid=2cc42c3d1964f016734b87fc&output=html&source=placeapi_v2,0.0,,0.0,,0.0,,0.0,0.0,,26,0,,,0,0,,,116.89793328243,36.587667031196,0
b44c4bcb966e3c60f6c59c4f,华苑公寓,酒店,公寓式酒店,山东省,济南市,市中区,山东省济南市市中区党家街道济微路389号山东力明科技职业学院对面,b44c4bcb966e3c60f6c59c4f,1,0,116.896519,36.587204,13465936888,hotel,http://api.map.baidu.com/place/detail?uid=b44c4bcb966e3c60f6c59c4f&output=html&source=placeapi_v2,,,3.2,,4.4,,4.4,4.4,,126,4,,,0,0,,,,,0
79fb92d59d74f72ba2d23049,柏惠公寓(力明学院店),酒店,公寓式酒店,山东省,济南市,市中区,山东省济南市市中区济微路389号,79fb92d59d74f72ba2d23049,1,1,116.898654,36.587783,,hotel,http://api.map.baidu.com/place/detail?uid=79fb92d59d74f72ba2d23049&output=html&source=placeapi_v2,0.0,,5,,5.0,,5.0,5.0,,47,2,,,0,0,,,116.89858006239,36.587964059107,1
0a360dafcdab1b2a6ca3cc0d,济南泉景园公寓,酒店,公寓式酒店,山东省,济南市,槐荫区,山东省济南市槐荫区刘长山路二期9号楼,0a360dafcdab1b2a6ca3cc0d,1,0,116.909841,36.629198,4006061230-51835,hotel,http://api.map.baidu.com/place/detail?uid=0a360dafcdab1b2a6ca3cc0d&output=html&source=placeapi_v2,208.0,,0,,0.0,,0.0,0.0,,25,0,,,0,0,,,,,0
1153b9880e99b2e9c2f1cf1d,柠檬树公寓,酒店,公寓式酒店,山东省,济南市,槐荫区,山东省济南市槐荫区南辛庄西路138-23号实验机厂院里,,1,0,116.969225,36.645114,,life,http://api.map.baidu.com/place/detail?uid=1153b9880e99b2e9c2f1cf1d&output=html&source=placeapi_v2,,,,,,,,,,3,,,,,,,,,,0
c42ebabff7a6ffe0d518b7c1,爱森公寓,酒店,公寓式酒店,山东省,济南市,历下区,济南市历下区二环东路与浆水泉西路交叉路口西侧,c42ebabff7a6ffe0d518b7c1,1,0,117.074938,36.646161,,hotel,http://api.map.baidu.com/place/detail?uid=c42ebabff7a6ffe0d518b7c1&output=html&source=placeapi_v2,0.0,,5,,0,,0,0,,19,3,,,0,0,,,117.07505204149,36.646194010331,0
1e8f2b460cd7b2666da3cc55,济南绿地公寓,酒店,公寓式酒店,山东省,济南市,槐荫区,山东省济南市槐荫区齐州路2999号a座,1e8f2b460cd7b2666da3cc55,1,0,116.902241,36.671225,18754165668,hotel,http://api.map.baidu.com/place/detail?uid=1e8f2b460cd7b2666da3cc55&output=html&source=placeapi_v2,,,1,,3.8,,3.8,3.8,,37,2,,,0,0,,,,,0
979f7749e72ced49047ce875,济南锦江豪华之星公寓,酒店,公寓式酒店,山东省,济南市,槐荫区,山东省济南市槐荫区日照路绿地中央广场三区4号楼1单元103号,979f7749e72ced49047ce875,1,0,116.902229,36.671724,13156102540,hotel,http://api.map.baidu.com/place/detail?uid=979f7749e72ced49047ce875&output=html&source=placeapi_v2,,,3.6,,3.6,,3.6,3.6,,45,22,,,0,0,,,116.90193631863,36.671707175346,0
1fc7cdf9596732fb2cb96dd7,德舍公寓(济南东营路店),酒店,公寓式酒店,山东省,济南市,槐荫区,济南市槐荫区兴福寺南路恒大金碧新城,,1,0,116.93099,36.67957,,hotel,http://api.map.baidu.com/place/detail?uid=1fc7cdf9596732fb2cb96dd7&output=html&source=placeapi_v2,,,5.0,,5.0,,5.0,5.0,,66,1,,,0,0,,,,,0
97465863f26d0cff9d82ea6e,济南Home酒店式公寓(济南西市场店),酒店,公寓式酒店,山东省,济南市,槐荫区,山东省济南市槐荫区经一路333号b座2单元1701室,97465863f26d0cff9d82ea6e,1,0,116.980412,36.668966,18866616512,hotel,http://api.map.baidu.com/place/detail?uid=97465863f26d0cff9d82ea6e&output=html&source=placeapi_v2,,,4.7,,4.7,,4.7,4.7,,200,4,,,0,0,,,116.98045347888,36.668853729862,0
70adcb118cbc9f2dfb2d6188,济南i巢公寓,酒店,公寓式酒店,山东省,济南市,天桥区,山东省济南市天桥区大润发西邻名泉春晓A1座12楼(十一中对过),70adcb118cbc9f2dfb2d6188,1,0,116.986801,36.681031,13475986175,hotel,http://api.map.baidu.com/place/detail?uid=70adcb118cbc9f2dfb2d6188&output=html&source=placeapi_v2,,,4.0,,4.0,,4.0,4.0,,52,1,,,0,0,,,,,0
a1f4dd4d0dd2a650e8e582e8,济南和谐公寓(济南和谐广场店),酒店,公寓式酒店,山东省,济南市,槐荫区,济南市槐荫区经七路758号连城国际A座8层,a1f4dd4d0dd2a650e8e582e8,1,0,116.985218,36.658012,(0531)87065899,hotel,http://api.map.baidu.com/place/detail?uid=a1f4dd4d0dd2a650e8e582e8&output=html&source=placeapi_v2,,,4.2,,4.2,,4.2,4.2,,71,18,,,0,0,,,,,0
40eaf32dc7c1a1c04e2fdfd6,泊寓城市青年家(望平街店),酒店,公寓式酒店,山东省,济南市,市中区,山东省济南市市中区望平街19号,40eaf32dc7c1a1c04e2fdfd6,1,0,116.997761,36.66997,,hotel,http://api.map.baidu.com/place/detail?uid=40eaf32dc7c1a1c04e2fdfd6&output=html&source=placeapi_v2,,,,,0,,0,0,,13,0,,,0,0,,,,,0
853f4bd9a52a9f7c2902e1bd,泺源保洁员公寓,酒店,公寓式酒店,山东省,济南市,市中区,济南市市中区得胜南街与民生大街交叉路口往东南约120米,853f4bd9a52a9f7c2902e1bd,1,0,117.014934,36.661626,,life,http://api.map.baidu.com/place/detail?uid=853f4bd9a52a9f7c2902e1bd&output=html&source=placeapi_v2,,,3.0,,,,,,,8,,,,,,,,117.01492949035,36.661605049143,0
6c96e4decdcc0c621d580034,济南艾尚酒店式公寓,酒店,公寓式酒店,山东省,济南市,市中区,山东省济南市市中区纬一路114号万达公寓3楼312室,6c96e4decdcc0c621d580034,1,0,117.006128,36.669889,(0531)86912857,hotel,http://api.map.baidu.com/place/detail?uid=6c96e4decdcc0c621d580034&output=html&source=placeapi_v2,,,3.6,,4.6,,4.6,4.6,,200,19,,,0,0,,,,,0
2a7a25ec6e79987a6c3e1b77,果蓝hotel(万达店),酒店,公寓式酒店,山东省,济南市,市中区,山东省济南市市中区经三纬一路万达广场C公寓1号楼F1-F28(万达凯悦酒店北邻),2a7a25ec6e79987a6c3e1b77,1,0,117.006006,36.669985,(0531)82062666,hotel,http://api.map.baidu.com/place/detail?uid=2a7a25ec6e79987a6c3e1b77&output=html&source=placeapi_v2,,,4.7,,4.6,,4.6,4.6,,200,31,,,0,0,,,117.00572737627,36.669971275578,0
c43dc518c79731017dc876c0,斯维登服务公寓(世茂国际广场),酒店,公寓式酒店,山东省,济南市,历下区,山东省济南市历下区泉城路26号世茂国际广场D栋,c43dc518c79731017dc876c0,1,0,117.036618,36.670555,(0531)58708333,hotel,http://api.map.baidu.com/place/detail?uid=c43dc518c79731017dc876c0&output=html&source=placeapi_v2,,,4.6,,4.6,,4.6,4.6,,159,30,,,0,0,,,117.03596364085,36.671401552935,0
4205d572587485748a36ee96,新骏林公寓式酒店,酒店,公寓式酒店,山东省,济南市,历下区,泉城路26号世茂国际广场F1,4205d572587485748a36ee96,1,0,117.036988,36.67047,,hotel,http://api.map.baidu.com/place/detail?uid=4205d572587485748a36ee96&output=html&source=placeapi_v2,,,,,,,,,,10,0,,,,,,,117.03683266789,36.671458076956,0
f13050de36ec11c09d9d68e7,济南暖时光公寓(NO.2店),酒店,公寓式酒店,山东省,济南市,历下区,山东省济南市历下区正觉寺小区一区14号楼,f13050de36ec11c09d9d68e7,1,0,117.032065,36.664998,,hotel,http://api.map.baidu.com/place/detail?uid=f13050de36ec11c09d9d68e7&output=html&source=placeapi_v2,,,0.0,,0.0,,0.0,0.0,,2,0,,,0,0,,,,,0
a98b5fbd9b18ccf0fc0eb0fe,济南聚贤短租公寓(天桥店),酒店,公寓式酒店,山东省,济南市,天桥区,山东省济南市天桥区北坛南街南区4号楼1单元,a98b5fbd9b18ccf0fc0eb0fe,1,0,117.014752,36.677624,15550032087,hotel,http://api.map.baidu.com/place/detail?uid=a98b5fbd9b18ccf0fc0eb0fe&output=html&source=placeapi_v2,143.0,,0.0,,4.2,,2.9,3.1,,37,0,,,0,0,,,117.01522493405,36.677571728769,0
31ae3715244e3edc58bbbc1c,济南万达单身公寓,酒店,公寓式酒店,山东省,济南市,市中区,山东省济南市市中区经三纬一路口果篮3楼807室,31ae3715244e3edc58bbbc1c,1,0,117.006136,36.669924,18353191505,hotel,http://api.map.baidu.com/place/detail?uid=31ae3715244e3edc58bbbc1c&output=html&source=placeapi_v2,,,0.0,,4.2,,4.4,4.4,,43,0,,,0,0,,,,,0
a0228b547b9b8e151811d569,泊寓明湖社区,酒店,公寓式酒店,山东省,济南市,天桥区,山东省济南市天桥区新菜市街a区a栋,a0228b547b9b8e151811d569,1,0,117.013937,36.682108,,hotel,http://api.map.baidu.com/place/detail?uid=a0228b547b9b8e151811d569&output=html&source=placeapi_v2,,,,,0,,0,0,,8,0,,,0,0,,,117.01390196809,36.682075599416,0
6233957727655c2a9e95de61,济南明湖雅舍普通公寓,酒店,公寓式酒店,山东省,济南市,天桥区,山东省济南市天桥区明湖西路886号北刘新区-北门三楼C10号,6233957727655c2a9e95de61,1,0,117.01215,36.680263,13396440208,hotel,http://api.map.baidu.com/place/detail?uid=6233957727655c2a9e95de61&output=html&source=placeapi_v2,,,4.2,,4.2,,4.2,4.2,,200,11,,,0,0,,,,,0
f8a4ecc27a37eefef70e7764,济南大明湖畔的蓉小蓉公寓,酒店,公寓式酒店,山东省,济南市,历下区,山东|山东济南历下区后街肆号酒吧,f8a4ecc27a37eefef70e7764,1,0,117.02531,36.6779,,hotel,http://api.map.baidu.com/place/detail?uid=f8a4ecc27a37eefef70e7764&output=html&source=placeapi_v2,,,0.0,,4.6,,4.6,4.6,,10,0,,,0,0,,,,,0
490ba17fe7d2362df32d83bb,济南福雅轩酒店公寓(诚基中心店),酒店,公寓式酒店,山东省,济南市,历下区,山东省济南市历下区和平路47号城基中心公寓b428栋,490ba17fe7d2362df32d83bb,1,0,117.053788,36.667218,13220565388,hotel,http://api.map.baidu.com/place/detail?uid=490ba17fe7d2362df32d83bb&output=html&source=placeapi_v2,,,1.3,,1.0,,1.0,1.0,,109,6,,,0,0,,,,,0
31eb231134ef321279dbd251,济南万豪莱悦时尚公寓,酒店,公寓式酒店,山东省,济南市,历下区,济南市历下区文化东路76号万豪国际公寓1号楼606室,31eb231134ef321279dbd251,1,0,117.054235,36.660131,15169114112,hotel,http://api.map.baidu.com/place/detail?uid=31eb231134ef321279dbd251&output=html&source=placeapi_v2,48.0,,3.2,,3.2,,3.2,3.2,,115,5,,,0,0,,,117.05425499334,36.660562378218,0
0298559e0c1b6305047ce8cd,济南菲雅时光公寓,酒店,公寓式酒店,山东省,济南市,历下区,山东省济南市历下区山大路c栋公寓2501号,0298559e0c1b6305047ce8cd,1,0,117.061637,36.673326,15376151230,hotel,http://api.map.baidu.com/place/detail?uid=0298559e0c1b6305047ce8cd&output=html&source=placeapi_v2,,,3.6,,3.6,,3.6,3.6,,200,14,,,0,0,,,,,0
2829ada1e398438deb1e9774,文东保洁员公寓,酒店,公寓式酒店,山东省,济南市,历下区,济南市历下区羊头峪东沟街中国轻骑集团幼儿园西北侧约30米,2829ada1e398438deb1e9774,1,0,117.056386,36.665286,,life,http://api.map.baidu.com/place/detail?uid=2829ada1e398438deb1e9774&output=html&source=placeapi_v2,,,,,,,,,,14,1,,,,,,,117.05651529529,36.66526825466,0
6dd882d6a1450f30d22dd6ab,Locals路客・济南历下A12舍公寓,酒店,公寓式酒店,山东省,济南市,历下区,和平路诚基中心,,1,0,117.053457,36.666983,,hotel,http://api.map.baidu.com/place/detail?uid=6dd882d6a1450f30d22dd6ab&output=html&source=placeapi_v2,,,,,,,,,,0,0,,,,,,,,,0
07c0f64d2fce3d28f4b9165a,济南爱柚八公寓,酒店,公寓式酒店,山东省,济南市,历下区,山东省济南市文化东路76号万豪国际1-1128号,,1,0,117.0533,36.659943,15589992521,hotel,http://api.map.baidu.com/place/detail?uid=07c0f64d2fce3d28f4b9165a&output=html&source=placeapi_v2,,,2.9,,2.9,,2.9,2.9,,23,2,,,0,0,,,,,0
af5e1a4cf93e4b6e4151c01a,山东艺术学院-女生公寓,酒店,公寓式酒店,山东省,济南市,历下区,山东省济南市历下区文化东路91号,af5e1a4cf93e4b6e4151c01a,1,0,117.053878,36.662873,,life,http://api.map.baidu.com/place/detail?uid=af5e1a4cf93e4b6e4151c01a&output=html&source=placeapi_v2,,,,,,,,,,1,1,,,,,,,117.05370644398,36.662743903678,0
30e3f209a8cc0a4832f71d9d,糖果时尚公寓(山师山艺店),酒店,公寓式酒店,山东省,济南市,历下区,山东省济南市历下区文化东路76号万豪国际公寓1号楼10楼1058室,,1,0,117.054194,36.659267,,hotel,http://api.map.baidu.com/place/detail?uid=30e3f209a8cc0a4832f71d9d&output=html&source=placeapi_v2,,,,,0,,0,0,,0,0,,,0,0,,,,,0
cac64f684b792ca8b75f1e62,济南金日友谊求职公寓(和平路五店),酒店,公寓式酒店,山东省,济南市,历下区,山东省济南市历下区和平路13号,cac64f684b792ca8b75f1e62,1,0,117.065868,36.664523,15065410991,hotel,http://api.map.baidu.com/place/detail?uid=cac64f684b792ca8b75f1e62&output=html&source=placeapi_v2,0.0,,0.0,,0.0,,0.0,0.0,,10,0,,,0,0,,,,,0
4447c4aa4fc0ffe617948e0e,济南梦巢时尚公寓万豪国际店,酒店,公寓式酒店,山东省,济南市,历下区,山东省济南市历下区文化东路76号万豪国际1号楼13楼,4447c4aa4fc0ffe617948e0e,1,0,117.053624,36.659471,18363089530,hotel,http://api.map.baidu.com/place/detail?uid=4447c4aa4fc0ffe617948e0e&output=html&source=placeapi_v2,,,0.0,,0.0,,0.0,0.0,,0,0,,,0,0,,,,,0
cc018200ace0a83cd518b747,山东艺术学院-男生公寓,酒店,公寓式酒店,山东省,济南市,历下区,山东省济南市历下区文化东路91号南校区5号楼,cc018200ace0a83cd518b747,1,0,117.053554,36.662865,,life,http://api.map.baidu.com/place/detail?uid=cc018200ace0a83cd518b747&output=html&source=placeapi_v2,,,,,,,,,,5,1,,,,,,,117.05358030572,36.662749767775,0
1cf47978ccdd52f83686f433,诚基中心公寓-D1号楼,酒店,公寓式酒店,山东省,济南市,历下区,山东省济南市历下区文东街道解放路诚基中心公寓,1cf47978ccdd52f83686f433,1,0,117.054522,36.66799,,life,http://api.map.baidu.com/place/detail?uid=1cf47978ccdd52f83686f433&output=html&source=placeapi_v2,,,,,,,,,,,,,,,,,,117.05452733622,36.667777595733,0
5c4b87593e6d1ba2374aae58,济南Feel-香闺公寓,酒店,公寓式酒店,山东省,济南市,历下区,山东省济南市历下区华强广场C座1610,5c4b87593e6d1ba2374aae58,1,0,117.061347,36.673774,15688881081,hotel,http://api.map.baidu.com/place/detail?uid=5c4b87593e6d1ba2374aae58&output=html&source=placeapi_v2,60.0,,0.0,,3.9,,3.9,4.2,,33,13,,,0,0,,,117.06241598571,36.672205139346,0
5fa41ee2b8df93bb6e20b996,济南百瑞时尚公寓诚基中心店,酒店,公寓式酒店,山东省,济南市,历下区,山东省济南市历下区山师东路与和平路交叉口路北诚基中心31栋B1-7楼,5fa41ee2b8df93bb6e20b996,1,0,117.053403,36.667223,15753117393,hotel,http://api.map.baidu.com/place/detail?uid=5fa41ee2b8df93bb6e20b996&output=html&source=placeapi_v2,0.0,,0.0,,0.0,,0.0,0.0,,0,0,,,0,0,,,,,0
703c6fe25aec64992eb96d70,山东青年政治学院(西校区)-培训公寓,酒店,公寓式酒店,山东省,济南市,历下区,山东省济南市历下区经十路16199号,703c6fe25aec64992eb96d70,1,0,117.055369,36.655432,,life,http://api.map.baidu.com/place/detail?uid=703c6fe25aec64992eb96d70&output=html&source=placeapi_v2,,,,,,,,,,6,1,,,,,,,117.05544358178,36.655330099411,0
e8cf4ab0140487ca2fb9081f,济南成瑟主题公寓,酒店,公寓式酒店,山东省,济南市,历下区,济南市历下区华强电子大厦D栋2711号,e8cf4ab0140487ca2fb9081f,1,0,117.061883,36.672489,,hotel,http://api.map.baidu.com/place/detail?uid=e8cf4ab0140487ca2fb9081f&output=html&source=placeapi_v2,0.0,,0.0,,0.0,,0.0,0.0,,13,0,,,0,0,,,,,0
9340044eafa40d49400245bd,济南希客公寓(华强店),酒店,公寓式酒店,山东省,济南市,历下区,山东省济南市历下区解放路华强广场D座811号,9340044eafa40d49400245bd,1,0,117.061459,36.673125,15306412518,hotel,http://api.map.baidu.com/place/detail?uid=9340044eafa40d49400245bd&output=html&source=placeapi_v2,0.0,,0.0,,0.0,,0.0,0.0,,16,1,,,0,0,,,,,0
3bcd72eacf6b8d3a28d7aba9,济南芭拉连锁公寓文化园店,酒店,公寓式酒店,山东省,济南市,历下区,山东省济南市历下区历山路文化园1号楼9楼,3bcd72eacf6b8d3a28d7aba9,1,0,117.046136,36.663422,,hotel,http://api.map.baidu.com/place/detail?uid=3bcd72eacf6b8d3a28d7aba9&output=html&source=placeapi_v2,,,0.0,,0.0,,0.0,0.0,,0,0,,,0,0,,,,,0
cc759251a11f268a6f3e1b5a,青年公寓(姚家村路店),酒店,公寓式酒店,山东省,济南市,历下区,济南市历下区姚家村路友谊苑,cc759251a11f268a6f3e1b5a,1,0,117.089932,36.665475,,hotel,http://api.map.baidu.com/place/detail?uid=cc759251a11f268a6f3e1b5a&output=html&source=placeapi_v2,,,,,0,,0,0,,3,0,,,0,0,,,117.09003484136,36.665402440774,0
fa03c4d838f23eb64f6d4614,艾晶艺术精品酒店公寓(万科大都会店),酒店,公寓式酒店,山东省,济南市,历下区,山东省济南市历下区解放东路与茂岭山三号路交叉口北500米万科大都会万公馆3栋114商铺(龙湖天街西200米),,1,0,117.11272,36.674223,18953127773,hotel,http://api.map.baidu.com/place/detail?uid=fa03c4d838f23eb64f6d4614&output=html&source=placeapi_v2,,,4.5,,4.3,,4.3,4.3,,14,30,,,0,0,,,117.11297945682,36.674120516929,0
ea99641fe4182e07f7e73b5f,斯维登公寓(济南省立东院店),酒店,公寓式酒店,山东省,济南市,历下区,山东省济南市历下区解放东路3号齐鲁百老汇公寓B座一楼大堂,,1,0,117.123414,36.669989,(0531)87903999,hotel,http://api.map.baidu.com/place/detail?uid=ea99641fe4182e07f7e73b5f&output=html&source=placeapi_v2,,,4.9,,4.8,,4.8,4.8,,41,20,,,0,0,,,117.12353633509,36.670855961212,0
1a2428779d2bb03d9122e08e,微家公馆酒店式公寓(济南龙奥店),酒店,公寓式酒店,山东省,济南市,历城区,山东省济南市历城区龙奥北路909号1522室,1a2428779d2bb03d9122e08e,1,0,117.144618,36.660726,(0531)89651999,house,http://api.map.baidu.com/place/detail?uid=1a2428779d2bb03d9122e08e&output=html&source=placeapi_v2,,,3.9,,,,,,,,,,,,,,,117.14479999995,36.660549913468,0
41d1f39a350d48f97dc8762c,济南尚悦轩公寓(奥体中心店),酒店,公寓式酒店,山东省,济南市,历城区,山东省济南市历城区龙奥北路909号海信龙奥九号4号楼709室,41d1f39a350d48f97dc8762c,1,0,117.142965,36.660766,(0531)88766995,hotel,http://api.map.baidu.com/place/detail?uid=41d1f39a350d48f97dc8762c&output=html&source=placeapi_v2,,,4.4,,4.4,,4.4,4.4,,200,14,,,0,0,,,117.1426729212,36.660698165765,0
9231ee90b926805248cc4a9a,济南云天酒店式公寓(济南奥体中心店),酒店,公寓式酒店,山东省,济南市,历下区,山东省济南市历下区龙奥北路8号玉兰公寓13楼,9231ee90b926805248cc4a9a,1,0,117.13056,36.659608,(0531)87180100,hotel,http://api.map.baidu.com/place/detail?uid=9231ee90b926805248cc4a9a&output=html&source=placeapi_v2,,,4.3,,4.4,,4.4,4.4,,200,53,,,0,0,,,117.13043658442,36.659789127277,0
f0c0931dd1c5d63cfbf0cbb4,济南寓自在酒店式公寓,酒店,公寓式酒店,山东省,济南市,历城区,山东省济南市历城区汉峪金谷a5区2栋3705号,f0c0931dd1c5d63cfbf0cbb4,1,0,117.156375,36.665522,18615624892,hotel,http://api.map.baidu.com/place/detail?uid=f0c0931dd1c5d63cfbf0cbb4&output=html&source=placeapi_v2,,,4.5,,4.6,,4.6,4.6,,138,5,,,0,0,,,,,0
43526755e2ad0638cc06a4ba,臻爱逸家概念主题公寓(济南汉峪金谷店),酒店,公寓式酒店,山东省,济南市,历城区,山东省济南市高新区汉峪金谷A5-2号,43526755e2ad0638cc06a4ba,1,0,117.156041,36.665528,(0531)58011555,hotel,http://api.map.baidu.com/place/detail?uid=43526755e2ad0638cc06a4ba&output=html&source=placeapi_v2,,,4.1,,4.1,,4.1,4.1,,200,34,,,0,0,,,117.15615939741,36.665261107448,0
bb8a93dd4da220074bcc4a79,济南龙奥九号普通公寓,酒店,公寓式酒店,山东省,济南市,历城区,山东省济南市历城区龙奥北路909号4号楼,bb8a93dd4da220074bcc4a79,1,0,117.144662,36.66102,,hotel,http://api.map.baidu.com/place/detail?uid=bb8a93dd4da220074bcc4a79&output=html&source=placeapi_v2,,,0.0,,0.0,,0.0,0.0,,1,0,,,0,0,,,,,0
322883bf25d02710a2d23052,济南红璞轻居公寓,酒店,公寓式酒店,山东省,济南市,历城区,山东济南市历城区华茂路汉峪金谷a5号,322883bf25d02710a2d23052,1,0,117.156075,36.665645,(0531)68657788,hotel,http://api.map.baidu.com/place/detail?uid=322883bf25d02710a2d23052&output=html&source=placeapi_v2,,,4.6,,4.6,,4.6,4.6,,99,44,,,0,0,,,117.1562361118,36.665283289235,0
ac50116192333cba7bb55c3f,雅铂轻奢公寓(济南汉峪金谷店),酒店,公寓式酒店,山东省,济南市,历城区,山东济南市历城区华茂路汉峪金谷a5-2栋3608室,,1,0,117.155918,36.66568,18615233882,hotel,http://api.map.baidu.com/place/detail?uid=ac50116192333cba7bb55c3f&output=html&source=placeapi_v2,,,4.7,,4.5,,4.5,4.5,,52,94,,,0,0,,,117.15611258042,36.66524757011,0
2b52c1a3ad1fa5dfae0457f6,安迪优品公寓,酒店,公寓式酒店,山东省,济南市,历城区,山东省济南市历城区东城逸家逸俊园1区2号楼2单元804号,2b52c1a3ad1fa5dfae0457f6,1,0,117.153958,36.656415,,hotel,http://api.map.baidu.com/place/detail?uid=2b52c1a3ad1fa5dfae0457f6&output=html&source=placeapi_v2,,,1.0,,0,,0,0,,0,1,,,0,0,,,,,0
c342c609d7d745437ab55c5c,智悦酒店(济南齐鲁软件园店),酒店,公寓式酒店,山东省,济南市,历下区,山东省济南市历下区新泺大街1166号奥盛大厦1号楼26层,,1,0,117.143424,36.681979,(0531)58016658,hotel,http://api.map.baidu.com/place/detail?uid=c342c609d7d745437ab55c5c&output=html&source=placeapi_v2,,,4.6,,4.7,,4.7,4.7,,103,28,,,0,0,,,,,0
ca789f116f234a5ec9c3db83,兜客公寓,酒店,公寓式酒店,山东省,济南市,历城区,山东省济南市高新区中铁奥体26方2号楼108商铺,,1,0,117.164454,36.661391,17600565068,hotel,http://api.map.baidu.com/place/detail?uid=ca789f116f234a5ec9c3db83&output=html&source=placeapi_v2,,,,,,,,,,10,1,,,,,,,,,0
4ad28edae984f56f41d63e71,颐宿长租公寓(汉峪金谷店),酒店,公寓式酒店,山东省,济南市,历城区,济南市历城区龙奥北路南路中铁逸都国际兰庭-北区北侧约40米,4ad28edae984f56f41d63e71,1,0,117.164728,36.661865,15966603339,hotel,http://api.map.baidu.com/place/detail?uid=4ad28edae984f56f41d63e71&output=html&source=placeapi_v2,,,,,,,,,,8,1,,,,,,,117.16464407171,36.662034264416,0
ea99641fe4182e07f7e73b5f,斯维登公寓(济南省立东院店),酒店,公寓式酒店,山东省,济南市,历下区,山东省济南市历下区解放东路3号齐鲁百老汇公寓B座一楼大堂,,1,0,117.123414,36.669989,(0531)87903999,hotel,http://api.map.baidu.com/place/detail?uid=ea99641fe4182e07f7e73b5f&output=html&source=placeapi_v2,,,4.9,,4.8,,4.8,4.8,,41,20,,,0,0,,,117.12353633509,36.670855961212,0
b2969d3b0a3444b85cd4feb6,颐宿・青年公寓,酒店,公寓式酒店,山东省,济南市,历城区,济南市历城区凤园路与华康路交叉路口往西约160米,,1,0,117.165826,36.657422,,hotel,http://api.map.baidu.com/place/detail?uid=b2969d3b0a3444b85cd4feb6&output=html&source=placeapi_v2,,,5,,0,,0,0,,2,1,,,0,0,,,,,0
4ad28edae984f56f41d63e71,颐宿长租公寓(汉峪金谷店),酒店,公寓式酒店,山东省,济南市,历城区,济南市历城区龙奥北路南路中铁逸都国际兰庭-北区北侧约40米,4ad28edae984f56f41d63e71,1,0,117.164728,36.661865,15966603339,hotel,http://api.map.baidu.com/place/detail?uid=4ad28edae984f56f41d63e71&output=html&source=placeapi_v2,,,,,,,,,,8,1,,,,,,,117.16464407171,36.662034264416,0
ca789f116f234a5ec9c3db83,兜客公寓,酒店,公寓式酒店,山东省,济南市,历城区,山东省济南市高新区中铁奥体26方2号楼108商铺,,1,0,117.164454,36.661391,17600565068,hotel,http://api.map.baidu.com/place/detail?uid=ca789f116f234a5ec9c3db83&output=html&source=placeapi_v2,,,,,,,,,,10,1,,,,,,,,,0
20d84145b9637dadc91b9588,旺寓酒店(章丘大学城店),酒店,公寓式酒店,山东省,济南市,章丘区,济南市章丘区经十东路,,1,0,117.50297,36.674568,,hotel,http://api.map.baidu.com/place/detail?uid=20d84145b9637dadc91b9588&output=html&source=placeapi_v2,,,,,,,,,,0,0,,,,,,,,,0
cbc6a337548287e652e5c5dc,济南8090时尚公寓,酒店,公寓式酒店,山东省,济南市,章丘区,济南市章丘区吉祥路龙泉花园小区北侧约30米,cbc6a337548287e652e5c5dc,1,0,117.532755,36.675165,18615206710,hotel,http://api.map.baidu.com/place/detail?uid=cbc6a337548287e652e5c5dc&output=html&source=placeapi_v2,35.0,,0.0,,0.0,,0.0,0.0,,3,2,,,0,0,,,,,0
1925b4a2cd9659c72b11d1f0,济南翡翠郡公寓(汽车站店),酒店,公寓式酒店,山东省,济南市,天桥区,山东省济南市天桥区无影山中路翡翠郡南区32号楼,1925b4a2cd9659c72b11d1f0,1,0,116.991539,36.690447,15098882638,hotel,http://api.map.baidu.com/place/detail?uid=1925b4a2cd9659c72b11d1f0&output=html&source=placeapi_v2,,,4.1,,4.1,,4.1,4.1,,200,19,,,0,0,,,116.99200383543,36.690456662151,0
ef8bdc73666d6e8da1a934d6,华村公寓,酒店,公寓式酒店,山东省,济南市,天桥区,山东省济南市天桥区堤口庄东段5号,ef8bdc73666d6e8da1a934d6,1,0,116.977166,36.684035,,life,http://api.map.baidu.com/place/detail?uid=ef8bdc73666d6e8da1a934d6&output=html&source=placeapi_v2,,,,,,,,,,16,,,,,,,,,,0
70adcb118cbc9f2dfb2d6188,济南i巢公寓,酒店,公寓式酒店,山东省,济南市,天桥区,山东省济南市天桥区大润发西邻名泉春晓A1座12楼(十一中对过),70adcb118cbc9f2dfb2d6188,1,0,116.986801,36.681031,13475986175,hotel,http://api.map.baidu.com/place/detail?uid=70adcb118cbc9f2dfb2d6188&output=html&source=placeapi_v2,,,4.0,,4.0,,4.0,4.0,,52,1,,,0,0,,,,,0
5d5baae68b49c53d21026208,济南房冰公寓(4号店),酒店,公寓式酒店,山东省,济南市,天桥区,影山花园-西区,,1,0,116.9759,36.68813,,hotel,http://api.map.baidu.com/place/detail?uid=5d5baae68b49c53d21026208&output=html&source=placeapi_v2,,,0.0,,4.6,,4.6,4.6,,8,0,,,0,0,,,,,0
c9d96509bed6fea8ad0457e0,雅客公寓,酒店,公寓式酒店,山东省,济南市,天桥区,山东省济南市天桥区长途汽车站总站西200米重汽翡翠郡南区32号楼1单元6楼,c9d96509bed6fea8ad0457e0,1,0,116.991273,36.690372,15165087658,hotel,http://api.map.baidu.com/place/detail?uid=c9d96509bed6fea8ad0457e0&output=html&source=placeapi_v2,,,3.2,,3.0,,3.0,3.0,,200,13,,,0,0,,,116.99147368247,36.690451491763,0
1f41275f5609a7f58415418a,海滨之家主题公寓(彩世界店),酒店,公寓式酒店,山东省,济南市,天桥区,山东省济南市天桥区无影山中路与黄岗路交汇处重汽彩世界5号楼1单元102号,1f41275f5609a7f58415418a,1,0,116.961539,36.687999,,hotel,http://api.map.baidu.com/place/detail?uid=1f41275f5609a7f58415418a&output=html&source=placeapi_v2,0.0,,0.0,,0.0,,0.0,0.0,,1,0,,,0,0,,,116.96157052394,36.687908241403,0
79833ac27d5764dad618b716,联四青年公寓,酒店,公寓式酒店,山东省,济南市,天桥区,山东省济南市天桥区联四路55号,79833ac27d5764dad618b716,1,0,117.017819,36.69915,15275193133,hotel,http://api.map.baidu.com/place/detail?uid=79833ac27d5764dad618b716&output=html&source=placeapi_v2,,,,,,,,,,2,0,,,,,,,117.0179179875,36.699196788789,0
d7503ac76b7192e7be484237,平安青年公寓,酒店,公寓式酒店,山东省,济南市,天桥区,山东省济南市天桥区臧家屯路300号,d7503ac76b7192e7be484237,1,0,117.02206,36.704024,18764423777,hotel,http://api.map.baidu.com/place/detail?uid=d7503ac76b7192e7be484237&output=html&source=placeapi_v2,,,0,,0,,0,0,,9,1,,,0,0,,,117.0219644945,36.70402407514,0
5af58324f532d73749fc8d7f,小不点青年时尚公寓,酒店,公寓式酒店,山东省,济南市,天桥区,济南市天桥区西泺河路西侯家场小区,,1,0,117.025587,36.692607,13325100816,hotel,http://api.map.baidu.com/place/detail?uid=5af58324f532d73749fc8d7f&output=html&source=placeapi_v2,,,,,0,,0,0,,6,0,,,0,0,,,117.02560510417,36.692730239615,0
3e4442a7c069f96e0c0a70c6,济南博寓天驿公寓(北园店),酒店,公寓式酒店,山东省,济南市,天桥区,山东省济南市天桥区北园大街528号,3e4442a7c069f96e0c0a70c6,1,0,117.015701,36.689737,,hotel,http://api.map.baidu.com/place/detail?uid=3e4442a7c069f96e0c0a70c6&output=html&source=placeapi_v2,,,,,,,,,,0,0,,,,,,,117.01583978824,36.689703552606,0
0a15c7ec144ba9fded74f840,济南青年居易(日租公寓),酒店,公寓式酒店,山东省,济南市,天桥区,山东省济南市天桥区北园大街679号1号楼2单元,0a15c7ec144ba9fded74f840,1,0,117.00813,36.692576,4006061230-44258,hotel,http://api.map.baidu.com/place/detail?uid=0a15c7ec144ba9fded74f840&output=html&source=placeapi_v2,9397.0,,0,,0.0,,0.0,0.0,,17,4,,,0,0,,,117.00806553795,36.692294292724,0
a0228b547b9b8e151811d569,泊寓明湖社区,酒店,公寓式酒店,山东省,济南市,天桥区,山东省济南市天桥区新菜市街a区a栋,a0228b547b9b8e151811d569,1,0,117.013937,36.682108,,hotel,http://api.map.baidu.com/place/detail?uid=a0228b547b9b8e151811d569&output=html&source=placeapi_v2,,,,,0,,0,0,,8,0,,,0,0,,,117.01390196809,36.682075599416,0
e0a3d518d4e59df42b02e1b0,窝趣酒店公寓(济南全福立交桥华福国际店),酒店,公寓式酒店,山东省,济南市,历城区,山东省济南市历城区北园大街47号,e0a3d518d4e59df42b02e1b0,1,0,117.062373,36.704091,(0531)88985866,hotel,http://api.map.baidu.com/place/detail?uid=e0a3d518d4e59df42b02e1b0&output=html&source=placeapi_v2,,,4.8,,4.8,,4.8,4.8,,84,33,,,0,0,,,117.06242733289,36.704139467058,0
8067cdee42cb4a482fb9080e,济南金海岸酒店式公寓,酒店,公寓式酒店,山东省,济南市,历城区,山东省济南市历城区北园大街9号荣盛时代国际广场5号楼20楼,,1,0,117.067098,36.709068,18053194555,hotel,http://api.map.baidu.com/place/detail?uid=8067cdee42cb4a482fb9080e&output=html&source=placeapi_v2,67.0,,5,,0.0,,0.0,0.0,,69,6,,,0,0,,,117.06698564069,36.709244279051,0
4e65a023c32021e279dbd27d,济南河畔迷你公寓,酒店,公寓式酒店,山东省,济南市,天桥区,山东省济南市天桥区北全福居委会北恣街南首(brt北全福站向北168米路东),4e65a023c32021e279dbd27d,1,0,117.060728,36.706058,,hotel,http://api.map.baidu.com/place/detail?uid=4e65a023c32021e279dbd27d&output=html&source=placeapi_v2,,,4.6,,4.0,,4.0,4.0,,200,8,,,0,0,,,117.06063625116,36.706007444413,0
5911044bc7f5d94c4e776ec6,红豆杉养生谷,酒店,公寓式酒店,山东省,济南市,历下区,山东省济南市历下区花园路189号华鑫商务1楼,5911044bc7f5d94c4e776ec6,1,0,117.057825,36.687227,(0531)58598383,hotel,http://api.map.baidu.com/place/detail?uid=5911044bc7f5d94c4e776ec6&output=html&source=placeapi_v2,,,0.0,,0,,0,0,,5,0,,,0,0,,,,,0
9a980bee9c457a2dc51e51f4,艾晶艺术公寓(济南聚隆广场店),酒店,公寓式酒店,山东省,济南市,历城区,山东省济南市历城区洪家楼南路1号聚隆广场4号楼公寓4号楼,9a980bee9c457a2dc51e51f4,1,0,117.070435,36.68864,18254105485,hotel,http://api.map.baidu.com/place/detail?uid=9a980bee9c457a2dc51e51f4&output=html&source=placeapi_v2,,,4.5,,4.1,,4.1,4.1,,74,44,,,0,0,,,117.07052014319,36.688020623039,0
0a49f3d1076ba54390114ceb,简家公寓(历山北路店),酒店,公寓式酒店,山东省,济南市,天桥区,山东省济南市天桥区历山北路99号,0a49f3d1076ba54390114ceb,1,0,117.048385,36.699357,13245318835,hotel,http://api.map.baidu.com/place/detail?uid=0a49f3d1076ba54390114ceb&output=html&source=placeapi_v2,,,,,0,,0,0,,9,0,,,0,0,,,117.04836502599,36.699869039518,0
d03c774e40128a15932ca3b5,济南七月七主题式公寓,酒店,公寓式酒店,山东省,济南市,历城区,山东省济南市历城区花园路101号3号楼,,1,0,117.069335,36.690778,18866129577,hotel,http://api.map.baidu.com/place/detail?uid=d03c774e40128a15932ca3b5&output=html&source=placeapi_v2,,,3.5,,3.5,,3.5,3.5,,200,12,,,0,0,,,,,0
9a51e078a0371415057ce809,诚际酒店公寓(济南聚隆广场),酒店,公寓式酒店,山东省,济南市,历城区,山东省济南市历城区洪家楼南路1号2号楼,9a51e078a0371415057ce809,1,0,117.072058,36.688491,"(0531)59522555,19862183288",hotel,http://api.map.baidu.com/place/detail?uid=9a51e078a0371415057ce809&output=html&source=placeapi_v2,,,4.5,,4.3,,4.3,4.3,,105,19,,,0,0,,,117.0720582174,36.688490565431,0
5433aa8b5fbaf54babf7290b,爱心主题式公寓洪楼海蔚广场店,酒店,公寓式酒店,山东省,济南市,历城区,山东省济南市历城区花园路海蔚广场小区3号楼1单元301号,5433aa8b5fbaf54babf7290b,1,0,117.070447,36.690674,,hotel,http://api.map.baidu.com/place/detail?uid=5433aa8b5fbaf54babf7290b&output=html&source=placeapi_v2,0.0,,0.0,,0.0,,0.0,0.0,,8,0,,,0,0,,,117.07063052787,36.690685133916,0
3c4ac20d30789080ab0dd81e,济南sunshine0530公寓,酒店,公寓式酒店,山东省,济南市,历城区,中国山东济南彼岸新都2号楼(小区最北面的楼最东头),3c4ac20d30789080ab0dd81e,1,0,117.05973,36.693054,,hotel,http://api.map.baidu.com/place/detail?uid=3c4ac20d30789080ab0dd81e&output=html&source=placeapi_v2,,,0.0,,0.0,,0.0,0.0,,0,0,,,0,0,,,,,0
82c717ea65025b8b902ca3ca,琨庭公寓(济南聚隆广场店),酒店,公寓式酒店,山东省,济南市,历城区,山东|山东济南历城区洪家楼南路1号聚隆广场2栋一楼大厅前台,82c717ea65025b8b902ca3ca,1,0,117.072689,36.688338,,hotel,http://api.map.baidu.com/place/detail?uid=82c717ea65025b8b902ca3ca&output=html&source=placeapi_v2,,,0,,4.9,,4.9,4.9,,2,0,,,0,0,,,,,0
49d95938829e595ac61e5156,济南心怡公寓(海蔚广场店),酒店,公寓式酒店,山东省,济南市,历城区,山东省济南市历城区花园路101号海蔚广场3-1-308室,49d95938829e595ac61e5156,1,0,117.070356,36.690633,(0531)88661891,hotel,http://api.map.baidu.com/place/detail?uid=49d95938829e595ac61e5156&output=html&source=placeapi_v2,37.0,,5,,0.0,,0.0,0.0,,46,4,,,0,0,,,117.06956841995,36.690397745535,0
24a59c550e0f35505fd4fe40,济南金苹果短租公寓爱特公寓店,酒店,公寓式酒店,山东省,济南市,历城区,山东省济南市历城区洪家楼西路41号爱特公寓8楼(洪家楼西路与山大北路交叉口往北100米路西),24a59c550e0f35505fd4fe40,1,0,117.067861,36.686091,15666323919,hotel,http://api.map.baidu.com/place/detail?uid=24a59c550e0f35505fd4fe40&output=html&source=placeapi_v2,0.0,,0.0,,0.0,,0.0,0.0,,10,0,,,0,0,,,,,0
4d43320ad057b4a3c4f50d9c,鑫荣公寓(奥体西路店),酒店,公寓式酒店,山东省,济南市,历下区,山东省济南市历下区奥体西路31号,,1,0,117.111985,36.701275,,hotel,http://api.map.baidu.com/place/detail?uid=4d43320ad057b4a3c4f50d9c&output=html&source=placeapi_v2,,,,,,,,,,5,1,,,,,,,,,0
6651ca68e47907121e5800c0,海信贤文世家中心3号商务公寓,酒店,公寓式酒店,山东省,济南市,历下区,济南市历下区工业南路与正丰路交叉路口往东北约70米,,1,0,117.119437,36.686438,,hotel,http://api.map.baidu.com/place/detail?uid=6651ca68e47907121e5800c0&output=html&source=placeapi_v2,,,,,0,,0,0,,0,0,,,0,0,,,,,0
7bc57ba635662d0f15a190fc,爱尚公寓(济南祝甸环联夜市店),酒店,公寓式酒店,山东省,济南市,历城区,山东省济南市历城区祝舜路777号3楼,7bc57ba635662d0f15a190fc,1,0,117.096853,36.707776,13165317545,hotel,http://api.map.baidu.com/place/detail?uid=7bc57ba635662d0f15a190fc&output=html&source=placeapi_v2,,,,,0,,0,0,,10,0,,,0,0,,,117.09696088374,36.707624965367,0
ac8e1eec787d35d8aecb66fd,历城区城管局保洁员公寓,酒店,公寓式酒店,山东省,济南市,历城区,山东省济南市历城区祝舜路555号11号楼,ac8e1eec787d35d8aecb66fd,1,0,117.100412,36.708639,,life,http://api.map.baidu.com/place/detail?uid=ac8e1eec787d35d8aecb66fd&output=html&source=placeapi_v2,,,,,,,,,,16,2,,,,,,,117.10017778494,36.708809274918,0
18ba2ec905bb1594f60e7726,济南香香公寓凯旋花园店,酒店,公寓式酒店,山东省,济南市,历城区,济南市历城区花园路凯旋花园2号楼,18ba2ec905bb1594f60e7726,1,0,117.086206,36.693487,,hotel,http://api.map.baidu.com/place/detail?uid=18ba2ec905bb1594f60e7726&output=html&source=placeapi_v2,0.0,,0.0,,0.0,,0.0,0.0,,5,0,,,0,0,,,,,0
0bb222125f216538eb1e977a,济南怡思酒店式公寓(高新万达店),酒店,公寓式酒店,山东省,济南市,历下区,山东省济南市历下区工业南路与颖秀路交口万达广场Y3公寓609室,0bb222125f216538eb1e977a,1,0,117.135857,36.69223,13064058077,hotel,http://api.map.baidu.com/place/detail?uid=0bb222125f216538eb1e977a&output=html&source=placeapi_v2,,,4.2,,4.2,,4.2,4.2,,200,55,,,0,0,,,,,0
ad174589d64e8f4fa3acc4b7,美舍酒店式公寓(济南国际会展中心店),酒店,公寓式酒店,山东省,济南市,历下区,山东省济南市历下区工业南路与颖秀路交叉口北万达广场Y2公寓17层1723号,ad174589d64e8f4fa3acc4b7,1,0,117.135579,36.691865,"(0531)82770027,18553137000",hotel,http://api.map.baidu.com/place/detail?uid=ad174589d64e8f4fa3acc4b7&output=html&source=placeapi_v2,,,4.5,,4.5,,4.5,4.5,,200,31,,,0,0,,,117.136121,36.692583915568,0
6f7c02b2f2d175ac233bf289,星期八酒店式公寓(济南高新区万达广场店),酒店,公寓式酒店,山东省,济南市,历下区,济南市历下区工业南路57号万达广场Y1-1218室,6f7c02b2f2d175ac233bf289,1,0,117.134448,36.691207,13356667169,hotel,http://api.map.baidu.com/place/detail?uid=6f7c02b2f2d175ac233bf289&output=html&source=placeapi_v2,,,4.0,,4.0,,4.0,4.0,,114,99,,,0,0,,,,,0
b7506946ec53be42901fc959,鑫苑国际家短租公寓,酒店,公寓式酒店,山东省,济南市,历下区,山东省济南市历下区工业南路1号楼,b7506946ec53be42901fc959,1,0,117.142236,36.69272,,hotel,http://api.map.baidu.com/place/detail?uid=b7506946ec53be42901fc959&output=html&source=placeapi_v2,0,,,,0,,0,0,,0,0,,,0,0,,,,,0
46bee90d9b50a9e1ad080f30,铂爵公馆酒店公寓(济南高新会展中心万达店),酒店,公寓式酒店,山东省,济南市,历下区,山东省济南市历下区工业南路万达广场公寓Y3-1916号,46bee90d9b50a9e1ad080f30,1,0,117.135217,36.691979,18905316026,hotel,http://api.map.baidu.com/place/detail?uid=46bee90d9b50a9e1ad080f30&output=html&source=placeapi_v2,,,4.2,,3.8,,3.8,3.8,,89,76,,,0,0,,,117.13621740226,36.692208025641,0
af706050a0996e316fc02cec,济南9爱公寓(济南未来城店),酒店,公寓式酒店,山东省,济南市,历下区,山东省济南市历下区工业南路55号中齐未来城1号公寓,af706050a0996e316fc02cec,1,0,117.141147,36.694425,15688882871,hotel,http://api.map.baidu.com/place/detail?uid=af706050a0996e316fc02cec&output=html&source=placeapi_v2,105.0,,4.3,,4.1,,4.1,4.1,,47,13,,,0,0,,,117.14125329522,36.694278983631,0
035c1fbc8e5986c3f60e77c4,美嘉女生公寓(国际会展中心店),酒店,公寓式酒店,山东省,济南市,历下区,济南市历下区工业南路鑫苑国际城市花园2号楼1402号,035c1fbc8e5986c3f60e77c4,1,0,117.142317,36.693435,18866616662,hotel,http://api.map.baidu.com/place/detail?uid=035c1fbc8e5986c3f60e77c4&output=html&source=placeapi_v2,0.0,,0.0,,0.0,,0.0,0.0,,1,4,,,0,0,,,117.1422801955,36.693690655495,0
4155cb6dc2128e3adc1e5290,济南谊豪公寓,酒店,公寓式酒店,山东省,济南市,历下区,山东省济南市历下区丁豪广场3号楼,4155cb6dc2128e3adc1e5290,1,0,117.131441,36.687241,18654926077,hotel,http://api.map.baidu.com/place/detail?uid=4155cb6dc2128e3adc1e5290&output=html&source=placeapi_v2,,,4.4,,4.8,,4.8,4.8,,200,55,,,0,0,,,117.13137659107,36.687576957327,0
a5625767d551b09c1ce999fb,济南城宿济南一店公寓(凤凰路分店),酒店,公寓式酒店,山东省,济南市,历下区,山东|山东济南历城区花园路东路与凤凰路交汇处凤凰SOHO,,1,0,117.15221,36.70905,,hotel,http://api.map.baidu.com/place/detail?uid=a5625767d551b09c1ce999fb&output=html&source=placeapi_v2,,,0.0,,0.0,,0.0,0.0,,0,0,,,0,0,,,,,0
c342c609d7d745437ab55c5c,智悦酒店(济南齐鲁软件园店),酒店,公寓式酒店,山东省,济南市,历下区,山东省济南市历下区新泺大街1166号奥盛大厦1号楼26层,,1,0,117.143424,36.681979,(0531)58016658,hotel,http://api.map.baidu.com/place/detail?uid=c342c609d7d745437ab55c5c&output=html&source=placeapi_v2,,,4.6,,4.7,,4.7,4.7,,103,28,,,0,0,,,,,0
8ca7f6396886843743ab9abc,济南苏小糖之家酒店式公寓,酒店,公寓式酒店,山东省,济南市,历城区,济南市历城区中建凤栖第,,1,0,117.183828,36.682505,18105337222,hotel,http://api.map.baidu.com/place/detail?uid=8ca7f6396886843743ab9abc&output=html&source=placeapi_v2,0.0,,0,,5.0,,5.0,5.0,,22,0,,,0,0,,,,,0
74037781af5e61d0246e9842,济南橘子公寓(建大花园店),酒店,公寓式酒店,山东省,济南市,历城区,山东省济南市历城区凤歧路2888号建大花园六区-7号楼,74037781af5e61d0246e9842,1,0,117.184355,36.687732,17865310747,hotel,http://api.map.baidu.com/place/detail?uid=74037781af5e61d0246e9842&output=html&source=placeapi_v2,,,0,,4.0,,4.0,4.0,,36,0,,,0,0,,,,,0
b8b69b4b077b67885d0d02f0,济南啵岸酒店式公寓,酒店,公寓式酒店,山东省,济南市,历城区,山东济南市历城区唐冶西路868号8区813号,b8b69b4b077b67885d0d02f0,1,0,117.230192,36.695592,13335138568,hotel,http://api.map.baidu.com/place/detail?uid=b8b69b4b077b67885d0d02f0&output=html&source=placeapi_v2,,,4.3,,3.9,,3.9,3.9,,90,12,,,0,0,,,117.23045399895,36.695515642721,0
12ea2a04de185260be4842aa,济南吾悦公寓,酒店,公寓式酒店,山东省,济南市,历城区,山东省济南市历城区唐冶西路绿地城小区b区88栋108室,,1,0,117.226606,36.706144,13361039827,hotel,http://api.map.baidu.com/place/detail?uid=12ea2a04de185260be4842aa&output=html&source=placeapi_v2,,,5.0,,1.5,,1.5,1.5,,17,7,,,0,0,,,117.22625620473,36.706159938099,0
4c52eda52f18ba3bdcee8b62,凤凰城家(邢村街店),酒店,公寓式酒店,山东省,济南市,历城区,济南市历城区邢村街鲁商凤凰城,,1,0,117.228973,36.686814,,hotel,http://api.map.baidu.com/place/detail?uid=4c52eda52f18ba3bdcee8b62&output=html&source=placeapi_v2,,,,,,,,,,0,0,,,,,,,,,0
7c0321031f0b72ea3617dc83,健恒租房,酒店,公寓式酒店,山东省,济南市,历城区,山东省济南市历城区宋刘工业园172-32号,7c0321031f0b72ea3617dc83,1,0,117.050432,36.721984,"13256715117,13465917000",hotel,http://api.map.baidu.com/place/detail?uid=7c0321031f0b72ea3617dc83&output=html&source=placeapi_v2,,,,,0,,0,0,,15,0,,,0,0,,,117.05040002753,36.722058291661,0
08ec41a01a791a5eb04c4986,济南麦可公寓,酒店,公寓式酒店,山东省,济南市,历城区,山东济南市历城区工业北路60号万虹广场2号公寓1楼,,1,0,117.138958,36.723078,18063412129,hotel,http://api.map.baidu.com/place/detail?uid=08ec41a01a791a5eb04c4986&output=html&source=placeapi_v2,,,4.4,,4.5,,4.5,4.5,,27,7,,,0,0,,,,,0
9e1de903a5f0cfcdf4b91659,小鸭集团青年公寓,酒店,公寓式酒店,山东省,济南市,历城区,济南市历城区凤凰北路与铁厂北路交叉路口往南约240米,,1,0,117.152514,36.720695,,hotel,http://api.map.baidu.com/place/detail?uid=9e1de903a5f0cfcdf4b91659&output=html&source=placeapi_v2,,,,,,,,,,5,0,,,,,,,117.15251183238,36.720875611362,0
2315e935228197ceab059de2,济南兰意时尚主题公寓(3号店),酒店,公寓式酒店,山东省,济南市,历城区,山东|山东济南历城区工业北路恒大城公寓H栋2719室,,1,0,117.147178,36.725484,13046012289,hotel,http://api.map.baidu.com/place/detail?uid=2315e935228197ceab059de2&output=html&source=placeapi_v2,,,4.1,,4.1,,4.1,4.1,,139,11,,,0,0,,,,,0
229958ee70bf64c924d2bbbd,济南东都国际度假公寓,酒店,公寓式酒店,山东省,济南市,历城区,山东省济南市历城区经十东路3152号2号楼,,1,0,117.126621,36.724943,13181731307,hotel,http://api.map.baidu.com/place/detail?uid=229958ee70bf64c924d2bbbd&output=html&source=placeapi_v2,,,,,,,,,,0,0,,,,,,,,,0
3e53a75ef5eb6ff3ae31e589,济南自巢公寓(东都国际店),酒店,公寓式酒店,山东省,济南市,历城区,山东省济南市历城区工业北路88号3号楼,3e53a75ef5eb6ff3ae31e589,1,0,117.126672,36.724871,(0531)88250997,hotel,http://api.map.baidu.com/place/detail?uid=3e53a75ef5eb6ff3ae31e589&output=html&source=placeapi_v2,,,0.0,,0,,0,0,,2,1,,,0,0,,,,,0
73e3c9e24c60861b8605bf84,济南金麦精品公寓,酒店,公寓式酒店,山东省,济南市,历城区,济南市历城区工业北路60号万虹广场2号公寓20层,,1,0,117.139205,36.72309,,hotel,http://api.map.baidu.com/place/detail?uid=73e3c9e24c60861b8605bf84&output=html&source=placeapi_v2,,,,,,,,,,0,0,,,,,,,,,0
3b27f3bd42fbe4dffbdc85be,美佳精品酒店济南东站万虹广场店,酒店,公寓式酒店,山东省,济南市,历城区,山东省济南市历城区工业北路60号万虹广场2号公寓,,1,0,117.139205,36.72309,18063412129,hotel,http://api.map.baidu.com/place/detail?uid=3b27f3bd42fbe4dffbdc85be&output=html&source=placeapi_v2,,,4.3,,4.5,,4.5,4.5,,54,29,,,0,0,,,117.13962009729,36.723194622778,0
df6f32c93343ebfbf90cad66,济南斯维登服务公寓(交悦广场高铁站),酒店,公寓式酒店,山东省,济南市,章丘区,山东济南市章丘区双泉路交悦投资广场3号楼,df6f32c93343ebfbf90cad66,1,0,117.504321,36.730836,(0531)58672888,hotel,http://api.map.baidu.com/place/detail?uid=df6f32c93343ebfbf90cad66&output=html&source=placeapi_v2,76.0,,4.5,,4.5,,4.5,4.5,,165,20,,,0,0,,,,,0
0c2ca0ac78887c987adbd2a5,美宿精品酒店式公寓(济南东站店),酒店,公寓式酒店,山东省,济南市,历城区,山东省济南市历城区梁王新城和睦园14号东北方向200米,0c2ca0ac78887c987adbd2a5,1,0,117.188888,36.752491,13325101513,hotel,http://api.map.baidu.com/place/detail?uid=0c2ca0ac78887c987adbd2a5&output=html&source=placeapi_v2,,,4.2,,4.2,,4.2,4.2,,174,13,,,0,0,,,117.1887183306,36.752491871317,0
3547118c904433ca71455b5c,橙悦精品酒店式公寓,酒店,公寓式酒店,山东省,济南市,历城区,历城区鲍山街道通济桥路梁王新城25号楼1单元301室距济南新东站1500米,,1,0,117.18627,36.751762,15264175396,hotel,http://api.map.baidu.com/place/detail?uid=3547118c904433ca71455b5c&output=html&source=placeapi_v2,,,4.5,,4.8,,4.8,4.8,,60,15,,,0,0,,,,,0
644c1b9cd020337cf4231059,客房公寓,酒店,公寓式酒店,山东省,济南市,济阳区,济南市济阳区东郑线弘力商贸城,644c1b9cd020337cf4231059,1,0,117.120731,36.859218,,hotel,http://api.map.baidu.com/place/detail?uid=644c1b9cd020337cf4231059&output=html&source=placeapi_v2,,,,,,,,,,3,0,,,,,,,,,0
6343f27bb46f978aeaf8536a,斯维登服务公寓(华百广场店),酒店,公寓式酒店,山东省,济南市,济阳区,正安路与富阳街交汇处华百广场10楼(近停车场入口),6343f27bb46f978aeaf8536a,1,0,117.182234,36.973881,(0531)82779333,hotel,http://api.map.baidu.com/place/detail?uid=6343f27bb46f978aeaf8536a&output=html&source=placeapi_v2,,,4.3,,4.3,,4.3,4.3,,47,108,,,0,0,,,117.18221577639,36.973710160201,0
