uid,name,cat_L1,cat_L2,province,city,area,address,street_id,detail,child_num,loc_lng,loc_lat,telephone,type,detail_url,price,shop_hours,overall_rating,taste_rating,service_rating,environment_rating,facility_rating,hygiene_rating,technology_rating,image_num,comment_num,groupon_num,discount_num,favorite_num,checkin_num,brand,content_tag,naviloc_lng,naviloc_lat,child_num
2aeb9ffe936494d69de3210f,牛泉镇绿地幼儿园,教育培训,幼儿园,山东省,济南市,莱芜区,济南市莱芜区,,1,0,117.497259,36.197753,(0531)76711039,education,http://api.map.baidu.com/place/detail?uid=2aeb9ffe936494d69de3210f&output=html&source=placeapi_v2,,,0.0,,,,,,,,,,,,,,,117.49750230497,36.197953076513,0
e86d126368e66a7fae04576c,莱城区牛泉镇毕毛埠村幼儿园,教育培训,幼儿园,山东省,济南市,莱芜区,济南市莱芜区汶河路与汶西六巷交叉路口往西北约120米,,1,0,117.520663,36.198425,,education,http://api.map.baidu.com/place/detail?uid=e86d126368e66a7fae04576c&output=html&source=placeapi_v2,,,,,,,,,,,,,,,,,,,,0
3f9337d64781dfb2f72310d9,莱芜区牛泉镇中心幼儿园,教育培训,幼儿园,山东省,济南市,莱芜区,山东省济南市莱芜区东牛泉金牛西街牛泉镇中心幼儿园,,1,1,117.547877,36.198183,(0531)76722594,education,http://api.map.baidu.com/place/detail?uid=3f9337d64781dfb2f72310d9&output=html&source=placeapi_v2,,,0,,,,,,,,1,,,,,,,117.54806392916,36.198379865524,1
87d47d9837e94d2cbea240db,莱芜智慧树幼儿园,教育培训,幼儿园,山东省,济南市,莱芜区,济南市莱芜区金牛东街与汶河南路交叉路口往东约130米,,1,0,117.555756,36.198019,18663473031,education,http://api.map.baidu.com/place/detail?uid=87d47d9837e94d2cbea240db&output=html&source=placeapi_v2,,,,,,,,,,,,,,,,,,,,0
592fec8fb98ccb742afc48f2,小博士幼儿园,教育培训,幼儿园,山东省,济南市,莱芜区,山东省济南市莱芜区小博士双语幼儿园(金牛东街北),,1,0,117.565137,36.197557,13022765117,education,http://api.map.baidu.com/place/detail?uid=592fec8fb98ccb742afc48f2&output=html&source=placeapi_v2,,,0.0,,,,,,,,,,,,,,,,,0
2ac93527a36e57412811d1ca,启航幼儿园,教育培训,幼儿园,山东省,济南市,莱芜区,济南市莱芜区金牛东街,,1,0,117.576693,36.19736,,education,http://api.map.baidu.com/place/detail?uid=2ac93527a36e57412811d1ca&output=html&source=placeapi_v2,,,,,,,,,,,,,,,,,,,,0
5d78f6a53594a11e744ff10b,启赋幼儿园,教育培训,幼儿园,山东省,济南市,莱芜区,山东省济南市莱芜区方下镇嘶马河桥中国邮政西北100米,,1,0,117.590219,36.213925,15063401003,education,http://api.map.baidu.com/place/detail?uid=5d78f6a53594a11e744ff10b&output=html&source=placeapi_v2,,,,,,,,,,,,,,,,,,,,0
2ac93527a36e57412811d1ca,启航幼儿园,教育培训,幼儿园,山东省,济南市,莱芜区,济南市莱芜区金牛东街,,1,0,117.576693,36.19736,,education,http://api.map.baidu.com/place/detail?uid=2ac93527a36e57412811d1ca&output=html&source=placeapi_v2,,,,,,,,,,,,,,,,,,,,0
802223bae0d53b2fc9291548,宝贝乐园,教育培训,幼儿园,山东省,济南市,莱芜区,凤城街道办事处叶家庄村,802223bae0d53b2fc9291548,1,0,117.61709,36.207481,,education,http://api.map.baidu.com/place/detail?uid=802223bae0d53b2fc9291548&output=html&source=placeapi_v2,,,0.0,,,,,,,,,,,,,,,,,0
6e058a8ba3ad1f0a9b68b4be,格瑞思品格幼儿园,教育培训,幼儿园,山东省,济南市,莱芜区,山东省济南市莱芜区汶河大道511号,6e058a8ba3ad1f0a9b68b4be,1,0,117.644098,36.203746,13054815882,education,http://api.map.baidu.com/place/detail?uid=6e058a8ba3ad1f0a9b68b4be&output=html&source=placeapi_v2,,,,,,,,,,,,,,,,,,117.64412450196,36.203617335165,0
b041d1460d29863c441a323a,莱芜区小葵花幼儿园,教育培训,幼儿园,山东省,济南市,莱芜区,山东省济南市莱芜区汶河大道511号,b041d1460d29863c441a323a,1,0,117.643842,36.205118,(0531)76188498,education,http://api.map.baidu.com/place/detail?uid=b041d1460d29863c441a323a&output=html&source=placeapi_v2,,,,,,,,,,,,,,,,,,,,0
7ad5a242e570c2769703193b,煤机幼儿园,教育培训,幼儿园,山东省,济南市,莱芜区,济南市莱芜区凤城西大街与新甫南路交叉路口往南约240米,7ad5a242e570c2769703193b,1,0,117.641804,36.208709,13002760468,education,http://api.map.baidu.com/place/detail?uid=7ad5a242e570c2769703193b&output=html&source=placeapi_v2,,,,,,,,,,,,,,,,,,117.64203869316,36.208693985372,0
ae04e8d3f9aff1556d20b9f6,金起点幼儿园,教育培训,幼儿园,山东省,济南市,莱芜区,济南市莱芜区西秀大街中心路与兴华街交叉路口往北约130米,ae04e8d3f9aff1556d20b9f6,1,0,117.64644,36.20904,13963450546,education,http://api.map.baidu.com/place/detail?uid=ae04e8d3f9aff1556d20b9f6&output=html&source=placeapi_v2,,,,,,,,,,,,,,,,,,,,0
bb1269130f0c4fe896ec8442,名邸幼儿园,教育培训,幼儿园,山东省,济南市,莱芜区,山东省济南市莱芜区西秀大街35号,bb1269130f0c4fe896ec8442,1,0,117.651265,36.206335,13563455496,education,http://api.map.baidu.com/place/detail?uid=bb1269130f0c4fe896ec8442&output=html&source=placeapi_v2,,,,,,,,,,,,,,,,,,117.6512596492,36.20646007436,0
a67c372bc27371978e7727d4,坡草洼社区幼儿园,教育培训,幼儿园,山东省,济南市,莱芜区,济南市莱芜区,a67c372bc27371978e7727d4,1,0,117.641567,36.187112,(0531)78588588,education,http://api.map.baidu.com/place/detail?uid=a67c372bc27371978e7727d4&output=html&source=placeapi_v2,,,0.0,,,,,,,,1,,,,,,,,,0
e425b96710725a910b69d974,阳光花园幼儿园,教育培训,幼儿园,山东省,济南市,莱芜区,山东省济南市莱芜区鹿鸣街27号,e425b96710725a910b69d974,1,0,117.651791,36.210611,16606345730,education,http://api.map.baidu.com/place/detail?uid=e425b96710725a910b69d974&output=html&source=placeapi_v2,,,3.0,,,,,,,,2,,,,,,,,,0
509984146d7fbcfcab059d0b,实中实验幼儿园,教育培训,幼儿园,山东省,济南市,莱芜区,山东省济南市莱芜区凤城西大街209号,509984146d7fbcfcab059d0b,1,0,117.658906,36.209184,13012753381,education,http://api.map.baidu.com/place/detail?uid=509984146d7fbcfcab059d0b&output=html&source=placeapi_v2,,,4,,,,,,,,1,,,,,,,117.65915941433,36.209399692941,0
6aabcac5762b579bc51e51f9,济南市莱芜区艺荟幼儿园,教育培训,幼儿园,山东省,济南市,莱芜区,济南市莱芜区鹿鸣街与西秀大街交叉路口往东南约90米,,1,0,117.652661,36.20617,15166346658,education,http://api.map.baidu.com/place/detail?uid=6aabcac5762b579bc51e51f9&output=html&source=placeapi_v2,,,,,,,,,,,,,,,,,,,,0
fd13a3f295396587b1077dc4,济南市莱芜汶水学校幼儿园,教育培训,幼儿园,山东省,济南市,莱芜区,济南市莱芜区汶秀南路,fd13a3f295396587b1077dc4,1,0,117.627262,36.209887,,education,http://api.map.baidu.com/place/detail?uid=fd13a3f295396587b1077dc4&output=html&source=placeapi_v2,,,0.0,,,,,,,,1,,,,,,,,,0
0400dd26851fe824a6c7566f,东汶南爱心幼儿园,教育培训,幼儿园,山东省,济南市,莱芜区,济南市莱芜区高庄街道办事处东汶南村,0400dd26851fe824a6c7566f,1,0,117.628585,36.188469,,education,http://api.map.baidu.com/place/detail?uid=0400dd26851fe824a6c7566f&output=html&source=placeapi_v2,,,0.0,,,,,,,,1,,,,,,,117.62854213616,36.188315262012,0
5d55be84c8f96ff22a02e1f2,华冠幼儿园,教育培训,幼儿园,山东省,济南市,莱芜区,山东省济南市莱芜区汶河大道莱芜机械工程中专学校南侧约200米,5d55be84c8f96ff22a02e1f2,1,0,117.685365,36.203077,13306343303,education,http://api.map.baidu.com/place/detail?uid=5d55be84c8f96ff22a02e1f2&output=html&source=placeapi_v2,,,,,,,,,,,,,,,,,,117.68540800014,36.203091893401,0
8850b5142b3da8c50a5cb381,莱芜六一实验幼儿园,教育培训,幼儿园,山东省,济南市,莱芜区,山东省济南市莱芜区东关街30号,8850b5142b3da8c50a5cb381,1,0,117.671772,36.204386,(0531)76161061,education,http://api.map.baidu.com/place/detail?uid=8850b5142b3da8c50a5cb381&output=html&source=placeapi_v2,,,0,,,,,,,,2,,,,,,,117.67169475659,36.204687744899,0
d7fa1f41139b4baa2a02e16d,莱芜区和园幼儿园,教育培训,幼儿园,山东省,济南市,莱芜区,山东省济南市莱芜区文化南路266号,,1,0,117.685848,36.205305,,education,http://api.map.baidu.com/place/detail?uid=d7fa1f41139b4baa2a02e16d&output=html&source=placeapi_v2,,,,,,,,,,,,,,,,,,,,0
c43749ac758692311811d56d,北京银座小叮当幼儿园,教育培训,幼儿园,山东省,济南市,莱芜区,山东省济南市莱芜区文化南路102号,c43749ac758692311811d56d,1,0,117.686467,36.209019,(0531)76217707,education,http://api.map.baidu.com/place/detail?uid=c43749ac758692311811d56d&output=html&source=placeapi_v2,,,0,,,,,,,,3,,,,,,,117.68635129908,36.209021884618,0
7b914a08734ae6b3c7f025a6,童之梦幼儿园,教育培训,幼儿园,山东省,济南市,莱芜区,区官司商场洪海商贸城南,,1,0,117.675457,36.205355,18763479695,education,http://api.map.baidu.com/place/detail?uid=7b914a08734ae6b3c7f025a6&output=html&source=placeapi_v2,,,,,,,,,,,,,,,,,,,,0
7aebe3dfa91bdce80e3ddaa5,宝宝幼儿园,教育培训,幼儿园,山东省,济南市,莱芜区,济南市莱芜区凤城西大街与友谊街交叉路口往北约110米,7aebe3dfa91bdce80e3ddaa5,1,0,117.674545,36.209585,,education,http://api.map.baidu.com/place/detail?uid=7aebe3dfa91bdce80e3ddaa5&output=html&source=placeapi_v2,,,,,,,,,,,,,,,,,,,,0
6bca64eb3bc4793b631c6770,晨星幼儿园,教育培训,幼儿园,山东省,济南市,莱芜区,济南市莱芜区长勺南路与凤城西大街交叉路口往南约150米,6bca64eb3bc4793b631c6770,1,0,117.677044,36.207744,,education,http://api.map.baidu.com/place/detail?uid=6bca64eb3bc4793b631c6770&output=html&source=placeapi_v2,,,,,,,,,,,,,,,,,,117.67704823792,36.207640094201,0
6a8b067e8247c8d025d2bbc3,高庄明珠幼儿园,教育培训,幼儿园,山东省,济南市,莱芜区,山东省济南市莱芜区顺河南街高庄南坦村委东,6a8b067e8247c8d025d2bbc3,1,0,117.672747,36.193741,,education,http://api.map.baidu.com/place/detail?uid=6a8b067e8247c8d025d2bbc3&output=html&source=placeapi_v2,0.0,,0.0,,,,,,,,,,,,,,,,,0
f2cdc68d1f17e372dbeced1d,金色摇篮幼儿园,教育培训,幼儿园,山东省,济南市,莱芜区,山东省济南市莱芜区万福南路66号,f2cdc68d1f17e372dbeced1d,1,0,117.694816,36.208111,(0531)76211666,education,http://api.map.baidu.com/place/detail?uid=f2cdc68d1f17e372dbeced1d&output=html&source=placeapi_v2,,,,,,,,,,,,,,,,,,117.69517649945,36.208146956522,0
30be4d8f04afe65f17b54b23,金太阳幼儿园,教育培训,幼儿园,山东省,济南市,莱芜区,山东省济南市莱芜区长勺南路11号,,1,0,117.676584,36.215802,17606347869,education,http://api.map.baidu.com/place/detail?uid=30be4d8f04afe65f17b54b23&output=html&source=placeapi_v2,,,,,,,,,,,,,,,,,,117.67683022546,36.215893688627,0
c929ca28b1f0bd7f764ff18a,金牌幼儿园,教育培训,幼儿园,山东省,济南市,莱芜区,山东省济南市莱芜区万福南路52号,c929ca28b1f0bd7f764ff18a,1,0,117.694657,36.209505,,education,http://api.map.baidu.com/place/detail?uid=c929ca28b1f0bd7f764ff18a&output=html&source=placeapi_v2,,,0.0,,,,,,,,,,,,,,,117.69498053769,36.209501456722,0
52a7c97be3d0bc583a04b1e4,加州实验幼儿园,教育培训,幼儿园,山东省,济南市,莱芜区,济南市莱芜区凤城西大街与胜利南路交叉路口往东北约170米,,1,0,117.671137,36.210064,,education,http://api.map.baidu.com/place/detail?uid=52a7c97be3d0bc583a04b1e4&output=html&source=placeapi_v2,,,,,,,,,,,,,,,,,,117.67127008894,36.20996483513,0
93c2a8664c61588a31870afa,启蒙幼儿园,教育培训,幼儿园,山东省,济南市,莱芜区,济南市莱芜区鹏泉东大街与升平巷交叉路口往西约90米,,1,0,117.685725,36.214811,(0531)76236987,education,http://api.map.baidu.com/place/detail?uid=93c2a8664c61588a31870afa&output=html&source=placeapi_v2,,,,,,,,,,,,,,,,,,,,0
cd0614083994f430c9c3db98,星宝宝幼儿园,教育培训,幼儿园,山东省,济南市,莱芜区,济南市莱芜区凤城西大街与凤阳路交叉路口往东约110米,cd0614083994f430c9c3db98,1,0,117.666497,36.209272,13468224949,education,http://api.map.baidu.com/place/detail?uid=cd0614083994f430c9c3db98&output=html&source=placeapi_v2,,,,,,,,,,,,,,,,,,117.6664814199,36.209083155231,0
46e54c8ce4c5eb341ce99916,秀水社区幼儿园,教育培训,幼儿园,山东省,济南市,莱芜区,济南市莱芜区顺河北街,,1,0,117.691975,36.201027,,education,http://api.map.baidu.com/place/detail?uid=46e54c8ce4c5eb341ce99916&output=html&source=placeapi_v2,,,,,,,,,,,,,,,,,,117.69187694605,36.201003554505,0
311f8c76fe2ebd183ce2313d,董花园社区-幼儿园,教育培训,幼儿园,山东省,济南市,莱芜区,山东省济南市莱芜区花园南路25号,311f8c76fe2ebd183ce2313d,1,0,117.689311,36.214904,13563405959,education,http://api.map.baidu.com/place/detail?uid=311f8c76fe2ebd183ce2313d&output=html&source=placeapi_v2,,,0.0,,,,,,,,,,,,,,,117.68943910121,36.214976638465,0
2a7a25ec4239fc1d6c3e1bda,光明幼儿园(乐园街),教育培训,幼儿园,山东省,济南市,莱芜区,山东省济南市莱芜区乐园街13号,2a7a25ec4239fc1d6c3e1bda,1,0,117.68824,36.216119,18906341399,education,http://api.map.baidu.com/place/detail?uid=2a7a25ec4239fc1d6c3e1bda&output=html&source=placeapi_v2,,,0.0,,,,,,,,,,,,,,,,,0
be8f28377d978252276e98eb,希望幼儿园(凤阳路),教育培训,幼儿园,山东省,济南市,莱芜区,济南市莱芜区凤城西大街与凤阳路交叉路口往东北约60米,be8f28377d978252276e98eb,1,0,117.665731,36.209556,(0531)76677899,education,http://api.map.baidu.com/place/detail?uid=be8f28377d978252276e98eb&output=html&source=placeapi_v2,,,0.0,,,,,,,,,,,,,,,,,0
5d2e1fd05a4c12ac15a190f2,石家庄社区-幼儿园,教育培训,幼儿园,山东省,济南市,莱芜区,济南市莱芜区汶河大道与万福南路交叉路口往北约90米,5d2e1fd05a4c12ac15a190f2,1,0,117.695475,36.205086,(0531)76690677,education,http://api.map.baidu.com/place/detail?uid=5d2e1fd05a4c12ac15a190f2&output=html&source=placeapi_v2,,,0.0,,,,,,,,,,,,,,,117.69568116928,36.205010273822,0
c052671925c981322cb90806,小白鸽幼儿园,教育培训,幼儿园,山东省,济南市,莱芜区,济南市莱芜区长勺南路与莱泰高速交叉路口往西南约210米,,1,0,117.672239,36.191512,,education,http://api.map.baidu.com/place/detail?uid=c052671925c981322cb90806&output=html&source=placeapi_v2,,,,,,,,,,,,,,,,,,,,0
966ba0ec6344b1f9b13c8163,鄂庄幼儿园,教育培训,幼儿园,山东省,济南市,莱芜区,山东济南市莱芜区汶河大桥02号楼,966ba0ec6344b1f9b13c8163,1,0,117.673806,36.185716,13863468491,education,http://api.map.baidu.com/place/detail?uid=966ba0ec6344b1f9b13c8163&output=html&source=placeapi_v2,,,,,,,,,,,,,,,,,,,,0
8203eb6ab253ba2115c9052c,和天下幼儿园,教育培训,幼儿园,山东省,济南市,莱芜区,山东省济南市莱芜区汇源大街126号,,1,0,117.719998,36.205654,,education,http://api.map.baidu.com/place/detail?uid=8203eb6ab253ba2115c9052c&output=html&source=placeapi_v2,,,,,,,,,,,,,,,,,,,,0
49ac6d94b4118e3e15a19089,北京银座手拉手幼儿园,教育培训,幼儿园,山东省,济南市,莱芜区,济南市莱芜区凤凰南路与响水湾大街交叉路口往南约190米,49ac6d94b4118e3e15a19089,1,0,117.722802,36.19747,(0531)75629399,education,http://api.map.baidu.com/place/detail?uid=49ac6d94b4118e3e15a19089&output=html&source=placeapi_v2,,,0.0,,,,,,,,,,,,,,,117.72273981826,36.197540385307,0
c85215fd5b1f83d1b320a8af,仁和幼儿园,教育培训,幼儿园,山东省,济南市,莱芜区,山东省济南市莱芜区莱鹏泉街道原山路仁和花园c区旁,c85215fd5b1f83d1b320a8af,1,0,117.714865,36.202941,,education,http://api.map.baidu.com/place/detail?uid=c85215fd5b1f83d1b320a8af&output=html&source=placeapi_v2,,,0.0,,,,,,,,,,,,,,,117.71454640694,36.202998927627,0
a78ee7e7cb2bab4c2902e110,莱芜高新区实验幼儿园,教育培训,幼儿园,山东省,济南市,莱芜区,济南市莱芜区滨河西路与原山路交叉路口往北约120米,a78ee7e7cb2bab4c2902e110,1,0,117.713939,36.201774,,education,http://api.map.baidu.com/place/detail?uid=a78ee7e7cb2bab4c2902e110&output=html&source=placeapi_v2,,,,,,,,,,,,,,,,,,117.71407926831,36.201597873222,0
621e1d315140db2bc27da2c4,棒棒幼儿园,教育培训,幼儿园,山东省,济南市,莱芜区,山东省济南市莱芜区高新区仁和花园B区18号楼,,1,0,117.717742,36.206692,13686347846,education,http://api.map.baidu.com/place/detail?uid=621e1d315140db2bc27da2c4&output=html&source=placeapi_v2,,,,,,,,,,,,,,,,,,,,0
aba6f7f2f466f326882fb5fa,东海实验幼儿园,教育培训,幼儿园,山东省,济南市,莱芜区,山东省济南市莱芜区鹏泉街道汶河大街东海花园公交站,aba6f7f2f466f326882fb5fa,1,0,117.727352,36.198851,"13054820007,18863458878",education,http://api.map.baidu.com/place/detail?uid=aba6f7f2f466f326882fb5fa&output=html&source=placeapi_v2,,,0.0,,,,,,,,1,,,,,,,117.72730178015,36.199013026626,0
e64b1ffc9dab8334f219370c,姜庄社区幼儿园,教育培训,幼儿园,山东省,济南市,莱芜区,山东省济南市莱芜区汇源大街76-3号,e64b1ffc9dab8334f219370c,1,0,117.731794,36.203615,13256340555,education,http://api.map.baidu.com/place/detail?uid=e64b1ffc9dab8334f219370c&output=html&source=placeapi_v2,,,,,,,,,,,,,,,,,,,,0
ed5853a48bb5adc06e20b995,新希望幼儿园,教育培训,幼儿园,山东省,济南市,莱芜区,山东省济南市莱芜区凤城东大街165号,ed5853a48bb5adc06e20b995,1,0,117.716485,36.210992,,education,http://api.map.baidu.com/place/detail?uid=ed5853a48bb5adc06e20b995&output=html&source=placeapi_v2,,,,,,,,,,,,,,,,,,117.7166351532,36.210964980566,0
578df4f64c0aa6614d776e66,华清园幼儿园,教育培训,幼儿园,山东省,济南市,莱芜区,山东省济南市莱芜区寄母山路060号,578df4f64c0aa6614d776e66,1,0,117.721197,36.211924,(0531)76250166,education,http://api.map.baidu.com/place/detail?uid=578df4f64c0aa6614d776e66&output=html&source=placeapi_v2,,,0.0,,,,,,,,,,,,,,,117.72104264966,36.211942075934,0
d0008d569f36ea13fb2d61a7,中舜国际幼儿园,教育培训,幼儿园,山东省,济南市,莱芜区,济南市莱芜区鹏泉东大街与原山路交叉路口往西约220米,d0008d569f36ea13fb2d61a7,1,0,117.715185,36.214993,"(0531)78867888,13863456899",education,http://api.map.baidu.com/place/detail?uid=d0008d569f36ea13fb2d61a7&output=html&source=placeapi_v2,,,,,,,,,,,,,,,,,,117.71518468624,36.214702799649,0
79cceb3663c542f71e5800d5,孙故事社区-春蕾幼儿园,教育培训,幼儿园,山东省,济南市,莱芜区,济南市莱芜区长安街55号,79cceb3663c542f71e5800d5,1,0,117.704866,36.209696,(0531)78805654,education,http://api.map.baidu.com/place/detail?uid=79cceb3663c542f71e5800d5&output=html&source=placeapi_v2,,,1.5,,,,,,,,4,,,,,,,117.70482013249,36.209569517309,0
72aa2513e6722544077ce827,金色阳光幼儿园,教育培训,幼儿园,山东省,济南市,莱芜区,山东省济南市莱芜区步行街49号13号楼,,1,0,117.7057,36.210208,13210606960,education,http://api.map.baidu.com/place/detail?uid=72aa2513e6722544077ce827&output=html&source=placeapi_v2,,,0,,,,,,,,2,,,,,,,117.70560368396,36.21021381547,0
9f6264d498430bbcd6b74ee7,泰和幼儿园,教育培训,幼儿园,山东省,济南市,莱芜区,济南市莱芜区大崮山路与鹏泉东大街交叉路口往北约160米,,1,0,117.712629,36.216109,,education,http://api.map.baidu.com/place/detail?uid=9f6264d498430bbcd6b74ee7&output=html&source=placeapi_v2,,,,,,,,,,,,,,,,,,,,0
d36ea2278ab484b7c72ba156,小百合幼儿园,教育培训,幼儿园,山东省,济南市,莱芜区,济南市莱芜区寄母山路与鲁中东大街交叉路口往南约160米,d36ea2278ab484b7c72ba156,1,0,117.721452,36.216791,15006822791,education,http://api.map.baidu.com/place/detail?uid=d36ea2278ab484b7c72ba156&output=html&source=placeapi_v2,,,,,,,,,,,,,,,,,,,,0
d1ac4bf37629bb48e912e48b,童贝尔幼儿园,教育培训,幼儿园,山东省,济南市,莱芜区,区龙泽苑西门,d1ac4bf37629bb48e912e48b,1,0,117.73993,36.212237,,education,http://api.map.baidu.com/place/detail?uid=d1ac4bf37629bb48e912e48b&output=html&source=placeapi_v2,,,5,,,,,,,,3,,,,,,,117.73960967324,36.212251752383,0
8fa14fc3afd00d6ff7eafcda,冯家林幼儿园,教育培训,幼儿园,山东省,济南市,莱芜区,山东省济南市莱芜区鲁中东大街141号,8fa14fc3afd00d6ff7eafcda,1,0,117.720359,36.218576,,education,http://api.map.baidu.com/place/detail?uid=8fa14fc3afd00d6ff7eafcda&output=html&source=placeapi_v2,,,0,,,,,,,,1,,,,,,,117.72035823069,36.218273444531,0
39a5e6f9414d0dcd59f6befa,泰馨托幼园,教育培训,幼儿园,山东省,济南市,莱芜区,济南市莱芜区大崮山路与鹏泉东大街交叉路口往北约120米,,1,0,117.712595,36.215753,,education,http://api.map.baidu.com/place/detail?uid=39a5e6f9414d0dcd59f6befa&output=html&source=placeapi_v2,,,,,,,,,,,,,,,,,,,,0
8ed895e7a4a6cd5a02ec0139,杨庄镇福娃幼儿园,教育培训,幼儿园,山东省,济南市,莱芜区,济南市莱芜区胶海线,8ed895e7a4a6cd5a02ec0139,1,1,117.465033,36.225585,,education,http://api.map.baidu.com/place/detail?uid=8ed895e7a4a6cd5a02ec0139&output=html&source=placeapi_v2,,,0.0,,,,,,,,0,,,,,,,,,1
ceb89667f8f535a56b49f3da,福娃娃幼儿园,教育培训,幼儿园,山东省,济南市,莱芜区,济南市莱芜区方寨路与翰林街交叉路口往南约70米,ceb89667f8f535a56b49f3da,1,0,117.572713,36.240973,,education,http://api.map.baidu.com/place/detail?uid=ceb89667f8f535a56b49f3da&output=html&source=placeapi_v2,,,,,,,,,,,,,,,,,,,,0
707b7623fc02a508adcb669e,耿公清幼儿园,教育培训,幼儿园,山东省,济南市,莱芜区,山东省济南市莱芜区龙潭西大街(公清社区东北侧),707b7623fc02a508adcb669e,1,0,117.616428,36.235313,,education,http://api.map.baidu.com/place/detail?uid=707b7623fc02a508adcb669e&output=html&source=placeapi_v2,,,,,,,,,,,,,,,,,,117.61634413098,36.235207165929,0
d5fa8a2fddd2da89cac3dbca,公清社区-幼儿园,教育培训,幼儿园,山东省,济南市,莱芜区,山东省济南市莱芜区公清社区公交站(泰山街北),d5fa8a2fddd2da89cac3dbca,1,0,117.611933,36.233656,,education,http://api.map.baidu.com/place/detail?uid=d5fa8a2fddd2da89cac3dbca&output=html&source=placeapi_v2,,,0.0,,,,,,,,,,,,,,,117.61206393968,36.233310650508,0
e38e45bd94e5703f07fef5e8,卓越启航幼儿园,教育培训,幼儿园,山东省,济南市,莱芜区,区公清社区,e38e45bd94e5703f07fef5e8,1,0,117.620466,36.232768,13563423211,education,http://api.map.baidu.com/place/detail?uid=e38e45bd94e5703f07fef5e8&output=html&source=placeapi_v2,,,,,,,,,,,,,,,,,,,,0
638ce7e1b7230d1d22f0174c,北京京师幼学幼儿园,教育培训,幼儿园,山东省,济南市,莱芜区,济南市莱芜区长勺北路与润丰街交叉路口往东南约60米,638ce7e1b7230d1d22f0174c,1,0,117.676418,36.236154,(0531)76251988,education,http://api.map.baidu.com/place/detail?uid=638ce7e1b7230d1d22f0174c&output=html&source=placeapi_v2,,,0,,,,,,,,0,,,,,,,117.6759023621,36.236074715412,0
ed33083afd6991cc102935fd,金童幼儿园(御花园分园),教育培训,幼儿园,山东省,济南市,莱芜区,山东省济南市莱芜区御花园小区内,ed33083afd6991cc102935fd,1,0,117.679555,36.238085,(0531)76580999,education,http://api.map.baidu.com/place/detail?uid=ed33083afd6991cc102935fd&output=html&source=placeapi_v2,,,,,,,,,,,,,,,,,,,,0
70ebdf09810bc5e21b94c67e,中国娃幼儿园,教育培训,幼儿园,山东省,济南市,莱芜区,山东省济南市莱芜区龙潭大街49号,70ebdf09810bc5e21b94c67e,1,0,117.690358,36.232359,(0531)76230999,education,http://api.map.baidu.com/place/detail?uid=70ebdf09810bc5e21b94c67e&output=html&source=placeapi_v2,,,1,,,,,,,,2,,,,,,,117.69049975388,36.232873370446,0
80f008975cef404a59bbbc1b,舒心幼儿园,教育培训,幼儿园,山东省,济南市,莱芜区,济南市莱芜区柳家店15号楼,80f008975cef404a59bbbc1b,1,0,117.677621,36.242464,(0531)75620667,education,http://api.map.baidu.com/place/detail?uid=80f008975cef404a59bbbc1b&output=html&source=placeapi_v2,,,0,,,,,,,,1,,,,,,,,,0
e3e2cd9d9e09cd9ec7f50dcb,蒙台梭利幼儿园(花园北路),教育培训,幼儿园,山东省,济南市,莱芜区,山东省济南市莱芜区清馨园(花园北路西),e3e2cd9d9e09cd9ec7f50dcb,1,0,117.689067,36.237513,18663473590,education,http://api.map.baidu.com/place/detail?uid=e3e2cd9d9e09cd9ec7f50dcb&output=html&source=placeapi_v2,,,0.0,,,,,,,,,,,,,,,,,0
f3377bfb61ca6ed72b201a37,蓝月亮幼儿园,教育培训,幼儿园,山东省,济南市,莱芜区,济南市莱芜区长勺北路与汶源西大街交叉路口往西约230米,f3377bfb61ca6ed72b201a37,1,0,117.672665,36.227314,13706380955,education,http://api.map.baidu.com/place/detail?uid=f3377bfb61ca6ed72b201a37&output=html&source=placeapi_v2,,,,,,,,,,,,,,,,,,117.6726662183,36.227113709492,0
c186762c3205dc3f1fe9994f,智慧星幼儿园,教育培训,幼儿园,山东省,济南市,莱芜区,山东省济南市莱芜区汶源东大街115号2区5号楼,c186762c3205dc3f1fe9994f,1,0,117.697934,36.229601,13863489858,education,http://api.map.baidu.com/place/detail?uid=c186762c3205dc3f1fe9994f&output=html&source=placeapi_v2,,,0.0,,,,,,,,,,,,,,,117.69791559554,36.229485788752,0
680fb7032ca1479d8bb988da,莱芜区小天使幼儿园,教育培训,幼儿园,山东省,济南市,莱芜区,山东省济南市莱芜区花园北路99号,680fb7032ca1479d8bb988da,1,0,117.692124,36.237341,,education,http://api.map.baidu.com/place/detail?uid=680fb7032ca1479d8bb988da&output=html&source=placeapi_v2,,,0,,,,,,,,1,,,,,,,,,0
ee3e3e0cba9d2fcfc81b95a0,安泰礼仪幼儿园,教育培训,幼儿园,山东省,济南市,莱芜区,山东省济南市莱芜区文化北路91号,ee3e3e0cba9d2fcfc81b95a0,1,0,117.684051,36.244691,(0531)76688588,education,http://api.map.baidu.com/place/detail?uid=ee3e3e0cba9d2fcfc81b95a0&output=html&source=placeapi_v2,,,,,,,,,,,,,,,,,,117.68405183101,36.244530681976,0
c7eca12b1e8a1336e115f9da,莱芜第二实验小学幼儿园,教育培训,幼儿园,山东省,济南市,莱芜区,济南市莱芜区汶阳大街与花园北路交叉路口往西约50米(莱芜市第二实验小学),c7eca12b1e8a1336e115f9da,1,0,117.689935,36.222126,(0531)76223346,education,http://api.map.baidu.com/place/detail?uid=c7eca12b1e8a1336e115f9da&output=html&source=placeapi_v2,,,0,,,,,,,,1,,,,,,,,,0
bb35550a0e0c609659bbbc7e,北埠社区幼儿园,教育培训,幼儿园,山东省,济南市,莱芜区,济南市莱芜区呈瑞大街与胜利北路交叉路口往西约170米,bb35550a0e0c609659bbbc7e,1,0,117.667793,36.223035,,education,http://api.map.baidu.com/place/detail?uid=bb35550a0e0c609659bbbc7e&output=html&source=placeapi_v2,,,0,,,,,,,,1,,,,,,,117.66788882568,36.223358314606,0
d3215ac7f259d32cf4e73b14,莱芜博苑实验幼儿园,教育培训,幼儿园,山东省,济南市,莱芜区,山东省济南市莱芜区雪湖大街33号,,1,0,117.666734,36.244179,(0531)76166161,education,http://api.map.baidu.com/place/detail?uid=d3215ac7f259d32cf4e73b14&output=html&source=placeapi_v2,,,0.0,,,,,,,,,,,,,,,,,0
2b9dc1dbe4eb7c893a04b1ce,济南市第二机关幼儿园,教育培训,幼儿园,山东省,济南市,莱芜区,济南市莱芜区财源街与汶阳大街交叉路口往南约110米,2b9dc1dbe4eb7c893a04b1ce,1,0,117.687317,36.220925,(0531)76214101,education,http://api.map.baidu.com/place/detail?uid=2b9dc1dbe4eb7c893a04b1ce&output=html&source=placeapi_v2,,,,,,,,,,,,,,,,,,117.68746123279,36.220902787306,0
126c0dab742803dfbadf8f55,花蕊幼儿园,教育培训,幼儿园,山东省,济南市,莱芜区,济南市莱芜区长勺北路与呈瑞大街交叉路口往西北约130米,,1,0,117.674815,36.22418,,education,http://api.map.baidu.com/place/detail?uid=126c0dab742803dfbadf8f55&output=html&source=placeapi_v2,,,,,,,,,,,,,,,,,,,,0
dbc341e964a7ccc6260bd023,七彩阳光幼儿园,教育培训,幼儿园,山东省,济南市,莱芜区,济南市莱芜区幸福东街与嬴牟东大街交叉路口往北约110米,dbc341e964a7ccc6260bd023,1,0,117.696639,36.235512,(0531)75821111,education,http://api.map.baidu.com/place/detail?uid=dbc341e964a7ccc6260bd023&output=html&source=placeapi_v2,,,,,,,,,,,,,,,,,,117.6965983437,36.235441819639,0
cb05c6e46902fa9c4054d775,清水湾幼儿园,教育培训,幼儿园,山东省,济南市,莱芜区,济南市莱芜区龙潭东大街与青水街交叉路口往南约80米,,1,0,117.696149,36.232257,(0531)75640599,education,http://api.map.baidu.com/place/detail?uid=cb05c6e46902fa9c4054d775&output=html&source=placeapi_v2,,,,,,,,,,,,,,,,,,,,0
297052a6e81458a6afee7ada,蓓蕾幼儿园,教育培训,幼儿园,山东省,济南市,莱芜区,山东济南市莱芜区长勺北路51号,,1,0,117.674764,36.224113,,education,http://api.map.baidu.com/place/detail?uid=297052a6e81458a6afee7ada&output=html&source=placeapi_v2,,,,,,,,,,,,,,,,,,,,0
c259ffd7b633fc2f0782c287,伟才幼儿园,教育培训,幼儿园,山东省,济南市,莱芜区,济南市莱芜区书香美域小区内,,1,0,117.678183,36.250547,18263475166,education,http://api.map.baidu.com/place/detail?uid=c259ffd7b633fc2f0782c287&output=html&source=placeapi_v2,,,,,,,,,,,,,,,,,,,,0
806309e3569a2bf48bf15d3a,徐家河幼儿园,教育培训,幼儿园,山东省,济南市,莱芜区,区徐家河幼儿园(社区村委楼东侧),,1,0,117.692076,36.24418,,education,http://api.map.baidu.com/place/detail?uid=806309e3569a2bf48bf15d3a&output=html&source=placeapi_v2,,,,,,,,,,,,,,,,,,117.6920443363,36.243838194842,0
eec938c13f7bdecfc26c144b,大地幼儿园,教育培训,幼儿园,山东省,济南市,莱芜区,山东省济南市莱芜区雪湖大街32号,eec938c13f7bdecfc26c144b,1,0,117.668166,36.243349,15163416161,education,http://api.map.baidu.com/place/detail?uid=eec938c13f7bdecfc26c144b&output=html&source=placeapi_v2,,,0,,,,,,,,0,,,,,,,117.66820710071,36.24319775516,0
363c649323df856ebbbd63f1,欢乐谷幼儿园,教育培训,幼儿园,山东省,济南市,莱芜区,山东省济南市莱芜区青水街215号,363c649323df856ebbbd63f1,1,0,117.693847,36.220838,18906341760,education,http://api.map.baidu.com/place/detail?uid=363c649323df856ebbbd63f1&output=html&source=placeapi_v2,,,5,,,,,,,,5,,,,,,,,,0
e7b4c9c33de2f6351b94c61f,育红幼儿园,教育培训,幼儿园,山东省,济南市,莱芜区,山东省济南市莱芜区财源街24号,e7b4c9c33de2f6351b94c61f,1,0,117.695505,36.223088,15006340058,education,http://api.map.baidu.com/place/detail?uid=e7b4c9c33de2f6351b94c61f&output=html&source=placeapi_v2,,,0.0,,,,,,,,,,,,,,,,,0
a2500eaa621554ff40ab9a64,七色光幼儿园,教育培训,幼儿园,山东省,济南市,莱芜区,济南市莱芜区原山北路,a2500eaa621554ff40ab9a64,1,0,117.696648,36.246685,13906344559,education,http://api.map.baidu.com/place/detail?uid=a2500eaa621554ff40ab9a64&output=html&source=placeapi_v2,,,,,,,,,,,,,,,,,,,,0
a8f45d5f5ccffd380bccdd2f,莱芜区嬴昊实验幼儿园,教育培训,幼儿园,山东省,济南市,莱芜区,山东省济南市莱芜区胜利北路15号,,1,0,117.669481,36.221502,,education,http://api.map.baidu.com/place/detail?uid=a8f45d5f5ccffd380bccdd2f&output=html&source=placeapi_v2,,,,,,,,,,,,,,,,,,117.66969499018,36.221501606753,0
23e5861af7a5f14153e5c5a0,英才幼儿园(汶源东大街),教育培训,幼儿园,山东省,济南市,莱芜区,济南市莱芜区福盛路与汶源东大街交叉路口西南侧,23e5861af7a5f14153e5c5a0,1,0,117.699661,36.226638,,education,http://api.map.baidu.com/place/detail?uid=23e5861af7a5f14153e5c5a0&output=html&source=placeapi_v2,,,0,,,,,,,,1,,,,,,,,,0
e5098de9a5ba7b7d94ec846b,金房子国际幼儿园,教育培训,幼儿园,山东省,济南市,莱芜区,济南市莱芜区胜利北路,,1,0,117.664601,36.240665,(0531)76219555,education,http://api.map.baidu.com/place/detail?uid=e5098de9a5ba7b7d94ec846b&output=html&source=placeapi_v2,,,,,,,,,,,,,,,,,,117.66434355429,36.240658511778,0
0c7267ede324c1a51d58000f,金童年幼儿园,教育培训,幼儿园,山东省,济南市,莱芜区,济南市莱芜区胜利北路与雪湖大街交叉路口往东南约60米,0c7267ede324c1a51d58000f,1,0,117.664616,36.242459,"15006833850,15020882102",education,http://api.map.baidu.com/place/detail?uid=0c7267ede324c1a51d58000f&output=html&source=placeapi_v2,,,5,,,,,,,,2,,,,,,,117.66427311097,36.242450578592,0
567eac068f61649cf6c59c3b,金宝贝幼儿园,教育培训,幼儿园,山东省,济南市,莱芜区,济南市莱芜区福盛路与育才街交叉路口往南约70米,567eac068f61649cf6c59c3b,1,0,117.700127,36.228696,(0531)75605168,education,http://api.map.baidu.com/place/detail?uid=567eac068f61649cf6c59c3b&output=html&source=placeapi_v2,,,,,,,,,,,,,,,,,,,,0
fd8ee5ac785dd8484c6d46b0,河汇幼儿园,教育培训,幼儿园,山东省,济南市,莱芜区,山东省济南市莱芜区区汶水大街,,1,0,117.720677,36.240072,15564776577,education,http://api.map.baidu.com/place/detail?uid=fd8ee5ac785dd8484c6d46b0&output=html&source=placeapi_v2,,,0.0,,,,,,,,1,,,,,,,,,0
de63f32b21b9e721b15c6a24,莱芜高新区鹏泉街道办事处朴务头村幼儿园,教育培训,幼儿园,山东省,济南市,莱芜区,济南市莱芜区凤凰北路与龙潭东大街交叉路口往西北约110米,de63f32b21b9e721b15c6a24,1,0,117.727744,36.231868,,education,http://api.map.baidu.com/place/detail?uid=de63f32b21b9e721b15c6a24&output=html&source=placeapi_v2,,,,,,,,,,,,,,,,,,,,0
14cdacae95aea75cc5effbb0,世纪星幼儿园,教育培训,幼儿园,山东省,济南市,莱芜区,济南市莱芜区高新区中和小区,14cdacae95aea75cc5effbb0,1,0,117.721812,36.226452,18963452667,education,http://api.map.baidu.com/place/detail?uid=14cdacae95aea75cc5effbb0&output=html&source=placeapi_v2,,,0.0,,,,,,,,,,,,,,,117.72209217053,36.22642818895,0
4cce90304194ef66cac3dbd5,跨世纪幼儿园,教育培训,幼儿园,山东省,济南市,莱芜区,区世纪城南门,,1,0,117.718123,36.244651,(0531)75837666,education,http://api.map.baidu.com/place/detail?uid=4cce90304194ef66cac3dbd5&output=html&source=placeapi_v2,,,,,,,,,,,,,,,,,,117.71850841663,36.244645940085,0
fa032c53d64547ca43024579,龙兴幼儿园,教育培训,幼儿园,山东省,济南市,莱芜区,山东省济南市莱芜区高新区鹏泉街道办事处龙兴花园小区(办公楼),,1,0,117.723683,36.24175,15020890521,education,http://api.map.baidu.com/place/detail?uid=fa032c53d64547ca43024579&output=html&source=placeapi_v2,,,,,,,,,,,,,,,,,,117.72382755394,36.241588427277,0
19736af7669de57d0e3ddac6,博雅实验幼儿园,教育培训,幼儿园,山东省,济南市,莱芜区,济南市莱芜区鹏泉街道办事处山财路博雅新苑小区,,1,0,117.71496,36.244712,,education,http://api.map.baidu.com/place/detail?uid=19736af7669de57d0e3ddac6&output=html&source=placeapi_v2,,,,,,,,,,,,,,,,,,,,0
0ed900b5faa524fdd8131812,北孝义幼儿园,教育培训,幼儿园,山东省,济南市,莱芜区,济南市莱芜区黄山路莱芜一中(初中部)南侧约160米,,1,0,117.735484,36.235182,18806342988,education,http://api.map.baidu.com/place/detail?uid=0ed900b5faa524fdd8131812&output=html&source=placeapi_v2,,,,,,,,,,,,,,,,,,117.73559338793,36.235139670115,0
9489ccc8ca315179f21937f2,莱芜世纪城三期幼儿园,教育培训,幼儿园,山东省,济南市,莱芜区,山东省济南市莱芜区世纪城路1号莱芜世纪城三期,,1,0,117.721715,36.24779,,education,http://api.map.baidu.com/place/detail?uid=9489ccc8ca315179f21937f2&output=html&source=placeapi_v2,,,,,,,,,,,,,,,,,,,,0
a254491413c96fc71ce9996c,莱芜天成国际幼儿园,教育培训,幼儿园,山东省,济南市,莱芜区,山东省济南市莱芜区山财大街28号,,1,0,117.708879,36.243867,,education,http://api.map.baidu.com/place/detail?uid=a254491413c96fc71ce9996c&output=html&source=placeapi_v2,,,5,,,,,,,,2,,,,,,,,,0
2c0bd6c5ff4651d743ab9ac5,博爱幼儿园,教育培训,幼儿园,山东省,济南市,莱芜区,济南市莱芜区任花园小区4号楼,2c0bd6c5ff4651d743ab9ac5,1,0,117.701911,36.229361,(0531)75605987,education,http://api.map.baidu.com/place/detail?uid=2c0bd6c5ff4651d743ab9ac5&output=html&source=placeapi_v2,,,5,,,,,,,,3,,,,,,,117.70189051747,36.229231191826,0
9746df77ff66ab2f2e47331d,前宋幼儿园,教育培训,幼儿园,山东省,济南市,莱芜区,济南市莱芜区苍龙泉大街,9746df77ff66ab2f2e47331d,1,0,117.731223,36.224877,18263400161,education,http://api.map.baidu.com/place/detail?uid=9746df77ff66ab2f2e47331d&output=html&source=placeapi_v2,,,,,,,,,,,,,,,,,,,,0
8fa14fc3afd00d6ff7eafcda,冯家林幼儿园,教育培训,幼儿园,山东省,济南市,莱芜区,山东省济南市莱芜区鲁中东大街141号,8fa14fc3afd00d6ff7eafcda,1,0,117.720359,36.218576,,education,http://api.map.baidu.com/place/detail?uid=8fa14fc3afd00d6ff7eafcda&output=html&source=placeapi_v2,,,0,,,,,,,,1,,,,,,,117.72035823069,36.218273444531,0
159eecde02c31520ddee8b29,界首小学-界首村幼儿园,教育培训,幼儿园,山东省,济南市,长清区,济南市长清区,,1,0,116.999447,36.267402,,education,http://api.map.baidu.com/place/detail?uid=159eecde02c31520ddee8b29&output=html&source=placeapi_v2,,,0,,,,,,,,1,,,,,,,,,0
3060a880f9728186c4f025d4,济南市莱芜区杨庄镇育红幼儿园,教育培训,幼儿园,山东省,济南市,莱芜区,济南市莱芜区S241与南环路交叉路口往西南约130米,3060a880f9728186c4f025d4,1,0,117.458314,36.275087,"15020891116,15020898188",education,http://api.map.baidu.com/place/detail?uid=3060a880f9728186c4f025d4&output=html&source=placeapi_v2,,,,,,,,,,,,,,,,,,117.4585836185,36.275038079316,0
1ac1dd29f1fba91b1ce9997b,莱芜市莱城区羊里镇辛兴幼儿园,教育培训,幼儿园,山东省,济南市,莱芜区,羊里镇辛兴西南村,,1,0,117.532604,36.278425,,education,http://api.map.baidu.com/place/detail?uid=1ac1dd29f1fba91b1ce9997b&output=html&source=placeapi_v2,,,,,,,,,,,,,,,,,,117.53270418323,36.278434437317,0
5211d21939ca88257dc876c4,方下镇徐封邱阳光幼儿园,教育培训,幼儿园,山东省,济南市,莱芜区,山东省济南市莱芜区016乡道西50米方下镇徐封邱,5211d21939ca88257dc876c4,1,0,117.586792,36.254115,,education,http://api.map.baidu.com/place/detail?uid=5211d21939ca88257dc876c4&output=html&source=placeapi_v2,,,0.0,,,,,,,,0,,,,,,,,,0
2a13aeb4e4dbdd80c26c14d0,喜洋洋幼儿园,教育培训,幼儿园,山东省,济南市,莱芜区,济南市莱芜区张家洼街道张家洼中学北,,1,0,117.669603,36.267143,"15666346012,15666346020",education,http://api.map.baidu.com/place/detail?uid=2a13aeb4e4dbdd80c26c14d0&output=html&source=placeapi_v2,,,5,,,,,,,,1,,,,,,,,,0
91c13f939601ba8721f017c4,阳光幼儿园,教育培训,幼儿园,山东省,济南市,莱芜区,山东省济南市莱芜区阳光幼儿园(鲁矿大街南150米),91c13f939601ba8721f017c4,1,0,117.675489,36.273254,,education,http://api.map.baidu.com/place/detail?uid=91c13f939601ba8721f017c4&output=html&source=placeapi_v2,,,0.0,,,,,,,,1,,,,,,,,,0
eb2cf6b15073728da5da392f,金色童年幼儿园,教育培训,幼儿园,山东省,济南市,莱芜区,山东省济南市莱芜区长勺北路张家洼第二中学公交站东北,eb2cf6b15073728da5da392f,1,0,117.673675,36.266272,(0531)76688369,education,http://api.map.baidu.com/place/detail?uid=eb2cf6b15073728da5da392f&output=html&source=placeapi_v2,,,0.0,,,,,,,,1,,,,,,,117.67405343736,36.266179588571,0
bb4d585d9f13fc8c0e3ddaec,莱新花苑社区幼儿园,教育培训,幼儿园,山东省,济南市,莱芜区,山东省济南市莱芜区莱新花苑社区幼儿园(安康路北),,1,0,117.676782,36.257852,,education,http://api.map.baidu.com/place/detail?uid=bb4d585d9f13fc8c0e3ddaec&output=html&source=placeapi_v2,,,,,,,,,,,,,,,,,,,,0
c259ffd7b633fc2f0782c287,伟才幼儿园,教育培训,幼儿园,山东省,济南市,莱芜区,济南市莱芜区书香美域小区内,,1,0,117.678183,36.250547,18263475166,education,http://api.map.baidu.com/place/detail?uid=c259ffd7b633fc2f0782c287&output=html&source=placeapi_v2,,,,,,,,,,,,,,,,,,,,0
34059f97a309555571455bd4,莱芜区寨里镇中心幼儿园,教育培训,幼儿园,山东省,济南市,莱芜区,济南市莱芜区文馨街与政昌路交叉路口往东约200米,34059f97a309555571455bd4,1,0,117.501831,36.311081,,education,http://api.map.baidu.com/place/detail?uid=34059f97a309555571455bd4&output=html&source=placeapi_v2,,,0.0,,,,,,,,,,,,,,,117.50182199297,36.310917409651,0
a67ca03d1ce3d4da077ce80c,七巧板幼儿园,教育培训,幼儿园,山东省,济南市,莱芜区,济南市莱芜区,,1,0,117.569968,36.301207,,education,http://api.map.baidu.com/place/detail?uid=a67ca03d1ce3d4da077ce80c&output=html&source=placeapi_v2,,,,,,,,,,,,,,,,,,117.56983115984,36.301203301751,0
a8aac29e288df5cc3b221cdc,星悦教育国际幼儿园,教育培训,幼儿园,山东省,济南市,莱芜区,济南市莱芜区澳门南路,,1,0,117.627161,36.312557,,education,http://api.map.baidu.com/place/detail?uid=a8aac29e288df5cc3b221cdc&output=html&source=placeapi_v2,,,,,,,,,,,,,,,,,,117.62716714483,36.312757861677,0
76e98a2d8db2452626d2bb6b,宝宝乐幼儿园,教育培训,幼儿园,山东省,济南市,莱芜区,山东省济南市莱芜区莱城大道三区701号,76e98a2d8db2452626d2bb6b,1,0,117.623152,36.31274,15506341784,education,http://api.map.baidu.com/place/detail?uid=76e98a2d8db2452626d2bb6b&output=html&source=placeapi_v2,,,,,,,,,,,,,,,,,,,,0
612da8c9c7ef7e3f74026941,南山阳社区幼儿园,教育培训,幼儿园,山东省,济南市,莱芜区,济南市莱芜区口镇豪德城,612da8c9c7ef7e3f74026941,1,0,117.667664,36.290528,,education,http://api.map.baidu.com/place/detail?uid=612da8c9c7ef7e3f74026941&output=html&source=placeapi_v2,,,,,,,,,,,,,,,,,,,,0
ac3fd7e60038a683aaf0cd7c,万德中心幼儿园,教育培训,幼儿园,山东省,济南市,长清区,济南市长清区府前街与信合路交叉路口往东约110米,ac3fd7e60038a683aaf0cd7c,1,0,116.931412,36.343964,13969013507,education,http://api.map.baidu.com/place/detail?uid=ac3fd7e60038a683aaf0cd7c&output=html&source=placeapi_v2,,,0.0,,,,,,,,,,,,,,,,,0
6ed4280beab39a9abca82288,万德镇小博士幼儿园,教育培训,幼儿园,山东省,济南市,长清区,京岚线长清区万德镇万南小学西侧约120米,6ed4280beab39a9abca82288,1,1,116.929509,36.332016,(0531)87461108,education,http://api.map.baidu.com/place/detail?uid=6ed4280beab39a9abca82288&output=html&source=placeapi_v2,,,0.0,,,,,,,,,,,,,,,,,1
898a1bf44f257e2d940319aa,济南市长清区万德万北村幼儿园,教育培训,幼儿园,山东省,济南市,长清区,府前街万德镇中心小学西南侧,898a1bf44f257e2d940319aa,1,1,116.931428,36.343968,13969013507,education,http://api.map.baidu.com/place/detail?uid=898a1bf44f257e2d940319aa&output=html&source=placeapi_v2,,,0.0,,,,,,,,1,,,,,,,116.93155915284,36.343779117661,1
d2c7a2e3528e462b6c4760e8,万北育才幼儿园,教育培训,幼儿园,山东省,济南市,长清区,济南市长清区富华街与信合路交叉路口往西约90米,,1,1,116.929756,36.341549,,education,http://api.map.baidu.com/place/detail?uid=d2c7a2e3528e462b6c4760e8&output=html&source=placeapi_v2,,,,,,,,,,,,,,,,,,,,1
d43bb5edcb860f4d8f1a892d,长清区万德镇武庄中心小学-幼儿园,教育培训,幼儿园,山东省,济南市,长清区,济南市长清区万武线,d43bb5edcb860f4d8f1a892d,1,0,117.001361,36.343196,(0531)87492021,education,http://api.map.baidu.com/place/detail?uid=d43bb5edcb860f4d8f1a892d&output=html&source=placeapi_v2,,,0.0,,,,,,,,0,,,,,,,,,0
16ec73b4aa4418b485420ee8,三官庙村幼儿园,教育培训,幼儿园,山东省,济南市,莱芜区,山东省济南市莱芜区羊里镇北三官庙,,1,0,117.523702,36.329155,(0531)76524115,education,http://api.map.baidu.com/place/detail?uid=16ec73b4aa4418b485420ee8&output=html&source=placeapi_v2,,,,,,,,,,,,,,,,,,,,0
d9ff069805aad46940ab9a50,蓝天幼儿园,教育培训,幼儿园,山东省,济南市,莱芜区,济南市莱芜区商盛路与正羊街交叉路口往东约80米,d9ff069805aad46940ab9a50,1,0,117.547354,36.329838,18963452227,education,http://api.map.baidu.com/place/detail?uid=d9ff069805aad46940ab9a50&output=html&source=placeapi_v2,,,5,,,,,,,,1,,,,,,,117.5473736748,36.329747944557,0
38e48037243df248373a71d4,羊里中心幼儿园,教育培训,幼儿园,山东省,济南市,莱芜区,济南市莱芜区文苑路与正羊街交叉路口往西约110米,38e48037243df248373a71d4,1,0,117.551267,36.3295,,education,http://api.map.baidu.com/place/detail?uid=38e48037243df248373a71d4&output=html&source=placeapi_v2,,,0.0,,,,,,,,,,,,,,,117.55121568166,36.329435970705,0
e9bf14685cadcf43bb17e7ed,山东省济南市莱芜区羊里镇朱家庄村幼儿园,教育培训,幼儿园,山东省,济南市,莱芜区,山东省济南市莱芜区朱家庄村,,1,0,117.570108,36.32726,,education,http://api.map.baidu.com/place/detail?uid=e9bf14685cadcf43bb17e7ed&output=html&source=placeapi_v2,,,,,,,,,,,,,,,,,,117.569980893,36.327268346383,0
dd37226d3349bb8b246e9868,城子县村幼儿园,教育培训,幼儿园,山东省,济南市,莱芜区,山东省济南市莱芜区羊里镇铭源街城子县村幼儿园,,1,0,117.582818,36.332185,,education,http://api.map.baidu.com/place/detail?uid=dd37226d3349bb8b246e9868&output=html&source=placeapi_v2,,,,,,,,,,,,,,,,,,117.58309979248,36.332164153206,0
9437dc58c5dbeeb3dbd89116,清华幼儿园,教育培训,幼儿园,山东省,济南市,莱芜区,区口镇下水河金水佳苑,9437dc58c5dbeeb3dbd89116,1,0,117.617642,36.328169,,education,http://api.map.baidu.com/place/detail?uid=9437dc58c5dbeeb3dbd89116&output=html&source=placeapi_v2,,,,,,,,,,,,,,,,,,117.61760446529,36.328728073619,0
5142a502ceb3c2fa0a5cb375,莱芜金贝幼儿园,教育培训,幼儿园,山东省,济南市,莱芜区,济南市莱芜区泰山路与亿祥北路交叉路口往南约70米,,1,0,117.632316,36.333345,(0531)75678777,education,http://api.map.baidu.com/place/detail?uid=5142a502ceb3c2fa0a5cb375&output=html&source=placeapi_v2,,,,,,,,,,,,,,,,,,,,0
2a48ec4eae6bc25b49fd3f46,口镇爱心幼儿园,教育培训,幼儿园,山东省,济南市,莱芜区,济南市莱芜区正顺路与亿祥北路交叉路口往南约220米,2a48ec4eae6bc25b49fd3f46,1,0,117.631957,36.327159,,education,http://api.map.baidu.com/place/detail?uid=2a48ec4eae6bc25b49fd3f46&output=html&source=placeapi_v2,,,0.0,,,,,,,,,,,,,,,,,0
87176bfc967631c493114c3c,赵家村幼儿园,教育培训,幼儿园,山东省,济南市,莱芜区,济南市莱芜区深圳北路与吐丝口东路交叉路口往南约190米,87176bfc967631c493114c3c,1,0,117.636726,36.322139,,education,http://api.map.baidu.com/place/detail?uid=87176bfc967631c493114c3c&output=html&source=placeapi_v2,,,,,,,,,,,,,,,,,,117.63647515746,36.322164801362,0
6201528eae8cdba048cc4a18,口镇中心幼儿园,教育培训,幼儿园,山东省,济南市,莱芜区,山东省济南市莱芜区吐丝口东路口镇中学西南侧约190米,6201528eae8cdba048cc4a18,1,0,117.62455,36.323695,,education,http://api.map.baidu.com/place/detail?uid=6201528eae8cdba048cc4a18&output=html&source=placeapi_v2,,,,,,,,,,,,,,,,,,117.62477416046,36.324151238036,0
7db8d9e2417e241bc26c14b2,育杰幼儿园,教育培训,幼儿园,山东省,济南市,莱芜区,济南市莱芜区正顺路与莱城大道交叉路口往南约190米,7db8d9e2417e241bc26c14b2,1,0,117.62097,36.329669,,education,http://api.map.baidu.com/place/detail?uid=7db8d9e2417e241bc26c14b2&output=html&source=placeapi_v2,,,,,,,,,,,,,,,,,,,,0
9302d3e5b6cf6890a8f7299e,莱芜区口镇古城幼儿园,教育培训,幼儿园,山东省,济南市,莱芜区,济南市莱芜区口镇古城,,1,0,117.651386,36.328744,,education,http://api.map.baidu.com/place/detail?uid=9302d3e5b6cf6890a8f7299e&output=html&source=placeapi_v2,,,,,,,,,,,,,,,,,,,,0
a6aaae1f530172dac356ac28,金房子幼儿园,教育培训,幼儿园,山东省,济南市,莱芜区,济南市莱芜区吐丝口东路,,1,0,117.625131,36.324658,18663432007,education,http://api.map.baidu.com/place/detail?uid=a6aaae1f530172dac356ac28&output=html&source=placeapi_v2,,,,,,,,,,,,,,,,,,117.62542311253,36.324805832193,0
34e48508d92debe3d8d891d4,莱芜区大王庄镇中心幼儿园,教育培训,幼儿园,山东省,济南市,莱芜区,济南市莱芜区大宅线(莱芜市妇幼保健院大王庄分院东南侧约50米),,1,0,117.489625,36.366546,,education,http://api.map.baidu.com/place/detail?uid=34e48508d92debe3d8d891d4&output=html&source=placeapi_v2,,,5,,,,,,,,3,,,,,,,117.48962320357,36.36661216127,0
0af8d7c19c9f96917ec876e4,香山双馨实验幼儿园,教育培训,幼儿园,山东省,济南市,莱芜区,济南市莱芜区S241与香潭大街交叉路口往西约150米,,1,0,117.489717,36.369761,17863011150,education,http://api.map.baidu.com/place/detail?uid=0af8d7c19c9f96917ec876e4&output=html&source=placeapi_v2,,,0,,,,,,,,1,,,,,,,117.4897114531,36.369489694877,0
c9a35d8c2e6f666bed74f8da,址坊幼儿园,教育培训,幼儿园,山东省,济南市,莱芜区,济南市莱芜区,,1,0,117.543453,36.363245,,education,http://api.map.baidu.com/place/detail?uid=c9a35d8c2e6f666bed74f8da&output=html&source=placeapi_v2,,,,,,,,,,,,,,,,,,,,0
a53077ebcab2922af4e73b14,口镇山口幼儿园,教育培训,幼儿园,山东省,济南市,莱芜区,济南市莱芜区文峰路,,1,0,117.588041,36.359589,,education,http://api.map.baidu.com/place/detail?uid=a53077ebcab2922af4e73b14&output=html&source=placeapi_v2,,,,,,,,,,,,,,,,,,,,0
5cbf313639020ceb2c4733fe,马山镇中心幼儿园,教育培训,幼儿园,山东省,济南市,长清区,济南市长清区S104长清区马山中学东南侧约50米,,1,0,116.78083,36.389623,(0531)87333766,education,http://api.map.baidu.com/place/detail?uid=5cbf313639020ceb2c4733fe&output=html&source=placeapi_v2,,,0.0,,,,,,,,1,,,,,,,,,0
f1b46bf086f3b21d441a3216,长清区张夏镇土门幼儿园,教育培训,幼儿园,山东省,济南市,长清区,山东省济南市长清区京福线(青杨学区中心小学南侧),,1,0,116.924744,36.401191,13075349319,education,http://api.map.baidu.com/place/detail?uid=f1b46bf086f3b21d441a3216&output=html&source=placeapi_v2,,,,,,,,,,,,,,,,,,116.9247400151,36.401370158315,0
7ac906e8434a9a7c2fb908a6,出泉沟幼儿园,教育培训,幼儿园,山东省,济南市,历城区,济南市历城区并药路,,1,0,117.062656,36.391122,,education,http://api.map.baidu.com/place/detail?uid=7ac906e8434a9a7c2fb908a6&output=html&source=placeapi_v2,,,,,,,,,,,,,,,,,,,,0
fe5c47d235bb84175fbe8676,雪野旅游区雪野镇雪野社区幼儿园,教育培训,幼儿园,山东省,济南市,莱芜区,济南市莱芜区,,1,0,117.60908,36.404875,,education,http://api.map.baidu.com/place/detail?uid=fe5c47d235bb84175fbe8676&output=html&source=placeapi_v2,,,,,,,,,,,,,,,,,,,,0
8084a9f3a6224e28a9175a26,山东省济南市莱芜区苗山镇五色崖幼儿园,教育培训,幼儿园,山东省,济南市,莱芜区,山东省济南市莱芜区五色崖,,1,0,117.718311,36.390724,,education,http://api.map.baidu.com/place/detail?uid=8084a9f3a6224e28a9175a26&output=html&source=placeapi_v2,,,,,,,,,,,,,,,,,,,,0
1ad5c22b405456a709a8d44b,文昊幼儿园,教育培训,幼儿园,山东省,济南市,历城区,山东省济南市历城区仲宫镇西沟锦云路山东省文昊幼儿园,,1,0,117.045293,36.44429,,education,http://api.map.baidu.com/place/detail?uid=1ad5c22b405456a709a8d44b&output=html&source=placeapi_v2,,,0.0,,,,,,,,,,,,,,,,,0
d52102082b208eba82a12e12,朝阳宝贝幼儿园,教育培训,幼儿园,山东省,济南市,历城区,山东省济南市历城区X055(并药路),d52102082b208eba82a12e12,1,0,117.047416,36.440915,15165151473,education,http://api.map.baidu.com/place/detail?uid=d52102082b208eba82a12e12&output=html&source=placeapi_v2,,,,,,,,,,,,,,,,,,,,0
7620f5299bfce4e89e95de90,睿智红山幼儿园,教育培训,幼儿园,山东省,济南市,历城区,济南市历城区府前街与锦凤路交叉路口往西约100米,,1,0,117.116043,36.446926,,education,http://api.map.baidu.com/place/detail?uid=7620f5299bfce4e89e95de90&output=html&source=placeapi_v2,,,,,,,,,,,,,,,,,,117.11601790065,36.446740331151,0
a46baa28fa3d37dc22022070,七彩摇篮幼儿园,教育培训,幼儿园,山东省,济南市,历城区,济南市历城区S103与锦凰路交叉路口往北约100米,,1,0,117.120837,36.443468,,education,http://api.map.baidu.com/place/detail?uid=a46baa28fa3d37dc22022070&output=html&source=placeapi_v2,,,,,,,,,,,,,,,,,,117.12070502344,36.443474405553,0
82e2ebd5f60ff3b8f8f0cbd8,柳埠镇龙门村幼儿园,教育培训,幼儿园,山东省,济南市,历城区,济南市历城区,,1,0,117.175314,36.446803,(0531)82153218,education,http://api.map.baidu.com/place/detail?uid=82e2ebd5f60ff3b8f8f0cbd8&output=html&source=placeapi_v2,,,0.0,,,,,,,,0,,,,,,,117.17515018404,36.446801311217,0
a0350a2598ab86f4c909f04d,五峰多乐幼儿园,教育培训,幼儿园,山东省,济南市,长清区,山东省济南市长清区五峰多乐幼儿园(万归路北170米),,1,0,116.769404,36.462679,(0531)87318080,education,http://api.map.baidu.com/place/detail?uid=a0350a2598ab86f4c909f04d&output=html&source=placeapi_v2,,,0.0,,,,,,,,,,,,,,,,,0
2d7a77001c570920fa42b294,张夏街道中心幼儿园,教育培训,幼儿园,山东省,济南市,长清区,济南市长清区张夏北街与张夏南街交叉路口往西南约100米,,1,0,116.914034,36.456885,,education,http://api.map.baidu.com/place/detail?uid=2d7a77001c570920fa42b294&output=html&source=placeapi_v2,,,,,,,,,,,,,,,,,,116.91388272999,36.457365079579,0
d6d27f6c9c0528c2990050d2,新天地幼儿园,教育培训,幼儿园,山东省,济南市,历城区,济南市历城区,d6d27f6c9c0528c2990050d2,1,0,117.001939,36.476625,,education,http://api.map.baidu.com/place/detail?uid=d6d27f6c9c0528c2990050d2&output=html&source=placeapi_v2,,,,,,,,,,,,,,,,,,,,0
e0e82d11c154f83109b93acb,童心幼儿园,教育培训,幼儿园,山东省,济南市,历城区,山东省济南市历城区(联大国际花园西侧约50米),e0e82d11c154f83109b93acb,1,0,117.063146,36.473639,15165049729,education,http://api.map.baidu.com/place/detail?uid=e0e82d11c154f83109b93acb&output=html&source=placeapi_v2,,,,,,,,,,,,,,,,,,,,0
737d765f5f5aae75ab0dd88a,智慧树幼儿园,教育培训,幼儿园,山东省,济南市,历城区,济南市历城区,737d765f5f5aae75ab0dd88a,1,0,117.063482,36.473459,,education,http://api.map.baidu.com/place/detail?uid=737d765f5f5aae75ab0dd88a&output=html&source=placeapi_v2,,,0.0,,,,,,,,,,,,,,,,,0
52f3704b5ede7567902ca367,西营街道幼儿园,教育培训,幼儿园,山东省,济南市,历城区,山东省济南市历城区西营街道藕池小学(九如山风景区附近),,1,0,117.271644,36.478298,,education,http://api.map.baidu.com/place/detail?uid=52f3704b5ede7567902ca367&output=html&source=placeapi_v2,,,0.0,,,,,,,,,,,,,,,117.27152815872,36.478077798319,0
d016f697d722921c4251c046,仲北幼儿园,教育培训,幼儿园,山东省,济南市,历城区,济南市历城区仲宫镇中心小学院内,,1,0,117.027874,36.506138,18615576543,education,http://api.map.baidu.com/place/detail?uid=d016f697d722921c4251c046&output=html&source=placeapi_v2,0.0,,5,,,,,,,,4,,,,,,,117.02783974222,36.506188340327,0
910a8d2569b0c4432cb9081a,太阳贝贝幼儿园,教育培训,幼儿园,山东省,济南市,历城区,仲宫镇88路终点站南福美大酒店北邻司太阳,910a8d2569b0c4432cb9081a,1,0,117.037778,36.501632,"(0531)82807566,13153165043",education,http://api.map.baidu.com/place/detail?uid=910a8d2569b0c4432cb9081a&output=html&source=placeapi_v2,,,,,,,,,,,,,,,,,,117.03740492264,36.501481940315,0
12b2f5750657712ef7e73b44,红太阳幼儿园,教育培训,幼儿园,山东省,济南市,历城区,济南市历城区,12b2f5750657712ef7e73b44,1,0,117.034903,36.510803,"(0531)82807859,15665853977",education,http://api.map.baidu.com/place/detail?uid=12b2f5750657712ef7e73b44&output=html&source=placeapi_v2,,,5.0,,,,,,,,5,,,,,,,117.03474831345,36.510843949373,0
74f57b4c2edd78f799005091,光谱幼儿园,教育培训,幼儿园,山东省,济南市,历城区,济南市历城区终军路与仲北路交叉路口往东约220米,74f57b4c2edd78f799005091,1,0,117.032905,36.508164,,education,http://api.map.baidu.com/place/detail?uid=74f57b4c2edd78f799005091&output=html&source=placeapi_v2,,,0.0,,,,,,,,1,,,,,,,,,0
f944b304de1472ea128824a9,小神童幼儿园(新园),教育培训,幼儿园,山东省,济南市,历城区,济南市历城区终军路,,1,0,117.031743,36.510878,13583126615,education,http://api.map.baidu.com/place/detail?uid=f944b304de1472ea128824a9&output=html&source=placeapi_v2,0.0,,5,,,,,,,,3,,,,,,,117.0314035151,36.510864781584,0
9aa02c37b5c58d3ceee4a5ca,蓝天领航幼儿园,教育培训,幼儿园,山东省,济南市,历城区,济南市历城区仲北路,9aa02c37b5c58d3ceee4a5ca,1,0,117.034658,36.508997,,education,http://api.map.baidu.com/place/detail?uid=9aa02c37b5c58d3ceee4a5ca&output=html&source=placeapi_v2,,,,,,,,,,,2,,,,,,,117.03446108116,36.509016920985,0
4d63e63c3ec419b73617dc57,启飞幼儿园,教育培训,幼儿园,山东省,济南市,历城区,济南市历城区宏福路,4d63e63c3ec419b73617dc57,1,0,117.036612,36.502847,,education,http://api.map.baidu.com/place/detail?uid=4d63e63c3ec419b73617dc57&output=html&source=placeapi_v2,,,,,,,,,,,,,,,,,,,,0
418ad0a968a6e4015fd4fef1,稚茵贝贝幼儿园,教育培训,幼儿园,山东省,济南市,历城区,山东省济南市历城区上海街3号,418ad0a968a6e4015fd4fef1,1,0,117.02667,36.515111,18615592117,education,http://api.map.baidu.com/place/detail?uid=418ad0a968a6e4015fd4fef1&output=html&source=placeapi_v2,,,,,,,,,,,2,,,,,,,,,0
705642e8f64e824f62685824,金童幼儿园,教育培训,幼儿园,山东省,济南市,历城区,济南市历城区刘家村,,1,1,117.091508,36.50143,,education,http://api.map.baidu.com/place/detail?uid=705642e8f64e824f62685824&output=html&source=placeapi_v2,,,,,,,,,,,,,,,,,,117.0914642215,36.501625352348,1
ca4dda9b3d5ffa0b14b54b05,西营中心幼儿园,教育培训,幼儿园,山东省,济南市,历城区,济南市历城区西营街,,1,1,117.233834,36.509051,(0531)82822029,education,http://api.map.baidu.com/place/detail?uid=ca4dda9b3d5ffa0b14b54b05&output=html&source=placeapi_v2,,,0.0,,,,,,,,,,,,,,,117.23387229306,36.508846654419,1
837a3c43493cfbad2811d14b,皇嘉宝贝幼儿园,教育培训,幼儿园,山东省,济南市,历城区,济南市历城区建新路与西营南路交叉路口往北约90米,,1,0,117.239887,36.502446,,education,http://api.map.baidu.com/place/detail?uid=837a3c43493cfbad2811d14b&output=html&source=placeapi_v2,,,,,,,,,,,,,,,,,,,,0
3cef10e1482d442ece04ef97,金儒幼儿园,教育培训,幼儿园,山东省,济南市,历城区,济南市历城区港西路与西营北路交叉路口往北约130米,,1,0,117.225616,36.514017,,education,http://api.map.baidu.com/place/detail?uid=3cef10e1482d442ece04ef97&output=html&source=placeapi_v2,,,,,,,,,,,,,,,,,,,,0
f016e6dcca88b105ae080fd6,济南市垛庄镇中心幼儿园,教育培训,幼儿园,山东省,济南市,章丘区,济南市章丘区把头街与海山西路交叉路口往东北约240米,,1,0,117.439568,36.50303,(0531)83786697,education,http://api.map.baidu.com/place/detail?uid=f016e6dcca88b105ae080fd6&output=html&source=placeapi_v2,,,,,,,,,,,,,,,,,,,,0
d3804ec6ca69480e45e2746a,茶业口镇刘白杨幼儿园,教育培训,幼儿园,山东省,济南市,莱芜区,山东省济南市莱芜区茶业口镇刘白杨村,,1,0,117.667038,36.497843,,education,http://api.map.baidu.com/place/detail?uid=d3804ec6ca69480e45e2746a&output=html&source=placeapi_v2,,,,,,,,,,,,,,,,,,,,0
7a80b9410c5b2e03734b87c3,爱德堡幼儿园,教育培训,幼儿园,山东省,济南市,长清区,济南市长清区济广高速,7a80b9410c5b2e03734b87c3,1,0,116.786817,36.540413,18866610701,education,http://api.map.baidu.com/place/detail?uid=7a80b9410c5b2e03734b87c3&output=html&source=placeapi_v2,,,0.0,,,,,,,,,,,,,,,116.78684387071,36.540647628987,0
5814f36fc0690efc28b97c80,济南市长清区第二实验幼儿园,教育培训,幼儿园,山东省,济南市,长清区,山东省济南市长清区五峰路227号,5814f36fc0690efc28b97c80,1,1,116.772884,36.548665,,education,http://api.map.baidu.com/place/detail?uid=5814f36fc0690efc28b97c80&output=html&source=placeapi_v2,,,0.0,,,,,,,,,,,,,,,116.77325341563,36.548784444986,1
f5e3bcaec5aaf9c05e17c352,崮云湖街道中心幼儿园,教育培训,幼儿园,山东省,济南市,长清区,济南市长清区济广高速,f5e3bcaec5aaf9c05e17c352,1,0,116.785571,36.538766,(0531)88617767,education,http://api.map.baidu.com/place/detail?uid=f5e3bcaec5aaf9c05e17c352&output=html&source=placeapi_v2,,,5.0,,,,,,,,2,,,,,,,116.7853337383,36.539052629639,0
15d2fea335821c75eddfcaeb,京师阳光幼儿园(文昌路),教育培训,幼儿园,山东省,济南市,长清区,山东省济南市长清区文昌路1737号,15d2fea335821c75eddfcaeb,1,1,116.769066,36.549484,15054166698,education,http://api.map.baidu.com/place/detail?uid=15d2fea335821c75eddfcaeb&output=html&source=placeapi_v2,,,0.0,,,,,,,,1,,,,,,,116.76945762839,36.54939874923,1
ce0003e717056dc6a2a93480,瀛园幼儿园,教育培训,幼儿园,山东省,济南市,长清区,山东省济南市长清区中建瀛园7号楼3单元102室东南方向160米,ce0003e717056dc6a2a93480,1,1,116.828688,36.520706,,education,http://api.map.baidu.com/place/detail?uid=ce0003e717056dc6a2a93480&output=html&source=placeapi_v2,,,,,,,,,,,,,,,,,,116.82885358871,36.520799190178,1
16e3cd3175e70f808e55ecad,长清区实验幼儿园,教育培训,幼儿园,山东省,济南市,长清区,山东省济南市长清区海棠路5555号,16e3cd3175e70f808e55ecad,1,0,116.805831,36.539814,(0531)87221273,education,http://api.map.baidu.com/place/detail?uid=16e3cd3175e70f808e55ecad&output=html&source=placeapi_v2,,,0,,,,,,,,0,,,,,,,,,0
bf28151e761cbedddbecedc8,济南市高新区长清湖幼儿园,教育培训,幼儿园,山东省,济南市,长清区,山东省济南市长清区中建长清湖小区,,1,0,116.816958,36.524694,,education,http://api.map.baidu.com/place/detail?uid=bf28151e761cbedddbecedc8&output=html&source=placeapi_v2,,,,,,,,,,,1,,,,,,,116.81704278464,36.525305430677,0
75b82cb10a734dc4e9f85314,崮云湖幼儿园,教育培训,幼儿园,山东省,济南市,长清区,大学科技园安置房,75b82cb10a734dc4e9f85314,1,1,116.849792,36.518923,,education,http://api.map.baidu.com/place/detail?uid=75b82cb10a734dc4e9f85314&output=html&source=placeapi_v2,,,,,,,,,,,,,,,,,,116.84906775426,36.518751780391,1
ee7994c6587fadc14d2fdfbc,文星幼儿园,教育培训,幼儿园,山东省,济南市,历城区,济南市历城区,ee7994c6587fadc14d2fdfbc,1,0,117.006695,36.530185,,education,http://api.map.baidu.com/place/detail?uid=ee7994c6587fadc14d2fdfbc&output=html&source=placeapi_v2,,,0.0,,,,,,,,0,,,,,,,,,0
20816f0380a7cddd16948e4e,济南市红山生态幼儿园,教育培训,幼儿园,山东省,济南市,历城区,济南市历城区,20816f0380a7cddd16948e4e,1,0,117.028494,36.519848,13256146837,education,http://api.map.baidu.com/place/detail?uid=20816f0380a7cddd16948e4e&output=html&source=placeapi_v2,,,0.0,,,,,,,,,,,,,,,,,0
306c5f20e8f7c4cb01897260,支家岭金起点幼儿园,教育培训,幼儿园,山东省,济南市,历城区,济南市历城区,306c5f20e8f7c4cb01897260,1,0,117.033797,36.540497,,education,http://api.map.baidu.com/place/detail?uid=306c5f20e8f7c4cb01897260&output=html&source=placeapi_v2,,,0.0,,,,,,,,,,,,,,,117.03379705013,36.540496984368,0
7a4092c84c158549734b8736,夏山儿童之家,教育培训,幼儿园,山东省,济南市,历城区,济南市历城区仲宫镇支家岭村西,,1,0,117.036425,36.539214,17686614833,education,http://api.map.baidu.com/place/detail?uid=7a4092c84c158549734b8736&output=html&source=placeapi_v2,,,5,,,,,,,,2,,,,,,,,,0
6bbf256d54dd6b3d7bf79639,朝阳幼儿园,教育培训,幼儿园,山东省,济南市,历城区,济南市历城区,,1,0,117.063554,36.537844,15165151473,education,http://api.map.baidu.com/place/detail?uid=6bbf256d54dd6b3d7bf79639&output=html&source=placeapi_v2,,,,,,,,,,,,,,,,,,,,0
3cb524544ba5b1c0f60e7772,瑞丁树幼儿园,教育培训,幼儿园,山东省,济南市,长清区,山东省济南市长清区莲台山路1252号,3cb524544ba5b1c0f60e7772,1,0,116.767643,36.565401,15168886546,education,http://api.map.baidu.com/place/detail?uid=3cb524544ba5b1c0f60e7772&output=html&source=placeapi_v2,,,0,,,,,,,,1,,,,,,,116.7672666379,36.565297150434,0
6f0e5f464db8549032169b4b,长清区启航幼儿园,教育培训,幼儿园,山东省,济南市,长清区,济南市长清区莲台山路与玉符街交叉路口往西约60米,6f0e5f464db8549032169b4b,1,0,116.767573,36.569135,,education,http://api.map.baidu.com/place/detail?uid=6f0e5f464db8549032169b4b&output=html&source=placeapi_v2,,,0,,,,,,,,0,,,,,,,116.7676111183,36.569265052454,0
481ace928eabe53b43e192c5,梧桐树幼儿园(常青园),教育培训,幼儿园,山东省,济南市,长清区,山东省济南市长清区宾谷街481号,481ace928eabe53b43e192c5,1,0,116.768138,36.560904,,education,http://api.map.baidu.com/place/detail?uid=481ace928eabe53b43e192c5&output=html&source=placeapi_v2,,,,,,,,,,,,,,,,,,,,0
25ac81e8f43e5fd9f02d837f,长清区第三实验幼儿园,教育培训,幼儿园,山东省,济南市,长清区,山东省济南市长清区大学路6577号,25ac81e8f43e5fd9f02d837f,1,0,116.78242,36.570488,,education,http://api.map.baidu.com/place/detail?uid=25ac81e8f43e5fd9f02d837f&output=html&source=placeapi_v2,,,,,,,,,,,,,,,,,,116.78230498179,36.570325030708,0
d7acbb6701fab268c17da2e6,长清区起航幼儿园,教育培训,幼儿园,山东省,济南市,长清区,济南市长清区莲台山路与玉符街交叉路口西侧,d7acbb6701fab268c17da2e6,1,0,116.767998,36.569074,,education,http://api.map.baidu.com/place/detail?uid=d7acbb6701fab268c17da2e6&output=html&source=placeapi_v2,,,,,,,,,,,,,,,,,,,,0
ba535c792610bbf3af31e5b2,世纪昂立幼儿园(长清旗舰园),教育培训,幼儿园,山东省,济南市,长清区,山东省济南市长清区经十西路16608号,ba535c792610bbf3af31e5b2,1,0,116.76165,36.561197,(0531)66583366,education,http://api.map.baidu.com/place/detail?uid=ba535c792610bbf3af31e5b2&output=html&source=placeapi_v2,,,0.0,,,,,,,,,,,,,,,116.7611112608,36.561251393669,0
75f6edd3bd39e23da8059d3b,济南市长清区实验幼儿园(文昌路园),教育培训,幼儿园,山东省,济南市,长清区,山东省济南市长清区宾谷街431号,75f6edd3bd39e23da8059d3b,1,0,116.771157,36.555207,18769792280,education,http://api.map.baidu.com/place/detail?uid=75f6edd3bd39e23da8059d3b&output=html&source=placeapi_v2,,,,,,,,,,,,,,,,,,116.77116440886,36.554457839063,0
ab4ad8ff780df4a7adcb66fd,小天使幼儿园,教育培训,幼儿园,山东省,济南市,长清区,济南市长清区大学路与琵琶山路交叉路口往西南约250米,ab4ad8ff780df4a7adcb66fd,1,0,116.786578,36.562107,15066658705,education,http://api.map.baidu.com/place/detail?uid=ab4ad8ff780df4a7adcb66fd&output=html&source=placeapi_v2,,,,,,,,,,,,,,,,,,116.78658033302,36.562154435988,0
bd5046e8f48cd440d72ce253,红星幼儿园(清河街),教育培训,幼儿园,山东省,济南市,长清区,山东省济南市长清区清河街1858号,bd5046e8f48cd440d72ce253,1,0,116.755213,36.559946,(0531)87222297,education,http://api.map.baidu.com/place/detail?uid=bd5046e8f48cd440d72ce253&output=html&source=placeapi_v2,,,0,,,,,,,,2,,,,,,,116.75527102184,36.560130837139,0
d5f93c0efb364422eddfcae8,智慧树幼儿园(西三里南街),教育培训,幼儿园,山东省,济南市,长清区,济南市长清区经十西路与西三里南街交叉路口往西约200米,d5f93c0efb364422eddfcae8,1,0,116.7602,36.566842,13075372220,education,http://api.map.baidu.com/place/detail?uid=d5f93c0efb364422eddfcae8&output=html&source=placeapi_v2,,,0,,,,,,,,1,,,,,,,116.76028310756,36.566779232744,0
9b65927bec4467af373a7183,长清区第三实验幼儿园恒大三园,教育培训,幼儿园,山东省,济南市,长清区,济南市长清区牛山路与湄湖街交叉路口往东南约250米,,1,0,116.788333,36.568757,,education,http://api.map.baidu.com/place/detail?uid=9b65927bec4467af373a7183&output=html&source=placeapi_v2,,,,,,,,,,,,,,,,,,116.78826483102,36.568693755531,0
b533ea4a4acd353c4e6d469b,长清区实验幼儿园,教育培训,幼儿园,山东省,济南市,长清区,山东省济南市长清区水鸣街1446号,b533ea4a4acd353c4e6d469b,1,0,116.755017,36.55703,(0531)87221273,education,http://api.map.baidu.com/place/detail?uid=b533ea4a4acd353c4e6d469b&output=html&source=placeapi_v2,,,0,,,,,,,,1,,,,,,,116.75526239542,36.556903130169,0
cde9e2c78fe993b7e91e9791,汇富小名仕幼儿园,教育培训,幼儿园,山东省,济南市,长清区,山东省济南市长清区凤凰路4376号,cde9e2c78fe993b7e91e9791,1,0,116.776003,36.551175,(0531)87208181,education,http://api.map.baidu.com/place/detail?uid=cde9e2c78fe993b7e91e9791&output=html&source=placeapi_v2,,,0.0,,,,,,,,0,,,,,,,116.77573773708,36.551210734326,0
15d2fea335821c75eddfcaeb,京师阳光幼儿园(文昌路),教育培训,幼儿园,山东省,济南市,长清区,山东省济南市长清区文昌路1737号,15d2fea335821c75eddfcaeb,1,0,116.769066,36.549484,15054166698,education,http://api.map.baidu.com/place/detail?uid=15d2fea335821c75eddfcaeb&output=html&source=placeapi_v2,,,0.0,,,,,,,,1,,,,,,,116.76945762839,36.54939874923,0
e3a7fd1312f6952f29b97c9b,乐天幼儿园北园,教育培训,幼儿园,山东省,济南市,长清区,山东省济南市长清区博爱路乐天小区一区22号楼601室,e3a7fd1312f6952f29b97c9b,1,0,116.785374,36.560172,,education,http://api.map.baidu.com/place/detail?uid=e3a7fd1312f6952f29b97c9b&output=html&source=placeapi_v2,,,0,,,,,,,,2,,,,,,,116.78509593666,36.560172260897,0
aaa2d8e249544c06a2d230e3,乐天幼儿园,教育培训,幼儿园,山东省,济南市,长清区,济南市长清区乐天小区,,1,0,116.785374,36.560172,,education,http://api.map.baidu.com/place/detail?uid=aaa2d8e249544c06a2d230e3&output=html&source=placeapi_v2,,,,,,,,,,,,,,,,,,,,0
3d5aa98ce62934e022f0173c,丑小鸭幼儿园(马山路),教育培训,幼儿园,山东省,济南市,长清区,山东省济南市长清区马山路12号,3d5aa98ce62934e022f0173c,1,0,116.751943,36.565932,(0531)87228158,education,http://api.map.baidu.com/place/detail?uid=3d5aa98ce62934e022f0173c&output=html&source=placeapi_v2,,,,,,,,,,,,,,,,,,116.75156139827,36.566019435349,0
d59d59de45bfbcb0e812e48b,翰林幼儿园,教育培训,幼儿园,山东省,济南市,长清区,山东省济南市长清区经十西路13669号,,1,0,116.776115,36.583564,,education,http://api.map.baidu.com/place/detail?uid=d59d59de45bfbcb0e812e48b&output=html&source=placeapi_v2,,,,,,,,,,,,,,,,,,,,0
5814f36fc0690efc28b97c80,济南市长清区第二实验幼儿园,教育培训,幼儿园,山东省,济南市,长清区,山东省济南市长清区五峰路227号,5814f36fc0690efc28b97c80,1,0,116.772884,36.548665,,education,http://api.map.baidu.com/place/detail?uid=5814f36fc0690efc28b97c80&output=html&source=placeapi_v2,,,0.0,,,,,,,,,,,,,,,116.77325341563,36.548784444986,0
c8c88c74a99781fd03ec012e,山东女子学院附属幼儿园,教育培训,幼儿园,山东省,济南市,长清区,济南市长清区居里路与王符北路交叉路口往西约50米,c8c88c74a99781fd03ec012e,1,1,116.834984,36.559502,,education,http://api.map.baidu.com/place/detail?uid=c8c88c74a99781fd03ec012e&output=html&source=placeapi_v2,,,,,,,,,,,,,,,,,,116.83562712576,36.560086924362,1
c8c88c74a99781fd03ec012e,山东女子学院附属幼儿园,教育培训,幼儿园,山东省,济南市,长清区,济南市长清区居里路与王符北路交叉路口往西约50米,c8c88c74a99781fd03ec012e,1,1,116.834984,36.559502,,education,http://api.map.baidu.com/place/detail?uid=c8c88c74a99781fd03ec012e&output=html&source=placeapi_v2,,,,,,,,,,,,,,,,,,116.83562712576,36.560086924362,1
140ffef74a48fe339d95deec,济南市长清区平安双燕(双语)幼儿园,教育培训,幼儿园,山东省,济南市,长清区,山东省济南市长清区平安街道西潘南首,,1,0,116.853548,36.579082,13864152299,education,http://api.map.baidu.com/place/detail?uid=140ffef74a48fe339d95deec&output=html&source=placeapi_v2,,,,,,,,,,,1,,,,,,,116.85405222247,36.579014163225,0
5f5b9c4b4df0dd55d13ce383,邵西村幼儿园,教育培训,幼儿园,山东省,济南市,市中区,山东省济南市市中区邵西村幼儿园(二环西高架路西),5f5b9c4b4df0dd55d13ce383,1,0,116.939315,36.58097,,education,http://api.map.baidu.com/place/detail?uid=5f5b9c4b4df0dd55d13ce383&output=html&source=placeapi_v2,,,5,,,,,,,,1,,,,,,,116.93928389571,36.580555034199,0
741a0d465da6820415764391,邵东彩虹幼儿园,教育培训,幼儿园,山东省,济南市,市中区,济南市市中区党家街道办事处邵而庄东村24号,741a0d465da6820415764391,1,0,116.953782,36.571468,,education,http://api.map.baidu.com/place/detail?uid=741a0d465da6820415764391&output=html&source=placeapi_v2,,,,,,,,,,,,,,,,,,116.95314221561,36.571632485461,0
fc6c8cea2822fec62ce67b61,邵东启明幼儿园,教育培训,幼儿园,山东省,济南市,市中区,济南市市中区村村委大院,fc6c8cea2822fec62ce67b61,1,0,116.952658,36.574993,,education,http://api.map.baidu.com/place/detail?uid=fc6c8cea2822fec62ce67b61&output=html&source=placeapi_v2,,,,,,,,,,,,,,,,,,116.95317923927,36.57523689901,0
8f05f22d9b630d29c27da2e2,吴家庄幼儿园,教育培训,幼儿园,山东省,济南市,市中区,山东省济南市市中区绕城高速公路吴家庄幼儿园,8f05f22d9b630d29c27da2e2,1,1,116.977226,36.559455,(0531)82771588,education,http://api.map.baidu.com/place/detail?uid=8f05f22d9b630d29c27da2e2&output=html&source=placeapi_v2,,,0.0,,,,,,,,,,,,,,,116.97705655186,36.559723497191,1
01723492fb1f910454bfff14,大成幼儿园,教育培训,幼儿园,山东省,济南市,市中区,山东省济南市市中区河吴家村庄南边靠,01723492fb1f910454bfff14,1,0,116.980446,36.554749,,education,http://api.map.baidu.com/place/detail?uid=01723492fb1f910454bfff14&output=html&source=placeapi_v2,,,,,,,,,,,,,,,,,,116.98031080012,36.554654415142,0
10c492774338f504364aae8b,明星幼儿园,教育培训,幼儿园,山东省,济南市,历城区,山东省济南市历城区明星幼儿园(绕城高速公路南),10c492774338f504364aae8b,1,0,117.060621,36.555022,18854171797,education,http://api.map.baidu.com/place/detail?uid=10c492774338f504364aae8b&output=html&source=placeapi_v2,,,0.0,,,,,,,,,,,,,,,117.06050840162,36.555411214528,0
a638d529a7b639eb4151c0d8,新苗幼儿园,教育培训,幼儿园,山东省,济南市,历城区,山东省济南市历城区付上村,a638d529a7b639eb4151c0d8,1,0,117.04357,36.560962,,education,http://api.map.baidu.com/place/detail?uid=a638d529a7b639eb4151c0d8&output=html&source=placeapi_v2,,,,,,,,,,,,,,,,,,,,0
16ed9618c0fbb8dcb11e3639,育苗A佳幼儿园,教育培训,幼儿园,山东省,济南市,历城区,济南市历城区滩九线,,1,0,117.193081,36.572597,(0531)85823418,education,http://api.map.baidu.com/place/detail?uid=16ed9618c0fbb8dcb11e3639&output=html&source=placeapi_v2,,,0.0,,,,,,,,0,,,,,,,,,0
d59d59de45bfbcb0e812e48b,翰林幼儿园,教育培训,幼儿园,山东省,济南市,长清区,山东省济南市长清区经十西路13669号,,1,0,116.776115,36.583564,,education,http://api.map.baidu.com/place/detail?uid=d59d59de45bfbcb0e812e48b&output=html&source=placeapi_v2,,,,,,,,,,,,,,,,,,,,0
b44502d3926d95261c3894ff,新时代幼儿园,教育培训,幼儿园,山东省,济南市,长清区,济南市长清区西外环,,1,0,116.758722,36.598475,,education,http://api.map.baidu.com/place/detail?uid=b44502d3926d95261c3894ff&output=html&source=placeapi_v2,,,,,,,,,,,,,,,,,,,,0
0627a89d043005870b1cc753,金合作幼儿园,教育培训,幼儿园,山东省,济南市,长清区,济南市长清区平安街道小王村,,1,0,116.75146,36.600038,13854180345,education,http://api.map.baidu.com/place/detail?uid=0627a89d043005870b1cc753&output=html&source=placeapi_v2,,,0.0,,,,,,,,0,,,,,,,,,0
759cbf608009e05381a12e86,新世纪幼儿园(桥子李),教育培训,幼儿园,山东省,济南市,长清区,济南市长清区平安街道办事处后孙村,,1,0,116.758886,36.598487,(0531)87411599,education,http://api.map.baidu.com/place/detail?uid=759cbf608009e05381a12e86&output=html&source=placeapi_v2,,,5,,,,,,,,1,,,,,,,116.75886889351,36.598350926171,0
27e9ff21802884fef82d617b,平安街道爱心幼儿园,教育培训,幼儿园,山东省,济南市,长清区,济南市长清区经十西路与平安中路交叉路口往西北约250米,,1,1,116.801732,36.60165,13153174497,education,http://api.map.baidu.com/place/detail?uid=27e9ff21802884fef82d617b&output=html&source=placeapi_v2,,,0.0,,,,,,,,0,,,,,,,116.8016231415,36.601667570386,1
d2dc68003bd44451fe0eb0fd,山东银座全能宝贝幼儿园,教育培训,幼儿园,山东省,济南市,长清区,山东省济南市长清区平安南路6299号,,1,0,116.806038,36.596434,,education,http://api.map.baidu.com/place/detail?uid=d2dc68003bd44451fe0eb0fd&output=html&source=placeapi_v2,,,,,,,,,,,,,,,,,,,,0
fc74a08a0ed0108ba80dd836,七色光幼儿园,教育培训,幼儿园,山东省,济南市,长清区,济南市长清区平安北路,fc74a08a0ed0108ba80dd836,1,0,116.802283,36.60654,,education,http://api.map.baidu.com/place/detail?uid=fc74a08a0ed0108ba80dd836&output=html&source=placeapi_v2,,,,,,,,,,,,,,,,,,,,0
b8b331cafe701a29aeb22a2c,平安街道哈贝之星幼儿园,教育培训,幼儿园,山东省,济南市,长清区,山东省济南市长清区富美路669号,b8b331cafe701a29aeb22a2c,1,0,116.797484,36.601088,,education,http://api.map.baidu.com/place/detail?uid=b8b331cafe701a29aeb22a2c&output=html&source=placeapi_v2,,,0.0,,,,,,,,0,,,,,,,116.79743359551,36.600880562007,0
d14f14a71fe079cea2a934ea,东风幼儿园,教育培训,幼儿园,山东省,济南市,市中区,济南市市中区,,1,0,116.89315,36.607896,,education,http://api.map.baidu.com/place/detail?uid=d14f14a71fe079cea2a934ea&output=html&source=placeapi_v2,,,,,,,,,,,,,,,,,,,,0
f633606a24e9554f0a69d9ab,陡沟幼儿园,教育培训,幼儿园,山东省,济南市,市中区,党杨路陡沟村小学东南侧约80米,,1,0,116.902756,36.607196,,education,http://api.map.baidu.com/place/detail?uid=f633606a24e9554f0a69d9ab&output=html&source=placeapi_v2,,,0.0,,,,,,,,,,,,,,,116.90311432503,36.607167048179,0
1f27936f869670cdf503b8af,殷家林幼儿园,教育培训,幼儿园,山东省,济南市,市中区,山东省济南市市中区陡沟办事处殷家林村,,1,0,116.883101,36.587152,(0531)83155577,education,http://api.map.baidu.com/place/detail?uid=1f27936f869670cdf503b8af&output=html&source=placeapi_v2,,,0.0,,,,,,,,1,,,,,,,116.88269119206,36.58716599176,0
b793941b05eb42e831f71da0,蓝天云幼儿园,教育培训,幼儿园,山东省,济南市,市中区,山东省济南市市中区济微路389号,b793941b05eb42e831f71da0,1,0,116.899435,36.588133,,education,http://api.map.baidu.com/place/detail?uid=b793941b05eb42e831f71da0&output=html&source=placeapi_v2,,,5,,,,,,,,1,,,,,,,116.89944289831,36.588219917373,0
e50a5b65bba51ba6cd04efec,蓝天幼儿园,教育培训,幼儿园,山东省,济南市,市中区,济南市市中区党家庄镇泰和大酒店东侧,e50a5b65bba51ba6cd04efec,1,0,116.912333,36.590065,15063385915,education,http://api.map.baidu.com/place/detail?uid=e50a5b65bba51ba6cd04efec&output=html&source=placeapi_v2,,,1,,,,,,,,1,,,,,,,116.91234809181,36.590274885136,0
f047379672650ca45b109331,蓝天幼儿园实验园,教育培训,幼儿园,山东省,济南市,市中区,山东省济南市市中区济微路389号,f047379672650ca45b109331,1,0,116.899561,36.58803,,education,http://api.map.baidu.com/place/detail?uid=f047379672650ca45b109331&output=html&source=placeapi_v2,,,,,,,,,,,,,,,,,,116.89943637212,36.588214167377,0
9a4af7917b16abc608f5eb2e,格林幼儿园(济微公路辅路),教育培训,幼儿园,山东省,济南市,市中区,济南市市中区京岚线,9a4af7917b16abc608f5eb2e,1,0,116.912432,36.593075,,education,http://api.map.baidu.com/place/detail?uid=9a4af7917b16abc608f5eb2e&output=html&source=placeapi_v2,,,0,,,,,,,,0,,,,,,,116.91252121954,36.592726979969,0
e36dd56b26eacda2adcb6672,卓尔幼儿园(丘山分园),教育培训,幼儿园,山东省,济南市,市中区,济南市市中区京岚线与党杨路交叉路口往南约220米,,1,0,116.906148,36.588345,,education,http://api.map.baidu.com/place/detail?uid=e36dd56b26eacda2adcb6672&output=html&source=placeapi_v2,,,,,,,,,,,,,,,,,,116.90603539087,36.588277364998,0
6631f87aaa28e492c9291500,岳而幼儿园,教育培训,幼儿园,山东省,济南市,市中区,济南市市中区京岚线,6631f87aaa28e492c9291500,1,0,116.935829,36.594767,13706415841,education,http://api.map.baidu.com/place/detail?uid=6631f87aaa28e492c9291500&output=html&source=placeapi_v2,,,0.0,,,,,,,,1,,,,,,,116.93612021911,36.594593178083,0
5f5b9c4b4df0dd55d13ce383,邵西村幼儿园,教育培训,幼儿园,山东省,济南市,市中区,山东省济南市市中区邵西村幼儿园(二环西高架路西),5f5b9c4b4df0dd55d13ce383,1,0,116.939315,36.58097,,education,http://api.map.baidu.com/place/detail?uid=5f5b9c4b4df0dd55d13ce383&output=html&source=placeapi_v2,,,5,,,,,,,,1,,,,,,,116.93928389571,36.580555034199,0
c7eca12b1e791336e015f9ab,小庄幼儿园,教育培训,幼儿园,山东省,济南市,市中区,山东省济南市市中区济微公路124号,,1,0,116.924628,36.596583,(0531)87591861,education,http://api.map.baidu.com/place/detail?uid=c7eca12b1e791336e015f9ab&output=html&source=placeapi_v2,,,5,,,,,,,,1,,,,,,,116.92469182191,36.596880945153,0
631c41576b0ed36230f71d90,党家庄东村幼儿园,教育培训,幼儿园,山东省,济南市,市中区,山东省济南市市中区重汽路131号,631c41576b0ed36230f71d90,1,0,116.923182,36.588267,(0531)62313002,education,http://api.map.baidu.com/place/detail?uid=631c41576b0ed36230f71d90&output=html&source=placeapi_v2,,,2,,,,,,,,3,,,,,,,116.92336431141,36.588217618606,0
ebfe5e8f07f4f3f528b97c45,朝阳幼儿园,教育培训,幼儿园,山东省,济南市,市中区,山东省济南市市中区国道104号,ebfe5e8f07f4f3f528b97c45,1,0,116.922994,36.593019,,education,http://api.map.baidu.com/place/detail?uid=ebfe5e8f07f4f3f528b97c45&output=html&source=placeapi_v2,,,,,,,,,,,,,,,,,,,,0
843a6b378dcac8d011882428,蓝天蓓尔幼儿园,教育培训,幼儿园,山东省,济南市,市中区,山东省济南市市中区公铁立交g104,843a6b378dcac8d011882428,1,0,116.921934,36.593013,"13156440137,18005416755",education,http://api.map.baidu.com/place/detail?uid=843a6b378dcac8d011882428&output=html&source=placeapi_v2,,,,,,,,,,,,,,,,,,116.92193214833,36.59289777399,0
18684bb6ae7327c1da13185e,中海可砾幼儿园,教育培训,幼儿园,山东省,济南市,市中区,山东省济南市市中区九曲庄路68号,18684bb6ae7327c1da13185e,1,0,116.981202,36.597034,(0531)67611111,education,http://api.map.baidu.com/place/detail?uid=18684bb6ae7327c1da13185e&output=html&source=placeapi_v2,,,1,,,,,,,,1,,,,,,,116.98111025878,36.596927074482,0
b281ea9a529419a1aecb66e9,九曲幼儿园,教育培训,幼儿园,山东省,济南市,市中区,济南市市中区九曲庄路与泉海路交叉路口往东北约220米,,1,0,116.986561,36.606794,13031744820,education,http://api.map.baidu.com/place/detail?uid=b281ea9a529419a1aecb66e9&output=html&source=placeapi_v2,,,0.0,,,,,,,,,,,,,,,116.98682061264,36.606681735566,0
49d9005e66591b7615a1909c,天地生幼儿园,教育培训,幼儿园,山东省,济南市,市中区,山东省济南市市中区九曲庄路1-1-1504号,49d9005e66591b7615a1909c,1,0,116.983045,36.611248,"(0531)82727677,18560107792",education,http://api.map.baidu.com/place/detail?uid=49d9005e66591b7615a1909c&output=html&source=placeapi_v2,,,4,,,,,,,,1,,,,,,,116.98356131501,36.610981048049,0
e4319cd1d22e1ecdd7b74e73,央树国际幼儿园,教育培训,幼儿园,山东省,济南市,市中区,山东省济南市市中区九曲庄路中海央墅b1社区10-1号,e4319cd1d22e1ecdd7b74e73,1,0,116.981448,36.603955,13006580082,education,http://api.map.baidu.com/place/detail?uid=e4319cd1d22e1ecdd7b74e73&output=html&source=placeapi_v2,,,5,,,,,,,,1,,,,,,,,,0
234824b94180b339f82213e9,国社御峰幼儿园,教育培训,幼儿园,山东省,济南市,市中区,济南市市中区九曲庄路,,1,0,116.974186,36.590336,,education,http://api.map.baidu.com/place/detail?uid=234824b94180b339f82213e9&output=html&source=placeapi_v2,,,,,,,,,,,,,,,,,,116.97434499962,36.590273909105,0
77d48b1d5dbcda714d776e5a,文贤蓓蕾幼儿园,教育培训,幼儿园,山东省,济南市,市中区,山东省济南市市中区文贤居3号商铺,,1,0,116.9633,36.595897,18654936633,education,http://api.map.baidu.com/place/detail?uid=77d48b1d5dbcda714d776e5a&output=html&source=placeapi_v2,,,0.0,,,,,,,,,,,,,,,116.96328840387,36.595718553048,0
c93c0217d882ae8e43024599,北康幼儿园,教育培训,幼儿园,山东省,济南市,市中区,济南市市中区北康路,,1,0,116.989471,36.593521,,education,http://api.map.baidu.com/place/detail?uid=c93c0217d882ae8e43024599&output=html&source=placeapi_v2,,,,,,,,,,,,,,,,,,,,0
ca539a80bcceef11d4851f74,三优幼儿园,教育培训,幼儿园,山东省,济南市,市中区,山东省济南市市中区福康路13号,ca539a80bcceef11d4851f74,1,0,117.000439,36.594921,(0531)82823386,education,http://api.map.baidu.com/place/detail?uid=ca539a80bcceef11d4851f74&output=html&source=placeapi_v2,,,5,,,,,,,,3,,,,,,,117.00043600019,36.594700909324,0
98d0a01ec96c5ba5f50e77b5,幸福文贤幼儿园,教育培训,幼儿园,山东省,济南市,市中区,济南市市中区文庄东路与小北山路交叉路口往南约220米,98d0a01ec96c5ba5f50e77b5,1,0,116.96223,36.595594,13065075663,education,http://api.map.baidu.com/place/detail?uid=98d0a01ec96c5ba5f50e77b5&output=html&source=placeapi_v2,,,,,,,,,,,,,,,,,,116.96240520786,36.595759384071,0
848d30963a7db1eca6da39fa,济南市市中区文景第一幼儿园,教育培训,幼儿园,山东省,济南市,市中区,济南市市中区二环南高架路与小北山路交叉路口往北约240米,,1,0,116.961964,36.600018,,education,http://api.map.baidu.com/place/detail?uid=848d30963a7db1eca6da39fa&output=html&source=placeapi_v2,,,,,,,,,,,1,,,,,,,,,0
edaeb27fca397be81188243b,济南市市中区福景幼儿园,教育培训,幼儿园,山东省,济南市,市中区,山东省济南市市中区福康路67号,,1,0,116.998981,36.598944,,education,http://api.map.baidu.com/place/detail?uid=edaeb27fca397be81188243b&output=html&source=placeapi_v2,,,,,,,,,,,,,,,,,,,,0
1192d29bbec4035732f71df7,七贤卓尔幼儿园,教育培训,幼儿园,山东省,济南市,市中区,山东省济南市市中区七贤小区旁,1192d29bbec4035732f71df7,1,0,116.965231,36.611752,,education,http://api.map.baidu.com/place/detail?uid=1192d29bbec4035732f71df7&output=html&source=placeapi_v2,,,0.0,,,,,,,,,,,,,,,,,0
fff7bfac229dbb1b15c9055d,济南幼儿师范高等专科学校附属幼儿园(立人分园),教育培训,幼儿园,山东省,济南市,市中区,济南市市中区中国MALL城市之星,fff7bfac229dbb1b15c9055d,1,0,116.999347,36.592348,(0531)87207582,education,http://api.map.baidu.com/place/detail?uid=fff7bfac229dbb1b15c9055d&output=html&source=placeapi_v2,,,0,,,,,,,,1,,,,,,,,,0
09185c56aa206623f11937e5,军嫂小白鸽幼儿园,教育培训,幼儿园,山东省,济南市,市中区,山东省济南市市中区文庄路16号,09185c56aa206623f11937e5,1,0,116.961894,36.607878,13287785188,education,http://api.map.baidu.com/place/detail?uid=09185c56aa206623f11937e5&output=html&source=placeapi_v2,,,0.0,,,,,,,,0,,,,,,,116.96194599408,36.607638213288,0
19767fcc8ad8be7cf423104c,山东省实验幼儿园(南校区),教育培训,幼儿园,山东省,济南市,市中区,山东省济南市市中区二环南路鲁能领秀城六区南门对面,19767fcc8ad8be7cf423104c,1,0,117.020965,36.600902,(0531)67819579,education,http://api.map.baidu.com/place/detail?uid=19767fcc8ad8be7cf423104c&output=html&source=placeapi_v2,,,5,,,,,,,,5,,,,,,,117.02097239691,36.60098920111,0
944dd592ceb357420a5cb308,智慧熊幼儿园(领义路),教育培训,幼儿园,山东省,济南市,市中区,济南市市中区领秀城C区商业街统一银座西行50米,944dd592ceb357420a5cb308,1,0,117.014066,36.6003,(0531)85911818,education,http://api.map.baidu.com/place/detail?uid=944dd592ceb357420a5cb308&output=html&source=placeapi_v2,,,1,,,,,,,,2,,,,,,,117.01382367627,36.600423703328,0
368454e924ba9a7536b06ce0,伊顿慧智幼儿园(济南银丰花园校园),教育培训,幼儿园,山东省,济南市,市中区,山东省济南市市中区二环南路1299号,368454e924ba9a7536b06ce0,1,0,117.023259,36.605102,(0531)67759400,education,http://api.map.baidu.com/place/detail?uid=368454e924ba9a7536b06ce0&output=html&source=placeapi_v2,,,3.5,,,,,,,,3,,,,,,,117.02324880368,36.604922988496,0
80f4f7316f69374a902ca3f9,新加坡童乐园幼儿园,教育培训,幼儿园,山东省,济南市,市中区,山东省济南市市中区十六里河街道鲁能领秀城中央公园西三区1号楼,80f4f7316f69374a902ca3f9,1,0,117.019188,36.592663,4000488517,education,http://api.map.baidu.com/place/detail?uid=80f4f7316f69374a902ca3f9&output=html&source=placeapi_v2,,,4,,,,,,,,8,,,,,,,,,0
951a626e6fe71bd6a2a934c0,知远欧亚幼儿园,教育培训,幼儿园,山东省,济南市,市中区,山东省济南市市中区领秀城B区,951a626e6fe71bd6a2a934c0,1,0,117.010317,36.597792,(0531)82786660,education,http://api.map.baidu.com/place/detail?uid=951a626e6fe71bd6a2a934c0&output=html&source=placeapi_v2,,,1,,,,,,,,1,,,,,,,117.00988513481,36.597928297787,0
c05ffb95231877b8d6851f8c,济南艾迪儿幼儿园,教育培训,幼儿园,山东省,济南市,市中区,山东省济南市市中区舜耕路300号,c05ffb95231877b8d6851f8c,1,0,117.019194,36.606335,,education,http://api.map.baidu.com/place/detail?uid=c05ffb95231877b8d6851f8c&output=html&source=placeapi_v2,,,0,,,,,,,,1,,,,,,,117.01927723243,36.606187912791,0
db1f39d4134ade12f5c59cd4,鸿博幼儿园,教育培训,幼儿园,山东省,济南市,市中区,山东省济南市市中区万寿路17号,db1f39d4134ade12f5c59cd4,1,0,117.01282,36.609982,13688645911,education,http://api.map.baidu.com/place/detail?uid=db1f39d4134ade12f5c59cd4&output=html&source=placeapi_v2,,,0,,,,,,,,2,,,,,,,117.01299024189,36.609935360263,0
08bb40402b9e6a1da3acc4b2,山东省妇女儿童活动中心幼儿园(领秀城分园),教育培训,幼儿园,山东省,济南市,市中区,济南市市中区妇女儿童活动中心幼儿园,08bb40402b9e6a1da3acc4b2,1,0,117.012128,36.590855,(0531)88965566,education,http://api.map.baidu.com/place/detail?uid=08bb40402b9e6a1da3acc4b2&output=html&source=placeapi_v2,,,5,,,,,,,,2,,,,,,,117.01240615736,36.59132438892,0
8fc4fdc4651f2ce88c1a893e,斯坦福幼儿园,教育培训,幼儿园,山东省,济南市,市中区,山东省济南市市中区商业街鲁能领秀城东区3楼,,1,0,117.028978,36.592586,(0531)85598888,education,http://api.map.baidu.com/place/detail?uid=8fc4fdc4651f2ce88c1a893e&output=html&source=placeapi_v2,,,5,,,,,,,,4,,,,,,,117.02832698671,36.592591328449,0
f5e3bcaec5c6f9c05f17c3a6,顺天幼儿园,教育培训,幼儿园,山东省,济南市,市中区,山东省济南市市中区玉函小区南路玉函小区南区23号,f5e3bcaec5c6f9c05f17c3a6,1,0,117.01677,36.612825,,education,http://api.map.baidu.com/place/detail?uid=f5e3bcaec5c6f9c05f17c3a6&output=html&source=placeapi_v2,,,0,,,,,,,,1,,,,,,,117.01675862452,36.613175785661,0
eaf3b94b1c3cb82cc17da20f,哈尼森林国际幼儿园,教育培训,幼儿园,山东省,济南市,市中区,山东省济南市市中区二环南路6669号,eaf3b94b1c3cb82cc17da20f,1,0,117.036389,36.606087,18953165887,education,http://api.map.baidu.com/place/detail?uid=eaf3b94b1c3cb82cc17da20f&output=html&source=placeapi_v2,,,5,,,,,,,,1,,,,,,,117.03628457038,36.605804781791,0
aa37bf9c96fe5c4ff90cad6c,金智育才幼儿园,教育培训,幼儿园,山东省,济南市,市中区,济南市市中区玉兴路,aa37bf9c96fe5c4ff90cad6c,1,0,117.013221,36.60657,"15589997913,15726134071",education,http://api.map.baidu.com/place/detail?uid=aa37bf9c96fe5c4ff90cad6c&output=html&source=placeapi_v2,,,5,,,,,,,,5,,,,,,,117.01322288775,36.606486003665,0
ca539a80bcceef11d4851f74,三优幼儿园,教育培训,幼儿园,山东省,济南市,市中区,山东省济南市市中区福康路13号,ca539a80bcceef11d4851f74,1,0,117.000439,36.594921,(0531)82823386,education,http://api.map.baidu.com/place/detail?uid=ca539a80bcceef11d4851f74&output=html&source=placeapi_v2,,,5,,,,,,,,3,,,,,,,117.00043600019,36.594700909324,0
63d53f273fd14a09871541f3,济南市市中区金羽阳光幼儿园,教育培训,幼儿园,山东省,济南市,市中区,济南市市中区玉函小区南区007号,63d53f273fd14a09871541f3,1,0,117.018967,36.615164,,education,http://api.map.baidu.com/place/detail?uid=63d53f273fd14a09871541f3&output=html&source=placeapi_v2,,,0,,,,,,,,1,,,,,,,117.01869948095,36.614964482775,0
73089c375203abb5250bd075,舜苑幼儿园,教育培训,幼儿园,山东省,济南市,市中区,山东省济南市市中区望岳路789号,73089c375203abb5250bd075,1,0,117.003375,36.597314,(0531)80976727,education,http://api.map.baidu.com/place/detail?uid=73089c375203abb5250bd075&output=html&source=placeapi_v2,,,5,,,,,,,,1,,,,,,,117.00334193856,36.597465524473,0
29e8a8a6bb54cde57c29bdcf,金太阳幼儿园(英雄山路辅路),教育培训,幼儿园,山东省,济南市,市中区,山东省济南市市中区望岳路699号,29e8a8a6bb54cde57c29bdcf,1,0,117.00486,36.597234,"(0531)82773866,13969052123",education,http://api.map.baidu.com/place/detail?uid=29e8a8a6bb54cde57c29bdcf&output=html&source=placeapi_v2,,,0,,,,,,,,1,,,,,,,117.00504400293,36.59709096348,0
3f4a317444d17b4cc9fa5f0d,尚启幼儿园,教育培训,幼儿园,山东省,济南市,市中区,济南市市中区二环南路与玉兴路交叉路口往西北约190米,3f4a317444d17b4cc9fa5f0d,1,0,117.01274,36.605262,13075322891,education,http://api.map.baidu.com/place/detail?uid=3f4a317444d17b4cc9fa5f0d&output=html&source=placeapi_v2,,,,,,,,,,,,,,,,,,,,0
a6d6369688038fd145e27455,大地他山幼儿园,教育培训,幼儿园,山东省,济南市,市中区,山东省济南市市中区英雄山路242号,f9d26e59cbe04470cc04ef59,1,0,117.011731,36.612867,,education,http://api.map.baidu.com/place/detail?uid=a6d6369688038fd145e27455&output=html&source=placeapi_v2,,,0.0,,,,,,,,,,,,,,,117.01167347784,36.612729613941,0
1575657ba8df3435fb2d6121,诺贝尔幼儿园,教育培训,幼儿园,山东省,济南市,市中区,二环南路4666号,1575657ba8df3435fb2d6121,1,0,117.006103,36.612707,17852181882,education,http://api.map.baidu.com/place/detail?uid=1575657ba8df3435fb2d6121&output=html&source=placeapi_v2,,,0.0,,,,,,,,1,,,,,,,117.0059533522,36.612634720381,0
c4ba4b2aa89cd2c70f0e6b08,济南市市中区奥福幼儿园,教育培训,幼儿园,山东省,济南市,市中区,山东省济南市市中区望岳路788号,c4ba4b2aa89cd2c70f0e6b08,1,0,117.005547,36.596391,"(0531)82971997,15650583161",education,http://api.map.baidu.com/place/detail?uid=c4ba4b2aa89cd2c70f0e6b08&output=html&source=placeapi_v2,,,,,,,,,,,24,,,,,,,,,0
edaeb27fca397be81188243b,济南市市中区福景幼儿园,教育培训,幼儿园,山东省,济南市,市中区,山东省济南市市中区福康路67号,,1,0,116.998981,36.598944,,education,http://api.map.baidu.com/place/detail?uid=edaeb27fca397be81188243b&output=html&source=placeapi_v2,,,,,,,,,,,,,,,,,,,,0
eb54f58f3eeb79057c29bdc6,济南春天幼儿园,教育培训,幼儿园,山东省,济南市,市中区,山东省济南市市中区舜世路阳光舜城中十二区21号楼,eb54f58f3eeb79057c29bdc6,1,0,117.029065,36.614116,19906445082,education,http://api.map.baidu.com/place/detail?uid=eb54f58f3eeb79057c29bdc6&output=html&source=placeapi_v2,,,5,,,,,,,,2,,,,,,,117.02895776516,36.614160945474,0
466333fdf6019a8328d7ab83,绿茵幼儿园,教育培训,幼儿园,山东省,济南市,市中区,济南市市中区万寿路与英雄山路交叉路口往西北约120米,,1,0,117.008281,36.610527,,education,http://api.map.baidu.com/place/detail?uid=466333fdf6019a8328d7ab83&output=html&source=placeapi_v2,,,,,,,,,,,,,,,,,,,,0
9d4e62da16a2122c85420ea3,斯美特幼儿园,教育培训,幼儿园,山东省,济南市,市中区,山东省济南市市中区舜德路1号,9d4e62da16a2122c85420ea3,1,0,117.028162,36.6108,(0531)81768608,education,http://api.map.baidu.com/place/detail?uid=9d4e62da16a2122c85420ea3&output=html&source=placeapi_v2,,,,,,,,,,,,,,,,,,117.02832517842,36.610644272225,0
9f350282e000fa9628201ab8,济南市市中区维多利亚幼儿园,教育培训,幼儿园,山东省,济南市,市中区,山东省济南市市中区二环南路外海蝶泉山庄3456号,9f350282e000fa9628201ab8,1,0,117.001118,36.604372,(0531)88971997,education,http://api.map.baidu.com/place/detail?uid=9f350282e000fa9628201ab8&output=html&source=placeapi_v2,,,,,,,,,,,24,,,,,,,,,0
a07febfdc52e25eea3acc49a,市中区十六里河街道办事处西河村幼儿园,教育培训,幼儿园,山东省,济南市,市中区,山东省济南市市中区十六里河绿地新都会北(万寿路南),a07febfdc52e25eea3acc49a,1,0,117.006469,36.609589,,education,http://api.map.baidu.com/place/detail?uid=a07febfdc52e25eea3acc49a&output=html&source=placeapi_v2,,,,,,,,,,,,,,,,,,117.00633481584,36.609609456504,0
84f3c9d3654927d6e8e5824a,小精灵幼儿园,教育培训,幼儿园,山东省,济南市,市中区,济南市市中区西河村104号,84f3c9d3654927d6e8e5824a,1,0,117.006949,36.61312,,education,http://api.map.baidu.com/place/detail?uid=84f3c9d3654927d6e8e5824a&output=html&source=placeapi_v2,,,,,,,,,,,,,,,,,,117.00677878088,36.613073899762,0
c7ecc9ed73f12c9d6fc02cb1,慧雅幼儿园,教育培训,幼儿园,山东省,济南市,市中区,济南市市中区望岳路,c7ecc9ed73f12c9d6fc02cb1,1,0,117.003817,36.588887,13853117507,education,http://api.map.baidu.com/place/detail?uid=c7ecc9ed73f12c9d6fc02cb1&output=html&source=placeapi_v2,,,,,,,,,,,,,,,,,,,,0
249970e026f77dae28b97c25,红苹果幼儿园(南山路),教育培训,幼儿园,山东省,济南市,市中区,山东省济南市市中区二环东路12856号,249970e026f77dae28b97c25,1,0,117.054132,36.606133,,education,http://api.map.baidu.com/place/detail?uid=249970e026f77dae28b97c25&output=html&source=placeapi_v2,,,,,,,,,,,,,,,,,,117.05385003003,36.606222713559,0
b9faa8b7d546c12cc7f50d0f,济南市市中区泉泽幼儿园,教育培训,幼儿园,山东省,济南市,市中区,济南市市中区,b9faa8b7d546c12cc7f50d0f,1,0,117.047908,36.589001,,education,http://api.map.baidu.com/place/detail?uid=b9faa8b7d546c12cc7f50d0f&output=html&source=placeapi_v2,,,5,,,,,,,,1,,,,,,,117.0478814879,36.588766019144,0
e846d91df1cbf52ba5da3937,文祖街道办事处西窑头村幼儿园,教育培训,幼儿园,山东省,济南市,章丘区,济南市章丘区商业街西路,,1,0,117.49373,36.602214,,education,http://api.map.baidu.com/place/detail?uid=e846d91df1cbf52ba5da3937&output=html&source=placeapi_v2,,,,,,,,,,,,,,,,,,,,0
e846d91df1cbf52ba5da3937,文祖街道办事处西窑头村幼儿园,教育培训,幼儿园,山东省,济南市,章丘区,济南市章丘区商业街西路,,1,0,117.49373,36.602214,,education,http://api.map.baidu.com/place/detail?uid=e846d91df1cbf52ba5da3937&output=html&source=placeapi_v2,,,,,,,,,,,,,,,,,,,,0
1d470baa950fdc244151c0ad,博士幼儿园,教育培训,幼儿园,山东省,济南市,长清区,济南市长清区,,1,0,116.796678,36.626152,13583145270,education,http://api.map.baidu.com/place/detail?uid=1d470baa950fdc244151c0ad&output=html&source=placeapi_v2,,,0.0,,,,,,,,0,,,,,,,116.79657572094,36.626163284678,0
1e62a534f92415f6cb213dc7,济南市丰齐幼儿园,教育培训,幼儿园,山东省,济南市,市中区,山东省济南市市中区经十西路5800号,,1,0,116.851242,36.632372,13210513672,education,http://api.map.baidu.com/place/detail?uid=1e62a534f92415f6cb213dc7&output=html&source=placeapi_v2,,,5.0,,,,,,,,2,,,,,,,116.85117624707,36.632280466316,0
786e0b2449a66ba93b221c3b,童梦园幼儿园,教育培训,幼儿园,山东省,济南市,市中区,济南市市中区,786e0b2449a66ba93b221c3b,1,0,116.845905,36.632182,,education,http://api.map.baidu.com/place/detail?uid=786e0b2449a66ba93b221c3b&output=html&source=placeapi_v2,,,,,,,,,,,,,,,,,,,,0
24d055088949ead21388249b,小脚丫幼儿园,教育培训,幼儿园,山东省,济南市,槐荫区,山东省济南市槐荫区济兖公路482号,24d055088949ead21388249b,1,0,116.855336,36.64251,15966685413,education,http://api.map.baidu.com/place/detail?uid=24d055088949ead21388249b&output=html&source=placeapi_v2,,,0,,,,,,,,2,,,,,,,116.85531484207,36.642793325286,0
eca2e2e0b6f41a978936eec2,仁里新居幼儿园,教育培训,幼儿园,山东省,济南市,市中区,济南市市中区刘长山路,eca2e2e0b6f41a978936eec2,1,0,116.874082,36.631408,,education,http://api.map.baidu.com/place/detail?uid=eca2e2e0b6f41a978936eec2&output=html&source=placeapi_v2,,,5.0,,,,,,,,1,,,,,,,116.87405783562,36.631339258055,0
f4060c4266534179210220f6,金梦源幼儿园,教育培训,幼儿园,山东省,济南市,槐荫区,济南市槐荫区段店镇经十西路后周王庄枫景公寓内,,1,0,116.872699,36.640266,,education,http://api.map.baidu.com/place/detail?uid=f4060c4266534179210220f6&output=html&source=placeapi_v2,,,0.0,,,,,,,,,,,,,,,,,0
b58aca071651d366bda24093,杜家庙幼儿园,教育培训,幼儿园,山东省,济南市,市中区,济南市市中区陡沟街道陡沟办事处,,1,0,116.841198,36.619928,,education,http://api.map.baidu.com/place/detail?uid=b58aca071651d366bda24093&output=html&source=placeapi_v2,,,,,,,,,,,,,,,,,,116.84084949851,36.619871634424,0
ec0f9f7b66c2d43f5f0d02b0,童乐智慧幼儿园,教育培训,幼儿园,山东省,济南市,槐荫区,济南市槐荫区周朱路与经十西路交叉口东北200米,ec0f9f7b66c2d43f5f0d02b0,1,0,116.837679,36.639587,13031702215,education,http://api.map.baidu.com/place/detail?uid=ec0f9f7b66c2d43f5f0d02b0&output=html&source=placeapi_v2,,,,,,,,,,,,,,,,,,,,0
cfca948d512d6a25c5effbb9,仁里翰林幼儿园,教育培训,幼儿园,山东省,济南市,市中区,济南市市中区刘长山路,,1,0,116.87421,36.631397,,education,http://api.map.baidu.com/place/detail?uid=cfca948d512d6a25c5effbb9&output=html&source=placeapi_v2,,,,,,,,,,,,,,,,,,116.87420599584,36.631281701371,0
b6d8fbe5ec5b82021b94c659,四季阳光幼儿园,教育培训,幼儿园,山东省,济南市,槐荫区,济南市槐荫区经十西路辅路与周朱路交叉路口往西约150米,,1,0,116.841404,36.638406,,education,http://api.map.baidu.com/place/detail?uid=b6d8fbe5ec5b82021b94c659&output=html&source=placeapi_v2,,,,,,,,,,,,,,,,,,,,0
7e4334db1df998f340e1925f,济南市槐荫区金立鑫幼儿园,教育培训,幼儿园,山东省,济南市,槐荫区,山东省济南市槐荫区经十西路辅路78路终点站院内,,1,0,116.839328,36.637371,,education,http://api.map.baidu.com/place/detail?uid=7e4334db1df998f340e1925f&output=html&source=placeapi_v2,,,5.0,,,,,,,,1,,,,,,,,,0
da6afd19fa5b2f3c343a716f,郑红幼儿园,教育培训,幼儿园,山东省,济南市,市中区,山东济南市市中区陡沟办事处刘长山路国泰鑫城7号楼幼儿园,,1,0,116.872395,36.620896,,education,http://api.map.baidu.com/place/detail?uid=da6afd19fa5b2f3c343a716f&output=html&source=placeapi_v2,,,,,,,,,,,,,,,,,,116.87217328857,36.62102428462,0
621e4b7cf17fc310d42ce22f,济南市汉顿国际幼儿园,教育培训,幼儿园,山东省,济南市,槐荫区,山东省济南市槐荫区刘长山路与党杨路交叉口东南角,621e4b7cf17fc310d42ce22f,1,0,116.8996,36.629372,(0531)86712345,education,http://api.map.baidu.com/place/detail?uid=621e4b7cf17fc310d42ce22f&output=html&source=placeapi_v2,,,,,,,,,,,,,,,,,,,,0
cc609ab5648fe025901fc940,济南市槐荫区腊山南苑幼儿园,教育培训,幼儿园,山东省,济南市,槐荫区,济南市槐荫区党杨东路与腊山南苑中路交叉路口往南约50米,,1,0,116.902908,36.632335,,education,http://api.map.baidu.com/place/detail?uid=cc609ab5648fe025901fc940&output=html&source=placeapi_v2,,,,,,,,,,,,,,,,,,116.90307641834,36.632357826237,0
9f24094dc696ed308415413e,翰英幼儿园,教育培训,幼儿园,山东省,济南市,槐荫区,山东省济南市槐荫区党杨路2366号,9f24094dc696ed308415413e,1,0,116.899143,36.636709,17663704682,education,http://api.map.baidu.com/place/detail?uid=9f24094dc696ed308415413e&output=html&source=placeapi_v2,,,,,,,,,,,,,,,,,,116.89906392118,36.636785689244,0
f834ada9021058e2e856faf6,小龙人幼儿园,教育培训,幼儿园,山东省,济南市,槐荫区,山东省济南市槐荫区段店镇魏华西路张家庄小区(东区),f834ada9021058e2e856faf6,1,0,116.903404,36.636175,,education,http://api.map.baidu.com/place/detail?uid=f834ada9021058e2e856faf6&output=html&source=placeapi_v2,,,0.0,,,,,,,,,,,,,,,116.9031671957,36.636171274073,0
239555eab507f30c2fe67b03,济南槐荫区天乐星幼儿园,教育培训,幼儿园,山东省,济南市,槐荫区,腊山街道刘长山路党杨路绿地国际花都三区1号楼底商,239555eab507f30c2fe67b03,1,0,116.906113,36.629593,15168812739,education,http://api.map.baidu.com/place/detail?uid=239555eab507f30c2fe67b03&output=html&source=placeapi_v2,,,,,,,,,,,,,,,,,,116.90599410745,36.629943435623,0
b358a3d51a80e18fd72ce248,博雅幼儿园,教育培训,幼儿园,山东省,济南市,槐荫区,山东省济南市槐荫区刘长山路30号,,1,0,116.908277,36.626157,(0531)89655588,education,http://api.map.baidu.com/place/detail?uid=b358a3d51a80e18fd72ce248&output=html&source=placeapi_v2,,,4.0,,,,,,,,1,,,,,,,,,0
9f38632e5b6fe8b91ce999e7,小太阳幼儿园,教育培训,幼儿园,山东省,济南市,槐荫区,济南市槐荫区,,1,0,116.887939,36.642204,13706415284,education,http://api.map.baidu.com/place/detail?uid=9f38632e5b6fe8b91ce999e7&output=html&source=placeapi_v2,,,5,,,,,,,,1,,,,,,,116.88808785404,36.642235595402,0
8e6b91af80b848d24e2fdf6e,济南市兰妮幼儿园,教育培训,幼儿园,山东省,济南市,槐荫区,济南市槐荫区党杨东路,,1,0,116.901687,36.625022,,education,http://api.map.baidu.com/place/detail?uid=8e6b91af80b848d24e2fdf6e&output=html&source=placeapi_v2,,,,,,,,,,,,,,,,,,116.90153859386,36.624997551803,0
7349809e423a7357bd484269,彩虹幼儿园,教育培训,幼儿园,山东省,济南市,槐荫区,济南市槐荫区段店镇王府庄(七路车终点站)玉周景园南区2号楼,,1,0,116.88816,36.644925,(0531)87526766,education,http://api.map.baidu.com/place/detail?uid=7349809e423a7357bd484269&output=html&source=placeapi_v2,,,5,,,,,,,,2,,,,,,,116.88830090066,36.644733252742,0
eca2e2e0b6f41a978936eec2,仁里新居幼儿园,教育培训,幼儿园,山东省,济南市,市中区,济南市市中区刘长山路,eca2e2e0b6f41a978936eec2,1,0,116.874082,36.631408,,education,http://api.map.baidu.com/place/detail?uid=eca2e2e0b6f41a978936eec2&output=html&source=placeapi_v2,,,5.0,,,,,,,,1,,,,,,,116.87405783562,36.631339258055,0
ad5236d7d71cc7e515c9050c,华杉幼儿园(济南园),教育培训,幼儿园,山东省,济南市,槐荫区,山东省济南市槐荫区刘长山路绿地泉景园1号楼,ad5236d7d71cc7e515c9050c,1,0,116.911044,36.630312,"(0531)87976161,18560171757",education,http://api.map.baidu.com/place/detail?uid=ad5236d7d71cc7e515c9050c&output=html&source=placeapi_v2,,,,,,,,,,,,,,,,,,,,0
cfca948d512d6a25c5effbb9,仁里翰林幼儿园,教育培训,幼儿园,山东省,济南市,市中区,济南市市中区刘长山路,,1,0,116.87421,36.631397,,education,http://api.map.baidu.com/place/detail?uid=cfca948d512d6a25c5effbb9&output=html&source=placeapi_v2,,,,,,,,,,,,,,,,,,116.87420599584,36.631281701371,0
0ed20a1571d5a29656bfffab,郑庄村中心幼儿园,教育培训,幼儿园,山东省,济南市,市中区,济南市市中区,,1,0,116.883311,36.622288,(0531)87991085,education,http://api.map.baidu.com/place/detail?uid=0ed20a1571d5a29656bfffab&output=html&source=placeapi_v2,,,0.0,,,,,,,,,,,,,,,116.88345259761,36.622107335691,0
0627ed4a845ed2a0b7265527,市中区朝阳海霞幼儿园,教育培训,幼儿园,山东省,济南市,市中区,山东省济南市市中区二环西路349号,0627ed4a845ed2a0b7265527,1,0,116.93993,36.631304,(0531)87985058,education,http://api.map.baidu.com/place/detail?uid=0627ed4a845ed2a0b7265527&output=html&source=placeapi_v2,,,2,,,,,,,,2,,,,,,,116.94014450114,36.631419801253,0
741c6f9b39822863b8bd634e,后魏村幼儿园,教育培训,幼儿园,山东省,济南市,市中区,山东省济南市市中区白马山街道后魏华庄后魏,741c6f9b39822863b8bd634e,1,0,116.939888,36.634532,,education,http://api.map.baidu.com/place/detail?uid=741c6f9b39822863b8bd634e&output=html&source=placeapi_v2,,,0,,,,,,,,2,,,,,,,116.94023584803,36.63451051247,0
445779eeac55b6c5c356ac57,市中后魏魏华幼儿园,教育培训,幼儿园,山东省,济南市,市中区,山东省济南市市中区二环西路10802号,,1,0,116.939848,36.634351,,education,http://api.map.baidu.com/place/detail?uid=445779eeac55b6c5c356ac57&output=html&source=placeapi_v2,,,,,,,,,,,,,,,,,,,,0
054b85025f769ade48cc4ae6,济南市市中区七贤中心幼儿园,教育培训,幼儿园,山东省,济南市,市中区,济南市市中区井家沟504号,054b85025f769ade48cc4ae6,1,0,116.946588,36.621326,"(0531)82987387,13082758797",education,http://api.map.baidu.com/place/detail?uid=054b85025f769ade48cc4ae6&output=html&source=placeapi_v2,,,0,,,,,,,,1,,,,,,,116.94619977826,36.621320549292,0
a54568eec98f18a388db73ad,小精灵幼儿园,教育培训,幼儿园,山东省,济南市,市中区,济南市市中区二环西路与刘长山路交叉路口往北约150米,a54568eec98f18a388db73ad,1,0,116.939976,36.63759,,education,http://api.map.baidu.com/place/detail?uid=a54568eec98f18a388db73ad&output=html&source=placeapi_v2,,,5,,,,,,,,3,,,,,,,,,0
aec71f3b9ddaf8f674e5b6d2,蓝天阳光幼儿园,教育培训,幼儿园,山东省,济南市,市中区,山东省济南市市中区白马山南路35号,aec71f3b9ddaf8f674e5b6d2,1,0,116.950809,36.624442,(0531)87182800,education,http://api.map.baidu.com/place/detail?uid=aec71f3b9ddaf8f674e5b6d2&output=html&source=placeapi_v2,,,0.0,,,,,,,,1,,,,,,,116.95080413118,36.624387380841,0
0b382e8769e794bcb1077df8,山凹居委会幼儿园,教育培训,幼儿园,山东省,济南市,市中区,济南市市中区白马花园北区7号楼,0b382e8769e794bcb1077df8,1,0,116.948714,36.639651,,education,http://api.map.baidu.com/place/detail?uid=0b382e8769e794bcb1077df8&output=html&source=placeapi_v2,,,0.0,,,,,,,,,,,,,,,116.94865473852,36.639662091146,0
96dd4b195708e5520389723a,欣都双语幼儿园,教育培训,幼儿园,山东省,济南市,市中区,白马山南路井家沟健身广场东南150米,96dd4b195708e5520389723a,1,0,116.948369,36.621449,(0531)88503838,education,http://api.map.baidu.com/place/detail?uid=96dd4b195708e5520389723a&output=html&source=placeapi_v2,,,0,,,,,,,,1,,,,,,,116.94827552783,36.62151680956,0
564087ca816dc0f8343a7116,幸福摇篮幼儿园,教育培训,幼儿园,山东省,济南市,市中区,山东省济南市市中区白马山南路10号,564087ca816dc0f8343a7116,1,0,116.95238,36.625565,(0531)69989776,education,http://api.map.baidu.com/place/detail?uid=564087ca816dc0f8343a7116&output=html&source=placeapi_v2,,,0.0,,,,,,,,,,,,,,,116.95230863212,36.625626982941,0
dadda15fe08d8e179a0050ca,济南市市中区聪明屋幼儿园,教育培训,幼儿园,山东省,济南市,市中区,山东省济南市市中区白马山西路39-3号,dadda15fe08d8e179a0050ca,1,0,116.950718,36.644668,15969680518,education,http://api.map.baidu.com/place/detail?uid=dadda15fe08d8e179a0050ca&output=html&source=placeapi_v2,,,0,,,,,,,,1,,,,,,,116.95076936137,36.644622643405,0
07993c460ed18d23b5f42fb6,宏瑞星城幼儿园,教育培训,幼儿园,山东省,济南市,市中区,山东省济南市市中区白马山南路2号南区30号楼,07993c460ed18d23b5f42fb6,1,0,116.959114,36.629336,(0531)87971112,education,http://api.map.baidu.com/place/detail?uid=07993c460ed18d23b5f42fb6&output=html&source=placeapi_v2,,,0.0,,,,,,,,0,,,,,,,116.95881497448,36.629246670163,0
c1ebc810dfc5fb9e2b11d1fd,汇佳幼儿园(后龙窝庄西路),教育培训,幼儿园,山东省,济南市,市中区,山东省济南市市中区后龙西路2号,c1ebc810dfc5fb9e2b11d1fd,1,0,116.956837,36.627283,15288854800,education,http://api.map.baidu.com/place/detail?uid=c1ebc810dfc5fb9e2b11d1fd&output=html&source=placeapi_v2,,,5,,,,,,,,1,,,,,,,116.956826648,36.627290859501,0
26936358f3e3d11f02897263,吉贝尔幼儿园,教育培训,幼儿园,山东省,济南市,槐荫区,山东省济南市槐荫区二环西路9406号,26936358f3e3d11f02897263,1,0,116.940663,36.648344,15688421311,education,http://api.map.baidu.com/place/detail?uid=26936358f3e3d11f02897263&output=html&source=placeapi_v2,,,0,,,,,,,,0,,,,,,,,,0
ff195c703a5911ce16764350,育才幼儿园,教育培训,幼儿园,山东省,济南市,市中区,山东省济南市市中区二环西9766号,ff195c703a5911ce16764350,1,0,116.943635,36.644944,"15554118849,15554118850",education,http://api.map.baidu.com/place/detail?uid=ff195c703a5911ce16764350&output=html&source=placeapi_v2,,,,,,,,,,,,,,,,,,116.9436574227,36.645037601928,0
6959a06d6a1e4ecfd7851fd2,济南市市中区翰英幼儿园,教育培训,幼儿园,山东省,济南市,市中区,山东省济南市市中区白马山南路15号,6959a06d6a1e4ecfd7851fd2,1,0,116.957719,36.631419,(0531)87159648,education,http://api.map.baidu.com/place/detail?uid=6959a06d6a1e4ecfd7851fd2&output=html&source=placeapi_v2,,,0,,,,,,,,2,,,,,,,116.95768441119,36.631553456559,0
ffcb6f61b8344b4eafee7a9f,东红庙幼儿园,教育培训,幼儿园,山东省,济南市,市中区,济南市市中区红园小区北门,ffcb6f61b8344b4eafee7a9f,1,0,116.944277,36.645649,(0531)87560336,education,http://api.map.baidu.com/place/detail?uid=ffcb6f61b8344b4eafee7a9f&output=html&source=placeapi_v2,,,0,,,,,,,,2,,,,,,,116.94427204158,36.645732090021,0
eaa357e97f35cfd54251c024,大庙屯社区幼儿园,教育培训,幼儿园,山东省,济南市,市中区,济南市市中区,,1,0,116.926525,36.618777,15628893960,education,http://api.map.baidu.com/place/detail?uid=eaa357e97f35cfd54251c024&output=html&source=placeapi_v2,,,,,,,,,,,,,,,,,,116.92654064065,36.618824900395,0
22467cab340697440c0a70cf,天成国际婴幼园,教育培训,幼儿园,山东省,济南市,市中区,济南市市中区,,1,0,116.9272,36.621224,,education,http://api.map.baidu.com/place/detail?uid=22467cab340697440c0a70cf&output=html&source=placeapi_v2,,,,,,,,,,,,,,,,,,,,0
f9a8a1682931eb451e1d11db,尚格顿幼儿园,教育培训,幼儿园,山东省,济南市,市中区,济南市市中区白马山南路井家沟村,f9a8a1682931eb451e1d11db,1,0,116.948056,36.622015,13256442560,education,http://api.map.baidu.com/place/detail?uid=f9a8a1682931eb451e1d11db&output=html&source=placeapi_v2,,,,,,,,,,,,,,,,,,,,0
a9c4b510f87535c52cb908ec,济南市槐荫区世纪中华城社区中心幼儿园,教育培训,幼儿园,山东省,济南市,槐荫区,济南市槐荫区,a9c4b510f87535c52cb908ec,1,0,116.919516,36.634911,,education,http://api.map.baidu.com/place/detail?uid=a9c4b510f87535c52cb908ec&output=html&source=placeapi_v2,,,,,,,,,,,,,,,,,,,,0
dfc496b6d59326ae8836eeab,龙兴幼儿园,教育培训,幼儿园,山东省,济南市,槐荫区,山东省济南市槐荫区郎茂山路29号卧龙花园2区,dfc496b6d59326ae8836eeab,1,0,116.982379,36.634295,(0531)82986388,education,http://api.map.baidu.com/place/detail?uid=dfc496b6d59326ae8836eeab&output=html&source=placeapi_v2,,,0,,,,,,,,0,,,,,,,116.9827242398,36.634235799035,0
606289fd40bae44ea3046485,博雅幼儿园(青龙山北路),教育培训,幼儿园,山东省,济南市,槐荫区,山东省济南市槐荫区刘长山路30号,606289fd40bae44ea3046485,1,0,116.981083,36.636942,(0531)87116622,education,http://api.map.baidu.com/place/detail?uid=606289fd40bae44ea3046485&output=html&source=placeapi_v2,,,0.0,,,,,,,,1,,,,,,,116.9806497748,36.636722736168,0
b01086de7e87fe3908ccdd4d,绿沅幼稚园,教育培训,幼儿园,山东省,济南市,槐荫区,山东省济南市槐荫区天沅大道30-1号,b01086de7e87fe3908ccdd4d,1,0,116.984656,36.635449,(0531)87038777,education,http://api.map.baidu.com/place/detail?uid=b01086de7e87fe3908ccdd4d&output=html&source=placeapi_v2,,,5,,,,,,,,1,,,,,,,116.98505995181,36.635462819708,0
251374c997c2f93ea01de9ab,尖尖角幼儿园(青龙山北路),教育培训,幼儿园,山东省,济南市,市中区,山东省济南市市中区青龙山北路12号,251374c997c2f93ea01de9ab,1,0,116.977069,36.637495,(0531)87154972,education,http://api.map.baidu.com/place/detail?uid=251374c997c2f93ea01de9ab&output=html&source=placeapi_v2,,,0,,,,,,,,2,,,,,,,116.97714343867,36.637158414909,0
40a6647a196115a1d1f49ede,世纪阳光幼儿园(青龙山北路),教育培训,幼儿园,山东省,济南市,市中区,山东省济南市市中区青龙山北路18-2号王官庄小区四区26号楼,40a6647a196115a1d1f49ede,1,0,116.971563,36.635997,(0531)87102857,education,http://api.map.baidu.com/place/detail?uid=40a6647a196115a1d1f49ede&output=html&source=placeapi_v2,,,0.0,,,,,,,,,,,,,,,116.97140405787,36.635992514953,0
b4bbde12978f8812ad31e513,星岛幼儿园,教育培训,幼儿园,山东省,济南市,槐荫区,山东省济南市槐荫区西十里河东街道103号阳光100号,b4bbde12978f8812ad31e513,1,0,116.979042,36.642081,(0531)67812066,education,http://api.map.baidu.com/place/detail?uid=b4bbde12978f8812ad31e513&output=html&source=placeapi_v2,,,0,,,,,,,,0,,,,,,,116.97928226007,36.642000964914,0
15ed53ce206945559322e0ab,济南市育贤第二幼儿园,教育培训,幼儿园,山东省,济南市,市中区,山东省济南市市中区南辛庄西路王官庄小区七区13号楼5单元,15ed53ce206945559322e0ab,1,0,116.968497,36.633947,(0531)87963410,education,http://api.map.baidu.com/place/detail?uid=15ed53ce206945559322e0ab&output=html&source=placeapi_v2,,,0,,,,,,,,2,,,,,,,116.96807297665,36.633974962143,0
f6210675951f6fedc9c3db6c,雅思贝尔幼儿园,教育培训,幼儿园,山东省,济南市,槐荫区,济南市槐荫区阳光100G区,f6210675951f6fedc9c3db6c,1,0,116.982584,36.642026,(0531)66625558,education,http://api.map.baidu.com/place/detail?uid=f6210675951f6fedc9c3db6c&output=html&source=placeapi_v2,,,5,,,,,,,,4,,,,,,,116.98248486923,36.642200709898,0
f8f7d81b1a45f85c0aa8d426,济南市市中区王冠幼儿园,教育培训,幼儿园,山东省,济南市,市中区,山东省济南市市中区青龙山北路28号,f8f7d81b1a45f85c0aa8d426,1,0,116.969805,36.634953,,education,http://api.map.baidu.com/place/detail?uid=f8f7d81b1a45f85c0aa8d426&output=html&source=placeapi_v2,,,,,,,,,,,,,,,,,,116.96992379412,36.635183010065,0
e48190b02228fb722fb908e9,海珀幼儿园,教育培训,幼儿园,山东省,济南市,市中区,济南市市中区郎茂山路,,1,0,116.985359,36.628623,,education,http://api.map.baidu.com/place/detail?uid=e48190b02228fb722fb908e9&output=html&source=placeapi_v2,,,,,,,,,,,,,,,,,,116.98555728608,36.628646223383,0
99efed268b52a127f8f0cb22,爱弥儿现代幼儿园(阳光100校区),教育培训,幼儿园,山东省,济南市,槐荫区,山东省济南市槐荫区阳光100小区G12-101东南方向130米,99efed268b52a127f8f0cb22,1,0,116.980852,36.641177,13210588827,education,http://api.map.baidu.com/place/detail?uid=99efed268b52a127f8f0cb22&output=html&source=placeapi_v2,,,0,,,,,,,,2,,,,,,,116.98066713269,36.640977792796,0
c7e519442a08e00ac1f1cfdb,洲阳幼儿园,教育培训,幼儿园,山东省,济南市,槐荫区,山东省济南市槐荫区阳光新路21-2号,c7e519442a08e00ac1f1cfdb,1,0,116.985087,36.639702,(0531)88062229,education,http://api.map.baidu.com/place/detail?uid=c7e519442a08e00ac1f1cfdb&output=html&source=placeapi_v2,,,3.7,,,,,,,,3,,,,,,,116.98425415829,36.640145019129,0
62e96cef3022094199005039,北京大风车双语幼儿园世纪佳园园(世纪佳园),教育培训,幼儿园,山东省,济南市,市中区,山东济南市市中区建设路93号,62e96cef3022094199005039,1,0,116.990427,36.639961,13255685001,education,http://api.map.baidu.com/place/detail?uid=62e96cef3022094199005039&output=html&source=placeapi_v2,,,0,,,,,,,,1,,,,,,,116.9899654392,36.639644766901,0
3962c73dfae400a15fbe8606,天琪幼儿园,教育培训,幼儿园,山东省,济南市,市中区,山东省济南市市中区郎茂山路18号,3962c73dfae400a15fbe8606,1,0,116.988163,36.627491,15963125200,education,http://api.map.baidu.com/place/detail?uid=3962c73dfae400a15fbe8606&output=html&source=placeapi_v2,,,0,,,,,,,,1,,,,,,,116.98784737314,36.627384398981,0
2bf9c43119a9e1b73062129a,春蕾幼儿园,教育培训,幼儿园,山东省,济南市,市中区,济南市市中区后龙窝庄178号,2bf9c43119a9e1b73062129a,1,0,116.961232,36.625661,"13573120656,18764015286",education,http://api.map.baidu.com/place/detail?uid=2bf9c43119a9e1b73062129a&output=html&source=placeapi_v2,,,0,,,,,,,,2,,,,,,,116.96122557822,36.625508190092,0
796b39786ac54c60df1e52cf,童贝尔安泰诚品幼稚园,教育培训,幼儿园,山东省,济南市,市中区,山东省济南市市中区西十里河街68号,796b39786ac54c60df1e52cf,1,0,116.970422,36.642144,15665732228,education,http://api.map.baidu.com/place/detail?uid=796b39786ac54c60df1e52cf&output=html&source=placeapi_v2,0.0,,5.0,,,,,,,,3,,,,,,,116.97028848729,36.642131522918,0
f60a15edcdf7beedba17e7ab,济南市育贤第一幼儿园,教育培训,幼儿园,山东省,济南市,市中区,山东省济南市市中区白马山南路王官庄小区九区2号,f60a15edcdf7beedba17e7ab,1,0,116.96489,36.63664,(0531)87168898,education,http://api.map.baidu.com/place/detail?uid=f60a15edcdf7beedba17e7ab&output=html&source=placeapi_v2,,,0,,,,,,,,2,,,,,,,116.96457171594,36.636637466742,0
3a2bd2f876fc73803010af42,济南市市中区育晖幼儿园,教育培训,幼儿园,山东省,济南市,市中区,山东省济南市市中区七里山西路郎茂山小区二区3号,3a2bd2f876fc73803010af42,1,0,116.99762,36.628442,(0531)82970733,education,http://api.map.baidu.com/place/detail?uid=3a2bd2f876fc73803010af42&output=html&source=placeapi_v2,,,0.0,,,,,,,,,,,,,,,116.99791526509,36.628285125447,0
61a6a250c41caad55d17c38d,明珠幼儿园,教育培训,幼儿园,山东省,济南市,市中区,山东省济南市市中区建设路2号,61a6a250c41caad55d17c38d,1,0,116.996322,36.632861,(0531)82981196,education,http://api.map.baidu.com/place/detail?uid=61a6a250c41caad55d17c38d&output=html&source=placeapi_v2,,,0,,,,,,,,1,,,,,,,116.99615155362,36.632978195449,0
07993c460ed18d23b5f42fb6,宏瑞星城幼儿园,教育培训,幼儿园,山东省,济南市,市中区,山东省济南市市中区白马山南路2号南区30号楼,07993c460ed18d23b5f42fb6,1,0,116.959114,36.629336,(0531)87971112,education,http://api.map.baidu.com/place/detail?uid=07993c460ed18d23b5f42fb6&output=html&source=placeapi_v2,,,0.0,,,,,,,,0,,,,,,,116.95881497448,36.629246670163,0
07ac634bee508fad2fb90820,雅思贝尔幼儿园-阳光100示范园,教育培训,幼儿园,山东省,济南市,槐荫区,济南市槐荫区阳光100G区雅思贝尔幼儿园,07ac634bee508fad2fb90820,1,0,116.982459,36.642037,(0531)66625558,education,http://api.map.baidu.com/place/detail?uid=07ac634bee508fad2fb90820&output=html&source=placeapi_v2,,,0.0,,,,,,,,,,,,,,,,,0
50fb64ff66299220e9f853d7,小海豚幼儿园,教育培训,幼儿园,山东省,济南市,槐荫区,山东省济南市槐荫区建设路85号三箭如意苑b2地块,50fb64ff66299220e9f853d7,1,0,116.991855,36.644539,(0531)82762345,education,http://api.map.baidu.com/place/detail?uid=50fb64ff66299220e9f853d7&output=html&source=placeapi_v2,,,0,,,,,,,,3,,,,,,,116.99212685029,36.644522305335,0
a627aded6c0454d629fc48a1,洲阳幼儿园国际部,教育培训,幼儿园,山东省,济南市,槐荫区,山东省济南市槐荫区刘长山路阳光100小学西南侧约40米,a627aded6c0454d629fc48a1,1,0,116.985132,36.63989,(0531)88062229,education,http://api.map.baidu.com/place/detail?uid=a627aded6c0454d629fc48a1&output=html&source=placeapi_v2,,,,,,,,,,,,,,,,,,,,0
fddc80a19b47607bc9291550,济南市梵贝幼儿园,教育培训,幼儿园,山东省,济南市,市中区,山东省济南市市中区王官庄北街17-1号,fddc80a19b47607bc9291550,1,0,116.969171,36.641101,(0531)87129878,education,http://api.map.baidu.com/place/detail?uid=fddc80a19b47607bc9291550&output=html&source=placeapi_v2,,,5,,,,,,,,5,,,,,,,116.96918200037,36.641086912195,0
337a9d30d0e479b7ab059d78,前程幼儿园(白马山南路店),教育培训,幼儿园,山东省,济南市,市中区,山东省济南市市中区白马山南路3号,337a9d30d0e479b7ab059d78,1,0,116.96382,36.634424,15853137031,education,http://api.map.baidu.com/place/detail?uid=337a9d30d0e479b7ab059d78&output=html&source=placeapi_v2,,,0,,,,,,,,1,,,,,,,116.96386734021,36.634293716516,0
0109584d41ec75c7f13cbabd,智慧星幼儿园,教育培训,幼儿园,山东省,济南市,市中区,山东省济南市市中区郎茂山路425号,0109584d41ec75c7f13cbabd,1,0,116.991057,36.622456,,education,http://api.map.baidu.com/place/detail?uid=0109584d41ec75c7f13cbabd&output=html&source=placeapi_v2,,,5.0,,,,,,,,,,,,,,,116.99075891874,36.622432192008,0
c879fa01440e624bc809f0ab,前卫小太阳幼儿园,教育培训,幼儿园,山东省,济南市,槐荫区,山东省济南市槐荫区刘长山路5号,c879fa01440e624bc809f0ab,1,0,116.992069,36.642339,(0531)82701826,education,http://api.map.baidu.com/place/detail?uid=c879fa01440e624bc809f0ab&output=html&source=placeapi_v2,,,0,,,,,,,,2,,,,,,,116.99201617366,36.642081173412,0
6959a06d6a1e4ecfd7851fd2,济南市市中区翰英幼儿园,教育培训,幼儿园,山东省,济南市,市中区,山东省济南市市中区白马山南路15号,6959a06d6a1e4ecfd7851fd2,1,0,116.957719,36.631419,(0531)87159648,education,http://api.map.baidu.com/place/detail?uid=6959a06d6a1e4ecfd7851fd2&output=html&source=placeapi_v2,,,0,,,,,,,,2,,,,,,,116.95768441119,36.631553456559,0
badd86cbf74c4777f8dc854a,济南大学幼儿园,教育培训,幼儿园,山东省,济南市,市中区,济南市市中区南辛庄西路与致远路交叉路口往东约80米,,1,0,116.96467,36.620761,,education,http://api.map.baidu.com/place/detail?uid=badd86cbf74c4777f8dc854a&output=html&source=placeapi_v2,,,,,,,,,,,,,,,,,,116.9646975371,36.62084969582,0
06d2dffd5e0e87f788f15d54,济南试金集团幼儿园,教育培训,幼儿园,山东省,济南市,槐荫区,山东省济南市槐荫区南辛庄西路166号,06d2dffd5e0e87f788f15d54,1,0,116.967911,36.643507,,education,http://api.map.baidu.com/place/detail?uid=06d2dffd5e0e87f788f15d54&output=html&source=placeapi_v2,,,5,,,,,,,,4,,,,,,,116.96786526955,36.643225449561,0
4014dd50612df1fd3b221cf3,如意苑幼儿园,教育培训,幼儿园,山东省,济南市,槐荫区,山东省济南市槐荫区建设路85号23号楼,4014dd50612df1fd3b221cf3,1,0,116.99186,36.644393,(0531)86997498,education,http://api.map.baidu.com/place/detail?uid=4014dd50612df1fd3b221cf3&output=html&source=placeapi_v2,,,,,,,,,,,,,,,,,,116.99214319496,36.644407749811,0
cca2eb90d51382c20ab93aac,外院传达,教育培训,幼儿园,山东省,济南市,槐荫区,刘长山路5号,cca2eb90d51382c20ab93aac,1,0,116.992067,36.642301,,education,http://api.map.baidu.com/place/detail?uid=cca2eb90d51382c20ab93aac&output=html&source=placeapi_v2,,,,,,,,,,,,,,,,,,,,0
51e2eaea3e9f60a26cc02c06,济南市康复幼儿园,教育培训,幼儿园,山东省,济南市,市中区,山东省济南市市中区七里山西路26号北1区3楼,,1,0,117.000837,36.629001,,education,http://api.map.baidu.com/place/detail?uid=51e2eaea3e9f60a26cc02c06&output=html&source=placeapi_v2,,,,,,,,,,,,,,,,,,,,0
3db676640b55c6c0eddfca36,圣贤书幼儿园,教育培训,幼儿园,山东省,济南市,槐荫区,山东省济南市槐荫区南辛庄西路70-5号,3db676640b55c6c0eddfca36,1,0,116.968387,36.64731,17852819686,education,http://api.map.baidu.com/place/detail?uid=3db676640b55c6c0eddfca36&output=html&source=placeapi_v2,,,0,,,,,,,,0,,,,,,,116.96822827121,36.647208564544,0
635f4ed31d6729775cd4fe09,济南市市中区舜南幼儿园,教育培训,幼儿园,山东省,济南市,市中区,山东省济南市市中区舜玉路南区15号楼,635f4ed31d6729775cd4fe09,1,0,117.020961,36.631171,(0531)82076188,education,http://api.map.baidu.com/place/detail?uid=635f4ed31d6729775cd4fe09&output=html&source=placeapi_v2,,,1.5,,,,,,,,2,,,,,,,117.02092865212,36.631090432503,0
87248d96156256b22906cea6,济南市市中区舜北幼儿园,教育培训,幼儿园,山东省,济南市,市中区,山东省济南市市中区舜玉北路舜玉北区14号,87248d96156256b22906cea6,1,0,117.020576,36.635113,(0531)82987254,education,http://api.map.baidu.com/place/detail?uid=87248d96156256b22906cea6&output=html&source=placeapi_v2,,,5,,,,,,,,7,,,,,,,117.02080981709,36.634859134335,0
035ccaf60357b5a333169b64,金色童年幼教集团伟东分园,教育培训,幼儿园,山东省,济南市,市中区,山东省济南市市中区八里洼路31号,035ccaf60357b5a333169b64,1,0,117.018757,36.627239,(0531)67818961,education,http://api.map.baidu.com/place/detail?uid=035ccaf60357b5a333169b64&output=html&source=placeapi_v2,,,0.0,,,,,,,,,,,,,,,117.01840909112,36.62735544237,0
596740c2308988a2b320a8d4,爱贝幼儿园,教育培训,幼儿园,山东省,济南市,市中区,山东省济南市市中区舜玉小区南区102-2号,596740c2308988a2b320a8d4,1,0,117.019541,36.629114,13698633563,education,http://api.map.baidu.com/place/detail?uid=596740c2308988a2b320a8d4&output=html&source=placeapi_v2,,,,,,,,,,,,,,,,,,,,0
d5f93c0e24fb6d5decdfcaa6,山东财经大学-幼儿园,教育培训,幼儿园,山东省,济南市,市中区,山东省济南市市中区金源北路38号,d5f93c0e24fb6d5decdfcaa6,1,0,117.028635,36.634017,(0531)82911548,education,http://api.map.baidu.com/place/detail?uid=d5f93c0e24fb6d5decdfcaa6&output=html&source=placeapi_v2,,,0.0,,,,,,,,,,,,,,,117.02840626307,36.633962153486,0
