uid,name,cat_L1,cat_L2,province,city,area,address,street_id,detail,child_num,loc_lng,loc_lat,telephone,type,detail_url,price,shop_hours,overall_rating,taste_rating,service_rating,environment_rating,facility_rating,hygiene_rating,technology_rating,image_num,comment_num,groupon_num,discount_num,favorite_num,checkin_num,brand,content_tag,naviloc_lng,naviloc_lat,child_num
96b672aad2a6c608ce04ef2a,越海陶瓷,购物,家居建材,浙江省,宁波市,奉化区,浙江省宁波市奉化区村西路76号,96b672aad2a6c608ce04ef2a,1,0,121.465802,29.533047,(0574)88766666,shopping,http://api.map.baidu.com/place/detail?uid=96b672aad2a6c608ce04ef2a&output=html&source=placeapi_v2,,,,,,,,,,,,,,,,,,,,0
2e00c5dd8dba511dd7851f32,尧舜家纺,购物,家居建材,浙江省,宁波市,奉化区,浙江省宁波市奉化区同山村石头堤8号,,1,0,121.515606,29.562408,,shopping,http://api.map.baidu.com/place/detail?uid=2e00c5dd8dba511dd7851f32&output=html&source=placeapi_v2,,,0.0,,,,,,,,,,,,,,,121.51504392538,29.562568188089,0
191edf6b9b675848afee7a0c,溪口家具展厅,购物,家居建材,浙江省,宁波市,奉化区,宁波市奉化区S309溪口镇跸驻中心幼儿园东侧约180米,191edf6b9b675848afee7a0c,1,0,121.194833,29.595592,15968412348,shopping,http://api.map.baidu.com/place/detail?uid=191edf6b9b675848afee7a0c&output=html&source=placeapi_v2,,,,,,,,,,,,,,,,,,,,0
7fc863752d54541e57bfff34,奔发不锈钢管,购物,家居建材,浙江省,宁波市,奉化区,浙江省宁波市奉化区S214,7fc863752d54541e57bfff34,1,1,121.427441,29.604688,(0574)88636878,shopping,http://api.map.baidu.com/place/detail?uid=7fc863752d54541e57bfff34&output=html&source=placeapi_v2,,,,,,,,,,,,,,,,,,121.4275606548,29.604623951696,1
55fa2c0bf34e6b501ce99911,恒泰家具(桐蕉司工业园区店),购物,家居建材,浙江省,宁波市,奉化区,浙江省宁波市奉化区经二路莼湖镇翁岙村村民委员会,,1,0,121.53033,29.607388,,shopping,http://api.map.baidu.com/place/detail?uid=55fa2c0bf34e6b501ce99911&output=html&source=placeapi_v2,,07:30-20:30,0.0,,,,,,,,,,,,,,,121.53028816988,29.607160561551,0
9f8933b32be70f6ded74f8ab,奉化普迪工具,购物,家居建材,浙江省,宁波市,奉化区,浙江省宁波市奉化区莼白路92号,,1,0,121.529135,29.599298,,shopping,http://api.map.baidu.com/place/detail?uid=9f8933b32be70f6ded74f8ab&output=html&source=placeapi_v2,,,,,,,,,,,,,,,,,,,,0
f89f29cd12a182fea8175a69,依家灯饰,购物,家居建材,浙江省,宁波市,象山县,宁波市象山县泰和路贤庠中心卫生院西侧约60米,,1,0,121.860511,29.599041,18658287628,shopping,http://api.map.baidu.com/place/detail?uid=f89f29cd12a182fea8175a69&output=html&source=placeapi_v2,,06:15-19:15,0,,,,,,,,1,,,,,,,,,0
0af93259adfa62e8f942b29d,金艳床上用品,购物,家居建材,浙江省,宁波市,奉化区,宁波市奉化区十脚路尚田集贸市场,,1,0,121.419549,29.625691,13362862783,shopping,http://api.map.baidu.com/place/detail?uid=0af93259adfa62e8f942b29d&output=html&source=placeapi_v2,,,,,,,,,,,,,,,,,,,,0
5dbdf0c1a05e58e2c61b7590,雅屋窗帘布艺店,购物,家居建材,浙江省,宁波市,奉化区,浙江省宁波市奉化区镇西路12-2号,,1,0,121.416193,29.628494,"(0574)88637356,(0574)88637365",shopping,http://api.map.baidu.com/place/detail?uid=5dbdf0c1a05e58e2c61b7590&output=html&source=placeapi_v2,,08:00-20:00,,,,,,,,,,,,,,,,,,0
3631fbce7191d61c88db73e7,贝贝家私(镇西路店),购物,家居建材,浙江省,宁波市,奉化区,浙江省宁波市奉化区镇西路43号,,1,0,121.412651,29.623218,"13185927777,13805833648",shopping,http://api.map.baidu.com/place/detail?uid=3631fbce7191d61c88db73e7&output=html&source=placeapi_v2,,08:00-21:00,5,,,,,,,,1,,,,,,,121.41253230815,29.623206522933,0
ee9fbe41c9d63ded3b04b1a5,家旺装潢,购物,家居建材,浙江省,宁波市,奉化区,浙江省宁波市奉化区镇西路10号82号,,1,0,121.412675,29.622678,15168539486,shopping,http://api.map.baidu.com/place/detail?uid=ee9fbe41c9d63ded3b04b1a5&output=html&source=placeapi_v2,,,,,,,,,,,,,,,,,,,,0
c6b1e6059f9e974443ab9a81,车床刨床锯床加工,购物,家居建材,浙江省,宁波市,奉化区,宁波市奉化区镇西路宁波市奉化区尚田街道中心幼儿园东北侧约40米,,1,0,121.413269,29.626317,18757485626,shopping,http://api.map.baidu.com/place/detail?uid=c6b1e6059f9e974443ab9a81&output=html&source=placeapi_v2,,,,,,,,,,,,,,,,,,121.4134212039,29.626247991149,0
5d010f8e8b8be9b0f423102a,伟大家私城,购物,家居建材,浙江省,宁波市,奉化区,浙江省宁波市奉化区银山路27号,,1,0,121.626861,29.609011,"(0574)88778329,13736052855",shopping,http://api.map.baidu.com/place/detail?uid=5d010f8e8b8be9b0f423102a&output=html&source=placeapi_v2,,,,,,,,,,,,,,,,,,121.62697589913,29.609031325719,0
0f712f9d3a39cedc283a9fb9,锦屏广南家私城,购物,家居建材,浙江省,宁波市,奉化区,浙江省宁波市奉化区南山路62号,0f712f9d3a39cedc283a9fb9,1,0,121.417819,29.662186,(0574)88586296,shopping,http://api.map.baidu.com/place/detail?uid=0f712f9d3a39cedc283a9fb9&output=html&source=placeapi_v2,,,0,,,,,,,,1,,,,,,,,,0
ade598261ca3ce830869d955,梦家美布艺,购物,家居建材,浙江省,宁波市,奉化区,浙江省宁波市奉化区广平路39-4号,ade598261ca3ce830869d955,1,0,121.419869,29.662053,18606601404,shopping,http://api.map.baidu.com/place/detail?uid=ade598261ca3ce830869d955&output=html&source=placeapi_v2,,08:00-23:00,5,,,,,,,,1,,,,,,,121.4197908646,29.66207481707,0
77dc619e9c244bc44d2fdf06,广南窗帘地毯墙纸,购物,家居建材,浙江省,宁波市,奉化区,浙江省宁波市奉化区南山路60-21号广南商城1弄1幢,77dc619e9c244bc44d2fdf06,1,0,121.417749,29.661725,"13185913568,13736053205",shopping,http://api.map.baidu.com/place/detail?uid=77dc619e9c244bc44d2fdf06&output=html&source=placeapi_v2,,,,,,,,,,,,,,,,,,121.41775549835,29.661762054311,0
1f1c7386d05d45edf90cad38,布居艺阁(广平路店),购物,家居建材,浙江省,宁波市,奉化区,浙江省宁波市奉化区大成路1599号南海锦地3楼c37号,1f1c7386d05d45edf90cad38,1,0,121.420595,29.665186,,shopping,http://api.map.baidu.com/place/detail?uid=1f1c7386d05d45edf90cad38&output=html&source=placeapi_v2,,08:30-21:30,,,,,,,,,,,,,,,,,,0
0a4de278fdc578c5da2f2809,其国螺丝店,购物,家居建材,浙江省,宁波市,奉化区,浙江宁波市奉化区新丰路10-15号,0a4de278fdc578c5da2f2809,1,0,121.424462,29.660395,13566575023,shopping,http://api.map.baidu.com/place/detail?uid=0a4de278fdc578c5da2f2809&output=html&source=placeapi_v2,,,,,,,,,,,,,,,,,,,,0
e2c1ddf3180364f6e5e965d0,新丰防水材料总汇(新丰路店),购物,家居建材,浙江省,宁波市,奉化区,浙江省宁波市奉化区新丰路26号,e2c1ddf3180364f6e5e965d0,1,0,121.428077,29.661747,13605784891,shopping,http://api.map.baidu.com/place/detail?uid=e2c1ddf3180364f6e5e965d0&output=html&source=placeapi_v2,,,0,,,,,,,,1,,,,,,,121.42851168276,29.661858369865,0
550fd5f953bebf78931fc930,水星家纺(桥西岸路店),购物,家居建材,浙江省,宁波市,奉化区,浙江省宁波市奉化区桥西岸路132号,550fd5f953bebf78931fc930,1,0,121.423312,29.665038,(0574)88570098,shopping,http://api.map.baidu.com/place/detail?uid=550fd5f953bebf78931fc930&output=html&source=placeapi_v2,,08:00-21:00,0,,,,,,,,1,,,,,,,121.42341047166,29.66501734444,0
3ce0343648a3d81635b06c4f,杭州天堂伞业集团奉化总经销(奉化总经销),购物,家居建材,浙江省,宁波市,奉化区,浙江省宁波市奉化区广平路129号,3ce0343648a3d81635b06c4f,1,0,121.421067,29.666797,18957855518,shopping,http://api.map.baidu.com/place/detail?uid=3ce0343648a3d81635b06c4f&output=html&source=placeapi_v2,,,5,,,,,,,,2,,,,,,,121.42090097707,29.666774746144,0
3a0a78bdc55b638763180933,维科家纺(奉化旗舰店),购物,家居建材,浙江省,宁波市,奉化区,浙江省宁波市奉化区桥西岸路188号,3a0a78bdc55b638763180933,1,0,121.422763,29.666414,(0574)88522228,shopping,http://api.map.baidu.com/place/detail?uid=3a0a78bdc55b638763180933&output=html&source=placeapi_v2,0.0,08:00-21:00,0,,,,,,,,1,,,,,,,,,0
2e130ab873d7bf01bbbd63ae,宁波市奉化九加九机电(浙江万福泵业特约经销点),购物,家居建材,浙江省,宁波市,奉化区,浙江省宁波市奉化区新丰路41号,2e130ab873d7bf01bbbd63ae,1,0,121.426085,29.661354,"13216833900,13777054168",shopping,http://api.map.baidu.com/place/detail?uid=2e130ab873d7bf01bbbd63ae&output=html&source=placeapi_v2,,,,,,,,,,,,,,,,,,121.42616741349,29.661195946139,0
d2d257c21ea6a0fb2dfaa78f,蓝天窗帘(惠政西路店),购物,家居建材,浙江省,宁波市,奉化区,浙江省宁波市奉化区惠政西路5-3号,d2d257c21ea6a0fb2dfaa78f,1,0,121.422368,29.663859,,shopping,http://api.map.baidu.com/place/detail?uid=d2d257c21ea6a0fb2dfaa78f&output=html&source=placeapi_v2,,,0.0,,,,,,,,1,,,,,,,,,0
0ed20a15c04e13ea57bfff3e,红达窗帘墙纸软包批发零售,购物,家居建材,浙江省,宁波市,奉化区,浙江省宁波市奉化区惠政东路37~39号,0ed20a15c04e13ea57bfff3e,1,0,121.42574,29.662205,,shopping,http://api.map.baidu.com/place/detail?uid=0ed20a15c04e13ea57bfff3e&output=html&source=placeapi_v2,,,0,,,,,,,,1,,,,,,,121.42592827199,29.662332624378,0
574920b894e84896a5da39dc,圣夫岛家纺(奉化店),购物,家居建材,浙江省,宁波市,奉化区,浙江省宁波市奉化区桥西岸路162号,574920b894e84896a5da39dc,1,0,121.423107,29.665836,18957477615,shopping,http://api.map.baidu.com/place/detail?uid=574920b894e84896a5da39dc&output=html&source=placeapi_v2,,08:00-21:00,0.0,,,,,,,,1,,,,,,,,,0
73528d405aa259577369d333,紫罗兰家纺(桥西岸路店),购物,家居建材,浙江省,宁波市,奉化区,浙江省宁波市奉化区桥西岸路145号,73528d405aa259577369d333,1,0,121.423307,29.665379,,shopping,http://api.map.baidu.com/place/detail?uid=73528d405aa259577369d333&output=html&source=placeapi_v2,,,0.0,,,,,,,,1,,,,,,,,,0
6face57ef50a4522f8f0cb17,岳林建材经营部,购物,家居建材,浙江省,宁波市,奉化区,浙江省宁波市奉化区岳林东路56-2号,6face57ef50a4522f8f0cb17,1,0,121.430017,29.66761,(0574)66637073,shopping,http://api.map.baidu.com/place/detail?uid=6face57ef50a4522f8f0cb17&output=html&source=placeapi_v2,,08:00-18:30,,,,,,,,,,,,,,,,121.43011027131,29.667724100953,0
b76f599e8b38cd24d518b72f,正泰电器(奉化直销店),购物,家居建材,浙江省,宁波市,奉化区,浙江省宁波市奉化区南山路9-4号,b76f599e8b38cd24d518b72f,1,0,121.425806,29.661253,(0574)88964077,shopping,http://api.map.baidu.com/place/detail?uid=b76f599e8b38cd24d518b72f&output=html&source=placeapi_v2,,07:30-17:30,0,,,,,,,,0,,,,,,,121.42589052429,29.661086908504,0
e1c76c4a34839968d8eceda3,奉化盛隆物资经营部,购物,家居建材,浙江省,宁波市,奉化区,浙江省宁波市奉化区新丰路2-1-1号,e1c76c4a34839968d8eceda3,1,0,121.423051,29.658967,"(0574)88921326,(0574)88921327",shopping,http://api.map.baidu.com/place/detail?uid=e1c76c4a34839968d8eceda3&output=html&source=placeapi_v2,,,,,,,,,,,,,,,,,,121.42291205404,29.659056785655,0
b7f2e956f1c63287ae31e52f,阿斌机电,购物,家居建材,浙江省,宁波市,奉化区,浙江省宁波市奉化区新丰路8-3号,b7f2e956f1c63287ae31e52f,1,0,121.423074,29.659024,13429317879,shopping,http://api.map.baidu.com/place/detail?uid=b7f2e956f1c63287ae31e52f&output=html&source=placeapi_v2,,,,,,,,,,,,,,,,,,121.42295154804,29.659103187414,0
e5b02a425590652a4351c05c,申恒高端品牌专业工具,购物,家居建材,浙江省,宁波市,奉化区,新丰路10-1幢3号附近,e5b02a425590652a4351c05c,1,0,121.423952,29.660114,"(0574)88596096,13858239956",shopping,http://api.map.baidu.com/place/detail?uid=e5b02a425590652a4351c05c&output=html&source=placeapi_v2,,,,,,,,,,,,,,,,,,,,0
a3f21eee5dd5fe392fb17e08,阳光布艺(惠政东路店),购物,家居建材,浙江省,宁波市,奉化区,浙江省宁波市奉化区惠政东路55~57号,a3f21eee5dd5fe392fb17e08,1,0,121.42552,29.662458,(0574)88915661,shopping,http://api.map.baidu.com/place/detail?uid=a3f21eee5dd5fe392fb17e08&output=html&source=placeapi_v2,,08:00-21:30,0,,,,,,,,2,,,,,,,121.42569955443,29.662582744805,0
e39e32121d2b590ce115f9c3,永亮不锈钢(金沙路店),购物,家居建材,浙江省,宁波市,奉化区,宁波市奉化区南山路2号楼,e39e32121d2b590ce115f9c3,1,0,121.423764,29.656831,,shopping,http://api.map.baidu.com/place/detail?uid=e39e32121d2b590ce115f9c3&output=html&source=placeapi_v2,,,,,,,,,,,,,,,,,,,,0
b2ee37efcd5f0a80283a9f1e,丽华家纺(东门路店),购物,家居建材,浙江省,宁波市,奉化区,浙江省宁波市奉化区东门路273~275号,b2ee37efcd5f0a80283a9f1e,1,0,121.410864,29.660163,18505888600,shopping,http://api.map.baidu.com/place/detail?uid=b2ee37efcd5f0a80283a9f1e&output=html&source=placeapi_v2,0.0,08:00-20:00,0,,,,,,,,1,,,,,,,,,0
365490254988bf8a5a3ac874,捷成机电,购物,家居建材,浙江省,宁波市,奉化区,浙江省宁波市奉化区新丰路19-2号,365490254988bf8a5a3ac874,1,0,121.424713,29.660847,"(0574)88902078,13056863166",shopping,http://api.map.baidu.com/place/detail?uid=365490254988bf8a5a3ac874&output=html&source=placeapi_v2,,07:00-17:30,0.0,,,,,,,,,,,,,,,121.42482922395,29.660645566437,0
617a55c3ed5ae00982288aa0,腾锋气动元件,购物,家居建材,浙江省,宁波市,奉化区,浙江省宁波市奉化区新丰路38号,617a55c3ed5ae00982288aa0,1,0,121.429121,29.662187,"(0574)88741609,13586624700",shopping,http://api.map.baidu.com/place/detail?uid=617a55c3ed5ae00982288aa0&output=html&source=placeapi_v2,,,,,,,,,,,,,,,,,,121.4290631543,29.662283355683,0
ac42d35903f4daa9364aaeec,栋晴厨具设备总汇(分店),购物,家居建材,浙江省,宁波市,奉化区,浙江省宁波市奉化区前方路144号,ac42d35903f4daa9364aaeec,1,0,121.433488,29.661622,"13626823299,13858237380",shopping,http://api.map.baidu.com/place/detail?uid=ac42d35903f4daa9364aaeec&output=html&source=placeapi_v2,,,,,,,,,,,,,,,,,,121.43352309923,29.661747812224,0
bb67fe793e4f0977343a714e,日兴管道,购物,家居建材,浙江省,宁波市,奉化区,浙江省宁波市奉化区中山路175号,bb67fe793e4f0977343a714e,1,0,121.411456,29.671958,,shopping,http://api.map.baidu.com/place/detail?uid=bb67fe793e4f0977343a714e&output=html&source=placeapi_v2,,06:00-20:30,,,,,,,,,,,,,,,,121.41154202873,29.67206976408,0
e6ee2fd2631b69352b11d12f,三鑫家具城(前方路店),购物,家居建材,浙江省,宁波市,奉化区,浙江省宁波市奉化区前方路150号2楼,e6ee2fd2631b69352b11d12f,1,0,121.433714,29.661607,15257851571,shopping,http://api.map.baidu.com/place/detail?uid=e6ee2fd2631b69352b11d12f&output=html&source=placeapi_v2,,10:00-21:00,0,,,,,,,,1,,,,,,,121.43374049096,29.661701458539,0
d88825297efe78d1f7b916e9,锦琳卫浴商行,购物,家居建材,浙江省,宁波市,奉化区,浙江省宁波市奉化区新丰路135-5号,d88825297efe78d1f7b916e9,1,0,121.431297,29.66361,(0574)88932828,shopping,http://api.map.baidu.com/place/detail?uid=d88825297efe78d1f7b916e9&output=html&source=placeapi_v2,,,,,,,,,,,,,,,,,,121.43138102057,29.663488284256,0
ce31cd8f782296c7ab175aca,江鑫液压管件,购物,家居建材,浙江省,宁波市,奉化区,浙江省宁波市奉化区南山路2-11号,ce31cd8f782296c7ab175aca,1,0,121.42393,29.656207,15957477037,shopping,http://api.map.baidu.com/place/detail?uid=ce31cd8f782296c7ab175aca&output=html&source=placeapi_v2,,,,,,,,,,,,,,,,,,121.42380056083,29.6561899132,0
63a493ebe8645b4352e5c5d6,大桥玻璃店,购物,家居建材,浙江省,宁波市,奉化区,浙江省宁波市奉化区新丰路48号,63a493ebe8645b4352e5c5d6,1,0,121.429209,29.662222,"(0574)66723507,15336620711",shopping,http://api.map.baidu.com/place/detail?uid=63a493ebe8645b4352e5c5d6&output=html&source=placeapi_v2,,,,,,,,,,,,,,,,,,121.42913967646,29.662318008351,0
5a8e3f2bd1c834db95f08cba,奉化岳林王波厨具电器门市部,购物,家居建材,浙江省,宁波市,奉化区,浙江省宁波市奉化区新丰路135-1号,5a8e3f2bd1c834db95f08cba,1,0,121.431554,29.663741,(0574)88910279,shopping,http://api.map.baidu.com/place/detail?uid=5a8e3f2bd1c834db95f08cba&output=html&source=placeapi_v2,,,,,,,,,,,,,,,,,,121.43163614562,29.663623290865,0
163415e933e7b52a78f7960d,正泰电器(南山路店),购物,家居建材,浙江省,宁波市,奉化区,浙江省宁波市奉化区南山路130-2号,163415e933e7b52a78f7960d,1,0,121.421254,29.668986,18606870607,shopping,http://api.map.baidu.com/place/detail?uid=163415e933e7b52a78f7960d&output=html&source=placeapi_v2,,09:00-19:00,,,,,,,,,,,,,,,,121.42125989594,29.668849651089,0
ac4795d1e50fe7f231870add,星辰灯饰,购物,家居建材,浙江省,宁波市,奉化区,浙江省宁波市奉化区大成路216-1号附近,ac4795d1e50fe7f231870add,1,0,121.417305,29.677699,13566329898,shopping,http://api.map.baidu.com/place/detail?uid=ac4795d1e50fe7f231870add&output=html&source=placeapi_v2,,08:00-20:00,,,,,,,,,,,,,,,,121.41729508084,29.677607715342,0
478fed5a56f1097516c90529,个性油漆超市,购物,家居建材,浙江省,宁波市,奉化区,宁波市奉化区广平路皇马假日酒店(广平路店)南侧,478fed5a56f1097516c90529,1,0,121.421003,29.672785,"(0574)88522685,13056850108",shopping,http://api.map.baidu.com/place/detail?uid=478fed5a56f1097516c90529&output=html&source=placeapi_v2,,,,,,,,,,,,,,,,,,121.42100683609,29.672815578081,0
ea3756535e0ea3efe6e96592,银凤布艺,购物,家居建材,浙江省,宁波市,奉化区,浙江省宁波市奉化区河头路51幢-6号,ea3756535e0ea3efe6e96592,1,0,121.40902,29.676403,(0574)88502001,shopping,http://api.map.baidu.com/place/detail?uid=ea3756535e0ea3efe6e96592&output=html&source=placeapi_v2,,,,,,,,,,,,,,,,,,121.4091092611,29.67642534093,0
f16090e5a37275ad6fa3cc6c,亚霞床品,购物,家居建材,浙江省,宁波市,奉化区,浙江省宁波市奉化区竹园路172号,f16090e5a37275ad6fa3cc6c,1,0,121.430132,29.666957,15057490462,shopping,http://api.map.baidu.com/place/detail?uid=f16090e5a37275ad6fa3cc6c&output=html&source=placeapi_v2,,,,,,,,,,,,,,,,,,121.43012725288,29.666896541324,0
11cd3b44d0457d00ad080f65,立邦(茗山路店),购物,家居建材,浙江省,宁波市,奉化区,浙江省宁波市奉化区大成路207-1号,11cd3b44d0457d00ad080f65,1,0,121.417088,29.677407,(0574)88527661,shopping,http://api.map.baidu.com/place/detail?uid=11cd3b44d0457d00ad080f65&output=html&source=placeapi_v2,,09:00-19:00,5,,,,,,,,1,,,,,,,121.41709811298,29.677507850712,0
c31992a3a91db9f45d0d020e,唯美布艺软装(清风路店),购物,家居建材,浙江省,宁波市,奉化区,浙江省宁波市奉化区大成路252号1幢2~3号,c31992a3a91db9f45d0d020e,1,0,121.410882,29.677881,"(0574)88533302,(0574)88583302",shopping,http://api.map.baidu.com/place/detail?uid=c31992a3a91db9f45d0d020e&output=html&source=placeapi_v2,,08:00-20:00,0,,,,,,,,2,,,,,,,,,0
e5fecfa3728d31a8220262e6,晋帛家纺(河头路店),购物,家居建材,浙江省,宁波市,奉化区,浙江省宁波市奉化区河头路52~56号,e5fecfa3728d31a8220262e6,1,0,121.409217,29.676901,15558306102,shopping,http://api.map.baidu.com/place/detail?uid=e5fecfa3728d31a8220262e6&output=html&source=placeapi_v2,,08:30-20:30,,,,,,,,,,,,,,,,121.4090594312,29.676867300892,0
9ed2bb1e9cd25361cae33cc6,忠信防水,购物,家居建材,浙江省,宁波市,奉化区,浙江省宁波市奉化区锦屏南路114号,9ed2bb1e9cd25361cae33cc6,1,0,121.413721,29.658144,13777267919,shopping,http://api.map.baidu.com/place/detail?uid=9ed2bb1e9cd25361cae33cc6&output=html&source=placeapi_v2,,,,,,,,,,,,,,,,,,,,0
60deea92f761fd67cc06a44d,祥贵布艺行,购物,家居建材,浙江省,宁波市,奉化区,浙江省宁波市奉化区竹园路146~148号,60deea92f761fd67cc06a44d,1,0,121.429362,29.666842,"(0574)66611258,15314529266",shopping,http://api.map.baidu.com/place/detail?uid=60deea92f761fd67cc06a44d&output=html&source=placeapi_v2,,07:30-21:00,0,,,,,,,,1,,,,,,,121.42936722802,29.666938936165,0
4cb13df5321aaaed6c3e1ba0,大成路水泥店批发零售手机脚手架出租,购物,家居建材,浙江省,宁波市,奉化区,宁波市奉化区大成路居敬小学北侧约40米,4cb13df5321aaaed6c3e1ba0,1,0,121.412003,29.677912,,shopping,http://api.map.baidu.com/place/detail?uid=4cb13df5321aaaed6c3e1ba0&output=html&source=placeapi_v2,,,,,,,,,,,,,,,,,,,,0
9eda8fbfb061eeef29fc4812,禄玖灯饰,购物,家居建材,浙江省,宁波市,奉化区,宁波市奉化区岳林东路奉化金水东庭小区西南侧约30米,9eda8fbfb061eeef29fc4812,1,0,121.433112,29.666,13857829119,shopping,http://api.map.baidu.com/place/detail?uid=9eda8fbfb061eeef29fc4812&output=html&source=placeapi_v2,,,,,,,,,,,,,,,,,,,,0
fcaf00a3b5fe34f23586f4fa,樱花专卖店(新丰路店),购物,家居建材,浙江省,宁波市,奉化区,浙江省宁波市奉化区新丰路129号,fcaf00a3b5fe34f23586f4fa,1,0,121.430996,29.663425,13136328909,shopping,http://api.map.baidu.com/place/detail?uid=fcaf00a3b5fe34f23586f4fa&output=html&source=placeapi_v2,,08:00-17:00,,,,,,,,,,,,,,,,121.43106734217,29.663322604714,0
a6fab7687f83d7c7c72ba1ee,眼镜铝合金海螺塑钢型材经销点,购物,家居建材,浙江省,宁波市,奉化区,浙江省宁波市奉化区岳林东路40号,a6fab7687f83d7c7c72ba1ee,1,0,121.429024,29.668217,(0574)28527505,shopping,http://api.map.baidu.com/place/detail?uid=a6fab7687f83d7c7c72ba1ee&output=html&source=placeapi_v2,,,5,,,,,,,,1,,,,,,,121.42911222424,29.668328458156,0
95164af2fc38bf0d626858e3,晶鑫装璜,购物,家居建材,浙江省,宁波市,奉化区,浙江省宁波市奉化区岳林东路46-3-4号,95164af2fc38bf0d626858e3,1,0,121.429247,29.668104,"13586651507,13968307489",shopping,http://api.map.baidu.com/place/detail?uid=95164af2fc38bf0d626858e3&output=html&source=placeapi_v2,,,,,,,,,,,,,,,,,,121.42932344282,29.668200419714,0
fb50722b3a922d83badf8f00,连邦橱柜,购物,家居建材,浙江省,宁波市,奉化区,浙江省宁波市奉化区大成路237-4号,fb50722b3a922d83badf8f00,1,0,121.413982,29.677531,"(0574)66770398,13082983476",shopping,http://api.map.baidu.com/place/detail?uid=fb50722b3a922d83badf8f00&output=html&source=placeapi_v2,,,,,,,,,,,,,,,,,,121.41398376414,29.677615086287,0
bc995b9677e8231580288a1b,馨乐窗帘(金晖路店),购物,家居建材,浙江省,宁波市,奉化区,浙江省宁波市奉化区金晖路48号,bc995b9677e8231580288a1b,1,0,121.437381,29.663747,15869590005,shopping,http://api.map.baidu.com/place/detail?uid=bc995b9677e8231580288a1b&output=html&source=placeapi_v2,,,,,,,,,,,,,,,,,,121.43739299397,29.663851438489,0
e2bad568a06d896ec7f0252d,温州祥力标准件,购物,家居建材,浙江省,宁波市,奉化区,浙江省宁波市奉化区新丰路72-6号,e2bad568a06d896ec7f0252d,1,0,121.433062,29.664248,13685822389,shopping,http://api.map.baidu.com/place/detail?uid=e2bad568a06d896ec7f0252d&output=html&source=placeapi_v2,,08:00-18:30,,,,,,,,,,,,,,,,,,0
7b049b7fc9e08a108f1a896e,卡贝卫浴晾衣架,购物,家居建材,浙江省,宁波市,奉化区,宁波市奉化区义门路奉化供销大厦,7b049b7fc9e08a108f1a896e,1,0,121.432569,29.66383,,shopping,http://api.map.baidu.com/place/detail?uid=7b049b7fc9e08a108f1a896e&output=html&source=placeapi_v2,,,,,,,,,,,,,,,,,,,,0
abb106486ea9ccdac91b957c,诚信门窗装璜部(岳林东路店),购物,家居建材,浙江省,宁波市,奉化区,浙江省宁波市奉化区岳林东路100号,abb106486ea9ccdac91b957c,1,0,121.432114,29.66647,13586626063,shopping,http://api.map.baidu.com/place/detail?uid=abb106486ea9ccdac91b957c&output=html&source=placeapi_v2,,,,,,,,,,,,,,,,,,121.43220098486,29.666607366019,0
465b8ad89d2f347672455b6b,美幽窗帘,购物,家居建材,浙江省,宁波市,奉化区,浙江省宁波市奉化区锦屏街道大成路265幢1号大成路与河头路岔口,465b8ad89d2f347672455b6b,1,0,121.408742,29.677408,13456173117,shopping,http://api.map.baidu.com/place/detail?uid=465b8ad89d2f347672455b6b&output=html&source=placeapi_v2,,07:00-19:00,5,,,,,,,,1,,,,,,,121.40884807428,29.677475213969,0
f53068c4814b76abb64f5402,宏达不锈钢总汇(岳林东路店),购物,家居建材,浙江省,宁波市,奉化区,浙江省宁波市奉化区金钟路216号,f53068c4814b76abb64f5402,1,0,121.436051,29.664976,13429351628,shopping,http://api.map.baidu.com/place/detail?uid=f53068c4814b76abb64f5402&output=html&source=placeapi_v2,,07:00-18:00,,,,,,,,,,,,,,,,,,0
b6c0692791b378ee9868b434,联锦模具材料,购物,家居建材,浙江省,宁波市,奉化区,浙江省宁波市奉化区岳林东路226号,b6c0692791b378ee9868b434,1,0,121.438158,29.66507,"(0574)88959008,13736055311",life,http://api.map.baidu.com/place/detail?uid=b6c0692791b378ee9868b434&output=html&source=placeapi_v2,,,,,,,,,,7,,,,,,,,,,0
bdf5bea3dc9979719f09f7c3,多乐士(形象店),购物,家居建材,浙江省,宁波市,奉化区,浙江省宁波市奉化区大成路212-4号,bdf5bea3dc9979719f09f7c3,1,0,121.417399,29.677685,"(0574)28517448,13506691082",shopping,http://api.map.baidu.com/place/detail?uid=bdf5bea3dc9979719f09f7c3&output=html&source=placeapi_v2,,09:00-18:30,0,,,,,,,,,,,,,,,,,0
d22749fbc91e68e9ae0457dc,立邦(大成路店),购物,家居建材,浙江省,宁波市,奉化区,浙江省宁波市奉化区大成路241号1一2号,d22749fbc91e68e9ae0457dc,1,0,121.414407,29.677836,"13355946624,13805836476",shopping,http://api.map.baidu.com/place/detail?uid=d22749fbc91e68e9ae0457dc&output=html&source=placeapi_v2,0.0,09:00-19:00,3.2,,,,,,,,,,,,,,,121.41440675913,29.677836206765,0
d14c5b4ceebb09b6841541d0,华润漆(奉化店),购物,家居建材,浙江省,宁波市,奉化区,浙江省宁波市奉化区大成路203幢11号,d14c5b4ceebb09b6841541d0,1,0,121.418341,29.67731,(0574)66762883,shopping,http://api.map.baidu.com/place/detail?uid=d14c5b4ceebb09b6841541d0&output=html&source=placeapi_v2,,09:00-18:00,0,,,,,,,,1,,,,,,,,,0
2d87238bf0e8dc9161685828,德克德家太平洋家居广场-可口可乐,购物,家居建材,浙江省,宁波市,奉化区,宁波市奉化区南山路174号德克德家太平洋家居广场F1,,1,0,121.420148,29.676527,,shopping,http://api.map.baidu.com/place/detail?uid=2d87238bf0e8dc9161685828&output=html&source=placeapi_v2,,,,,,,,,,,,,,,,,,,,0
42b5b751d935221409a8d470,奉化力成建材批发,购物,家居建材,浙江省,宁波市,奉化区,岳林东路222幢13号,42b5b751d935221409a8d470,1,0,121.437884,29.665112,15869392951,shopping,http://api.map.baidu.com/place/detail?uid=42b5b751d935221409a8d470&output=html&source=placeapi_v2,,,,,,,,,,,,,,,,,,,,0
c99a63c4d040fa09eedfcac1,金源金属板材批发,购物,家居建材,浙江省,宁波市,奉化区,浙江省宁波市奉化区金钟路256号,c99a63c4d040fa09eedfcac1,1,0,121.43632,29.666658,(0574)88880699,shopping,http://api.map.baidu.com/place/detail?uid=c99a63c4d040fa09eedfcac1&output=html&source=placeapi_v2,,,,,,,,,,,,,,,,,,,,0
c7ce9a631ae53fee61685803,乐尚家居建材,购物,家居建材,浙江省,宁波市,奉化区,宁波市奉化区机场南路奉化电子商务园东侧约110米,c7ce9a631ae53fee61685803,1,0,121.456488,29.666407,,shopping,http://api.map.baidu.com/place/detail?uid=c7ce9a631ae53fee61685803&output=html&source=placeapi_v2,,,,,,,,,,,,,,,,,,,,0
ac68ed3a8fd2106b26d2bb53,南海・锦地国际家居广场,购物,家居建材,浙江省,宁波市,奉化区,浙江省宁波市奉化区大成东路1599号南海锦地国际家居广场西区2楼,ac68ed3a8fd2106b26d2bb53,1,0,121.457443,29.675812,13136303698,shopping,http://api.map.baidu.com/place/detail?uid=ac68ed3a8fd2106b26d2bb53&output=html&source=placeapi_v2,,09:00-18:00,3.1,,,,,,,,4,,,,,,,121.45689660974,29.676808528136,0
2d4710dd68043a57c0364454,宏鹏装饰广场,购物,家居建材,浙江省,宁波市,奉化区,浙江省宁波市奉化区中山东路1005号,2d4710dd68043a57c0364454,1,0,121.449041,29.672057,(0574)88901688,life,http://api.map.baidu.com/place/detail?uid=2d4710dd68043a57c0364454&output=html&source=placeapi_v2,,07:30-17:00,2.9,,,,,,,14,2,,,,,,,121.44898667041,29.671858655601,0
519e57dc22f8a0233c9a5ebf,乐创智能家装卫浴洁具,购物,家居建材,浙江省,宁波市,奉化区,宁波市奉化区聚晖路东盈苑西南侧约220米,519e57dc22f8a0233c9a5ebf,1,0,121.448536,29.661665,,shopping,http://api.map.baidu.com/place/detail?uid=519e57dc22f8a0233c9a5ebf&output=html&source=placeapi_v2,,07:00-18:00,,,,,,,,,,,,,,,,,,0
3ae394121bb4b1e6e9f8533e,富家利地板工厂直营店,购物,家居建材,浙江省,宁波市,奉化区,宁波市奉化区聚晖路东盈苑西南侧约210米,3ae394121bb4b1e6e9f8533e,1,0,121.448927,29.66162,18958233698,shopping,http://api.map.baidu.com/place/detail?uid=3ae394121bb4b1e6e9f8533e&output=html&source=placeapi_v2,,,,,,,,,,,,,,,,,,,,0
4a93f25e56425f4958109372,欧路莎卫浴(大成东路店),购物,家居建材,浙江省,宁波市,奉化区,东环路与大成东路交叉口东北40米,,1,0,121.456483,29.675247,(0574)88516173,shopping,http://api.map.baidu.com/place/detail?uid=4a93f25e56425f4958109372&output=html&source=placeapi_v2,0.0,08:00-17:30,0,,,,,,,,3,,,,,,,121.45661911021,29.675324667651,0
a9de3897214acc4b32f71d3e,我乐厨柜(大成东路店),购物,家居建材,浙江省,宁波市,奉化区,浙江省宁波市奉化区大成东路1599号南海锦地2楼,a9de3897214acc4b32f71d3e,1,0,121.449051,29.674736,15968004224,shopping,http://api.map.baidu.com/place/detail?uid=a9de3897214acc4b32f71d3e&output=html&source=placeapi_v2,0.0,,0.0,,,,,,,,1,,,,,,,,,0
a2e3dcfe59a0389943afe66a,从格饰家布艺软装馆,购物,家居建材,浙江省,宁波市,奉化区,浙江宁波市奉化区大城东路1599号3楼,,1,0,121.456804,29.67604,(0574)88979399,shopping,http://api.map.baidu.com/place/detail?uid=a2e3dcfe59a0389943afe66a&output=html&source=placeapi_v2,,,5.0,,,,,,,,1,,,,,,,,,0
4943b891fb2719fc7ab55c85,瑶瑶家居宅配,购物,家居建材,浙江省,宁波市,奉化区,宁波市奉化区大成东路奉化中西医结合医院东南侧约300米,,1,0,121.454956,29.674455,13777267530,shopping,http://api.map.baidu.com/place/detail?uid=4943b891fb2719fc7ab55c85&output=html&source=placeapi_v2,,08:00-17:00,,,,,,,,,,,,,,,,,,0
0c024bcb414c855d33621205,翔骏石材,购物,家居建材,浙江省,宁波市,奉化区,浙江省宁波市奉化区天峰北路16号,0c024bcb414c855d33621205,1,0,121.447192,29.672439,13857801088,shopping,http://api.map.baidu.com/place/detail?uid=0c024bcb414c855d33621205&output=html&source=placeapi_v2,,,,,,,,,,,,,,,,,,121.44702664324,29.672400936165,0
72ef003ecb3cf6ec4e776e8c,平面磨摇臂钻床,购物,家居建材,浙江省,宁波市,奉化区,宁波市奉化区岳林东路东郊之家东南侧约120米,72ef003ecb3cf6ec4e776e8c,1,0,121.448486,29.664439,13777262973,shopping,http://api.map.baidu.com/place/detail?uid=72ef003ecb3cf6ec4e776e8c&output=html&source=placeapi_v2,,,,,,,,,,,,,,,,,,,,0
b0e6d068339766be8c1a89ca,宜美橱柜定制,购物,家居建材,浙江省,宁波市,奉化区,宁波市奉化区大成东路奉化中西医结合医院东南侧约200米,,1,0,121.453705,29.67458,,shopping,http://api.map.baidu.com/place/detail?uid=b0e6d068339766be8c1a89ca&output=html&source=placeapi_v2,,08:00-18:00,,,,,,,,,1,,,,,,,,,0
7d97ee03e1cc7c9c354aaec2,联鑫模具材料店,购物,家居建材,浙江省,宁波市,奉化区,浙江省宁波市奉化区岳林东路珠峰路55-6号,7d97ee03e1cc7c9c354aaec2,1,0,121.44421,29.664831,"(0574)88902256,13429314489",shopping,http://api.map.baidu.com/place/detail?uid=7d97ee03e1cc7c9c354aaec2&output=html&source=placeapi_v2,,,,,,,,,,,,,,,,,,,,0
b719d150a0690902d7851ff7,天工铁艺・铝艺・楼梯,购物,家居建材,浙江省,宁波市,奉化区,浙江省宁波市奉化区大成东路油漆一条街8~10号南海铞地家居广场10号,b719d150a0690902d7851ff7,1,0,121.458602,29.675068,13626824243,shopping,http://api.map.baidu.com/place/detail?uid=b719d150a0690902d7851ff7&output=html&source=placeapi_v2,,,,,,,,,,,,,,,,,,,,0
95165044d598b3231894c6db,天虹工具,购物,家居建材,浙江省,宁波市,奉化区,浙江省宁波市奉化区岳林东路278-7号,95165044d598b3231894c6db,1,0,121.441483,29.664822,13506690575,shopping,http://api.map.baidu.com/place/detail?uid=95165044d598b3231894c6db&output=html&source=placeapi_v2,,,,,,,,,,,,,,,,,,,,0
f8f5e9a644e6b12c3a13fd3c,云平建材家居生活馆,购物,家居建材,浙江省,宁波市,奉化区,浙江省宁波市奉化区中山东路120~123号奉达小镇1幢,,1,0,121.453093,29.673133,13805833953,shopping,http://api.map.baidu.com/place/detail?uid=f8f5e9a644e6b12c3a13fd3c&output=html&source=placeapi_v2,,07:00-17:00,,,,,,,,,,,,,,,,,,0
de8c7b7350aa9d5bc1f1cfcc,米罗家具店,购物,家居建材,浙江省,宁波市,奉化区,浙江省宁波市奉化区大成东路1599号南海锦地4楼,de8c7b7350aa9d5bc1f1cfcc,1,0,121.457534,29.675263,,shopping,http://api.map.baidu.com/place/detail?uid=de8c7b7350aa9d5bc1f1cfcc&output=html&source=placeapi_v2,,,,,,,,,,,,,,,,,,,,0
76c2c86d7f9d2157d2f49e0e,小刚抛光,购物,家居建材,浙江省,宁波市,奉化区,浙江省宁波市奉化区岳林东路东郊之家西侧约210米,76c2c86d7f9d2157d2f49e0e,1,0,121.444117,29.664847,13056887156,shopping,http://api.map.baidu.com/place/detail?uid=76c2c86d7f9d2157d2f49e0e&output=html&source=placeapi_v2,,,,,,,,,,,,,,,,,,121.44410495667,29.664745805031,0
8299566a7fe937639d95de1b,科勒卫浴(大成东路店),购物,家居建材,浙江省,宁波市,奉化区,浙江省宁波市奉化区大成东路南海锦地国际家居广场1楼17号,8299566a7fe937639d95de1b,1,0,121.457011,29.67509,(0574)88928001,shopping,http://api.map.baidu.com/place/detail?uid=8299566a7fe937639d95de1b&output=html&source=placeapi_v2,,08:00-17:00,,,,,,,,,,,,,,,,,,0
4babfefe9ede0dcb4457261c,小毛车床加工,购物,家居建材,浙江省,宁波市,奉化区,宁波市奉化区岳林东路岳林逸宿酒店东北侧,4babfefe9ede0dcb4457261c,1,0,121.444316,29.664821,13586902656,shopping,http://api.map.baidu.com/place/detail?uid=4babfefe9ede0dcb4457261c&output=html&source=placeapi_v2,,,,,,,,,,,,,,,,,,121.44430515573,29.664727429618,0
31d86da6a3b22291cbfa5f64,小毛焊接店,购物,家居建材,浙江省,宁波市,奉化区,宁波市奉化区岳林东路岳林逸宿酒店东北侧,31d86da6a3b22291cbfa5f64,1,0,121.443995,29.664866,13968319372,shopping,http://api.map.baidu.com/place/detail?uid=31d86da6a3b22291cbfa5f64&output=html&source=placeapi_v2,,,,,,,,,,,,,,,,,,,,0
09e75f7609931f9d9f09f719,大型车床加工,购物,家居建材,浙江省,宁波市,奉化区,宁波市奉化区聚晖路明化小区东侧约120米,09e75f7609931f9d9f09f719,1,0,121.443652,29.661994,13105521082,shopping,http://api.map.baidu.com/place/detail?uid=09e75f7609931f9d9f09f719&output=html&source=placeapi_v2,,09:00-18:30,,,,,,,,,,,,,,,,,,0
ba10c084b3b6f654a20464fa,书香门第(南海・锦地国际家居广场店),购物,家居建材,浙江省,宁波市,奉化区,浙江省宁波市奉化区大成东路第14号楼2楼,,1,0,121.456972,29.676382,(0574)88517030,shopping,http://api.map.baidu.com/place/detail?uid=ba10c084b3b6f654a20464fa&output=html&source=placeapi_v2,,,,,,,,,,,,,,,,,,121.45689660974,29.676808528136,0
79048066809749fd79dbd247,公元管道(道合建材),购物,家居建材,浙江省,宁波市,奉化区,宁波市奉化区机场南路新鲍幼儿园南侧约110米,,1,0,121.458687,29.676793,,shopping,http://api.map.baidu.com/place/detail?uid=79048066809749fd79dbd247&output=html&source=placeapi_v2,,08:00-17:00,,,,,,,,,,,,,,,,,,0
1cf552c16223d3852bb97c3e,雅洁五金专卖店(南海・锦地国际家居广场店),购物,家居建材,浙江省,宁波市,奉化区,浙江省宁波市奉化区大成东路1599号南海锦地国际建材家居广场2楼b西12号,1cf552c16223d3852bb97c3e,1,0,121.457545,29.676217,15257850611,shopping,http://api.map.baidu.com/place/detail?uid=1cf552c16223d3852bb97c3e&output=html&source=placeapi_v2,,,,,,,,,,,,,,,,,,121.45689660974,29.676808528136,0
75a30b6a9bc5e694f82213ce,四小姐布艺工作室,购物,家居建材,浙江省,宁波市,奉化区,浙江省宁波市奉化区金晖路力邦广场6幢3~6号,75a30b6a9bc5e694f82213ce,1,0,121.439633,29.662563,,shopping,http://api.map.baidu.com/place/detail?uid=75a30b6a9bc5e694f82213ce&output=html&source=placeapi_v2,,,,,,,,,,,,,,,,,,121.43962408752,29.662408508659,0
b82b048c63e48f26b64f54f3,兰舍硅藻泥(大成东路店),购物,家居建材,浙江省,宁波市,奉化区,浙江省宁波市奉化区大成东路南海锦地3楼c5号,b82b048c63e48f26b64f54f3,1,0,121.457735,29.675478,"(0574)88689581,18857412177",shopping,http://api.map.baidu.com/place/detail?uid=b82b048c63e48f26b64f54f3&output=html&source=placeapi_v2,,08:00-17:00,,,,,,,,,,,,,,,,121.45689660974,29.676808528136,0
ccc7a10513d2fef182a12ee3,奉化市玉峰布料经营部,购物,家居建材,浙江省,宁波市,奉化区,浙江省宁波市奉化区金峰路99-1号,ccc7a10513d2fef182a12ee3,1,0,121.439006,29.666127,15869306799,shopping,http://api.map.baidu.com/place/detail?uid=ccc7a10513d2fef182a12ee3&output=html&source=placeapi_v2,,,,,,,,,,,,,,,,,,,,0
db4b56a30cb00b5d88b98863,新丰板材,购物,家居建材,浙江省,宁波市,奉化区,浙江省宁波市奉化区中山东路799号,db4b56a30cb00b5d88b98863,1,0,121.445169,29.67121,"(0574)88910865,(0574)88922895,13736058058",shopping,http://api.map.baidu.com/place/detail?uid=db4b56a30cb00b5d88b98863&output=html&source=placeapi_v2,,,,,,,,,,,,,,,,,,121.44522917165,29.671015465957,0
81d9dc68fbdaa738a2d23035,车床加工螺纹磨加工,购物,家居建材,浙江省,宁波市,奉化区,宁波市奉化区岳林东路力邦广场东北侧约70米,81d9dc68fbdaa738a2d23035,1,0,121.441678,29.664777,"13071943831,13216663336",shopping,http://api.map.baidu.com/place/detail?uid=81d9dc68fbdaa738a2d23035&output=html&source=placeapi_v2,,,,,,,,,,,,,,,,,,,,0
31eeade8f1f059a99b68b45c,城东模具材料,购物,家居建材,浙江省,宁波市,奉化区,浙江省宁波市奉化区岳林东路278-8号,31eeade8f1f059a99b68b45c,1,0,121.441546,29.664791,,shopping,http://api.map.baidu.com/place/detail?uid=31eeade8f1f059a99b68b45c&output=html&source=placeapi_v2,,,,,,,,,,,,,,,,,,121.44108051653,29.664876018001,0
8d88750262668863240bd015,大型车床加工,购物,家居建材,浙江省,宁波市,奉化区,宁波市奉化区岳林东路力邦广场东北侧约70米,8d88750262668863240bd015,1,0,121.441682,29.664774,15336680660,shopping,http://api.map.baidu.com/place/detail?uid=8d88750262668863240bd015&output=html&source=placeapi_v2,,,,,,,,,,,,,,,,,,,,0
e6d0008f062a9705b426559e,大自然地板(南海锦地旗舰店),购物,家居建材,浙江省,宁波市,奉化区,浙江省宁波市奉化区大成东路1599号南海锦地c区4楼,e6d0008f062a9705b426559e,1,0,121.457282,29.675365,(0574)88577799,shopping,http://api.map.baidu.com/place/detail?uid=e6d0008f062a9705b426559e&output=html&source=placeapi_v2,0.0,08:00-17:00,,,,,,,,,,,,,,,,,,0
4d2aa5dbda902d34f32d83c7,聚耀灯具店,购物,家居建材,浙江省,宁波市,奉化区,宁波市奉化区金海路明化小区南侧约60米,4d2aa5dbda902d34f32d83c7,1,0,121.4401,29.660286,"13456170327,18058586608",shopping,http://api.map.baidu.com/place/detail?uid=4d2aa5dbda902d34f32d83c7&output=html&source=placeapi_v2,,,,,,,,,,,,,,,,,,121.44013107049,29.660306080238,0
8cdb37c900ddbfcababd63ad,山东板材批发,购物,家居建材,浙江省,宁波市,奉化区,宁波市奉化区大成东路南海・锦地国际家居广场,8cdb37c900ddbfcababd63ad,1,0,121.458552,29.674918,18906693968,shopping,http://api.map.baidu.com/place/detail?uid=8cdb37c900ddbfcababd63ad&output=html&source=placeapi_v2,,,,,,,,,,,,,,,,,,121.45849550852,29.675012965923,0
a43c541eb256a1fc0189728a,尚林冲床配件,购物,家居建材,浙江省,宁波市,奉化区,金海路161-163号附近,a43c541eb256a1fc0189728a,1,0,121.438954,29.660974,"13506693449,15869325560",shopping,http://api.map.baidu.com/place/detail?uid=a43c541eb256a1fc0189728a&output=html&source=placeapi_v2,,08:00-20:00,,,,,,,,,,,,,,,,121.43893597652,29.660840355113,0
5a2c1bd8e16d43df21022012,玖号石材(南海・锦地国际家居广场店),购物,家居建材,浙江省,宁波市,奉化区,浙江省宁波市奉化区大成东路1599号南海锦地1楼11号,,1,0,121.457108,29.675371,(0574)88567111,shopping,http://api.map.baidu.com/place/detail?uid=5a2c1bd8e16d43df21022012&output=html&source=placeapi_v2,,08:00-17:00,,,,,,,,,,,,,,,,,,0
d7a90ea16f6480c9ca291588,北疆硅藻泥(奉化店),购物,家居建材,浙江省,宁波市,奉化区,浙江省宁波市奉化区南海锦地3楼c西6号,,1,0,121.457136,29.675784,(0574)88689581,shopping,http://api.map.baidu.com/place/detail?uid=d7a90ea16f6480c9ca291588&output=html&source=placeapi_v2,,08:00-17:00,,,,,,,,,,,,,,,,,,0
d91fa5c5248c09b61fe99978,马可波罗磁砖,购物,家居建材,浙江省,宁波市,奉化区,浙江省宁波市奉化区大成东路1599号,,1,0,121.457894,29.675263,13685717577,shopping,http://api.map.baidu.com/place/detail?uid=d91fa5c5248c09b61fe99978&output=html&source=placeapi_v2,,,,,,,,,,,,,,,,,,,,0
82e13e277516d5039e95de18,爱尔百兰家具,购物,家居建材,浙江省,宁波市,奉化区,浙江省宁波市奉化区大成东路南海锦地4楼,82e13e277516d5039e95de18,1,0,121.458576,29.675851,"13858352987,17788546505",shopping,http://api.map.baidu.com/place/detail?uid=82e13e277516d5039e95de18&output=html&source=placeapi_v2,,08:00-17:30,,,,,,,,,,,,,,,,121.45689660974,29.676808528136,0
86ac79a54416f31e45572656,bension,购物,家居建材,浙江省,宁波市,奉化区,宁波市奉化区机场南路南海・锦地国际家居广场,,1,0,121.456398,29.675464,13003791777,shopping,http://api.map.baidu.com/place/detail?uid=86ac79a54416f31e45572656&output=html&source=placeapi_v2,,,,,,,,,,,,,,,,,,,,0
dfe52c177f885fe9e856fa71,华润漆(漆业真专家),购物,家居建材,浙江省,宁波市,奉化区,浙江省宁波市奉化区新鲍大成东路南海.锦地国际家居广场,dfe52c177f885fe9e856fa71,1,0,121.459035,29.675777,(0574)95105517,shopping,http://api.map.baidu.com/place/detail?uid=dfe52c177f885fe9e856fa71&output=html&source=placeapi_v2,,09:00-18:00,,,,,,,,,,,,,,,,121.45879371727,29.675833823062,0
a691168cfd0914230389725b,百得胜定制环保家居馆,购物,家居建材,浙江省,宁波市,奉化区,浙江宁波市奉化区大成东路1599号南海锦地国际家居广场2楼,a691168cfd0914230389725b,1,0,121.457587,29.674759,(0574)88689533,shopping,http://api.map.baidu.com/place/detail?uid=a691168cfd0914230389725b&output=html&source=placeapi_v2,0.0,09:30-19:00,,,,,,,,,,,,,,,,121.45754385323,29.67459162069,0
fcb56d98a2f3b403ac31e579,南海锦地负一层板材区F东5-9号森鹿板材,购物,家居建材,浙江省,宁波市,奉化区,宁波市奉化区大成东路南海・锦地国际家居广场,,1,0,121.457783,29.675573,,shopping,http://api.map.baidu.com/place/detail?uid=fcb56d98a2f3b403ac31e579&output=html&source=placeapi_v2,,,,,,,,,,,,,,,,,,,,0
5a8ea5d72917539e4251c0f9,荣旺建材,购物,家居建材,浙江省,宁波市,奉化区,宁波市奉化区大成东路南海・锦地国际家居广场,,1,0,121.458516,29.67587,,shopping,http://api.map.baidu.com/place/detail?uid=5a8ea5d72917539e4251c0f9&output=html&source=placeapi_v2,,08:00-17:00,,,,,,,,,,,,,,,,,,0
5930f0fdc66390c7c72ba112,金固名门整体木作,购物,家居建材,浙江省,宁波市,奉化区,浙江省宁波市奉化区大成东路1599号南海锦地国际家居广场2楼,,1,0,121.456721,29.676259,(0574)88689695,shopping,http://api.map.baidu.com/place/detail?uid=5930f0fdc66390c7c72ba112&output=html&source=placeapi_v2,,08:00-17:00,,,,,,,,,,,,,,,,,,0
8abd455f4faff8f7c6effb28,意格高端定制家居,购物,家居建材,浙江省,宁波市,奉化区,浙江省宁波市奉化区大成东路南海锦地国际建材商城2楼b西2号,,1,0,121.457401,29.675598,,shopping,http://api.map.baidu.com/place/detail?uid=8abd455f4faff8f7c6effb28&output=html&source=placeapi_v2,,,,,,,,,,,,,,,,,,,,0
1ddf8422212fc19d1f38942f,非洛克门窗,购物,家居建材,浙江省,宁波市,奉化区,浙江省宁波市奉化区大成东路1599号南海锦地国际家居广场1楼36号,1ddf8422212fc19d1f38942f,1,0,121.456474,29.67603,18367416870,shopping,http://api.map.baidu.com/place/detail?uid=1ddf8422212fc19d1f38942f&output=html&source=placeapi_v2,,08:00-17:30,,,,,,,,,,,,,,,,,,0
456734075d9b4dfb1f3894b7,皇朝家私(南海・锦地国际家居广场店),购物,家居建材,浙江省,宁波市,奉化区,浙江省宁波市奉化区大成东路1599号南海锦地4楼,,1,0,121.457445,29.675726,,shopping,http://api.map.baidu.com/place/detail?uid=456734075d9b4dfb1f3894b7&output=html&source=placeapi_v2,,10:00-17:00,,,,,,,,,,,,,,,,121.45734951113,29.675258293601,0
9ae1589748fa1aae8505bf4d,欧尚石材,购物,家居建材,浙江省,宁波市,奉化区,浙江省宁波市奉化区大成东路1599号南海锦地国际家居广场1层A东18室20,9ae1589748fa1aae8505bf4d,1,0,121.457647,29.675311,"(0574)88689658,13216601118",shopping,http://api.map.baidu.com/place/detail?uid=9ae1589748fa1aae8505bf4d&output=html&source=placeapi_v2,,09:00-18:00,,,,,,,,,,,,,,,,,,0
7af76196018a8f2aa5da3919,恒洁卫浴(大成东路店),购物,家居建材,浙江省,宁波市,奉化区,浙江省宁波市奉化区大成东路1599号,,1,0,121.457742,29.676532,4008331350,shopping,http://api.map.baidu.com/place/detail?uid=7af76196018a8f2aa5da3919&output=html&source=placeapi_v2,,09:00-18:00,,,,,,,,,,,,,,,,,,0
9501d23b9daba76040e1927d,诚盛装潢店,购物,家居建材,浙江省,宁波市,奉化区,浙江省宁波市奉化区金海路145号,9501d23b9daba76040e1927d,1,0,121.439292,29.660938,13516884867,shopping,http://api.map.baidu.com/place/detail?uid=9501d23b9daba76040e1927d&output=html&source=placeapi_v2,,,,,,,,,,,,,,,,,,,,0
d1fb0e915b29c838bea240b3,雨露衣柜,购物,家居建材,浙江省,宁波市,鄞州区,宁波市鄞州区塘盛路宁波市鄞州区塘溪镇中心小学西侧约150米,,1,0,121.721324,29.670944,,shopping,http://api.map.baidu.com/place/detail?uid=d1fb0e915b29c838bea240b3&output=html&source=placeapi_v2,,,,,,,,,,,,,,,,,,,,0
4d0afb5156b1f45294ec84f7,万意窗帘墙布,购物,家居建材,浙江省,宁波市,鄞州区,宁波市鄞州区塘盛路塘溪中学东南侧约100米,4d0afb5156b1f45294ec84f7,1,0,121.718886,29.669245,,shopping,http://api.map.baidu.com/place/detail?uid=4d0afb5156b1f45294ec84f7&output=html&source=placeapi_v2,,09:30-17:30,,,,,,,,,,,,,,,,121.71894881531,29.669187021253,0
6797f9d6a10548da4d776ee6,顺辉箱柜,购物,家居建材,浙江省,宁波市,鄞州区,浙江省宁波市鄞州区S71(沿海中线),,1,0,121.794593,29.664888,18867622877,shopping,http://api.map.baidu.com/place/detail?uid=6797f9d6a10548da4d776ee6&output=html&source=placeapi_v2,,,,,,,,,,,,,,,,,,121.79501672401,29.664774504656,0
5c3d6ca1fd799937f4e73b3a,中兴卫浴工厂直销,购物,家居建材,浙江省,宁波市,奉化区,浙江省宁波市奉化区中兴中路23号,5c3d6ca1fd799937f4e73b3a,1,0,121.29342,29.696688,13566571569,shopping,http://api.map.baidu.com/place/detail?uid=5c3d6ca1fd799937f4e73b3a&output=html&source=placeapi_v2,,,,,,,,,,,,,,,,,,,,0
be61663501bd81daab0dd82c,豪宅铜门,购物,家居建材,浙江省,宁波市,奉化区,浙江省宁波市奉化区中兴中路81号,be61663501bd81daab0dd82c,1,0,121.29242,29.696074,13034687401,shopping,http://api.map.baidu.com/place/detail?uid=be61663501bd81daab0dd82c&output=html&source=placeapi_v2,,07:00-19:00,,,,,,,,,,,,,,,,121.29235292774,29.69615827033,0
8f8c4df1563ddf0ed7851fc0,润达工量具五金机电,购物,家居建材,浙江省,宁波市,奉化区,浙江省宁波市奉化区中兴东路642~646号,8f8c4df1563ddf0ed7851fc0,1,0,121.297003,29.699086,13185972568,shopping,http://api.map.baidu.com/place/detail?uid=8f8c4df1563ddf0ed7851fc0&output=html&source=placeapi_v2,,09:00-18:30,0.0,,,,,,,,,,,,,,,121.2970484443,29.698952103504,0
d7fd2ad3af7ad0550bccdd2b,宏伟气动,购物,家居建材,浙江省,宁波市,奉化区,浙江省宁波市奉化区中兴东路559号,d7fd2ad3af7ad0550bccdd2b,1,0,121.300515,29.699326,(0574)88850108,shopping,http://api.map.baidu.com/place/detail?uid=d7fd2ad3af7ad0550bccdd2b&output=html&source=placeapi_v2,,,0,,,,,,,,1,,,,,,,121.30005183894,29.699656025478,0
5ffb18165b85865e6f476033,溪口家私城,购物,家居建材,浙江省,宁波市,奉化区,浙江省宁波市奉化区中兴中路187号,5ffb18165b85865e6f476033,1,0,121.288014,29.69329,(0574)88850525,shopping,http://api.map.baidu.com/place/detail?uid=5ffb18165b85865e6f476033&output=html&source=placeapi_v2,,08:00-17:00,0,,,,,,,,1,,,,,,,121.28794358167,29.693371048559,0
2f936bfc2492491d0869d935,金品墙纸,购物,家居建材,浙江省,宁波市,奉化区,浙江省宁波市奉化区中兴中路62号,2f936bfc2492491d0869d935,1,0,121.291408,29.695793,13867864508,shopping,http://api.map.baidu.com/place/detail?uid=2f936bfc2492491d0869d935&output=html&source=placeapi_v2,,,,,,,,,,,,,,,,,,,,0
4a6838828bfee15217948e7a,百乐盛门业,购物,家居建材,浙江省,宁波市,奉化区,浙江省宁波市奉化区中兴东路555-8号,4a6838828bfee15217948e7a,1,0,121.301175,29.699753,"(0574)88872779,13805834779",shopping,http://api.map.baidu.com/place/detail?uid=4a6838828bfee15217948e7a&output=html&source=placeapi_v2,,08:00-00:00,0.0,,,,,,,,,,,,,,,,,0
519926aa485b7a427bf79609,卡诺杰移门,购物,家居建材,浙江省,宁波市,奉化区,浙江省宁波市奉化区中兴中路120号,519926aa485b7a427bf79609,1,0,121.290519,29.695279,"(0574)88865550,13968310758",shopping,http://api.map.baidu.com/place/detail?uid=519926aa485b7a427bf79609&output=html&source=placeapi_v2,,07:00-20:00,,,,,,,,,,,,,,,,121.29060193986,29.695174357615,0
4b3969fbf1b0df6b07fef585,君兰窗帘家纺,购物,家居建材,浙江省,宁波市,奉化区,宁波市奉化区中兴中路奉化区溪口镇中心小学西侧约90米,4b3969fbf1b0df6b07fef585,1,0,121.286792,29.692827,13216608182,shopping,http://api.map.baidu.com/place/detail?uid=4b3969fbf1b0df6b07fef585&output=html&source=placeapi_v2,,,,,,,,,,,,,,,,,,121.28686982092,29.692739963682,0
1d40ce910c18724414b54b11,幸福窗帘店,购物,家居建材,浙江省,宁波市,奉化区,宁波市奉化区百丈东路泰悦首府南侧,,1,0,121.30158,29.691864,"13028902895,13081978111",shopping,http://api.map.baidu.com/place/detail?uid=1d40ce910c18724414b54b11&output=html&source=placeapi_v2,,,,,,,,,,,,,,,,,,,,0
b57c34e8ddaf2dcbae31e5a2,固佳螺丝店,购物,家居建材,浙江省,宁波市,奉化区,浙江省宁波市奉化区中兴中路191-10号,b57c34e8ddaf2dcbae31e5a2,1,0,121.28724,29.692776,13105557801,shopping,http://api.map.baidu.com/place/detail?uid=b57c34e8ddaf2dcbae31e5a2&output=html&source=placeapi_v2,,,,,,,,,,,,,,,,,,121.28717652129,29.692861330512,0
0ea8a454a028ac6d26d2bbfd,晋帛家纺,购物,家居建材,浙江省,宁波市,奉化区,浙江省宁波市奉化区锦堤北路泰悦首府4幢6-7号,,1,0,121.302192,29.694399,"13095986627,17706477627",shopping,http://api.map.baidu.com/place/detail?uid=0ea8a454a028ac6d26d2bbfd&output=html&source=placeapi_v2,,,,,,,,,,,,,,,,,,,,0
a6a2127e4a16d1e9f6c59c6b,红叶沙发家具店,购物,家居建材,浙江省,宁波市,奉化区,浙江省宁波市奉化区经堂北路280号,a6a2127e4a16d1e9f6c59c6b,1,0,121.284683,29.691422,13506692373,shopping,http://api.map.baidu.com/place/detail?uid=a6a2127e4a16d1e9f6c59c6b&output=html&source=placeapi_v2,,07:00-19:00,0,,,,,,,,0,,,,,,,121.28472585942,29.69127715483,0
9b9d17b1cf0160b730870aa2,洪峰玻璃,购物,家居建材,浙江省,宁波市,奉化区,浙江省宁波市奉化区中兴中路192号,9b9d17b1cf0160b730870aa2,1,0,121.287173,29.693154,13008943005,shopping,http://api.map.baidu.com/place/detail?uid=9b9d17b1cf0160b730870aa2&output=html&source=placeapi_v2,,,3.3,,,,,,,,0,,,,,,,,,0
34da05be88f72beb2d473395,溪口家具展厅,购物,家居建材,浙江省,宁波市,奉化区,奉通南路与毛家弄交叉路口北侧(溪口风景区),,1,0,121.281587,29.68706,15968412348,shopping,http://api.map.baidu.com/place/detail?uid=34da05be88f72beb2d473395&output=html&source=placeapi_v2,,,,,,,,,,,,,,,,,,,,0
155044c6405f7a487f29bd53,丝美人家纺,购物,家居建材,浙江省,宁波市,奉化区,浙江省宁波市奉化区财神殿南路136号,155044c6405f7a487f29bd53,1,0,121.286739,29.69008,,shopping,http://api.map.baidu.com/place/detail?uid=155044c6405f7a487f29bd53&output=html&source=placeapi_v2,,,,,,,,,,,,,,,,,,121.28667958407,29.690048015249,0
12e29db72b03dc9b88f15dd0,和也健康睡眠(奉化溪口店),购物,家居建材,浙江省,宁波市,奉化区,宁波市奉化区经堂南路美龄山庄北侧约240米,,1,0,121.286616,29.687387,13805833612,shopping,http://api.map.baidu.com/place/detail?uid=12e29db72b03dc9b88f15dd0&output=html&source=placeapi_v2,,,,,,,,,,,,,,,,,,,,0
d319a12b03b35043c16c14e0,文宝布店,购物,家居建材,浙江省,宁波市,奉化区,浙江省宁波市奉化区经堂南路57号,,1,0,121.286426,29.687849,(0574)88850999,shopping,http://api.map.baidu.com/place/detail?uid=d319a12b03b35043c16c14e0&output=html&source=placeapi_v2,,06:00-19:00,,,,,,,,,,,,,,,,121.28647985572,29.688001469542,0
a890396f45f0dd92c61e5147,凯顺玻璃移门,购物,家居建材,浙江省,宁波市,奉化区,浙江省宁波市奉化区中兴中路251~253号,a890396f45f0dd92c61e5147,1,0,121.285818,29.69215,"(0574)88866023,13056898273",shopping,http://api.map.baidu.com/place/detail?uid=a890396f45f0dd92c61e5147&output=html&source=placeapi_v2,,08:00-17:00,,,,,,,,,,,,,,,,121.28588819578,29.692071485087,0
8370270e68a886bbcd04efc5,箭牌卫浴(中兴中路店),购物,家居建材,浙江省,宁波市,奉化区,浙江省宁波市奉化区牌门南路43弄1号楼,6281096300fe2e432fb90862,1,0,121.286461,29.692647,13056889222,shopping,http://api.map.baidu.com/place/detail?uid=8370270e68a886bbcd04efc5&output=html&source=placeapi_v2,,09:00-18:00,3.3,,,,,,,,0,,,,,,,121.2865687718,29.692534445003,0
25c3333ba87a457aa8175acf,宏发五金店,购物,家居建材,浙江省,宁波市,奉化区,浙江省宁波市奉化区中兴中路191-11号,25c3333ba87a457aa8175acf,1,0,121.287184,29.692705,,shopping,http://api.map.baidu.com/place/detail?uid=25c3333ba87a457aa8175acf&output=html&source=placeapi_v2,,,0.0,,,,,,,,,,,,,,,121.28716414443,29.692853114681,0
f4fd337a4ce3e3fca4c75612,统用卫浴卓越陶瓷,购物,家居建材,浙江省,宁波市,奉化区,浙江省宁波市奉化区奉通南路87号,,1,0,121.281962,29.68595,13906847838,shopping,http://api.map.baidu.com/place/detail?uid=f4fd337a4ce3e3fca4c75612&output=html&source=placeapi_v2,,07:30-21:30,,,,,,,,,,,,,,,,,,0
9a9bfdf4b9436aa38e772739,明德壹号红木精品馆,购物,家居建材,浙江省,宁波市,奉化区,区公园路55号,,1,0,121.277198,29.688332,,shopping,http://api.map.baidu.com/place/detail?uid=9a9bfdf4b9436aa38e772739&output=html&source=placeapi_v2,,07:00-22:00,,,,,,,,,,,,,,,,,,0
beabdbf4a3579f997069d32b,灵通气动,购物,家居建材,浙江省,宁波市,奉化区,浙江省宁波市奉化区溪口镇溪口二江茗山北路二村小区,,1,0,121.281073,29.693646,,shopping,http://api.map.baidu.com/place/detail?uid=beabdbf4a3579f997069d32b&output=html&source=placeapi_v2,,,,,,,,,,,,,,,,,,121.28097452483,29.693535619983,0
bec49851556a6e38fb2213da,厨房用品商店,购物,家居建材,浙江省,宁波市,奉化区,宁波市奉化区夏宇路畸山小区东南侧约40米,bec49851556a6e38fb2213da,1,0,121.321676,29.702383,15088810839,shopping,http://api.map.baidu.com/place/detail?uid=bec49851556a6e38fb2213da&output=html&source=placeapi_v2,,,,,,,,,,,,,,,,,,,,0
f60a15edda77a5edbb17e72b,华益气动,购物,家居建材,浙江省,宁波市,奉化区,浙江省宁波市奉化区华盛路2号,,1,0,121.327051,29.709538,(0574)88882088,shopping,http://api.map.baidu.com/place/detail?uid=f60a15edda77a5edbb17e72b&output=html&source=placeapi_v2,,09:00-18:30,,,,,,,,,,,,,,,,121.3269297686,29.709038064781,0
72aa2513f3881239077ce85e,波达线缆,购物,家居建材,浙江省,宁波市,奉化区,浙江省宁波市奉化区中兴东路46号,72aa2513f3881239077ce85e,1,1,121.317051,29.704676,(0574)88846990,shopping,http://api.map.baidu.com/place/detail?uid=72aa2513f3881239077ce85e&output=html&source=placeapi_v2,,09:00-18:30,,,,,,,,,,,,,,,,,,1
340501e638ece4cad13ce309,多彩生活专业定制墙纸窗帘,购物,家居建材,浙江省,宁波市,奉化区,浙江宁波市奉化区泉口路46号,340501e638ece4cad13ce309,1,0,121.363431,29.707004,13867889490,shopping,http://api.map.baidu.com/place/detail?uid=340501e638ece4cad13ce309&output=html&source=placeapi_v2,,08:00-18:00,,,,,,,,,,,,,,,,121.36360500712,29.707025538582,0
761543db551d4f129ff7799e,萧王庙八角岭水电灯饰材料店,购物,家居建材,浙江省,宁波市,奉化区,宁波市奉化区萧云路与永丰街交叉路口东侧,,1,0,121.35967,29.707727,"(0574)88815679,13136385898",shopping,http://api.map.baidu.com/place/detail?uid=761543db551d4f129ff7799e&output=html&source=placeapi_v2,,,,,,,,,,,,,,,,,,121.35965353456,29.707769168668,0
42e2182bf2b2b6fc3be4a61a,阿浪机电,购物,家居建材,浙江省,宁波市,奉化区,浙江省宁波市奉化区南山北路1号12--14,42e2182bf2b2b6fc3be4a61a,1,0,121.41938,29.699245,,shopping,http://api.map.baidu.com/place/detail?uid=42e2182bf2b2b6fc3be4a61a&output=html&source=placeapi_v2,,,,,,,,,,,,,,,,,,121.41964457554,29.699290321576,0
e116be54ec6a5006c91b9519,圆圆家私城,购物,家居建材,浙江省,宁波市,奉化区,浙江省宁波市奉化区南山北路3号,e116be54ec6a5006c91b9519,1,0,121.419121,29.700395,(0574)88902166,shopping,http://api.map.baidu.com/place/detail?uid=e116be54ec6a5006c91b9519&output=html&source=placeapi_v2,,08:00-18:00,0.0,,,,,,,,,,,,,,,121.41939178249,29.700433166019,0
aea58da4b18ddae238e4a60c,千年舟建材家居(鸿运市场店),购物,家居建材,浙江省,宁波市,奉化区,浙江省宁波市奉化区南山北路3号鸿运建材市场板材区,,1,0,121.418564,29.70026,15968066608,shopping,http://api.map.baidu.com/place/detail?uid=aea58da4b18ddae238e4a60c&output=html&source=placeapi_v2,,07:30-17:30,,,,,,,,,,,,,,,,121.41942618591,29.700249154876,0
b7e4475f4acb27400289721b,怡家家具城,购物,家居建材,浙江省,宁波市,奉化区,浙江省宁波市奉化区南山北路3号鸿运建材市场2楼,b7e4475f4acb27400289721b,1,0,121.418858,29.700243,13957879062,shopping,http://api.map.baidu.com/place/detail?uid=b7e4475f4acb27400289721b&output=html&source=placeapi_v2,,08:00-20:00,5.0,,,,,,,,1,,,,,,,121.41940229806,29.700246702992,0
1b0f6de33dd69dec077ce891,满意沙发床垫厂工厂店,购物,家居建材,浙江省,宁波市,奉化区,南山北路与汇泉路交叉口西南50米,,1,0,121.418871,29.700231,"(0574)88588393,13805831369,15058453976",shopping,http://api.map.baidu.com/place/detail?uid=1b0f6de33dd69dec077ce891&output=html&source=placeapi_v2,,,,,,,,,,,,,,,,,,121.41941555121,29.700308222574,0
3ce67fafce4061b221f017b2,岩头家私城,购物,家居建材,浙江省,宁波市,奉化区,浙江省宁波市奉化区南山北路3号,3ce67fafce4061b221f017b2,1,0,121.419225,29.700149,(0574)88956666,shopping,http://api.map.baidu.com/place/detail?uid=3ce67fafce4061b221f017b2&output=html&source=placeapi_v2,,08:00-17:30,,,,,,,,,,,,,,,,121.41944867218,29.70015013408,0
71b49f8b18929f93d12dd62c,鼎盛瓷砖批发零售,购物,家居建材,浙江省,宁波市,奉化区,宁波市奉化区南山北路与汇泉路交叉路口往西南约150米,,1,0,121.418039,29.699964,18258700122,shopping,http://api.map.baidu.com/place/detail?uid=71b49f8b18929f93d12dd62c&output=html&source=placeapi_v2,,,,,,,,,,,,,,,,,,,,0
540338d6125bf76f6ca3ccf4,富圆地板橱柜吊顶,购物,家居建材,浙江省,宁波市,奉化区,宁波市奉化区鸿运建材市场2排5号,,1,0,121.417594,29.700197,(0574)66632170,shopping,http://api.map.baidu.com/place/detail?uid=540338d6125bf76f6ca3ccf4&output=html&source=placeapi_v2,,,,,,,,,,,,,,,,,,,,0
6e5488a386183dc0dbd891ae,康健厨具用品(厂方)直销店,购物,家居建材,浙江省,宁波市,奉化区,浙江省宁波市奉化区桥西岸路732号,6e5488a386183dc0dbd891ae,1,0,121.427077,29.682011,(0574)88583588,shopping,http://api.map.baidu.com/place/detail?uid=6e5488a386183dc0dbd891ae&output=html&source=placeapi_v2,0.0,07:00-17:00,5,,,,,,,,2,,,,,,,121.42718842484,29.681949237702,0
bd5046e8e966cf40d72ce225,东方不锈钢(汇明路店),购物,家居建材,浙江省,宁波市,奉化区,浙江省宁波市奉化区汇明路128号,bd5046e8e966cf40d72ce225,1,0,121.432166,29.708903,,shopping,http://api.map.baidu.com/place/detail?uid=bd5046e8e966cf40d72ce225&output=html&source=placeapi_v2,,,0,,,,,,,,1,,,,,,,,,0
149cd0cf82a75f653010af96,凯颂莱帝卫浴,购物,家居建材,浙江省,宁波市,奉化区,宁波市奉化区芦湾新区10号2楼,,1,0,121.417901,29.715727,,shopping,http://api.map.baidu.com/place/detail?uid=149cd0cf82a75f653010af96&output=html&source=placeapi_v2,,,,,,,,,,,,,,,,,,,,0
fa7da3e856a02d6342d63e24,太平洋陶瓷,购物,家居建材,浙江省,宁波市,奉化区,浙江省宁波市奉化区园中路51号,,1,0,121.413031,29.706632,(0574)88910038,shopping,http://api.map.baidu.com/place/detail?uid=fa7da3e856a02d6342d63e24&output=html&source=placeapi_v2,,,0.0,,,,,,,,1,,,,,,,,,0
49a02a7a1b5071412b201a24,宁波威琳厨具有限公司(聚才路),购物,家居建材,浙江省,宁波市,奉化区,宁波市奉化区南山北路龙之梦宾馆西侧约80米,49a02a7a1b5071412b201a24,1,0,121.416921,29.713446,(0574)88919528,shopping,http://api.map.baidu.com/place/detail?uid=49a02a7a1b5071412b201a24&output=html&source=placeapi_v2,,,,,,,,,,,,,,,,,,,,0
56034f990503e18a256e98ae,家好窗帘,购物,家居建材,浙江省,宁波市,奉化区,江口街道南浦菜场,,1,0,121.448329,29.711259,"13566575350,13616889018",shopping,http://api.map.baidu.com/place/detail?uid=56034f990503e18a256e98ae&output=html&source=placeapi_v2,,,,,,,,,,,,,,,,,,121.44829427718,29.711375308297,0
f0afc814864c4e45f603b8ec,阿兰家纺,购物,家居建材,浙江省,宁波市,奉化区,宁波市奉化区南渡路南浦小学南侧约240米,,1,0,121.447081,29.7117,13858351300,shopping,http://api.map.baidu.com/place/detail?uid=f0afc814864c4e45f603b8ec&output=html&source=placeapi_v2,,,,,,,,,,,,,,,,,,,,0
b8e7821a765a298ae015f905,荣轩阁整木,购物,家居建材,浙江省,宁波市,奉化区,浙江省宁波市奉化区万寿路17号,b8e7821a765a298ae015f905,1,0,121.507253,29.689938,13757269268,shopping,http://api.map.baidu.com/place/detail?uid=b8e7821a765a298ae015f905&output=html&source=placeapi_v2,,,,,,,,,,,,,,,,,,,,0
de4085a00bf1608af42310da,万人迷窗帘店(西坞中路店),购物,家居建材,浙江省,宁波市,奉化区,宁波市奉化区宁西线西坞农贸市场东北侧,de4085a00bf1608af42310da,1,0,121.503634,29.687158,,shopping,http://api.map.baidu.com/place/detail?uid=de4085a00bf1608af42310da&output=html&source=placeapi_v2,,,,,,,,,,,,,,,,,,,,0
3b43ccce394eeb0bb120a85a,武凯家私,购物,家居建材,浙江省,宁波市,奉化区,宁波市奉化区西坞南路西坞派出所东侧约30米,3b43ccce394eeb0bb120a85a,1,0,121.493494,29.682435,13336887387,shopping,http://api.map.baidu.com/place/detail?uid=3b43ccce394eeb0bb120a85a&output=html&source=placeapi_v2,,,,,,,,,,,,,,,,,,,,0
8cc623987e3eb57ac9291531,诚辉灯饰,购物,家居建材,浙江省,宁波市,奉化区,宁波市奉化区商场路宁波市奉化区西坞中学东南侧,8cc623987e3eb57ac9291531,1,0,121.496091,29.686411,13429313773,shopping,http://api.map.baidu.com/place/detail?uid=8cc623987e3eb57ac9291531&output=html&source=placeapi_v2,,,1,,,,,,,,2,,,,,,,,,0
2d2881b70f9d005f4251c081,敏雅布行,购物,家居建材,浙江省,宁波市,奉化区,浙江省宁波市奉化区商场路6号,2d2881b70f9d005f4251c081,1,0,121.497682,29.686731,,shopping,http://api.map.baidu.com/place/detail?uid=2d2881b70f9d005f4251c081&output=html&source=placeapi_v2,,07:00-21:30,,,,,,,,,,,,,,,,,,0
d37bbe84034705631894c628,佳兴布艺,购物,家居建材,浙江省,宁波市,奉化区,浙江省宁波市奉化区商场路9-1号,,1,0,121.497414,29.686707,15168531300,shopping,http://api.map.baidu.com/place/detail?uid=d37bbe84034705631894c628&output=html&source=placeapi_v2,,,,,,,,,,,,,,,,,,,,0
dc36f2161f30ed8edbeced5e,可发家具城,购物,家居建材,浙江省,宁波市,奉化区,浙江省宁波市奉化区西宁路8号,dc36f2161f30ed8edbeced5e,1,0,121.504517,29.685849,13386636579,shopping,http://api.map.baidu.com/place/detail?uid=dc36f2161f30ed8edbeced5e&output=html&source=placeapi_v2,,09:00-18:30,0.0,,,,,,,,1,,,,,,,,,0
1ed6a0104c134af8ede4a5d5,荣科厨卫专卖,购物,家居建材,浙江省,宁波市,奉化区,浙江省宁波市奉化区西坞南路67-1号,1ed6a0104c134af8ede4a5d5,1,0,121.496519,29.682546,13857430322,shopping,http://api.map.baidu.com/place/detail?uid=1ed6a0104c134af8ede4a5d5&output=html&source=placeapi_v2,,,0,,,,,,,,1,,,,,,,121.49659308594,29.682694336545,0
c46739f1e068b26ec356ac19,沙发床餐桌,购物,家居建材,浙江省,宁波市,奉化区,西宁路8附近,c46739f1e068b26ec356ac19,1,0,121.504563,29.685786,,shopping,http://api.map.baidu.com/place/detail?uid=c46739f1e068b26ec356ac19&output=html&source=placeapi_v2,,,,,,,,,,,,,,,,,,,,0
846a9a9f97a487b9fbf0cbc0,奉化市西坞昌秀五金,购物,家居建材,浙江省,宁波市,奉化区,宁波市奉化区下陈庵路西坞农贸市场东北侧约110米,846a9a9f97a487b9fbf0cbc0,1,0,121.504854,29.687444,,shopping,http://api.map.baidu.com/place/detail?uid=846a9a9f97a487b9fbf0cbc0&output=html&source=placeapi_v2,,,0.0,,,,,,,,,,,,,,,121.50491549932,29.687327612495,0
463babfa7ac0f89e6fa3cc8c,阿娜玻璃橱柜,购物,家居建材,浙江省,宁波市,奉化区,浙江省宁波市奉化区文苑路30号,463babfa7ac0f89e6fa3cc8c,1,0,121.495277,29.683706,"13429355360,13906618809",shopping,http://api.map.baidu.com/place/detail?uid=463babfa7ac0f89e6fa3cc8c&output=html&source=placeapi_v2,,,0,,,,,,,,0,,,,,,,,,0
27ca133f9083a15a2cb96d4a,惠达机电,购物,家居建材,浙江省,宁波市,鄞州区,浙江省宁波市鄞州区姜南路,,1,0,121.551255,29.712924,,shopping,http://api.map.baidu.com/place/detail?uid=27ca133f9083a15a2cb96d4a&output=html&source=placeapi_v2,,,0,,,,,,,,1,,,,,,,,,0
4d999444b52a419249fc8d27,力波管道建材,购物,家居建材,浙江省,宁波市,奉化区,宁波市奉化区奉郭线力邦・金溪花园东侧约40米,4d999444b52a419249fc8d27,1,0,121.556321,29.688233,,shopping,http://api.map.baidu.com/place/detail?uid=4d999444b52a419249fc8d27&output=html&source=placeapi_v2,,,,,,,,,,,,,,,,,,121.55627482867,29.688285801923,0
6deee3087eff4d1729fc4824,日兴电气,购物,家居建材,浙江省,宁波市,鄞州区,浙江省宁波市鄞州区日兴电气元件厂(华锋桥西130米),6deee3087eff4d1729fc4824,1,0,121.678748,29.705971,,shopping,http://api.map.baidu.com/place/detail?uid=6deee3087eff4d1729fc4824&output=html&source=placeapi_v2,,09:00-18:00,,,,,,,,,,,,,,,,121.67879187759,29.706151540863,0
2d879aae5f49287ad1f49e2b,万家乐家私,购物,家居建材,浙江省,宁波市,鄞州区,浙江省宁波市鄞州区塘溪镇东江加油站旁(云归庵附近),,1,0,121.699305,29.687441,(0574)88402964,shopping,http://api.map.baidu.com/place/detail?uid=2d879aae5f49287ad1f49e2b&output=html&source=placeapi_v2,,09:00-18:30,,,,,,,,,,,,,,,,121.69927516738,29.687397972198,0
38e4803775684334373a7106,腾达五金,购物,家居建材,浙江省,宁波市,鄞州区,宁波市鄞州区,,1,0,121.692414,29.703934,(0574)88402524,shopping,http://api.map.baidu.com/place/detail?uid=38e4803775684334373a7106&output=html&source=placeapi_v2,,00:00-24:00,5.0,,,,,,,,1,,,,,,,121.69227202883,29.704034850662,0
75ad0915f563053b4107c111,岳明门窗,购物,家居建材,浙江省,宁波市,鄞州区,宁波市鄞州区咸兴路王家新村(咸河段)西侧约220米,,1,0,121.788274,29.696203,,shopping,http://api.map.baidu.com/place/detail?uid=75ad0915f563053b4107c111&output=html&source=placeapi_v2,,,,,,,,,,,,,,,,,,,,0
fb89edec1060356ea104643d,维科家纺(咸祥中路店),购物,家居建材,浙江省,宁波市,鄞州区,浙江省宁波市鄞州区菜场西路21-2号,fb89edec1060356ea104643d,1,0,121.783767,29.696408,(0574)88403822,shopping,http://api.map.baidu.com/place/detail?uid=fb89edec1060356ea104643d&output=html&source=placeapi_v2,,08:00-20:30,5,,,,,,,,2,,,,,,,,,0
9bbb8591b9faa0d6a8059dc4,福尔家私,购物,家居建材,浙江省,宁波市,鄞州区,咸祥镇咸祥中路58号,,1,0,121.784089,29.695216,13362857427,shopping,http://api.map.baidu.com/place/detail?uid=9bbb8591b9faa0d6a8059dc4&output=html&source=placeapi_v2,,08:00-20:00,,,,,,,,,,,,,,,,121.78418820714,29.695328971377,0
de5c14a3e06684dddf1e52ce,建筑机械经营部,购物,家居建材,浙江省,宁波市,鄞州区,浙江省宁波市鄞州区咸祥中路18号,,1,0,121.782629,29.697774,,shopping,http://api.map.baidu.com/place/detail?uid=de5c14a3e06684dddf1e52ce&output=html&source=placeapi_v2,,,,,,,,,,,,,,,,,,121.78273934635,29.697834469487,0
6e80bc7d7761a39aae045739,奥吉丽淋浴房,购物,家居建材,浙江省,宁波市,鄞州区,浙江省宁波市鄞州区咸兴路86号,6e80bc7d7761a39aae045739,1,0,121.785251,29.695011,,shopping,http://api.map.baidu.com/place/detail?uid=6e80bc7d7761a39aae045739&output=html&source=placeapi_v2,,09:00-17:30,,,,,,,,,,,,,,,,121.78522211187,29.695079574835,0
19d33695672dd09f71210bf7,正源布店,购物,家居建材,浙江省,宁波市,鄞州区,浙江省宁波市鄞州区菜场西路39号,,1,0,121.786422,29.69456,13586584556,shopping,http://api.map.baidu.com/place/detail?uid=19d33695672dd09f71210bf7&output=html&source=placeapi_v2,,,,,,,,,,,,,,,,,,121.78663363818,29.69453185296,0
26b1da39f53f00a39d82ea65,千家家纺,购物,家居建材,浙江省,宁波市,鄞州区,宁波市鄞州区咸兴路咸三村原中心幼儿园东北侧约170米,,1,0,121.787037,29.694423,15067715561,shopping,http://api.map.baidu.com/place/detail?uid=26b1da39f53f00a39d82ea65&output=html&source=placeapi_v2,,,,,,,,,,,,,,,,,,,,0
2a196204965de9f91d58006e,超市玻璃,购物,家居建材,浙江省,宁波市,鄞州区,浙江省宁波市鄞州区咸祥中路87号,,1,0,121.784323,29.695368,(0574)88302995,shopping,http://api.map.baidu.com/place/detail?uid=2a196204965de9f91d58006e&output=html&source=placeapi_v2,,07:00-22:30,,,,,,,,,,,,,,,,,,0
764672e5e7280fd394ec849c,甬龙家私,购物,家居建材,浙江省,宁波市,鄞州区,浙江省宁波市鄞州区咸祥镇竹山新村,764672e5e7280fd394ec849c,1,0,121.796715,29.694669,"13906625718,18069053631",shopping,http://api.map.baidu.com/place/detail?uid=764672e5e7280fd394ec849c&output=html&source=placeapi_v2,,,0.0,,,,,,,,,,,,,,,121.79671264486,29.694875069192,0
49fa6b4da8f20008250bd048,国军装潢店,购物,家居建材,浙江省,宁波市,鄞州区,浙江省宁波市鄞州区咸祥中路186号,49fa6b4da8f20008250bd048,1,0,121.786138,29.690375,"(0574)88300311,13081968628",shopping,http://api.map.baidu.com/place/detail?uid=49fa6b4da8f20008250bd048&output=html&source=placeapi_v2,,,,,,,,,,,,,,,,,,121.78625949214,29.690411634594,0
423d204a600657e0b020a84d,阿达橱柜,购物,家居建材,浙江省,宁波市,鄞州区,宁波市鄞州区咸球路观海苑,,1,0,121.791546,29.686848,13967847870,shopping,http://api.map.baidu.com/place/detail?uid=423d204a600657e0b020a84d&output=html&source=placeapi_v2,,,,,,,,,,,,,,,,,,,,0
dc776a7fff1ef5f743d63e93,厂家直供,购物,家居建材,浙江省,宁波市,鄞州区,宁波市鄞州区咸兴路竹山新村东侧约40米,,1,0,121.795787,29.695037,,shopping,http://api.map.baidu.com/place/detail?uid=dc776a7fff1ef5f743d63e93&output=html&source=placeapi_v2,,,,,,,,,,,,,,,,,,,,0
1495969b68f71f2643e1929f,旭普灯饰,购物,家居建材,浙江省,宁波市,鄞州区,宁波市鄞州区咸球路观海苑西北侧约30米,,1,0,121.790979,29.687125,13282265792,shopping,http://api.map.baidu.com/place/detail?uid=1495969b68f71f2643e1929f&output=html&source=placeapi_v2,,,,,,,,,,,,,,,,,,121.79092087938,29.686972485916,0
33aa23a774b730ec4f3a59c8,华帝(咸祥中路店),购物,家居建材,浙江省,宁波市,鄞州区,宁波市鄞州区咸祥中路西宅公园西北侧约170米,,1,0,121.788,29.687625,(0574)88403759,shopping,http://api.map.baidu.com/place/detail?uid=33aa23a774b730ec4f3a59c8&output=html&source=placeapi_v2,,,,,,,,,,,,,,,,,,121.78807631413,29.687708247072,0
6706be9114dba6c31b94c67b,宁波宁东启航工具,购物,家居建材,浙江省,宁波市,鄞州区,浙江省宁波市鄞州区咸球路607号2楼,,1,0,121.798015,29.690877,,shopping,http://api.map.baidu.com/place/detail?uid=6706be9114dba6c31b94c67b&output=html&source=placeapi_v2,,,,,,,,,,,,,,,,,,121.79786643205,29.690645996976,0
b83863a2525932214afc8d9c,坤诚建材,购物,家居建材,浙江省,宁波市,奉化区,浙江省宁波市奉化区江宁路100-12号,,1,0,121.415742,29.728031,18395824355,shopping,http://api.map.baidu.com/place/detail?uid=b83863a2525932214afc8d9c&output=html&source=placeapi_v2,,,,,,,,,,,,,,,,,,121.41588420041,29.728040818963,0
69e72d71f80763269cf77997,江口小家纺行,购物,家居建材,浙江省,宁波市,奉化区,浙江省宁波市奉化区光德路33号,,1,0,121.413757,29.732213,13858359042,shopping,http://api.map.baidu.com/place/detail?uid=69e72d71f80763269cf77997&output=html&source=placeapi_v2,,09:00-18:30,,,,,,,,,,,,,,,,121.41386910173,29.732240219637,0
6a8dc480c9db46fed4851f46,傅氏布庄,购物,家居建材,浙江省,宁波市,奉化区,浙江省宁波市奉化区江南路34号,,1,0,121.414791,29.727575,15345745696,shopping,http://api.map.baidu.com/place/detail?uid=6a8dc480c9db46fed4851f46&output=html&source=placeapi_v2,,,,,,,,,,,,,,,,,,121.41480515044,29.727413054172,0
bd181418a98f6645873304ac,四季防水店,购物,家居建材,浙江省,宁波市,奉化区,江宁路21-1号附近,,1,0,121.416526,29.733292,17858877502,shopping,http://api.map.baidu.com/place/detail?uid=bd181418a98f6645873304ac&output=html&source=placeapi_v2,,07:00-19:00,,,,,,,,,,,,,,,,121.41633939786,29.733307925499,0
1f4353bf27c973612cb17e71,灵峰家纺,购物,家居建材,浙江省,宁波市,奉化区,宁波市奉化区灵峰路罗蒙总部大厦(新浦路)西侧约210米,,1,0,121.414089,29.732272,15706899113,shopping,http://api.map.baidu.com/place/detail?uid=1f4353bf27c973612cb17e71&output=html&source=placeapi_v2,,,,,,,,,,,,,,,,,,,,0
7ccea2f8902c4098d8ecedda,红太阳铝合金门窗,购物,家居建材,浙江省,宁波市,奉化区,浙江省宁波市奉化区江宁路100-11号,,1,0,121.415741,29.72804,13857823926,shopping,http://api.map.baidu.com/place/detail?uid=7ccea2f8902c4098d8ecedda&output=html&source=placeapi_v2,,07:00-21:00,,,,,,,,,,,,,,,,,,0
9c857a204381d8db1ef74dbf,文平装璜店,购物,家居建材,浙江省,宁波市,奉化区,宁波市奉化区江峰路江口中心幼儿园东南侧约50米,,1,0,121.413589,29.727036,"13586636382,18857475247",shopping,http://api.map.baidu.com/place/detail?uid=9c857a204381d8db1ef74dbf&output=html&source=placeapi_v2,,,,,,,,,,,,,,,,,,121.41373837672,29.727055619691,0
149cd0cf82a75f653010af96,凯颂莱帝卫浴,购物,家居建材,浙江省,宁波市,奉化区,宁波市奉化区芦湾新区10号2楼,,1,0,121.417901,29.715727,,shopping,http://api.map.baidu.com/place/detail?uid=149cd0cf82a75f653010af96&output=html&source=placeapi_v2,,,,,,,,,,,,,,,,,,,,0
f9baf9977774653c0d3dda15,专业锯床冲床落料,购物,家居建材,浙江省,宁波市,海曙区,宁波市海曙区S214,,1,0,121.423453,29.74845,"(0574)88433279,13008994766",shopping,http://api.map.baidu.com/place/detail?uid=f9baf9977774653c0d3dda15&output=html&source=placeapi_v2,,,,,,,,,,,,,,,,,,121.42359616668,29.748345860905,0
16c094487afdf63adeee8ba9,雅辰窗帘店(工厂店),购物,家居建材,浙江省,宁波市,鄞州区,浙江省宁波市鄞州区姜山镇蔡郎桥村姜横线丽兴嘉苑旁,,1,0,121.54697,29.733919,"13586813330,15168531300",shopping,http://api.map.baidu.com/place/detail?uid=16c094487afdf63adeee8ba9&output=html&source=placeapi_v2,,09:30-17:30,,,,,,,,,,,,,,,,,,0
78e203850792b96ae215f92c,神恩燃具,购物,家居建材,浙江省,宁波市,鄞州区,宁波市鄞州区姜丽路与鄞城大道交叉路口往南约230米,,1,0,121.545719,29.74127,(0574)83011131,shopping,http://api.map.baidu.com/place/detail?uid=78e203850792b96ae215f92c&output=html&source=placeapi_v2,,,,,,,,,,,,,,,,,,121.54591177868,29.741279056998,0
37d60a464186b81d1e1d1116,胜昌钢材,购物,家居建材,浙江省,宁波市,鄞州区,浙江省宁波市鄞州区横溪镇文化路钱岙村村民委员会东北,,1,0,121.592361,29.730783,,shopping,http://api.map.baidu.com/place/detail?uid=37d60a464186b81d1e1d1116&output=html&source=placeapi_v2,,,,,,,,,,,,,,,,,,121.59238899185,29.730631564526,0
7b96365a252c2b36ca1b951b,盛浩装潢店,购物,家居建材,浙江省,宁波市,鄞州区,浙江省宁波市鄞州区云龙镇甲村横马路169号静h水果副食烟酒商行上李家102号,,1,0,121.578611,29.74801,"13056872021,18067247749",shopping,http://api.map.baidu.com/place/detail?uid=7b96365a252c2b36ca1b951b&output=html&source=placeapi_v2,,,,,,,,,,,,,,,,,,121.57862682927,29.747943764771,0
8b847466ca351345593ac805,爱家装饰(宁横南路店),购物,家居建材,浙江省,宁波市,鄞州区,宁波市鄞州区宁横南路2112号,,1,0,121.597695,29.731283,15258240482,shopping,http://api.map.baidu.com/place/detail?uid=8b847466ca351345593ac805&output=html&source=placeapi_v2,,,,,,,,,,,,,,,,,,121.59782571286,29.731300417571,0
fe2247be721c9bdabb17e78a,维科家纺(宁波横溪店),购物,家居建材,浙江省,宁波市,鄞州区,浙江省宁波市鄞州区人民北路44-50号,fe2247be721c9bdabb17e78a,1,0,121.601059,29.7322,,shopping,http://api.map.baidu.com/place/detail?uid=fe2247be721c9bdabb17e78a&output=html&source=placeapi_v2,,,,,,,,,,,,,,,,,,121.60085501553,29.732165659107,0
4915874b7e1accfac6effb07,带锯床带锯条,购物,家居建材,浙江省,宁波市,鄞州区,宁波市鄞州区绿艺幼儿园西南侧约110米,,1,0,121.587061,29.749442,13245559301,shopping,http://api.map.baidu.com/place/detail?uid=4915874b7e1accfac6effb07&output=html&source=placeapi_v2,,,0.0,,,,,,,,1,,,,,,,,,0
10a0dbeb887e366543afe6a0,平国建材日杂店,购物,家居建材,浙江省,宁波市,鄞州区,宁波市鄞州区石汪线上李家新村东南侧约40米,,1,0,121.581119,29.748343,(0574)88473680,shopping,http://api.map.baidu.com/place/detail?uid=10a0dbeb887e366543afe6a0&output=html&source=placeapi_v2,,05:30-21:30,5.0,,,,,,,,2,,,,,,,,,0
715e11e3b783a96d223bf28c,京京安全门专卖店,购物,家居建材,浙江省,宁波市,鄞州区,浙江省宁波市鄞州区宁横南路2126号,,1,0,121.597951,29.729908,18395866580,shopping,http://api.map.baidu.com/place/detail?uid=715e11e3b783a96d223bf28c&output=html&source=placeapi_v2,,,,,,,,,,,,,,,,,,121.59807609486,29.729919454876,0
781bd4d494abb999b320a833,金辉移门橱柜,购物,家居建材,浙江省,宁波市,鄞州区,宁波市鄞州区环镇东路横溪镇中心幼儿园西南侧约100米,,1,0,121.599178,29.730359,"13306661810,13336893051",shopping,http://api.map.baidu.com/place/detail?uid=781bd4d494abb999b320a833&output=html&source=placeapi_v2,,,,,,,,,,,,,,,,,,,,0
255eee52b49dfaddc26c14e2,任兴建材批发部,购物,家居建材,浙江省,宁波市,鄞州区,宁波市鄞州区宁裘线宁波杰纳尔船舶配件有限公司,,1,0,121.597805,29.732083,13567880335,shopping,http://api.map.baidu.com/place/detail?uid=255eee52b49dfaddc26c14e2&output=html&source=placeapi_v2,,,,,,,,,,,,,,,,,,,,0
24af4e1871ee41cbd618b77c,兴陈水道建材,购物,家居建材,浙江省,宁波市,鄞州区,浙江省宁波市鄞州区人民路69号,24af4e1871ee41cbd618b77c,1,0,121.600839,29.727691,13757480762,shopping,http://api.map.baidu.com/place/detail?uid=24af4e1871ee41cbd618b77c&output=html&source=placeapi_v2,,,,,,,,,,,,,,,,,,121.60094028898,29.727698047816,0
b991524952a76b65f603b89f,红诚家具店,购物,家居建材,浙江省,宁波市,鄞州区,宁波市鄞州区环镇东路横溪镇中心幼儿园西南侧约130米,,1,0,121.599006,29.730073,"13777044532,13777993394",shopping,http://api.map.baidu.com/place/detail?uid=b991524952a76b65f603b89f&output=html&source=placeapi_v2,,,,,,,,,,,,,,,,,,121.59898635862,29.730209228312,0
4d88f2b14419d67a2811d156,佰佳窗帘,购物,家居建材,浙江省,宁波市,鄞州区,宁波市鄞州区石汪线甲旺人家,,1,0,121.575381,29.749119,"13566033852,13738851622",shopping,http://api.map.baidu.com/place/detail?uid=4d88f2b14419d67a2811d156&output=html&source=placeapi_v2,,09:30-17:30,,,,,,,,,,,,,,,,,,0
4cdd17ad6ca49c11c056ac13,沈兴钢材,购物,家居建材,浙江省,宁波市,鄞州区,浙江省宁波市鄞州区云龙镇宁裘线巨神泵业公交站东南,,1,0,121.596339,29.738702,(0574)88451179,shopping,http://api.map.baidu.com/place/detail?uid=4cdd17ad6ca49c11c056ac13&output=html&source=placeapi_v2,,10:30-17:00,,,,,,,,,,,,,,,,,,0
f48f6cdf6c8c4727ad31e53d,永兴门窗店(甲汪路店),购物,家居建材,浙江省,宁波市,鄞州区,浙江省宁波市鄞州区甲旺路8号,f48f6cdf6c8c4727ad31e53d,1,0,121.573783,29.748616,"15058263716,15258142832",shopping,http://api.map.baidu.com/place/detail?uid=f48f6cdf6c8c4727ad31e53d&output=html&source=placeapi_v2,,,0,,,,,,,,2,,,,,,,121.57354679484,29.748581703357,0
73c426ac3732813f57bfff9f,小李装璜店,购物,家居建材,浙江省,宁波市,鄞州区,宁波市鄞州区环镇东路横溪镇中心幼儿园南侧约50米,73c426ac3732813f57bfff9f,1,0,121.600326,29.730482,13777140428,shopping,http://api.map.baidu.com/place/detail?uid=73c426ac3732813f57bfff9f&output=html&source=placeapi_v2,,,,,,,,,,,,,,,,,,,,0
fe7232102fd595aa2a02e1ef,赣南门窗玻璃店,购物,家居建材,浙江省,宁波市,鄞州区,宁波市鄞州区姜陈线上李家新村南侧约180米,,1,0,121.578233,29.747976,13586517185,shopping,http://api.map.baidu.com/place/detail?uid=fe7232102fd595aa2a02e1ef&output=html&source=placeapi_v2,,07:00-22:00,,,,,,,,,,,,,,,,,,0
99b0431c565f02eb02ff2d3e,老兵电动气动五金工具,购物,家居建材,浙江省,宁波市,鄞州区,浙江省宁波市鄞州区环镇西路46号,,1,0,121.598915,29.730293,15867390349,shopping,http://api.map.baidu.com/place/detail?uid=99b0431c565f02eb02ff2d3e&output=html&source=placeapi_v2,,07:30-21:30,0.0,,,,,,,,,,,,,,,,,0
c0c64ae785873558d518b7a8,紫森木门护墙,购物,家居建材,浙江省,宁波市,鄞州区,宁波市鄞州区,,1,0,121.624923,29.732076,,shopping,http://api.map.baidu.com/place/detail?uid=c0c64ae785873558d518b7a8&output=html&source=placeapi_v2,,,,,,,,,,,,,,,,,,,,0
2b26e29710402d7a2ce67b0c,鄞州威恒家纺,购物,家居建材,浙江省,宁波市,鄞州区,宁波市鄞州区奉钱线栎斜新村南侧约230米,,1,0,121.62178,29.736834,,shopping,http://api.map.baidu.com/place/detail?uid=2b26e29710402d7a2ce67b0c&output=html&source=placeapi_v2,,,0.0,,,,,,,,,,,,,,,,,0
9be48ca6cf3cd1d8d22dd63f,公牛爱眼LED灯,购物,家居建材,浙江省,宁波市,鄞州区,宁波市鄞州区金溪路鄞南佳苑东北侧约160米,9be48ca6cf3cd1d8d22dd63f,1,0,121.603792,29.733344,,shopping,http://api.map.baidu.com/place/detail?uid=9be48ca6cf3cd1d8d22dd63f&output=html&source=placeapi_v2,,,,,,,,,,,,,,,,,,121.60371917013,29.733343826795,0
0adce3e25732b71c80a00c2c,鑫禾铝铸,购物,家居建材,浙江省,宁波市,鄞州区,浙江省宁波市鄞州区环湖南路6号,,1,1,121.669924,29.740438,,shopping,http://api.map.baidu.com/place/detail?uid=0adce3e25732b71c80a00c2c&output=html&source=placeapi_v2,,09:00-18:00,,,,,,,,,,,,,,,,121.66985389856,29.74040296998,1
d6123441e1567bb4fbdc8521,家具店,购物,家居建材,浙江省,宁波市,鄞州区,宁波市鄞州区镇中路鄞州区瞻岐镇中心小学北侧约30米,,1,0,121.836759,29.728656,15990265167,shopping,http://api.map.baidu.com/place/detail?uid=d6123441e1567bb4fbdc8521&output=html&source=placeapi_v2,,,,,,,,,,,,,,,,,,121.83670354878,29.728580367178,0
13c271d63593d19b8605bfeb,丽家窗帘店,购物,家居建材,浙江省,宁波市,鄞州区,浙江省宁波市鄞州区南虹80号,,1,0,121.830184,29.729052,13867853028,shopping,http://api.map.baidu.com/place/detail?uid=13c271d63593d19b8605bfeb&output=html&source=placeapi_v2,,09:30-17:30,,,,,,,,,,,,,,,,121.82992955269,29.728990929831,0
eb266897a8db729f4afc8d12,仁兴五金,购物,家居建材,浙江省,宁波市,鄞州区,宁波市鄞州区溪西小区366号,,1,0,121.826545,29.729699,,shopping,http://api.map.baidu.com/place/detail?uid=eb266897a8db729f4afc8d12&output=html&source=placeapi_v2,,08:00-18:00,0.0,,,,,,,,1,,,,,,,121.82687247801,29.729661022649,0
89cd9943870166891ef74d60,加工棉花床上用品,购物,家居建材,浙江省,宁波市,鄞州区,宁波市鄞州区西街虹都小区西北侧约240米,,1,0,121.831421,29.730524,,shopping,http://api.map.baidu.com/place/detail?uid=89cd9943870166891ef74d60&output=html&source=placeapi_v2,,,,,,,,,,,,,,,,,,,,0
c19e22d80c4b1314095cb3a1,美帝尔,购物,家居建材,浙江省,宁波市,鄞州区,浙江省宁波市鄞州区振兴路110滨海都市花园89号,,1,0,121.829904,29.727271,15968994717,shopping,http://api.map.baidu.com/place/detail?uid=c19e22d80c4b1314095cb3a1&output=html&source=placeapi_v2,,08:00-22:00,,,,,,,,,,,,,,,,,,0
43bb974228ca8b26d23ce37d,柏琳家纺(瞻岐店),购物,家居建材,浙江省,宁波市,鄞州区,浙江省宁波市鄞州区振兴路瞻海佳园小区南小区33号,,1,0,121.834187,29.728194,15558263096,shopping,http://api.map.baidu.com/place/detail?uid=43bb974228ca8b26d23ce37d&output=html&source=placeapi_v2,,08:30-22:00,0.0,,,,,,,,,,,,,,,121.83411981013,29.728435788882,0
2ab2a484b7b7460007026f81,瞻岐角滨防水材料经营部,购物,家居建材,浙江省,宁波市,鄞州区,浙江宁波市鄞州区镇中路98号,,1,0,121.835727,29.729251,15990559518,shopping,http://api.map.baidu.com/place/detail?uid=2ab2a484b7b7460007026f81&output=html&source=placeapi_v2,,,0,,,,,,,,1,,,,,,,,,0
99ab68cbf27d9e09715e80c7,胜德家具,购物,家居建材,浙江省,宁波市,鄞州区,浙江省宁波市鄞州区鄞东北路78号,99ab68cbf27d9e09715e80c7,1,0,121.874233,29.741645,(0574)83066828,shopping,http://api.map.baidu.com/place/detail?uid=99ab68cbf27d9e09715e80c7&output=html&source=placeapi_v2,,,5.0,,,,,,,,1,,,,,,,121.8744478014,29.741604731733,0
e889a744c64a17c88605bf00,中国机械工业建设总公司宁波生产基地,购物,家居建材,浙江省,宁波市,鄞州区,宁波市鄞州区临春路与启航北路交叉路口往东北约160米,,1,0,121.879541,29.744971,,life,http://api.map.baidu.com/place/detail?uid=e889a744c64a17c88605bf00&output=html&source=placeapi_v2,,,,,,,,,,,,,,,,,,121.88022308118,29.743883462806,0
14d0a10b6cc7b3c982a12ef6,高达建材,购物,家居建材,浙江省,宁波市,海曙区,浙江省宁波市海曙区四明西路57-6号,,1,0,121.359682,29.776954,"(0574)88034207,13566036369,13736179908",shopping,http://api.map.baidu.com/place/detail?uid=14d0a10b6cc7b3c982a12ef6&output=html&source=placeapi_v2,,07:00-19:00,0,,,,,,,,2,,,,,,,121.35966991875,29.776878259803,0
ca941fe79790568d25e0a020,永祥机电,购物,家居建材,浙江省,宁波市,海曙区,宁波市海曙区四明首路南塘小区北侧,,1,0,121.369043,29.78285,13056799671,shopping,http://api.map.baidu.com/place/detail?uid=ca941fe79790568d25e0a020&output=html&source=placeapi_v2,,09:00-18:30,,,,,,,,,,,,,,,,121.36893242142,29.782927082916,0
64a691dc89f6889a3a13fd82,惠妃窗帘店,购物,家居建材,浙江省,宁波市,海曙区,浙江省宁波市海曙区四明西路16号,,1,0,121.362258,29.777753,13857829328,shopping,http://api.map.baidu.com/place/detail?uid=64a691dc89f6889a3a13fd82&output=html&source=placeapi_v2,,09:30-17:30,,,,,,,,,,,,,,,,,,0
3f8e3a484431c8d802294fa7,摩力简精品窗帘布艺,购物,家居建材,浙江省,宁波市,海曙区,浙江省宁波市海曙区四明西路57-17号,,1,0,121.360021,29.776928,,shopping,http://api.map.baidu.com/place/detail?uid=3f8e3a484431c8d802294fa7&output=html&source=placeapi_v2,,09:30-17:30,,,,,,,,,,,,,,,,,,0
8265e7b4545f97f1b13c812a,新天地灯具,购物,家居建材,浙江省,宁波市,海曙区,浙江省宁波市海曙区四明东路62-7号,,1,0,121.365386,29.778882,15967860188,shopping,http://api.map.baidu.com/place/detail?uid=8265e7b4545f97f1b13c812a&output=html&source=placeapi_v2,,,,,,,,,,,,,,,,,,,,0
7aea43b7a11c15857c29bd0b,博洋家纺(南塘小区西北),购物,家居建材,浙江省,宁波市,海曙区,浙江省宁波市海曙区四明东路148号,7aea43b7a11c15857c29bd0b,1,0,121.368556,29.782005,13486493428,shopping,http://api.map.baidu.com/place/detail?uid=7aea43b7a11c15857c29bd0b&output=html&source=placeapi_v2,,08:00-20:00,0,,,,,,,,1,,,,,,,121.36845937014,29.78196115404,0
788053e4706b718c61685810,雅丝利安家纺工厂店,购物,家居建材,浙江省,宁波市,海曙区,浙江省宁波市海曙区四明东路83号,,1,0,121.371139,29.785125,,shopping,http://api.map.baidu.com/place/detail?uid=788053e4706b718c61685810&output=html&source=placeapi_v2,,,,,,,,,,,,,,,,,,121.37119207569,29.785152689512,0
5d092f6bdf8ac9ea9868b4e7,洛兹建材市场陶瓷3期,购物,家居建材,浙江省,宁波市,海曙区,浙江省宁波市海曙区S214,,1,0,121.434277,29.775934,15957877450,shopping,http://api.map.baidu.com/place/detail?uid=5d092f6bdf8ac9ea9868b4e7&output=html&source=placeapi_v2,0.0,,3.3,,,,,,,,0,,,,,,,121.43410748918,29.776304526047,0
657760906e1b8e1ad7851fce,黄盛建材装璜批发部,购物,家居建材,浙江省,宁波市,海曙区,宁波市海曙区S214,,1,0,121.434334,29.776346,13429299616,shopping,http://api.map.baidu.com/place/detail?uid=657760906e1b8e1ad7851fce&output=html&source=placeapi_v2,,,,,,,,,,,,,,,,,,121.43429683761,29.776351807496,0
82dc3db4f8362ad98bfc06a4,姜茅玻璃,购物,家居建材,浙江省,宁波市,海曙区,浙江省宁波市海曙区幸福路3号,82dc3db4f8362ad98bfc06a4,1,0,121.397792,29.767146,"(0574)88464588,(0574)88464900",shopping,http://api.map.baidu.com/place/detail?uid=82dc3db4f8362ad98bfc06a4&output=html&source=placeapi_v2,,,,,,,,,,,,,,,,,,121.39763539527,29.767148736534,0
e83e8f0db2ff34c416c90525,来发门窗店,购物,家居建材,浙江省,宁波市,海曙区,宁波市海曙区潘沙南路沙港新苑东侧约60米,e83e8f0db2ff34c416c90525,1,0,121.417313,29.785324,13586540858,shopping,http://api.map.baidu.com/place/detail?uid=e83e8f0db2ff34c416c90525&output=html&source=placeapi_v2,,08:00-21:00,,,,,,,,,,,,,,,,121.41724729278,29.785322986039,0
0b5bbb99200f2b2bafee7a5e,博悦家具,购物,家居建材,浙江省,宁波市,奉化区,浙江省宁波市奉化区恒安路25号,0b5bbb99200f2b2bafee7a5e,1,0,121.45481,29.767935,(0574)88334332,shopping,http://api.map.baidu.com/place/detail?uid=0b5bbb99200f2b2bafee7a5e&output=html&source=placeapi_v2,,,0.0,,,,,,,,1,,,,,,,,,0
57d8f10effb91752077ce8f4,红光厨具,购物,家居建材,浙江省,宁波市,奉化区,浙江省宁波市奉化区恒康路999号,57d8f10effb91752077ce8f4,1,0,121.459741,29.766609,13968306355,shopping,http://api.map.baidu.com/place/detail?uid=57d8f10effb91752077ce8f4&output=html&source=placeapi_v2,,00:00-24:00,0.0,,,,,,,,,,,,,,,,,0
850815e15ee33d9a43e19227,康贝厨饰,购物,家居建材,浙江省,宁波市,奉化区,浙江省宁波市奉化区恒康路55号,850815e15ee33d9a43e19227,1,0,121.459266,29.765678,(0574)88659265,shopping,http://api.map.baidu.com/place/detail?uid=850815e15ee33d9a43e19227&output=html&source=placeapi_v2,,,5,,,,,,,,1,,,,,,,121.45927334646,29.765511801646,0
b7a1bd8a8bfe39c288b988f2,东珠家具店,购物,家居建材,浙江省,宁波市,奉化区,宁波市奉化区方阳北路东江家园西北侧约130米,b7a1bd8a8bfe39c288b988f2,1,0,121.46231,29.768119,,shopping,http://api.map.baidu.com/place/detail?uid=b7a1bd8a8bfe39c288b988f2&output=html&source=placeapi_v2,,,0.0,,,,,,,,,,,,,,,121.46210322171,29.768107994157,0
2848ffd63abe560e48cc4a26,兴旺五金(恒茂路店),购物,家居建材,浙江省,宁波市,奉化区,浙江省宁波市奉化区恒茂路9号,2848ffd63abe560e48cc4a26,1,0,121.458929,29.766809,,shopping,http://api.map.baidu.com/place/detail?uid=2848ffd63abe560e48cc4a26&output=html&source=placeapi_v2,,,,,,,,,,,,,,,,,,,,0
55fa2c0b6978c12c1ce99927,宁波市天马厨具有限公司,购物,家居建材,浙江省,宁波市,奉化区,浙江省宁波市奉化区方欣路28号,55fa2c0b6978c12c1ce99927,1,0,121.453652,29.763498,(0574)88650688,shopping,http://api.map.baidu.com/place/detail?uid=55fa2c0b6978c12c1ce99927&output=html&source=placeapi_v2,,09:00-18:30,,,,,,,,,,,,,,,,121.45341569745,29.763514741408,0
fa994f4fdad59e9fd13ce325,广新电动气动批发部,购物,家居建材,浙江省,宁波市,奉化区,浙江省宁波市奉化区新建东路方桥新村1幢1号,fa994f4fdad59e9fd13ce325,1,0,121.462835,29.764754,13034699787,shopping,http://api.map.baidu.com/place/detail?uid=fa994f4fdad59e9fd13ce325&output=html&source=placeapi_v2,,07:00-21:00,,,,,,,,,,,,,,,,121.46292863782,29.764774474394,0
df4c933b81ee36092bd7ab89,伟星管小范五金建材批发,购物,家居建材,浙江省,宁波市,奉化区,浙江省宁波市奉化区恒丰路77-2号,df4c933b81ee36092bd7ab89,1,0,121.461706,29.761199,"15821234389,15921024151",shopping,http://api.map.baidu.com/place/detail?uid=df4c933b81ee36092bd7ab89&output=html&source=placeapi_v2,,,5.0,,,,,,,,2,,,,,,,121.46169710228,29.760993552317,0
727cb8ec664b791f940319bb,华兴厨卫,购物,家居建材,浙江省,宁波市,奉化区,浙江省宁波市奉化区方阳南路22号17幢1号,727cb8ec664b791f940319bb,1,0,121.462639,29.765478,13968313686,shopping,http://api.map.baidu.com/place/detail?uid=727cb8ec664b791f940319bb&output=html&source=placeapi_v2,,,,,,,,,,,,,,,,,,121.46274736156,29.765500136477,0
48c9a738180c574d35b06c43,欧港橱柜,购物,家居建材,浙江省,宁波市,奉化区,浙江省宁波市奉化区新建西路17号方桥工业区,48c9a738180c574d35b06c43,1,0,121.45496,29.764217,,shopping,http://api.map.baidu.com/place/detail?uid=48c9a738180c574d35b06c43&output=html&source=placeapi_v2,,,0,,,,,,,,1,,,,,,,121.45492033762,29.764068439226,0
b1dd6a1a0804fbcd6e4760cf,鑫兴建材(方阳南路店),购物,家居建材,浙江省,宁波市,奉化区,浙江省宁波市奉化区新建东路777号,b1dd6a1a0804fbcd6e4760cf,1,0,121.463955,29.76413,"(0574)88652821,13056909965,13867866338",shopping,http://api.map.baidu.com/place/detail?uid=b1dd6a1a0804fbcd6e4760cf&output=html&source=placeapi_v2,,,0.0,,,,,,,,1,,,,,,,121.46396487364,29.76429396836,0
9f9b8fee1c8374661b11d577,丰盛装饰材料行,购物,家居建材,浙江省,宁波市,奉化区,浙江省宁波市奉化区方阳南路88号,9f9b8fee1c8374661b11d577,1,0,121.46237,29.76653,(0574)88659368,shopping,http://api.map.baidu.com/place/detail?uid=9f9b8fee1c8374661b11d577&output=html&source=placeapi_v2,,07:00-18:00,0.0,,,,,,,,,,,,,,,,,0
e81b4a4656dd4a2508ccdd3a,宁波龙兴厨具,购物,家居建材,浙江省,宁波市,奉化区,浙江省宁波市奉化区恒东路4号,,1,0,121.47096,29.758891,,shopping,http://api.map.baidu.com/place/detail?uid=e81b4a4656dd4a2508ccdd3a&output=html&source=placeapi_v2,,,,,,,,,,,,,,,,,,121.47095509097,29.758370028916,0
b520d0044822c362b817e76f,奉化宏翰厨具有限公司,购物,家居建材,浙江省,宁波市,奉化区,宁波市奉化区方康路与恒兴东路交叉路口往北约120米,b520d0044822c362b817e76f,1,0,121.47198,29.757023,,shopping,http://api.map.baidu.com/place/detail?uid=b520d0044822c362b817e76f&output=html&source=placeapi_v2,,09:00-18:30,,,,,,,,,,,,,,,,,,0
beabdbf4a3669f997069d318,安泰照明,购物,家居建材,浙江省,宁波市,鄞州区,浙江省宁波市鄞州区朝阳路339号,beabdbf4a3669f997069d318,1,0,121.515486,29.779719,,shopping,http://api.map.baidu.com/place/detail?uid=beabdbf4a3669f997069d318&output=html&source=placeapi_v2,,,3.5,,,,,,,,3,,,,,,,121.51570867146,29.780126945377,0
adf27937b2f35996c17da217,宁波市鄞州姜山云达厨具用品厂,购物,家居建材,浙江省,宁波市,鄞州区,宁波市鄞州区明诚路水榭花都苑西北侧约220米,,1,0,121.512641,29.778083,,shopping,http://api.map.baidu.com/place/detail?uid=adf27937b2f35996c17da217&output=html&source=placeapi_v2,,,,,,,,,,,,,,,,,,,,0
fa01e937f67e2c4b774ff118,大虹工具(环镇南路店),购物,家居建材,浙江省,宁波市,鄞州区,浙江省宁波市鄞州区姜山镇环镇南路88号,fa01e937f67e2c4b774ff118,1,0,121.537636,29.769476,(0574)88098604,shopping,http://api.map.baidu.com/place/detail?uid=fa01e937f67e2c4b774ff118&output=html&source=placeapi_v2,0.0,,0.0,,,,,,,,4,,,,,,,121.53705214088,29.769688413747,0
50b8b24e6952836be011030c,全屋定制橱柜,购物,家居建材,浙江省,宁波市,鄞州区,浙江省宁波市鄞州区人民南路129号,,1,0,121.541769,29.767321,18968327177,shopping,http://api.map.baidu.com/place/detail?uid=50b8b24e6952836be011030c&output=html&source=placeapi_v2,,,,,,,,,,,,,,,,,,,,0
db662c605a14d46f6849f32b,恒涛家具城(姜山店),购物,家居建材,浙江省,宁波市,鄞州区,浙江省宁波市鄞州区环镇北路5号2楼,db662c605a14d46f6849f32b,1,0,121.536288,29.774708,18042068502,shopping,http://api.map.baidu.com/place/detail?uid=db662c605a14d46f6849f32b&output=html&source=placeapi_v2,,08:00-19:00,5,,,,,,,,1,,,,,,,121.53655322739,29.774584911483,0
1b8d4796693050311894c688,尚高卫浴(陈姜线店),购物,家居建材,浙江省,宁波市,鄞州区,浙江省宁波市鄞州区天童南路3017号,1b8d4796693050311894c688,1,0,121.551128,29.768878,"13605745285,15355129658",shopping,http://api.map.baidu.com/place/detail?uid=1b8d4796693050311894c688&output=html&source=placeapi_v2,,10:00-24:00,5,,,,,,,,1,,,,,,,121.55133717476,29.768907283957,0
fa066c80f963fbdbf4e73b3d,光芒燃具,购物,家居建材,浙江省,宁波市,鄞州区,浙江省宁波市鄞州区顺明路1987号,,1,0,121.528523,29.763739,,shopping,http://api.map.baidu.com/place/detail?uid=fa066c80f963fbdbf4e73b3d&output=html&source=placeapi_v2,,,,,,,,,,,,,,,,,,121.52875206746,29.763974382841,0
e2c19a964a28103ef7eafc89,一帆五金(五金店),购物,家居建材,浙江省,宁波市,鄞州区,浙江省宁波市鄞州区南大东路88号,e2c19a964a28103ef7eafc89,1,0,121.548082,29.771513,"(0574)28825582,13208079779",shopping,http://api.map.baidu.com/place/detail?uid=e2c19a964a28103ef7eafc89&output=html&source=placeapi_v2,,06:00-21:00,0.0,,,,,,,,,,,,,,,121.54810130134,29.771580503489,0
1932ce6dd9b0d4030a5cb326,陌上花家纺定制,购物,家居建材,浙江省,宁波市,鄞州区,浙江省宁波市鄞州区天童南路2999号,1932ce6dd9b0d4030a5cb326,1,0,121.551093,29.769218,13282261801,shopping,http://api.map.baidu.com/place/detail?uid=1932ce6dd9b0d4030a5cb326&output=html&source=placeapi_v2,0.0,08:00-20:00,5,,,,,,,,2,,,,,,,121.55114386121,29.769224517811,0
f66b0289f7d304f107026f78,鸿桓金属,购物,家居建材,浙江省,宁波市,鄞州区,浙江省宁波市鄞州区天童南路2986号,,1,0,121.551545,29.769375,13386603542,shopping,http://api.map.baidu.com/place/detail?uid=f66b0289f7d304f107026f78&output=html&source=placeapi_v2,,07:00-18:00,,,,,,,,,,,,,,,,,,0
920be44b3fd1b6c6c26c14e8,星星塑料批发,购物,家居建材,浙江省,宁波市,鄞州区,浙江省宁波市鄞州区环镇北路25号,,1,0,121.53596,29.77826,,shopping,http://api.map.baidu.com/place/detail?uid=920be44b3fd1b6c6c26c14e8&output=html&source=placeapi_v2,,,,,,,,,,,,,,,,,,121.5361725884,29.778278845632,0
77d3643553fe6d7aa6da39f4,钱之源不锈钢,购物,家居建材,浙江省,宁波市,鄞州区,宁波市鄞州区陈姜线华泰星城东侧约40米,,1,0,121.551687,29.76887,"13858262087,18657465183",shopping,http://api.map.baidu.com/place/detail?uid=77d3643553fe6d7aa6da39f4&output=html&source=placeapi_v2,,,,,,,,,,,,,,,,,,121.55142307073,29.768878015597,0
341c35de550139c3e70738b7,博洋家纺(东方路店),购物,家居建材,浙江省,宁波市,鄞州区,浙江省宁波市鄞州区东方路51~53号,,1,0,121.549625,29.769549,13777000562,shopping,http://api.map.baidu.com/place/detail?uid=341c35de550139c3e70738b7&output=html&source=placeapi_v2,0.0,08:30-20:30,0,,,,,,,,1,,,,,,,121.54956686253,29.769682085525,0
6e59b007fefcf2de2a02e15b,豪美门窗移门,购物,家居建材,浙江省,宁波市,鄞州区,浙江省宁波市鄞州区东方路36号-34号,6e59b007fefcf2de2a02e15b,1,0,121.550034,29.769906,15990282559,shopping,http://api.map.baidu.com/place/detail?uid=6e59b007fefcf2de2a02e15b&output=html&source=placeapi_v2,,,,,,,,,,,,,,,,,,121.55002972792,29.769815803721,0
a2b7caa71c7cc9c7a11de983,丰宏焊割商行,购物,家居建材,浙江省,宁波市,鄞州区,宁波市鄞州区朝阳路姜山镇政府北侧约30米,a2b7caa71c7cc9c7a11de983,1,0,121.535998,29.777556,13396623338,shopping,http://api.map.baidu.com/place/detail?uid=a2b7caa71c7cc9c7a11de983&output=html&source=placeapi_v2,,07:00-18:00,,,,,,,,,,,,,,,,121.53600654471,29.777444486338,0
b2446553b5b4bce1b54f547f,东方五金电器建材店,购物,家居建材,浙江省,宁波市,鄞州区,浙江省宁波市鄞州区南大东路98号,b2446553b5b4bce1b54f547f,1,0,121.548232,29.771488,(0574)88098121,shopping,http://api.map.baidu.com/place/detail?uid=b2446553b5b4bce1b54f547f&output=html&source=placeapi_v2,,06:15-18:45,3.9,,,,,,,,0,,,,,,,121.54822698327,29.771616887911,0
2213dc2d9e7c7e098bdb73ae,姜山能达五金电器商店,购物,家居建材,浙江省,宁波市,鄞州区,浙江省宁波市鄞州区人民中路337号,2213dc2d9e7c7e098bdb73ae,1,0,121.544623,29.77486,(0574)88452321,shopping,http://api.map.baidu.com/place/detail?uid=2213dc2d9e7c7e098bdb73ae&output=html&source=placeapi_v2,,07:30-17:00,1,,,,,,,,1,,,,,,,,,0
cebee2c4d4239a5ed8ecedc5,带锯条带锯床,购物,家居建材,浙江省,宁波市,鄞州区,宁波市鄞州区陈姜线华泰星城,cebee2c4d4239a5ed8ecedc5,1,0,121.551164,29.768651,,shopping,http://api.map.baidu.com/place/detail?uid=cebee2c4d4239a5ed8ecedc5&output=html&source=placeapi_v2,,,,,,,,,,,,,,,,,,,,0
f5e9ea1258d87aaf1f389412,追梦装饰,购物,家居建材,浙江省,宁波市,鄞州区,浙江省宁波市鄞州区北大路102号,f5e9ea1258d87aaf1f389412,1,0,121.53893,29.777497,"13095974368,13245500668",shopping,http://api.map.baidu.com/place/detail?uid=f5e9ea1258d87aaf1f389412&output=html&source=placeapi_v2,,09:00-19:00,0,,,,,,,,1,,,,,,,121.53899223285,29.777590825049,0
34cfa787df0f3cedab0dd822,创坤家具(姜山店),购物,家居建材,浙江省,宁波市,鄞州区,浙江省宁波市鄞州区首南街道三里工业区(宁波华升数控车床有限公司三楼),34cfa787df0f3cedab0dd822,1,0,121.535812,29.784752,15381992590,shopping,http://api.map.baidu.com/place/detail?uid=34cfa787df0f3cedab0dd822&output=html&source=placeapi_v2,,,5,,,,,,,,3,,,,,,,121.53571393516,29.784774347923,0
d0df2f096451a93b0aa8d435,信发门窗,购物,家居建材,浙江省,宁波市,鄞州区,浙江省宁波市鄞州区南大东路东方五金电器建材店旁,d0df2f096451a93b0aa8d435,1,0,121.548547,29.771623,15058885508,shopping,http://api.map.baidu.com/place/detail?uid=d0df2f096451a93b0aa8d435&output=html&source=placeapi_v2,,,,,,,,,,,,,,,,,,121.54852001951,29.771697635213,0
4075b358853bf99e40afe6dc,洁琳橱柜,购物,家居建材,浙江省,宁波市,鄞州区,浙江省宁波市鄞州区小庄路957号,,1,0,121.537284,29.779284,15988671116,shopping,http://api.map.baidu.com/place/detail?uid=4075b358853bf99e40afe6dc&output=html&source=placeapi_v2,,,,,,,,,,,,,,,,,,,,0
aa7deb48fb88a866283a9f5c,姜山小唐木材商行,购物,家居建材,浙江省,宁波市,鄞州区,浙江省宁波市鄞州区天童南路3007-3013号,aa7deb48fb88a866283a9f5c,1,0,121.551148,29.769111,"13685833453,13805892931",shopping,http://api.map.baidu.com/place/detail?uid=aa7deb48fb88a866283a9f5c&output=html&source=placeapi_v2,,06:30-23:00,3.5,,,,,,,,,,,,,,,121.55134818349,29.769106271477,0
0bda87f6c2cfa3fd79b55c24,华润油漆专卖店(朝阳路店),购物,家居建材,浙江省,宁波市,鄞州区,浙江省宁波市鄞州区北大西路126-2号,0bda87f6c2cfa3fd79b55c24,1,0,121.535493,29.777513,13967819812,shopping,http://api.map.baidu.com/place/detail?uid=0bda87f6c2cfa3fd79b55c24&output=html&source=placeapi_v2,,09:00-18:00,,,,,,,,,,,,,,,,121.53551561805,29.777413585078,0
0958b21a7bcaec0b26d2bb3a,佳佳铝材,购物,家居建材,浙江省,宁波市,鄞州区,宁波市鄞州区东工二路景瑞金地御江山东侧约190米,,1,0,121.554121,29.776803,,shopping,http://api.map.baidu.com/place/detail?uid=0958b21a7bcaec0b26d2bb3a&output=html&source=placeapi_v2,,07:00-23:30,,,,,,,,,,,,,,,,,,0
2e00c5dd8d83511dd7851f15,新太阳(东工一路店),购物,家居建材,浙江省,宁波市,鄞州区,浙江宁波市鄞州区东工一路10号,,1,0,121.552652,29.77661,,shopping,http://api.map.baidu.com/place/detail?uid=2e00c5dd8d83511dd7851f15&output=html&source=placeapi_v2,,,,,,,,,,,,,,,,,,121.55270583752,29.776539424357,0
520411ef7c5e847fdbd891f5,事成钢材店,购物,家居建材,浙江省,宁波市,鄞州区,宁波市鄞州区环镇北路中国石油(亚泰石油加油站)西侧约180米,520411ef7c5e847fdbd891f5,1,0,121.535208,29.785757,,shopping,http://api.map.baidu.com/place/detail?uid=520411ef7c5e847fdbd891f5&output=html&source=placeapi_v2,,,,,,,,,,,,,,,,,,121.53542222123,29.785772686625,0
0ce65c2d9796a1582d473315,宏远电机,购物,家居建材,浙江省,宁波市,鄞州区,浙江省宁波市鄞州区东工二路3号,0ce65c2d9796a1582d473315,1,0,121.553965,29.774273,(0574)88071008,shopping,http://api.map.baidu.com/place/detail?uid=0ce65c2d9796a1582d473315&output=html&source=placeapi_v2,,,,,,,,,,,,,,,,,,121.55403936756,29.774210329275,0
98e872abc59e423bb05c6a27,迎新门窗,购物,家居建材,浙江省,宁波市,鄞州区,浙江省宁波市鄞州区陈定线紫苑小区17幢,98e872abc59e423bb05c6a27,1,0,121.583287,29.78223,13056884735,shopping,http://api.map.baidu.com/place/detail?uid=98e872abc59e423bb05c6a27&output=html&source=placeapi_v2,,07:30-19:00,5,,,,,,,,2,,,,,,,121.58322807586,29.782326130495,0
e3082848242cf8c1b34c49e0,新兴五金(云振路店),购物,家居建材,浙江省,宁波市,鄞州区,云振路与龙翔路交叉口西北100米,,1,1,121.614621,29.769453,,shopping,http://api.map.baidu.com/place/detail?uid=e3082848242cf8c1b34c49e0&output=html&source=placeapi_v2,,,0.0,,,,,,,,1,,,,,,,121.6147263375,29.769354065291,1
2f061b44d55ca8f99d82ead4,科凡隔断,购物,家居建材,浙江省,宁波市,鄞州区,宁波市鄞州区云隐路龙峰工业园东南侧约140米,,1,1,121.614743,29.772526,,shopping,http://api.map.baidu.com/place/detail?uid=2f061b44d55ca8f99d82ead4&output=html&source=placeapi_v2,,,,,,,,,,,,,,,,,,121.61434810148,29.772219031103,1
99224597a6ea2c3303ec0140,云龙五金管道百杂店,购物,家居建材,浙江省,宁波市,鄞州区,鄞州区长山江路73号,99224597a6ea2c3303ec0140,1,0,121.607664,29.779561,,shopping,http://api.map.baidu.com/place/detail?uid=99224597a6ea2c3303ec0140&output=html&source=placeapi_v2,,,3.5,,,,,,,,0,,,,,,,,,0
4a2db9886c09045c3586f4a8,小陈气动电动工具,购物,家居建材,浙江省,宁波市,鄞州区,宁波市鄞州区云达路华宁宾馆(云达路),,1,0,121.608636,29.771123,13957840873,shopping,http://api.map.baidu.com/place/detail?uid=4a2db9886c09045c3586f4a8&output=html&source=placeapi_v2,,00:00-24:00,,,,,,,,,,,,,,,,,,0
42c022a28439ecd917948e60,吉莱和美家纺,购物,家居建材,浙江省,宁波市,鄞州区,浙江省宁波市鄞州区湖路启发商业广场1090号,42c022a28439ecd917948e60,1,0,121.606786,29.776119,13857866630,shopping,http://api.map.baidu.com/place/detail?uid=42c022a28439ecd917948e60&output=html&source=placeapi_v2,,10:00-21:00,5,,,,,,,,1,,,,,,,,,0
a12baa408e000457e856fa15,鄞州云龙晨光灯具厂,购物,家居建材,浙江省,宁波市,鄞州区,浙江省宁波市鄞州区云莫路与鸣凤路交叉口东侧,,1,0,121.615698,29.776318,(0574)88346918,shopping,http://api.map.baidu.com/place/detail?uid=a12baa408e000457e856fa15&output=html&source=placeapi_v2,,,0.0,,,,,,,,,,,,,,,121.61572135638,29.776494959319,0
37efaca20e6276b694031900,勤大轴承,购物,家居建材,浙江省,宁波市,鄞州区,浙江省宁波市鄞州区云辉路55号,37efaca20e6276b694031900,1,1,121.610609,29.765472,(0574)83018136,shopping,http://api.map.baidu.com/place/detail?uid=37efaca20e6276b694031900&output=html&source=placeapi_v2,,07:30-16:30,,,,,,,,,,,,,,,,121.60960854639,29.765643870414,1
70a48af33f13e62397031964,欣佳橱柜,购物,家居建材,浙江省,宁波市,鄞州区,宁波市鄞州区云达路银亿上郡,70a48af33f13e62397031964,1,0,121.606476,29.777623,15258319595,shopping,http://api.map.baidu.com/place/detail?uid=70a48af33f13e62397031964&output=html&source=placeapi_v2,,,,,,,,,,,,,,,,,,121.60627648512,29.777600922422,0
a4757ce54291441b223bf235,鑫亿布艺,购物,家居建材,浙江省,宁波市,鄞州区,浙江省宁波市鄞州区云达路423号,a4757ce54291441b223bf235,1,0,121.606535,29.777374,15888187618,shopping,http://api.map.baidu.com/place/detail?uid=a4757ce54291441b223bf235&output=html&source=placeapi_v2,,,,,,,,,,,,,,,,,,121.60633876733,29.77732478727,0
45b2b1eb304dbf8b2806cef7,凯凯家具百货,购物,家居建材,浙江省,宁波市,鄞州区,浙江省宁波市鄞州区云达路639号,,1,0,121.607444,29.774127,18668578389,shopping,http://api.map.baidu.com/place/detail?uid=45b2b1eb304dbf8b2806cef7&output=html&source=placeapi_v2,,,,,,,,,,,,,,,,,,121.60757230159,29.774153250972,0
0776a405d57aeada2d473302,林天百货床上用品,购物,家居建材,浙江省,宁波市,鄞州区,宁波市鄞州区云达路云龙综合市场西侧约50米,,1,0,121.6073,29.774643,,shopping,http://api.map.baidu.com/place/detail?uid=0776a405d57aeada2d473302&output=html&source=placeapi_v2,,,,,,,,,,,,,,,,,,121.60742303915,29.774676796698,0
acc96e9d26d81e02901fc994,博驰五金刀具,购物,家居建材,浙江省,宁波市,北仑区,浙江省宁波市北仑区洋沙山路126~130号,acc96e9d26d81e02901fc994,1,0,121.908076,29.767992,"(0574)86099958,13586919588",shopping,http://api.map.baidu.com/place/detail?uid=acc96e9d26d81e02901fc994&output=html&source=placeapi_v2,,07:00-18:30,,,,,,,,,,,,,,,,121.90813072767,29.768010020237,0
824a90e6ac0f31ce3b221c84,创业五金机电,购物,家居建材,浙江省,宁波市,北仑区,浙江省宁波市北仑区洋沙山路110号,,1,0,121.908163,29.767812,13777003158,shopping,http://api.map.baidu.com/place/detail?uid=824a90e6ac0f31ce3b221c84&output=html&source=placeapi_v2,,07:00-20:00,5,,,,,,,,2,,,,,,,121.90823532007,29.767775429336,0
1247ad261799f8466e20b983,初识家具,购物,家居建材,浙江省,宁波市,北仑区,浙江省宁波市北仑区庆河路185号,,1,0,121.910343,29.763261,,shopping,http://api.map.baidu.com/place/detail?uid=1247ad261799f8466e20b983&output=html&source=placeapi_v2,,,,,,,,,,,,,,,,,,,,0
c55c8eeba24f1d104c3a59ee,胜利五金机电,购物,家居建材,浙江省,宁波市,北仑区,浙江省宁波市北仑区洋沙山路106号,c55c8eeba24f1d104c3a59ee,1,0,121.908196,29.767662,(0574)86085328,shopping,http://api.map.baidu.com/place/detail?uid=c55c8eeba24f1d104c3a59ee&output=html&source=placeapi_v2,,06:30-20:30,0.0,,,,,,,,1,,,,,,,121.90827020846,29.767697178609,0
36c4a01e232f83cb88f15db5,博信冲床,购物,家居建材,浙江省,宁波市,北仑区,浙江省宁波市北仑区西子山路155号,,1,0,121.903244,29.7672,,shopping,http://api.map.baidu.com/place/detail?uid=36c4a01e232f83cb88f15db5&output=html&source=placeapi_v2,,,,,,,,,,,,,,,,,,121.90352526354,29.767293503765,0
c5d20b4a2883411ee81e971b,旺达石材(横鄞线店),购物,家居建材,浙江省,宁波市,海曙区,宁波市海曙区横鄞线,c5d20b4a2883411ee81e971b,1,0,121.367644,29.792702,,shopping,http://api.map.baidu.com/place/detail?uid=c5d20b4a2883411ee81e971b&output=html&source=placeapi_v2,,,,,,,,,,,,,,,,,,121.36810958795,29.7923019936,0
8fc151df5b6b5dd5095cb310,浩洁建材轻质砖,购物,家居建材,浙江省,宁波市,海曙区,宁波市海曙区谢山路粮丰小区(潘沙北路)西侧约130米,8fc151df5b6b5dd5095cb310,1,0,121.414336,29.789235,"15058456958,18858416405",shopping,http://api.map.baidu.com/place/detail?uid=8fc151df5b6b5dd5095cb310&output=html&source=placeapi_v2,,,,,,,,,,,,,,,,,,121.41423116646,29.789340165409,0
ffbe19b321e0c6ad601c677a,甬光五金机电商店,购物,家居建材,浙江省,宁波市,海曙区,浙江省宁波市海曙区荷晓东路858号,ffbe19b321e0c6ad601c677a,1,0,121.421474,29.79022,"(0574)83082662,13685818368",shopping,http://api.map.baidu.com/place/detail?uid=ffbe19b321e0c6ad601c677a&output=html&source=placeapi_v2,,05:00-17:00,0.0,,,,,,,,,,,,,,,,,0
3f826ed3cab94d47d1f49e1d,雅维斯门窗,购物,家居建材,浙江省,宁波市,海曙区,浙江省宁波市海曙区洞桥镇荷晓东路538号,3f826ed3cab94d47d1f49e1d,1,1,121.428709,29.792198,,shopping,http://api.map.baidu.com/place/detail?uid=3f826ed3cab94d47d1f49e1d&output=html&source=placeapi_v2,,,,,,,,,,,,,,,,,,121.42909880895,29.791640944048,1
9003aedd8db86b5dcae33c10,信晟照明,购物,家居建材,浙江省,宁波市,海曙区,浙江省宁波市海曙区洞振路185号,,1,0,121.425715,29.794508,,shopping,http://api.map.baidu.com/place/detail?uid=9003aedd8db86b5dcae33c10&output=html&source=placeapi_v2,,,,,,,,,,,,,,,,,,,,0
e2c97f76ae53f8147ec876da,翠娥窗帘店,购物,家居建材,浙江省,宁波市,海曙区,浙江省宁波市海曙区洞欣路97号,e2c97f76ae53f8147ec876da,1,0,121.422762,29.787694,18967860455,shopping,http://api.map.baidu.com/place/detail?uid=e2c97f76ae53f8147ec876da&output=html&source=placeapi_v2,,,,,,,,,,,,,,,,,,,,0
edb336a50b32feaa3913fd92,欣美布艺,购物,家居建材,浙江省,宁波市,海曙区,浙江省宁波市海曙区洞欣路131号,edb336a50b32feaa3913fd92,1,0,121.423324,29.788145,13245589958,shopping,http://api.map.baidu.com/place/detail?uid=edb336a50b32feaa3913fd92&output=html&source=placeapi_v2,,,,,,,,,,,,,,,,,,121.42348225077,29.788119914089,0
2e307ac3d4b7039b0682c2a4,雅美精品移门淋浴房,购物,家居建材,浙江省,宁波市,海曙区,浙江省宁波市海曙区潘沙北路20号,2e307ac3d4b7039b0682c2a4,1,0,121.417033,29.78702,13646641268,shopping,http://api.map.baidu.com/place/detail?uid=2e307ac3d4b7039b0682c2a4&output=html&source=placeapi_v2,,,,,,,,,,,,,,,,,,,,0
37b035cf164173a95d17c31e,老范厨具用品,购物,家居建材,浙江省,宁波市,海曙区,浙江省宁波市海曙区洞桥中街365号,,1,0,121.41811,29.788701,18058214176,shopping,http://api.map.baidu.com/place/detail?uid=37b035cf164173a95d17c31e&output=html&source=placeapi_v2,,,,,,,,,,,,,,,,,,,,0
49d95938a7797c42c61e511d,妙力斯工具,购物,家居建材,浙江省,宁波市,海曙区,浙江省宁波市海曙区荷晓东路838号,49d95938a7797c42c61e511d,1,1,121.421741,29.790262,(0574)88041288,shopping,http://api.map.baidu.com/place/detail?uid=49d95938a7797c42c61e511d&output=html&source=placeapi_v2,,,,,,,,,,,,,,,,,,121.42179201619,29.790143269616,1
1b1ee1165fe7e8a4d92f28fd,公牛爱眼LED灯,购物,家居建材,浙江省,宁波市,海曙区,宁波市海曙区鄞城大道粮丰小区(潘沙北路)北侧,,1,0,121.415878,29.789263,,shopping,http://api.map.baidu.com/place/detail?uid=1b1ee1165fe7e8a4d92f28fd&output=html&source=placeapi_v2,,,,,,,,,,,,,,,,,,,,0
1f8ef7e8b1ffc75a11882466,欧派家纺(银城广场店),购物,家居建材,浙江省,宁波市,海曙区,宁波市海曙区洞桥镇鄞城大道西段1301号银城广场F1,1f8ef7e8b1ffc75a11882466,1,0,121.424348,29.790154,15088802699,shopping,http://api.map.baidu.com/place/detail?uid=1f8ef7e8b1ffc75a11882466&output=html&source=placeapi_v2,,08:30-22:00,,,,,,,,,,,,,,,,121.42398630795,29.790155280585,0
b5c210fc61527ff5db2f2859,恒N橱柜,购物,家居建材,浙江省,宁波市,海曙区,微胖虞桥2号,,1,0,121.418399,29.820493,18888621446,shopping,http://api.map.baidu.com/place/detail?uid=b5c210fc61527ff5db2f2859&output=html&source=placeapi_v2,,,,,,,,,,,,,,,,,,,,0
d6c50c30e0b0bb2b5af6be40,金晟石材,购物,家居建材,浙江省,宁波市,海曙区,宁波市海曙区洛兹建材装饰城C101号,d6c50c30e0b0bb2b5af6be40,1,0,121.460687,29.799556,13805847045,shopping,http://api.map.baidu.com/place/detail?uid=d6c50c30e0b0bb2b5af6be40&output=html&source=placeapi_v2,,,5.0,,,,,,,,3,,,,,,,121.46072350979,29.799568519826,0
7542a47b4404fb7b3ce23135,唐奇卫浴(洛兹店),购物,家居建材,浙江省,宁波市,海曙区,宁波市海曙区洛兹商贸城D5区,7542a47b4404fb7b3ce23135,1,0,121.456578,29.800769,15088471688,shopping,http://api.map.baidu.com/place/detail?uid=7542a47b4404fb7b3ce23135&output=html&source=placeapi_v2,,07:30-18:30,,,,,,,,,,,,,,,,121.45663022084,29.800662787125,0
939a215d6f0351fd03ff2de3,子翰建材批发中心,购物,家居建材,浙江省,宁波市,海曙区,浙江省宁波市海曙区214省道168-200号,,1,0,121.459048,29.80138,"(0574)89018281,13566034476",shopping,http://api.map.baidu.com/place/detail?uid=939a215d6f0351fd03ff2de3&output=html&source=placeapi_v2,,,,,,,,,,,,,,,,,,,,0
f1bb53faae35dc8b5abbbc26,品尊墙布布艺,购物,家居建材,浙江省,宁波市,海曙区,浙江省宁波市海曙区214省道洛兹商贸城33~34号,f1bb53faae35dc8b5abbbc26,1,0,121.459942,29.798852,"18069236325,18106642232",shopping,http://api.map.baidu.com/place/detail?uid=f1bb53faae35dc8b5abbbc26&output=html&source=placeapi_v2,,,,,,,,,,,,,,,,,,,,0
ed18f824379cef51d42ce25f,启豪灯饰,购物,家居建材,浙江省,宁波市,海曙区,宁波市海曙区经二路洛兹建材市场B区,ed18f824379cef51d42ce25f,1,0,121.460382,29.798655,,shopping,http://api.map.baidu.com/place/detail?uid=ed18f824379cef51d42ce25f&output=html&source=placeapi_v2,,,,,,,,,,,,,,,,,,121.46042533883,29.798550726958,0
882b26c7f0ed795c2afc489b,洛兹商贸城-B区,购物,家居建材,浙江省,宁波市,海曙区,洛兹建材市场B区,882b26c7f0ed795c2afc489b,1,0,121.460058,29.798798,,shopping,http://api.map.baidu.com/place/detail?uid=882b26c7f0ed795c2afc489b&output=html&source=placeapi_v2,,09:30-20:30,,,,,,,,,,,,,,,,121.45886919881,29.798243718987,0
d0d37cfdbacd74b6901fc945,米兰壁纸(经二路店),购物,家居建材,浙江省,宁波市,海曙区,浙江省宁波市海曙区214省道东杨洛兹家居城208号,d0d37cfdbacd74b6901fc945,1,0,121.458826,29.798241,13777061810,shopping,http://api.map.baidu.com/place/detail?uid=d0d37cfdbacd74b6901fc945&output=html&source=placeapi_v2,,09:00-17:00,,,,,,,,,,,,,,,,121.45893436369,29.798275579142,0
6a5b97827e43c7953ce23112,龙浩数控机械,购物,家居建材,浙江省,宁波市,海曙区,浙江省宁波市海曙区甬临线龙浩数控机械(广博和谐家园附近),6a5b97827e43c7953ce23112,1,0,121.465461,29.799569,,life,http://api.map.baidu.com/place/detail?uid=6a5b97827e43c7953ce23112&output=html&source=placeapi_v2,,,,,,,,,,2,,,,,,,,121.46562110736,29.799841243287,0
f4a41b67c34357928bfc0697,龙头卫浴集成吊顶,购物,家居建材,浙江省,宁波市,海曙区,宁波市海曙区经一路洛兹建材市场B区,f4a41b67c34357928bfc0697,1,0,121.460646,29.799089,18705848190,shopping,http://api.map.baidu.com/place/detail?uid=f4a41b67c34357928bfc0697&output=html&source=placeapi_v2,,08:00-17:00,,,,,,,,,,,,,,,,,,0
5c492072e8b68ce32cb17e39,腾升木业,购物,家居建材,浙江省,宁波市,海曙区,宁波市海曙区甬临线和横古线交叉口东杨村洛兹家具城d2-004号,5c492072e8b68ce32cb17e39,1,0,121.458138,29.79871,15957898321,shopping,http://api.map.baidu.com/place/detail?uid=5c492072e8b68ce32cb17e39&output=html&source=placeapi_v2,,10:30-16:30,,,,,,,,,,,,,,,,,,0
629c04e5d1268a618bfc063f,万江五金,购物,家居建材,浙江省,宁波市,海曙区,浙江省宁波市海曙区朱韩村洛兹家居商贸城,629c04e5d1268a618bfc063f,1,0,121.457315,29.79848,(0574)87903788,shopping,http://api.map.baidu.com/place/detail?uid=629c04e5d1268a618bfc063f&output=html&source=placeapi_v2,,07:00-18:00,,,,,,,,,,,,,,,,,,0
012dae0cb643a6504e2fdf20,老包厨具,购物,家居建材,浙江省,宁波市,海曙区,浙江省宁波市海曙区经三路洛兹家具商贸城d2区45~47号,012dae0cb643a6504e2fdf20,1,0,121.457029,29.79882,"(0574)87906722,13056917459",shopping,http://api.map.baidu.com/place/detail?uid=012dae0cb643a6504e2fdf20&output=html&source=placeapi_v2,,08:00-16:30,,,,,,,,,,,,,,,,,,0
989b7f11408275fc9fec2bd0,创意卫浴展厅,购物,家居建材,浙江省,宁波市,海曙区,宁波市海曙区经一路洛兹建材市场B区,989b7f11408275fc9fec2bd0,1,0,121.460796,29.799056,,shopping,http://api.map.baidu.com/place/detail?uid=989b7f11408275fc9fec2bd0&output=html&source=placeapi_v2,,,,,,,,,,,,,,,,,,121.46077891907,29.799093508791,0
1e2034ed23cd4acf6fc02cc3,洛米橱柜,购物,家居建材,浙江省,宁波市,海曙区,宁波市海曙区经二路洛兹建材市场B区,1e2034ed23cd4acf6fc02cc3,1,0,121.46008,29.798809,"13819811668,18067232970",shopping,http://api.map.baidu.com/place/detail?uid=1e2034ed23cd4acf6fc02cc3&output=html&source=placeapi_v2,,,,,,,,,,,,,,,,,,121.46006231471,29.798849503096,0
5c18baec4e4c74f543d63eb8,岭缘居全屋定制,购物,家居建材,浙江省,宁波市,海曙区,浙江省宁波市海曙区横古线洛兹建材装饰城d3128号,,1,0,121.457896,29.800181,,shopping,http://api.map.baidu.com/place/detail?uid=5c18baec4e4c74f543d63eb8&output=html&source=placeapi_v2,,08:00-17:00,,,,,,,,,,,,,,,,,,0
fd1cb8d36d2ba643f5e73b00,希旺木业,购物,家居建材,浙江省,宁波市,海曙区,浙江省宁波市石砌洛兹家居商贸城D2040--2042,fd1cb8d36d2ba643f5e73b00,1,0,121.456821,29.798819,13988888888,shopping,http://api.map.baidu.com/place/detail?uid=fd1cb8d36d2ba643f5e73b00&output=html&source=placeapi_v2,,,,,,,,,,,,,,,,,,,,0
c7c87211a0d078a5d0ff23b1,乐乐橱柜,购物,家居建材,浙江省,宁波市,海曙区,浙江宁波市海曙区洛兹建材装饰城b2区111号,c7c87211a0d078a5d0ff23b1,1,0,121.460448,29.798929,13566054843,shopping,http://api.map.baidu.com/place/detail?uid=c7c87211a0d078a5d0ff23b1&output=html&source=placeapi_v2,,,,,,,,,,,,,,,,,,121.46042794302,29.798973642971,0
f3e8006f16c1408057bfffd3,圣玛达卫浴总代理,购物,家居建材,浙江省,宁波市,海曙区,宁波市海曙区经一路洛兹建材市场B区,f3e8006f16c1408057bfffd3,1,0,121.461009,29.798617,15058819502,shopping,http://api.map.baidu.com/place/detail?uid=f3e8006f16c1408057bfffd3&output=html&source=placeapi_v2,,,,,,,,,,,,,,,,,,121.46096509558,29.798722198157,0
6f1710916a5354e9725e807b,名品国际卫浴定制馆,购物,家居建材,浙江省,宁波市,海曙区,浙江省宁波市海曙区创青路洛兹建材市场一期296号,,1,0,121.457816,29.801182,18658413588,shopping,http://api.map.baidu.com/place/detail?uid=6f1710916a5354e9725e807b&output=html&source=placeapi_v2,,00:00-24:00,,,,,,,,,,,,,,,,121.45777571128,29.80108068647,0
e92feb061bb503d8f50e77cf,埃美柯(洛兹旗舰店),购物,家居建材,浙江省,宁波市,海曙区,宁波市海曙区S214,e92feb061bb503d8f50e77cf,1,0,121.461812,29.796623,(0574)87110672,shopping,http://api.map.baidu.com/place/detail?uid=e92feb061bb503d8f50e77cf&output=html&source=placeapi_v2,,,0.0,,,,,,,,,,,,,,,,,0
9f7ead88a03b7d89eb12e46f,梓竹佳家居,购物,家居建材,浙江省,宁波市,海曙区,浙江省宁波市海曙区石\街道泉来跃建材仓储08-09号,9f7ead88a03b7d89eb12e46f,1,0,121.461921,29.796656,13967883270,shopping,http://api.map.baidu.com/place/detail?uid=9f7ead88a03b7d89eb12e46f&output=html&source=placeapi_v2,,08:30-16:00,5.0,,,,,,,,3,,,,,,,,,0
95b02b2b77b1f6a9704b8709,洛兹建材装饰城-S区,购物,家居建材,浙江省,宁波市,海曙区,宁波市海曙区洛兹建材市场S区,95b02b2b77b1f6a9704b8709,1,0,121.457838,29.798055,,shopping,http://api.map.baidu.com/place/detail?uid=95b02b2b77b1f6a9704b8709&output=html&source=placeapi_v2,,,,,,,,,,,,,,,,,,121.45936694989,29.797319616322,0
863d33368de12d438a2fb52a,恒信木材批发部,购物,家居建材,浙江省,宁波市,海曙区,石矸东杨洛兹家居商贸城,863d33368de12d438a2fb52a,1,0,121.456807,29.799064,18662310588,shopping,http://api.map.baidu.com/place/detail?uid=863d33368de12d438a2fb52a&output=html&source=placeapi_v2,,,,,,,,,,,,,,,,,,,,0
dcf9ae90e13e38f79222e05c,甬林木业,购物,家居建材,浙江省,宁波市,海曙区,浙江省宁波市海曙区甬临线洛兹家居城d3区21号,dcf9ae90e13e38f79222e05c,1,0,121.457292,29.799576,13008974013,shopping,http://api.map.baidu.com/place/detail?uid=dcf9ae90e13e38f79222e05c&output=html&source=placeapi_v2,,08:30-16:30,,,,,,,,,1,,,,,,,121.45725370594,29.799668533946,0
0ceba5e9a7b8ea8196f08cc5,洛兹商贸城-D2区,购物,家居建材,浙江省,宁波市,海曙区,洛兹建材市场D2区,0ceba5e9a7b8ea8196f08cc5,1,0,121.45792,29.798932,,shopping,http://api.map.baidu.com/place/detail?uid=0ceba5e9a7b8ea8196f08cc5&output=html&source=placeapi_v2,,08:00-22:00,,,,,,,,,,,,,,,,121.45805404495,29.798581344883,0
e59fbd5ed00a74c0f82d610a,湖湘健康板材,购物,家居建材,浙江省,宁波市,海曙区,宁波市海曙区石\街道洛兹家居商贸城附近,,1,0,121.456114,29.799521,,shopping,http://api.map.baidu.com/place/detail?uid=e59fbd5ed00a74c0f82d610a&output=html&source=placeapi_v2,,,,,,,,,,,,,,,,,,,,0
54c5dbae033a9a5b8505bf28,陶恩莎卫浴,购物,家居建材,浙江省,宁波市,海曙区,浙江省宁波市海曙区214省道洛兹建材市场c区908号,54c5dbae033a9a5b8505bf28,1,0,121.460958,29.799379,15700102210,shopping,http://api.map.baidu.com/place/detail?uid=54c5dbae033a9a5b8505bf28&output=html&source=placeapi_v2,,08:00-17:00,,,,,,,,,,,,,,,,,,0
a71ff0471602bdb2d8eceda2,美佳全屋定制,购物,家居建材,浙江省,宁波市,海曙区,浙江省宁波市海曙区石\街道洛兹泉来跃建材装饰市场08~09号,a71ff0471602bdb2d8eceda2,1,0,121.461896,29.796643,15959281559,shopping,http://api.map.baidu.com/place/detail?uid=a71ff0471602bdb2d8eceda2&output=html&source=placeapi_v2,,,5.0,,,,,,,,1,,,,,,,,,0
9d01166d59185c4b26e0a09d,豪门橱柜,购物,家居建材,浙江省,宁波市,海曙区,浙江省宁波市海曙区甬临线洛兹商贸城103~104号,9d01166d59185c4b26e0a09d,1,0,121.460125,29.798828,15988654398,shopping,http://api.map.baidu.com/place/detail?uid=9d01166d59185c4b26e0a09d&output=html&source=placeapi_v2,,,,,,,,,,,,,,,,,,121.46010834479,29.798864748352,0
574c94dd8d6dc8832a02e1ae,箭牌瓷砖卫浴(洛兹建材店),购物,家居建材,浙江省,宁波市,海曙区,宁波市海曙区石\街道横古线1号,,1,0,121.459007,29.798339,13777118962,shopping,http://api.map.baidu.com/place/detail?uid=574c94dd8d6dc8832a02e1ae&output=html&source=placeapi_v2,,08:00-18:00,,,,,,,,,,,,,,,,121.45892707214,29.798311933234,0
72b6f26a24b4360d26d2bb41,中华木业,购物,家居建材,浙江省,宁波市,海曙区,浙江省宁波市海曙区经三路洛兹家居城d2区13号,72b6f26a24b4360d26d2bb41,1,0,121.457594,29.79872,"13305868299,18069225067",shopping,http://api.map.baidu.com/place/detail?uid=72b6f26a24b4360d26d2bb41&output=html&source=placeapi_v2,,,,,,,,,,,,,,,,,,121.45747313234,29.798681674274,0
5f2832018185911b6fc02c78,顺万达门业,购物,家居建材,浙江省,宁波市,海曙区,宁波市海曙区经一路洛兹建材市场B区,,1,0,121.460912,29.798589,13306682515,shopping,http://api.map.baidu.com/place/detail?uid=5f2832018185911b6fc02c78&output=html&source=placeapi_v2,,,,,,,,,,,,,,,,,,121.46086935867,29.798691805697,0
9a9c61202cd126e0d0ff232a,纪江建材电器管道总汇,购物,家居建材,浙江省,宁波市,海曙区,宁波市海曙区S214横涨小学南侧约240米,,1,0,121.450145,29.794175,,shopping,http://api.map.baidu.com/place/detail?uid=9a9c61202cd126e0d0ff232a&output=html&source=placeapi_v2,,,,,,,,,,,,,,,,,,,,0
