uid,name,cat_L1,cat_L2,province,city,area,address,street_id,detail,child_num,loc_lng,loc_lat,telephone,type,detail_url,price,shop_hours,overall_rating,taste_rating,service_rating,environment_rating,facility_rating,hygiene_rating,technology_rating,image_num,comment_num,groupon_num,discount_num,favorite_num,checkin_num,brand,content_tag,naviloc_lng,naviloc_lat,child_num
34c8b6bf43e1a57d20f017f4,停车场,交通设施,停车场,江西省,南昌市,南昌县,南昌市南昌县Y328南昌县广福镇人民政府东南侧约50米,,1,0,115.918897,28.36996,,life,http://api.map.baidu.com/place/detail?uid=34c8b6bf43e1a57d20f017f4&output=html&source=placeapi_v2,,,,,,,,,,,,,,,,,,,,0
28b8a238fa30b3bd22022088,停车场,交通设施,停车场,江西省,南昌市,进贤县,南昌市进贤县前进路温圳小学西侧约110米,,1,0,116.091173,28.351505,,life,http://api.map.baidu.com/place/detail?uid=28b8a238fa30b3bd22022088&output=html&source=placeapi_v2,,,,,,,,,,,,,,,,,,,,0
62fe2e9651dd94a5f11937aa,大型停车场,交通设施,停车场,江西省,南昌市,进贤县,南昌市进贤县前进路温圳镇人民政府东侧约80米,,1,0,116.094675,28.354467,,life,http://api.map.baidu.com/place/detail?uid=62fe2e9651dd94a5f11937aa&output=html&source=placeapi_v2,,00:00-24:00,,,,,,,,1,,,,,,,,,,0
0c25f227e6ef6829fbf0cb7b,停车场(温圳镇人民政府南),交通设施,停车场,江西省,南昌市,进贤县,南昌市进贤县前进路温圳镇人民政府,,1,0,116.09337,28.353797,,life,http://api.map.baidu.com/place/detail?uid=0c25f227e6ef6829fbf0cb7b&output=html&source=placeapi_v2,,,,,,,,,,1,,,,,,,,,,0
e5c85bba4c9dea11ee74f861,停车场(320国道),交通设施,停车场,江西省,南昌市,进贤县,南昌市进贤县320国道北50米,,1,0,116.21659,28.374417,,life,http://api.map.baidu.com/place/detail?uid=e5c85bba4c9dea11ee74f861&output=html&source=placeapi_v2,,00:00-24:00,,,,,,,,,,,,,,,,,,0
721702726a26892ba8175ad7,停车场,交通设施,停车场,江西省,南昌市,进贤县,南昌市进贤县S212红太阳幼儿园北侧约90米,,1,0,116.261866,28.35014,,life,http://api.map.baidu.com/place/detail?uid=721702726a26892ba8175ad7&output=html&source=placeapi_v2,,00:00-24:00,,,,,,,,,,,,,,,,,,0
9abb4531e92017328b2fb555,进贤站-停车场,交通设施,停车场,江西省,南昌市,进贤县,江西省南昌市进贤县云桥南路78号附近,9abb4531e92017328b2fb555,1,1,116.252973,28.360676,,life,http://api.map.baidu.com/place/detail?uid=9abb4531e92017328b2fb555&output=html&source=placeapi_v2,,00:00-24:00,,,,,,,,,,,,,,,,116.25238409598,28.361021344366,1
1dbd7709cde733ee03ff2de3,天虹停车场,交通设施,停车场,江西省,南昌市,进贤县,南昌市进贤县高岭路天虹商场(进贤店)西侧,1dbd7709cde733ee03ff2de3,1,0,116.270512,28.366199,,life,http://api.map.baidu.com/place/detail?uid=1dbd7709cde733ee03ff2de3&output=html&source=placeapi_v2,,00:00-24:00,,,,,,,,,,,,,,,,116.27118527726,28.366729150354,0
d1533066874c296fc91b9598,停车场(云桥南路),交通设施,停车场,江西省,南昌市,进贤县,南昌市进贤县S212红太阳幼儿园北侧约210米,,1,0,116.262303,28.351227,,life,http://api.map.baidu.com/place/detail?uid=d1533066874c296fc91b9598&output=html&source=placeapi_v2,,00:00-24:00,,,,,,,,,,,,,,,,,,0
9acee9cf8a3b785f28201ac2,汇洋・格林郡-停车场,交通设施,停车场,江西省,南昌市,进贤县,南昌市进贤县,,1,1,116.259807,28.365524,,life,http://api.map.baidu.com/place/detail?uid=9acee9cf8a3b785f28201ac2&output=html&source=placeapi_v2,,,,,,,,,,,,,,,,,,116.25910357301,28.365523440704,1
9d092a315a0030d4c37da23b,进贤大道-停车场,交通设施,停车场,江西省,南昌市,进贤县,南昌市进贤县进贤大道进贤县中医院东南侧约130米,9d092a315a0030d4c37da23b,1,2,116.268588,28.371144,,life,http://api.map.baidu.com/place/detail?uid=9d092a315a0030d4c37da23b&output=html&source=placeapi_v2,,,,,,,,,,4,,,,,,,,116.2684884725,28.371427703525,2
c85cb431dd8cc69d93114c20,皇庭大酒店-地下停车场,交通设施,停车场,江西省,南昌市,进贤县,江西省南昌市进贤县胜利中路68号,c85cb431dd8cc69d93114c20,1,1,116.271176,28.371814,,life,http://api.map.baidu.com/place/detail?uid=c85cb431dd8cc69d93114c20&output=html&source=placeapi_v2,,,,,,,,,,,,,,,,,,116.27137236017,28.371894836363,1
131c850c596d7b9859bbbc4e,皇家一号停车场,交通设施,停车场,江西省,南昌市,进贤县,江西省南昌市进贤县蓝天驾校昌南校区(江科驾校)学车服务中心,131c850c596d7b9859bbbc4e,1,0,116.256811,28.373158,,life,http://api.map.baidu.com/place/detail?uid=131c850c596d7b9859bbbc4e&output=html&source=placeapi_v2,,00:00-24:00,,,,,,,,,,,,,,,,,,0
5315d521e464021a1811d550,康盛阳光城-地下停车场,交通设施,停车场,江西省,南昌市,进贤县,江西省南昌市进贤县民和镇进贤大道康盛・阳光城,,1,2,116.258591,28.371885,,life,http://api.map.baidu.com/place/detail?uid=5315d521e464021a1811d550&output=html&source=placeapi_v2,,00:00-24:00,,,,,,,,,,,,,,,,,,2
930a4ee4dd53adb8c51b75ba,进贤县交警大队-停车场,交通设施,停车场,江西省,南昌市,进贤县,南昌市进贤县,,1,1,116.259731,28.37488,,life,http://api.map.baidu.com/place/detail?uid=930a4ee4dd53adb8c51b75ba&output=html&source=placeapi_v2,,00:00-24:00,,,,,,,,1,,,,,,,,116.25975960552,28.374530003904,1
eebdb48c0f0948e1c72ba114,皇庭大酒店-停车场,交通设施,停车场,江西省,南昌市,进贤县,南昌市进贤县,eebdb48c0f0948e1c72ba114,1,1,116.271193,28.371704,,life,http://api.map.baidu.com/place/detail?uid=eebdb48c0f0948e1c72ba114&output=html&source=placeapi_v2,,,,,,,,,,1,,,,,,,,116.27137828898,28.371889910012,1
8cb68e4bf5c953d940ab9a2e,新都名苑-停车场,交通设施,停车场,江西省,南昌市,进贤县,南昌市进贤县,,1,1,116.255662,28.376518,,life,http://api.map.baidu.com/place/detail?uid=8cb68e4bf5c953d940ab9a2e&output=html&source=placeapi_v2,,,,,,,,,,,,,,,,,,116.25640100471,28.376222342506,1
8dd86fbdbd8b36661a94c65d,进贤县中医院-停车场,交通设施,停车场,江西省,南昌市,进贤县,南昌市进贤县,,1,1,116.267419,28.37238,,life,http://api.map.baidu.com/place/detail?uid=8dd86fbdbd8b36661a94c65d&output=html&source=placeapi_v2,,,,,,,,,,,,,,,,,,116.26795879923,28.372267649248,1
779d36ae878e2d3f704b8728,荣盛华天商店-地下停车场,交通设施,停车场,江西省,南昌市,进贤县,南昌市进贤县,,1,1,116.25701,28.375604,,life,http://api.map.baidu.com/place/detail?uid=779d36ae878e2d3f704b8728&output=html&source=placeapi_v2,,,,,,,,,,1,,,,,,,,116.25670518713,28.375569035501,1
4a8dae3dac707e9eddee8b5a,名门世家-停车场,交通设施,停车场,江西省,南昌市,进贤县,南昌市进贤县,,1,1,116.262282,28.373848,,life,http://api.map.baidu.com/place/detail?uid=4a8dae3dac707e9eddee8b5a&output=html&source=placeapi_v2,,,,,,,,,,1,,,,,,,,116.2626421071,28.374530227968,1
ac2a7d37193ad5852efaa7d2,军山湖国际大酒店-停车场,交通设施,停车场,江西省,南昌市,进贤县,江西省南昌市进贤县香江步行街军山湖国际大酒店,ac2a7d37193ad5852efaa7d2,1,1,116.272056,28.372291,,life,http://api.map.baidu.com/place/detail?uid=ac2a7d37193ad5852efaa7d2&output=html&source=placeapi_v2,,00:00-24:00,0.0,,,,,,,,,,,,,,,116.27247875725,28.372152763507,1
c7fa07e2daf6dba781288a1b,电力小区-停车场,交通设施,停车场,江西省,南昌市,进贤县,南昌市进贤县,,1,1,116.258204,28.37512,,life,http://api.map.baidu.com/place/detail?uid=c7fa07e2daf6dba781288a1b&output=html&source=placeapi_v2,,,,,,,,,,1,,,,,,,,116.25833470793,28.374710062214,1
76f3c98c2618b72f626858b8,康盛阳光城-2号停车场,交通设施,停车场,江西省,南昌市,进贤县,南昌市进贤县祥和路康盛・阳光城-二期北侧,76f3c98c2618b72f626858b8,1,0,116.259593,28.369691,,life,http://api.map.baidu.com/place/detail?uid=76f3c98c2618b72f626858b8&output=html&source=placeapi_v2,,00:00-24:00,,,,,,,,1,,,,,,,,,,0
2a1e70a8322c229cfbdc851b,电力小区-地下停车场,交通设施,停车场,江西省,南昌市,进贤县,南昌市进贤县,,1,2,116.258153,28.375298,,life,http://api.map.baidu.com/place/detail?uid=2a1e70a8322c229cfbdc851b&output=html&source=placeapi_v2,,,,,,,,,,,,,,,,,,116.25859306598,28.375251693761,2
c235e1f9267be20f04026fd0,天集商业广场-停车场,交通设施,停车场,江西省,南昌市,进贤县,南昌市进贤县胜利南路天集商业广场,c235e1f9267be20f04026fd0,1,1,116.268834,28.368114,,life,http://api.map.baidu.com/place/detail?uid=c235e1f9267be20f04026fd0&output=html&source=placeapi_v2,,00:00-24:00,,,,,,,,,,,,,,,,116.26883749114,28.368014356625,1
4aa3ce62ac3ae13c8c55eced,进贤体育公园-地下停车场,交通设施,停车场,江西省,南昌市,进贤县,江西省南昌市进贤县钟陵路江西财经职业学院(南昌校区)北,4aa3ce62ac3ae13c8c55eced,1,1,116.274995,28.369173,,life,http://api.map.baidu.com/place/detail?uid=4aa3ce62ac3ae13c8c55eced&output=html&source=placeapi_v2,,,,,,,,,,1,,,,,,,,116.27499549578,28.369814624226,1
635e552dc19f334204fef559,金域蓝湾-停车场,交通设施,停车场,江西省,南昌市,进贤县,南昌市进贤县,,1,2,116.258905,28.373078,,life,http://api.map.baidu.com/place/detail?uid=635e552dc19f334204fef559&output=html&source=placeapi_v2,,,,,,,,,,1,,,,,,,,116.25889993254,28.372584756314,2
3e2769004b1878bcfb2d613b,名门世家停车场,交通设施,停车场,江西省,南昌市,进贤县,南昌市进贤县嘉禾路民和商城(进贤县城镇管理局南),,1,0,116.263241,28.375419,,life,http://api.map.baidu.com/place/detail?uid=3e2769004b1878bcfb2d613b&output=html&source=placeapi_v2,,,,,,,,,,,,,,,,,,,,0
0f7ef203f2e635992e473363,康盛阳光尊邸-1号停车场,交通设施,停车场,江西省,南昌市,进贤县,南昌市进贤县徐家岭路康盛阳光尊邸,0f7ef203f2e635992e473363,1,1,116.263909,28.372075,,life,http://api.map.baidu.com/place/detail?uid=0f7ef203f2e635992e473363&output=html&source=placeapi_v2,,00:00-24:00,,,,,,,,,,,,,,,,116.26113493012,28.371539218199,1
132ea36622590da6774ff1dd,停车场(进贤县城镇管理局西南),交通设施,停车场,江西省,南昌市,进贤县,南昌市进贤县胜利中路皇庭大酒店南侧约60米,132ea36622590da6774ff1dd,1,0,116.271305,28.370703,,life,http://api.map.baidu.com/place/detail?uid=132ea36622590da6774ff1dd&output=html&source=placeapi_v2,,,,,,,,,,,,,,,,,,,,0
47280196c0bbf33d0c0e6bf2,康盛・阳光城二期A区-地下停车场,交通设施,停车场,江西省,南昌市,进贤县,南昌市进贤县,,1,2,116.25877,28.367491,,life,http://api.map.baidu.com/place/detail?uid=47280196c0bbf33d0c0e6bf2&output=html&source=placeapi_v2,,,,,,,,,,1,,,,,,,,116.25873221351,28.367412476196,2
ef002eb4f8faf853cafa5f31,康盛阳光城-停车场,交通设施,停车场,江西省,南昌市,进贤县,南昌市进贤县,ef002eb4f8faf853cafa5f31,1,1,116.259103,28.371433,,life,http://api.map.baidu.com/place/detail?uid=ef002eb4f8faf853cafa5f31&output=html&source=placeapi_v2,,00:00-24:00,,,,,,,,,,,,,,,,116.25765417773,28.371651164447,1
285103adfb505765c9fa5f07,进贤县供电公司-停车场,交通设施,停车场,江西省,南昌市,进贤县,南昌市进贤县进贤大道电力小区东南侧,,1,1,116.258599,28.37481,,life,http://api.map.baidu.com/place/detail?uid=285103adfb505765c9fa5f07&output=html&source=placeapi_v2,,,,,,,,,,,,,,,,,,116.25833470793,28.374710062214,1
f538a2303721a7a6b05c6a41,中国人寿保险(进贤支公司)-停车场,交通设施,停车场,江西省,南昌市,进贤县,南昌市进贤县进贤大道民和商城(进贤县城镇管理局南)东南侧约150米,,1,1,116.264663,28.374405,,life,http://api.map.baidu.com/place/detail?uid=f538a2303721a7a6b05c6a41&output=html&source=placeapi_v2,,,,,,,,,,,,,,,,,,116.26449053149,28.374371808316,1
cdd2c4ba574614a90aa8d43b,贤府书院-停车场,交通设施,停车场,江西省,南昌市,进贤县,南昌市进贤县G320,,1,1,116.252382,28.376053,,life,http://api.map.baidu.com/place/detail?uid=cdd2c4ba574614a90aa8d43b&output=html&source=placeapi_v2,,,,,,,,,,,,,,,,,,116.25198027981,28.375330195012,1
ff7c4c438fc8d21cf603b828,进贤县城市管理局-停车场,交通设施,停车场,江西省,南昌市,进贤县,南昌市进贤县,,1,1,116.272019,28.370908,,life,http://api.map.baidu.com/place/detail?uid=ff7c4c438fc8d21cf603b828&output=html&source=placeapi_v2,,,,,,,,,,1,,,,,,,,116.27161319587,28.371115039744,1
0413b1aebe1b1f90bea240ac,中国农业银行(进贤县支行)-停车场,交通设施,停车场,江西省,南昌市,进贤县,南昌市进贤县进贤大道皇庭大酒店西南侧约200米,,1,1,116.269603,28.370169,,life,http://api.map.baidu.com/place/detail?uid=0413b1aebe1b1f90bea240ac&output=html&source=placeapi_v2,,,,,,,,,,,,,,,,,,116.26939914228,28.370208183183,1
e800a17cf943501278dbd200,进贤大道停车场,交通设施,停车场,江西省,南昌市,进贤县,江西省南昌市进贤县进贤大道358号附近,,1,0,116.268539,28.371241,13755750704,life,http://api.map.baidu.com/place/detail?uid=e800a17cf943501278dbd200&output=html&source=placeapi_v2,,,,,,,,,,1,,,,,,,,,,0
984239f67bc5e6b3c4effb94,大型停车场-加水车用尿素液,交通设施,停车场,江西省,南昌市,南昌县,南昌市南昌县京珠线与沪昆高速交叉路口往东北约170米,984239f67bc5e6b3c4effb94,1,0,115.93005,28.397073,,life,http://api.map.baidu.com/place/detail?uid=984239f67bc5e6b3c4effb94&output=html&source=placeapi_v2,,,,,,,,,,1,,,,,,,,,,0
1630109fde7bafd83b221c0b,高压冲洗运猪车停车场,交通设施,停车场,江西省,南昌市,南昌县,江西省南昌市南昌县G105(京珠线),1630109fde7bafd83b221c0b,1,0,115.93221,28.402703,,life,http://api.map.baidu.com/place/detail?uid=1630109fde7bafd83b221c0b&output=html&source=placeapi_v2,,,,,,,,,,,,,,,,,,,,0
49fdcce5e04bce78e81e970b,南昌南服务区-停车场,交通设施,停车场,江西省,南昌市,南昌县,南昌市南昌县县南昌南服务区,49fdcce5e04bce78e81e970b,1,0,115.91612,28.402478,,life,http://api.map.baidu.com/place/detail?uid=49fdcce5e04bce78e81e970b&output=html&source=placeapi_v2,,00:00-24:00,,,,,,,,,,,,,,,,,,0
cf7321b77899ceb31811d5b9,南昌凤凰沟凤凰度假村-停车场,交通设施,停车场,江西省,南昌市,南昌县,南昌市南昌县S426凤凰沟风景区(后门)东侧约70米,,1,0,116.017682,28.379629,,life,http://api.map.baidu.com/place/detail?uid=cf7321b77899ceb31811d5b9&output=html&source=placeapi_v2,,00:00-24:00,,,,,,,,,,,,,,,,,,0
210e919103ab62011d389452,泉岭服务区-停车场,交通设施,停车场,江西省,南昌市,进贤县,南昌市进贤县G70福银高速西50米,210e919103ab62011d389452,1,0,116.112775,28.396629,,life,http://api.map.baidu.com/place/detail?uid=210e919103ab62011d389452&output=html&source=placeapi_v2,,,,,,,,,,,,,,,,,,,,0
1aec541fd230e4369b68b482,县五车办-报废停车场,交通设施,停车场,江西省,南昌市,进贤县,江西省南昌市进贤县,,1,0,116.232136,28.399653,,life,http://api.map.baidu.com/place/detail?uid=1aec541fd230e4369b68b482&output=html&source=placeapi_v2,,,,,,,,,,4,,,,,,,,,,0
e5c85bba4c9dea11ee74f861,停车场(320国道),交通设施,停车场,江西省,南昌市,进贤县,南昌市进贤县320国道北50米,,1,0,116.21659,28.374417,,life,http://api.map.baidu.com/place/detail?uid=e5c85bba4c9dea11ee74f861&output=html&source=placeapi_v2,,00:00-24:00,,,,,,,,,,,,,,,,,,0
3192dcacd4276ae67dc87628,停车场,交通设施,停车场,江西省,南昌市,进贤县,南昌市进贤县人民大道岚湖中学北侧约50米,,1,0,116.253265,28.380761,,life,http://api.map.baidu.com/place/detail?uid=3192dcacd4276ae67dc87628&output=html&source=placeapi_v2,,,,,,,,,,,,,,,,,,,,0
1f0e7e6a7d34661afbf0cbe3,长天郡住宅小区-地下停车场,交通设施,停车场,江西省,南昌市,进贤县,南昌市进贤县,,1,1,116.259642,28.391375,,life,http://api.map.baidu.com/place/detail?uid=1f0e7e6a7d34661afbf0cbe3&output=html&source=placeapi_v2,,,,,,,,,,,,,,,,,,116.2602573566,28.391922118809,1
83d0a881d413545e882fb505,停车场,交通设施,停车场,江西省,南昌市,进贤县,南昌市进贤县军湖路星光名庭东北侧约100米,,1,0,116.272666,28.37874,,life,http://api.map.baidu.com/place/detail?uid=83d0a881d413545e882fb505&output=html&source=placeapi_v2,,,,,,,,,,1,,,,,,,,,,0
b9ef001eb308ffb9d8d891af,阳光水岸-地下停车场,交通设施,停车场,江西省,南昌市,进贤县,南昌市进贤县,,1,2,116.259201,28.389833,,life,http://api.map.baidu.com/place/detail?uid=b9ef001eb308ffb9d8d891af&output=html&source=placeapi_v2,,,,,,,,,,,,,,,,,,116.25918289338,28.390108121853,2
abf53b0d72164cdf07fef52d,阳光水岸-停车场,交通设施,停车场,江西省,南昌市,进贤县,南昌市进贤县,abf53b0d72164cdf07fef52d,1,2,116.259263,28.389603,,life,http://api.map.baidu.com/place/detail?uid=abf53b0d72164cdf07fef52d&output=html&source=placeapi_v2,,,,,,,,,,1,,,,,,,,116.26053098046,28.39013545041,2
28fbe67cbe36994dd92f28ad,青岚湖景-地下停车场,交通设施,停车场,江西省,南昌市,进贤县,南昌市进贤县,,1,1,116.262903,28.388364,,life,http://api.map.baidu.com/place/detail?uid=28fbe67cbe36994dd92f28ad&output=html&source=placeapi_v2,,,,,,,,,,,,,,,,,,116.26272940353,28.388258740561,1
8266cfa6e37f277ceb56fae3,品禄苑小区-地下停车场,交通设施,停车场,江西省,南昌市,进贤县,南昌市进贤县,,1,1,116.259425,28.390508,,life,http://api.map.baidu.com/place/detail?uid=8266cfa6e37f277ceb56fae3&output=html&source=placeapi_v2,,,,,,,,,,,,,,,,,,116.26049450926,28.390786646503,1
24d2df7367cba1e0774ff136,锦绣滨湖-停车场,交通设施,停车场,江西省,南昌市,进贤县,南昌市进贤县,,1,1,116.259479,28.388382,,life,http://api.map.baidu.com/place/detail?uid=24d2df7367cba1e0774ff136&output=html&source=placeapi_v2,,,,,,,,,,,,,,,,,,116.25929804267,28.388476591966,1
90adfa4a7c37a939c336447d,凯旋广场-地下停车场,交通设施,停车场,江西省,南昌市,进贤县,南昌市进贤县,,1,1,116.252248,28.393797,,life,http://api.map.baidu.com/place/detail?uid=90adfa4a7c37a939c336447d&output=html&source=placeapi_v2,,,,,,,,,,,,,,,,,,116.2517583175,28.394738981634,1
39ac4ba80da55842c61b7527,凯旋广场-停车场,交通设施,停车场,江西省,南昌市,进贤县,南昌市进贤县,,1,0,116.251924,28.395068,,life,http://api.map.baidu.com/place/detail?uid=39ac4ba80da55842c61b7527&output=html&source=placeapi_v2,,,,,,,,,,1,,,,,,,,116.25115042518,28.394201367791,0
2af6fcf172039db6c26c1426,青岚湖景-停车场,交通设施,停车场,江西省,南昌市,进贤县,南昌市进贤县滨湖大道青岚湖景・外滩,,1,1,116.263611,28.387792,,life,http://api.map.baidu.com/place/detail?uid=2af6fcf172039db6c26c1426&output=html&source=placeapi_v2,,,,,,,,,,,,,,,,,,116.26305446526,28.387845465522,1
4c2f883f7c5d6fddd22dd672,Z龙小区-停车场,交通设施,停车场,江西省,南昌市,进贤县,南昌市进贤县,,1,1,116.25717,28.387522,,life,http://api.map.baidu.com/place/detail?uid=4c2f883f7c5d6fddd22dd672&output=html&source=placeapi_v2,,,,,,,,,,1,,,,,,,,116.25719682973,28.387023524141,1
96cd439471f7f5475b10937d,凯旋广场-停车场,交通设施,停车场,江西省,南昌市,进贤县,南昌市进贤县,96cd439471f7f5475b10937d,1,1,116.25143,28.394361,,life,http://api.map.baidu.com/place/detail?uid=96cd439471f7f5475b10937d&output=html&source=placeapi_v2,,,,,,,,,,1,,,,,,,,116.25112356584,28.394209867913,1
43dac7cf41782c06631c675c,民和镇人民政府-停车场,交通设施,停车场,江西省,南昌市,进贤县,南昌市进贤县,,1,1,116.254674,28.385297,,life,http://api.map.baidu.com/place/detail?uid=43dac7cf41782c06631c675c&output=html&source=placeapi_v2,,,,,,,,,,,,,,,,,,116.25466933848,28.384836743892,1
543b56c2cebce571b320a837,华哲酒店-停车场,交通设施,停车场,江西省,南昌市,进贤县,江西省南昌市进贤县滨湖大道199号,543b56c2cebce571b320a837,1,1,116.267008,28.385742,,life,http://api.map.baidu.com/place/detail?uid=543b56c2cebce571b320a837&output=html&source=placeapi_v2,,00:00-24:00,,,,,,,,,,,,,,,,116.26682967771,28.385513431974,1
6ce064fd5e315d740869d98f,恒茂城市之光-停车场,交通设施,停车场,江西省,南昌市,进贤县,南昌市进贤县恒茂城市之光,,1,0,116.265979,28.389076,,life,http://api.map.baidu.com/place/detail?uid=6ce064fd5e315d740869d98f&output=html&source=placeapi_v2,,,,,,,,,,,,,,,,,,,,0
5e130251530e00d4e7e9654d,滨湖桃苑-停车场,交通设施,停车场,江西省,南昌市,进贤县,南昌市进贤县,,1,3,116.262094,28.38664,,life,http://api.map.baidu.com/place/detail?uid=5e130251530e00d4e7e9654d&output=html&source=placeapi_v2,,,,,,,,,,,,,,,,,,116.26251309157,28.387466195345,3
8f239a7d677c4f342102623c,壹号公馆雅居-停车场,交通设施,停车场,江西省,南昌市,进贤县,南昌市进贤县,,1,1,116.260369,28.386067,,life,http://api.map.baidu.com/place/detail?uid=8f239a7d677c4f342102623c&output=html&source=placeapi_v2,,,,,,,,,,,,,,,,,,116.26076112633,28.386058491264,1
57c00068888d58860e0e6b80,停车场(岚湖路),交通设施,停车场,江西省,南昌市,进贤县,南昌市进贤县岚湖路星光名庭西侧约80米,57c00068888d58860e0e6b80,1,0,116.269873,28.377341,,life,http://api.map.baidu.com/place/detail?uid=57c00068888d58860e0e6b80&output=html&source=placeapi_v2,,00:00-24:00,,,,,,,,1,,,,,,,,,,0
5de5b9e9b4ac15134d2fdf1d,停车场(董源路),交通设施,停车场,江西省,南昌市,进贤县,南昌市进贤县董源路瑞苑东侧约140米,5de5b9e9b4ac15134d2fdf1d,1,0,116.268168,28.377705,,life,http://api.map.baidu.com/place/detail?uid=5de5b9e9b4ac15134d2fdf1d&output=html&source=placeapi_v2,,,,,,,,,,,,,,,,,,,,0
4641395965d257da08f5eb31,滨湖华城北区-停车场,交通设施,停车场,江西省,南昌市,进贤县,滨湖华城商业街,,1,2,116.264198,28.385396,,life,http://api.map.baidu.com/place/detail?uid=4641395965d257da08f5eb31&output=html&source=placeapi_v2,,,,,,,,,,,,,,,,,,116.26497157409,28.385873380625,2
f767b6a641fe7926ac31e57c,名爵公馆-停车场,交通设施,停车场,江西省,南昌市,进贤县,南昌市进贤县嘉禾路名爵公馆,f767b6a641fe7926ac31e57c,1,1,116.26265,28.382032,,life,http://api.map.baidu.com/place/detail?uid=f767b6a641fe7926ac31e57c&output=html&source=placeapi_v2,,,,,,,,,,,,,,,,,,116.26306231915,28.382057929044,1
930a4ee4dd53adb8c51b75ba,进贤县交警大队-停车场,交通设施,停车场,江西省,南昌市,进贤县,南昌市进贤县,,1,1,116.259731,28.37488,,life,http://api.map.baidu.com/place/detail?uid=930a4ee4dd53adb8c51b75ba&output=html&source=placeapi_v2,,00:00-24:00,,,,,,,,1,,,,,,,,116.25975960552,28.374530003904,1
8cb68e4bf5c953d940ab9a2e,新都名苑-停车场,交通设施,停车场,江西省,南昌市,进贤县,南昌市进贤县,,1,1,116.255662,28.376518,,life,http://api.map.baidu.com/place/detail?uid=8cb68e4bf5c953d940ab9a2e&output=html&source=placeapi_v2,,,,,,,,,,,,,,,,,,116.25640100471,28.376222342506,1
d2374ac066b8d217a7c7566c,停车场(人民大道),交通设施,停车场,江西省,南昌市,进贤县,南昌市进贤县人民大道人民广场,d2374ac066b8d217a7c7566c,1,0,116.24723,28.381384,,life,http://api.map.baidu.com/place/detail?uid=d2374ac066b8d217a7c7566c&output=html&source=placeapi_v2,,,,,,,,,,,,,,,,,,,,0
7feb0da61d182b71dbeced15,壹号公馆(中山大道)-停车场,交通设施,停车场,江西省,南昌市,进贤县,南昌市进贤县,,1,1,116.252517,28.386369,,life,http://api.map.baidu.com/place/detail?uid=7feb0da61d182b71dbeced15&output=html&source=placeapi_v2,,,,,,,,,,,,,,,,,,116.25154246546,28.386382004212,1
779d36ae878e2d3f704b8728,荣盛华天商店-地下停车场,交通设施,停车场,江西省,南昌市,进贤县,南昌市进贤县,,1,1,116.25701,28.375604,,life,http://api.map.baidu.com/place/detail?uid=779d36ae878e2d3f704b8728&output=html&source=placeapi_v2,,,,,,,,,,1,,,,,,,,116.25670518713,28.375569035501,1
c7fa07e2daf6dba781288a1b,电力小区-停车场,交通设施,停车场,江西省,南昌市,进贤县,南昌市进贤县,,1,1,116.258204,28.37512,,life,http://api.map.baidu.com/place/detail?uid=c7fa07e2daf6dba781288a1b&output=html&source=placeapi_v2,,,,,,,,,,1,,,,,,,,116.25833470793,28.374710062214,1
dd3f24937ce75c2b57bfffdd,滨湖华城南区-停车场,交通设施,停车场,江西省,南昌市,进贤县,南昌市进贤县,,1,2,116.264825,28.383407,,life,http://api.map.baidu.com/place/detail?uid=dd3f24937ce75c2b57bfffdd&output=html&source=placeapi_v2,,,,,,,,,,1,,,,,,,,116.26482245178,28.384645173356,2
4a8dae3dac707e9eddee8b5a,名门世家-停车场,交通设施,停车场,江西省,南昌市,进贤县,南昌市进贤县,,1,1,116.262282,28.373848,,life,http://api.map.baidu.com/place/detail?uid=4a8dae3dac707e9eddee8b5a&output=html&source=placeapi_v2,,,,,,,,,,1,,,,,,,,116.2626421071,28.374530227968,1
2a1e70a8322c229cfbdc851b,电力小区-地下停车场,交通设施,停车场,江西省,南昌市,进贤县,南昌市进贤县,,1,2,116.258153,28.375298,,life,http://api.map.baidu.com/place/detail?uid=2a1e70a8322c229cfbdc851b&output=html&source=placeapi_v2,,,,,,,,,,,,,,,,,,116.25859306598,28.375251693761,2
3e2769004b1878bcfb2d613b,名门世家停车场,交通设施,停车场,江西省,南昌市,进贤县,南昌市进贤县嘉禾路民和商城(进贤县城镇管理局南),,1,0,116.263241,28.375419,,life,http://api.map.baidu.com/place/detail?uid=3e2769004b1878bcfb2d613b&output=html&source=placeapi_v2,,,,,,,,,,,,,,,,,,,,0
4686753ee9e0703400ff2d86,衡贵小区-停车场,交通设施,停车场,江西省,南昌市,进贤县,南昌市进贤县中山大道衡贵小区,,1,1,116.252108,28.378563,,life,http://api.map.baidu.com/place/detail?uid=4686753ee9e0703400ff2d86&output=html&source=placeapi_v2,,,,,,,,,,1,,,,,,,,116.25192036283,28.378876435732,1
aec7bc0993bed06b81288a00,英伦壹品停车场,交通设施,停车场,江西省,南昌市,进贤县,南昌市进贤县滨湖大道英伦壹品西侧,,1,0,116.251311,28.400916,,life,http://api.map.baidu.com/place/detail?uid=aec7bc0993bed06b81288a00&output=html&source=placeapi_v2,,,,,,,,,,,,,,,,,,,,0
4e6ec540417840bf03ff2d07,中山华府-地下停车场,交通设施,停车场,江西省,南昌市,进贤县,南昌市进贤县北二路中山华府,,1,0,116.248725,28.395846,,life,http://api.map.baidu.com/place/detail?uid=4e6ec540417840bf03ff2d07&output=html&source=placeapi_v2,,,,,,,,,,1,,,,,,,,,,0
285103adfb505765c9fa5f07,进贤县供电公司-停车场,交通设施,停车场,江西省,南昌市,进贤县,南昌市进贤县进贤大道电力小区东南侧,,1,1,116.258599,28.37481,,life,http://api.map.baidu.com/place/detail?uid=285103adfb505765c9fa5f07&output=html&source=placeapi_v2,,,,,,,,,,,,,,,,,,116.25833470793,28.374710062214,1
72c038d90b886c7352e5c59d,星光名庭-停车场,交通设施,停车场,江西省,南昌市,进贤县,南昌市进贤县,,1,1,116.271343,28.377391,,life,http://api.map.baidu.com/place/detail?uid=72c038d90b886c7352e5c59d&output=html&source=placeapi_v2,,,,,,,,,,,,,,,,,,116.271996943,28.377239801771,1
f4f10373d70007ac57bfffa0,中山别苑-地下停车场,交通设施,停车场,江西省,南昌市,进贤县,南昌市进贤县,,1,1,116.2518,28.379226,,life,http://api.map.baidu.com/place/detail?uid=f4f10373d70007ac57bfffa0&output=html&source=placeapi_v2,,,,,,,,,,,,,,,,,,116.25178346107,28.379376902645,1
6fedc5c585940dbc60685843,半岛豪园-南2门停车场,交通设施,停车场,江西省,南昌市,进贤县,南昌市进贤县半岛豪园(滨湖大道北),6fedc5c585940dbc60685843,1,0,116.254894,28.399538,,life,http://api.map.baidu.com/place/detail?uid=6fedc5c585940dbc60685843&output=html&source=placeapi_v2,,,,,,,,,,,,,,,,,,116.25496316164,28.399521992366,0
98cf476138c254674002455a,伯爵晶品酒店-停车场,交通设施,停车场,江西省,南昌市,进贤县,南昌市进贤县人民大道岚湖中学西北侧约40米,98cf476138c254674002455a,1,0,116.252147,28.38046,,life,http://api.map.baidu.com/place/detail?uid=98cf476138c254674002455a&output=html&source=placeapi_v2,,00:00-24:00,,,,,,,,,,,,,,,,,,0
703f20d88d11652949fd3f31,进贤县烟草专卖局-停车场,交通设施,停车场,江西省,南昌市,进贤县,南昌市进贤县,,1,1,116.252159,28.381665,,life,http://api.map.baidu.com/place/detail?uid=703f20d88d11652949fd3f31&output=html&source=placeapi_v2,,,,,,,,,,,,,,,,,,116.25218011415,28.381034572168,1
e3c95ea08a1196d2dbd8910e,沁河园健走步道-停车场,交通设施,停车场,江西省,南昌市,进贤县,沁河园健走步道,,1,0,116.284468,28.379747,,life,http://api.map.baidu.com/place/detail?uid=e3c95ea08a1196d2dbd8910e&output=html&source=placeapi_v2,,,,,,,,,,,,,,,,,,,,0
dbc4a69d5060fb79593ac861,向塘停车场,交通设施,停车场,江西省,南昌市,南昌县,南昌市南昌县览胜路南昌县向塘实验学校西侧约100米,,1,1,115.974892,28.43806,,life,http://api.map.baidu.com/place/detail?uid=dbc4a69d5060fb79593ac861&output=html&source=placeapi_v2,,,,,,,,,,,,,,,,,,115.97558113992,28.438202241023,1
f3a13688f2ab7e3414c8f6f5,六六顺停车场,交通设施,停车场,江西省,南昌市,南昌县,江西省南昌市南昌县G105(京澳线),f3a13688f2ab7e3414c8f6f5,1,0,115.93339,28.45916,15170401827,life,http://api.map.baidu.com/place/detail?uid=f3a13688f2ab7e3414c8f6f5&output=html&source=placeapi_v2,,,,,,,,,,1,,,,,,,,,,0
dfbb9d4cf695305ca80dd803,世纪星城-停车场,交通设施,停车场,江西省,南昌市,南昌县,江西省-南昌市-南昌县-银河西路世纪星城,dfbb9d4cf695305ca80dd803,1,0,115.973332,28.455473,,life,http://api.map.baidu.com/place/detail?uid=dfbb9d4cf695305ca80dd803&output=html&source=placeapi_v2,,,,,,,,,,,,,,,,,,115.97333926671,28.455615726656,0
d1a84c6611c81ab9873304d5,大型停车场,交通设施,停车场,江西省,南昌市,南昌县,南昌市南昌县迎贤大道与向塘大道交叉路口往东南约140米,,1,0,115.981739,28.456913,,life,http://api.map.baidu.com/place/detail?uid=d1a84c6611c81ab9873304d5&output=html&source=placeapi_v2,,,,,,,,,,2,,,,,,,,,,0
5cfcc431acbdae144107c104,向塘站-停车场,交通设施,停车场,江西省,南昌市,南昌县,站前北路与站前路交叉口东北100米,,1,1,115.967343,28.448311,,life,http://api.map.baidu.com/place/detail?uid=5cfcc431acbdae144107c104&output=html&source=placeapi_v2,,00:00-24:00,,,,,,,,,,,,,,,,115.96727961754,28.447938183692,1
9ce0aebfa21a6f4631870af8,江西服装学院-停车场,交通设施,停车场,江西省,南昌市,南昌县,南昌市南昌县丽湖中大道江西服装学院南门东北侧,,1,0,115.958281,28.45446,,life,http://api.map.baidu.com/place/detail?uid=9ce0aebfa21a6f4631870af8&output=html&source=placeapi_v2,,,,,,,,,,,,,,,,,,115.95820885279,28.45440025347,0
c7b7e14cd76fad02dbeced4c,大型停车场-电子称170吨地磅,交通设施,停车场,江西省,南昌市,南昌县,南昌市南昌县迎贤大道与向塘大道交叉路口往东南约140米,,1,0,115.981664,28.456848,18296120608,life,http://api.map.baidu.com/place/detail?uid=c7b7e14cd76fad02dbeced4c&output=html&source=placeapi_v2,,,,,,,,,,1,,,,,,,,,,0
7039a05c1c50174954bfff09,向塘镇平安停车场,交通设施,停车场,江西省,南昌市,南昌县,南昌市南昌县星城大道,,1,0,115.954695,28.449348,,life,http://api.map.baidu.com/place/detail?uid=7039a05c1c50174954bfff09&output=html&source=placeapi_v2,,,,,,,,,,,,,,,,,,,,0
cb4d6a6cce6d101446e27459,金燕国际温泉酒店-停车场,交通设施,停车场,江西省,南昌市,新建区,江西省南昌市新建区温泉大道8号金燕国际温泉城,cb4d6a6cce6d101446e27459,1,2,115.763787,28.50839,,life,http://api.map.baidu.com/place/detail?uid=cb4d6a6cce6d101446e27459&output=html&source=placeapi_v2,,00:00-24:00,0,,,,,,,,0,,,,,,,115.76595713946,28.507653772002,2
2674e3a2ee7a6f5fd6b74e7a,赣江服务区-停车场,交通设施,停车场,江西省,南昌市,南昌县,G6001南昌绕城高速附近,,1,0,115.841066,28.528183,,life,http://api.map.baidu.com/place/detail?uid=2674e3a2ee7a6f5fd6b74e7a&output=html&source=placeapi_v2,,,,,,,,,,,,,,,,,,,,0
a6e4668f12afa38297031902,雁沙湖公园-停车场,交通设施,停车场,江西省,南昌市,南昌县,江西省-南昌市-南昌县-迎富大道,a6e4668f12afa38297031902,1,0,115.890465,28.52006,,life,http://api.map.baidu.com/place/detail?uid=a6e4668f12afa38297031902&output=html&source=placeapi_v2,,,,,,,,,,,,,,,,,,,,0
b7b57acaf95cbe29b9df8f9d,江铃控股有限公司-停车场,交通设施,停车场,江西省,南昌市,南昌县,南昌市南昌县富山五路1496号,b7b57acaf95cbe29b9df8f9d,1,0,115.895129,28.527983,,life,http://api.map.baidu.com/place/detail?uid=b7b57acaf95cbe29b9df8f9d&output=html&source=placeapi_v2,,00:00-24:00,,,,,,,,,,,,,,,,,,0
909f08c18123ac7ec036440e,停车场(金沙一路),交通设施,停车场,江西省,南昌市,南昌县,南昌市南昌县金沙一路与汽车大道交叉路口往南约220米,909f08c18123ac7ec036440e,1,0,115.905144,28.525977,,life,http://api.map.baidu.com/place/detail?uid=909f08c18123ac7ec036440e&output=html&source=placeapi_v2,,00:00-24:00,,,,,,,,,,,,,,,,,,0
07b18250df5f3ffe2fb90868,江铃驭胜发车库,交通设施,停车场,江西省,南昌市,南昌县,南昌市南昌县金沙三路210号,,1,0,115.873212,28.53087,,life,http://api.map.baidu.com/place/detail?uid=07b18250df5f3ffe2fb90868&output=html&source=placeapi_v2,,,,,,,,,,,,,,,,,,,,0
a390459e9404715749fc8d26,南昌县交通事故停车场,交通设施,停车场,江西省,南昌市,南昌县,江西省南昌市南昌县富山五路,a390459e9404715749fc8d26,1,0,115.926596,28.530315,,life,http://api.map.baidu.com/place/detail?uid=a390459e9404715749fc8d26&output=html&source=placeapi_v2,,00:00-24:00,0.0,,,,,,,1,1,,,,,,,115.92643588375,28.530580212322,0
244ac330aac8d8b571455b3c,南昌县交警事故停车场,交通设施,停车场,江西省,南昌市,南昌县,小蓝经济开发区富山五路通达检测站附近,,1,0,115.929347,28.527646,,life,http://api.map.baidu.com/place/detail?uid=244ac330aac8d8b571455b3c&output=html&source=placeapi_v2,,,,,,,,,,4,,,,,,,,,,0
2f571a4080c16f3f9b68b402,停车场南昌翠林828高尔夫假日酒店北,交通设施,停车场,江西省,南昌市,南昌县,江西省南昌市南昌县迎宾大道158号,,1,0,115.942628,28.511329,,life,http://api.map.baidu.com/place/detail?uid=2f571a4080c16f3f9b68b402&output=html&source=placeapi_v2,,00:00-24:00,,,,,,,,,,,,,,,,,,0
606066573acc8734220220cc,恒大绿洲6期-停车场,交通设施,停车场,江西省,南昌市,南昌县,江西省-南昌市-南昌县-恒大绿洲六期,,1,0,115.937385,28.520819,,life,http://api.map.baidu.com/place/detail?uid=606066573acc8734220220cc&output=html&source=placeapi_v2,,,,,,,,,,,,,,,,,,,,0
dde4ba8bd6d6fb9e45572628,停车场(银河城广场东),交通设施,停车场,江西省,南昌市,南昌县,南昌市南昌县凤鸣路银河城,,1,0,115.946727,28.528609,,life,http://api.map.baidu.com/place/detail?uid=dde4ba8bd6d6fb9e45572628&output=html&source=placeapi_v2,,,,,,,,,,,,,,,,,,,,0
1b7755cd2e46c409bca822ab,恒大酒店-停车场,交通设施,停车场,江西省,南昌市,南昌县,南昌市南昌县银三角互通立交桥江西南昌恒大体育公园,,1,1,115.944454,28.519589,,life,http://api.map.baidu.com/place/detail?uid=1b7755cd2e46c409bca822ab&output=html&source=placeapi_v2,,,,,,,,,,,,,,,,,,,,1
9b8c6ebdfe3366ebd3ff236c,马德里风情-地下停车场,交通设施,停车场,江西省,南昌市,南昌县,江西省-南昌市-南昌县-莲塘南大道1118号马德里风情,,1,0,115.948158,28.524973,,life,http://api.map.baidu.com/place/detail?uid=9b8c6ebdfe3366ebd3ff236c&output=html&source=placeapi_v2,,,,,,,,,,,,,,,,,,,,0
7040ee09ba2344da2cb17e7f,停车场(白沙地东北),交通设施,停车场,江西省,南昌市,南昌县,南昌市南昌县水利投资公司健走步道白沙地东侧,,1,0,115.944493,28.529467,,life,http://api.map.baidu.com/place/detail?uid=7040ee09ba2344da2cb17e7f&output=html&source=placeapi_v2,,,,,,,,,,,,,,,,,,115.94526613977,28.530698426891,0
54f8ec898063f31c6f3e1b16,恒大绿洲1期停车场,交通设施,停车场,江西省,南昌市,南昌县,江西省南昌市南昌县迎宾中大道3988号,54f8ec898063f31c6f3e1b16,1,0,115.944436,28.521741,,life,http://api.map.baidu.com/place/detail?uid=54f8ec898063f31c6f3e1b16&output=html&source=placeapi_v2,,00:00-24:00,,,,,,,,,,,,,,,,115.94451697004,28.521632807155,0
01631cae0db92c653f9a5eb7,翠林高尔夫度假酒店(828店)-停车场,交通设施,停车场,江西省,南昌市,南昌县,南昌市南昌县迎宾南大道158号南昌翠林828高尔夫假日酒店,,1,0,115.942655,28.512608,,life,http://api.map.baidu.com/place/detail?uid=01631cae0db92c653f9a5eb7&output=html&source=placeapi_v2,,,0.0,,,,,,,,0,,,,,,,,,0
7af1bf6d147fbe21336212dd,翠林高尔夫度假酒店(828店)-停车场,交通设施,停车场,江西省,南昌市,南昌县,南昌市南昌县迎宾南大道158号南昌翠林828高尔夫假日酒店,,1,0,115.941681,28.512972,,life,http://api.map.baidu.com/place/detail?uid=7af1bf6d147fbe21336212dd&output=html&source=placeapi_v2,,00:00-24:00,,,,,,,,,,,,,,,,,,0
af3c463f438909aaacee7ae7,幸福雅苑-地下停车场,交通设施,停车场,江西省,南昌市,南昌县,江西省南昌市南昌县银三角幸福雅苑,,1,0,115.952527,28.523978,,life,http://api.map.baidu.com/place/detail?uid=af3c463f438909aaacee7ae7&output=html&source=placeapi_v2,,,,,,,,,,,,,,,,,,,,0
7877170817e2d5e49d82ea44,停车区-停车场,交通设施,停车场,江西省,南昌市,南昌县,G6001南昌绕城高速附近,,1,0,116.042213,28.525643,,life,http://api.map.baidu.com/place/detail?uid=7877170817e2d5e49d82ea44&output=html&source=placeapi_v2,,00:00-24:00,,,,,,,,1,,,,,,,,,,0
d4fa80d07192cba1f503b8e6,停车区,交通设施,停车场,江西省,南昌市,南昌县,江西省南昌市南昌县,d4fa80d07192cba1f503b8e6,1,0,116.042261,28.525765,,life,http://api.map.baidu.com/place/detail?uid=d4fa80d07192cba1f503b8e6&output=html&source=placeapi_v2,,,,,,,,,,,,,,,,,,,,0
94cfa005747e0faceb56fa39,服务区-停车场,交通设施,停车场,江西省,南昌市,南昌县,振武路北100米服务区附近,,1,0,116.0427,28.524515,,life,http://api.map.baidu.com/place/detail?uid=94cfa005747e0faceb56fa39&output=html&source=placeapi_v2,,,,,,,,,,,,,,,,,,,,0
b39f49abe33181b971210bb3,万达滨江华府N3区-停车场,交通设施,停车场,江西省,南昌市,红谷滩区,南昌市红谷滩区赣州大街万达滨江华府,,1,0,115.807808,28.558206,,life,http://api.map.baidu.com/place/detail?uid=b39f49abe33181b971210bb3&output=html&source=placeapi_v2,,,,,,,,,,,,,,,,,,,,0
3103b36d081847ea0c0e6b60,万达滨江华府N1区-停车场,交通设施,停车场,江西省,南昌市,红谷滩区,南昌市红谷滩区赣州大街万达滨江华府,,1,0,115.806006,28.558335,,life,http://api.map.baidu.com/place/detail?uid=3103b36d081847ea0c0e6b60&output=html&source=placeapi_v2,,,,,,,,,,,,,,,,,,,,0
5e94b7a60601cf0ef82d61f3,停车场,交通设施,停车场,江西省,南昌市,南昌县,南昌市南昌县富山大道富山中学东南侧约150米,,1,0,115.897741,28.547243,,life,http://api.map.baidu.com/place/detail?uid=5e94b7a60601cf0ef82d61f3&output=html&source=placeapi_v2,,00:00-24:00,,,,,,,,1,,,,,,,,,,0
2f3261255a1d1bfb5d17c397,平安停车场,交通设施,停车场,江西省,南昌市,南昌县,江西省南昌市南昌县富山路一号,2f3261255a1d1bfb5d17c397,1,0,115.887262,28.555136,,life,http://api.map.baidu.com/place/detail?uid=2f3261255a1d1bfb5d17c397&output=html&source=placeapi_v2,,,,,,,,,,,,,,,,,,,,0
5bc46a7fd9e31fee71455b8a,停车场,交通设施,停车场,江西省,南昌市,南昌县,南昌市南昌县银湖二路中粮可口可乐饮料公司,5bc46a7fd9e31fee71455b8a,1,0,115.893747,28.568074,,life,http://api.map.baidu.com/place/detail?uid=5bc46a7fd9e31fee71455b8a&output=html&source=placeapi_v2,,00:00-24:00,,,,,,,,,,,,,,,,115.89397763463,28.568212553278,0
a8a0ca4554fc7a9e9b68b4b4,玉沙东苑-停车场,交通设施,停车场,江西省,南昌市,南昌县,南昌市南昌县小蓝东大道玉沙东苑,a8a0ca4554fc7a9e9b68b4b4,1,1,115.895326,28.560786,,life,http://api.map.baidu.com/place/detail?uid=a8a0ca4554fc7a9e9b68b4b4&output=html&source=placeapi_v2,,,,,,,,,,,,,,,,,,115.8942530515,28.559936652035,1
b373d4150f841f361df74dbe,金湖公园-停车场,交通设施,停车场,江西省,南昌市,南昌县,南昌市南昌县富山二路金湖公园西侧约110米,,1,0,115.887421,28.542147,,life,http://api.map.baidu.com/place/detail?uid=b373d4150f841f361df74dbe&output=html&source=placeapi_v2,,,,,,,,,,,,,,,,,,,,0
918435e37b45ff8a88b98818,尚荣城科技产业园-停车场,交通设施,停车场,江西省,南昌市,南昌县,江西省-南昌市-南昌县-金沙二路,,1,0,115.884882,28.558329,,life,http://api.map.baidu.com/place/detail?uid=918435e37b45ff8a88b98818&output=html&source=placeapi_v2,,,,,,,,,,,,,,,,,,,,0
fa33459bea4a247b21026241,停车场(南昌市新生帮教之家东南),交通设施,停车场,江西省,南昌市,南昌县,南昌市南昌县富山大道富山中学东南侧,fa33459bea4a247b21026241,1,0,115.895895,28.547868,,life,http://api.map.baidu.com/place/detail?uid=fa33459bea4a247b21026241&output=html&source=placeapi_v2,,,,,,,,,,,,,,,,,,,,0
66ee1c136c7d6c02abf729d9,冯志坚童车仓库,交通设施,停车场,江西省,南昌市,南昌县,南昌市南昌县富山二路江西省伊莲贸易有限公司,,1,0,115.90035,28.541484,18100782277,life,http://api.map.baidu.com/place/detail?uid=66ee1c136c7d6c02abf729d9&output=html&source=placeapi_v2,,,,,,,,,,,,,,,,,,,,0
b88d2ec233f243bca4c756db,停车场,交通设施,停车场,江西省,南昌市,南昌县,南昌市南昌县富山大道迎宾珑湾东北侧约60米,b88d2ec233f243bca4c756db,1,0,115.923337,28.550807,,life,http://api.map.baidu.com/place/detail?uid=b88d2ec233f243bca4c756db&output=html&source=placeapi_v2,,,,,,,,,,,,,,,,,,,,0
0ca95b19b1042c1b13882481,停车场,交通设施,停车场,江西省,南昌市,南昌县,南昌市南昌县澄湖东路玺悦城北区西南门西北侧约80米,,1,0,115.943527,28.561695,,life,http://api.map.baidu.com/place/detail?uid=0ca95b19b1042c1b13882481&output=html&source=placeapi_v2,,00:00-24:00,,,,,,,,,,,,,,,,,,0
afd3888962bde61ea2d23067,停车场,交通设施,停车场,江西省,南昌市,南昌县,江西省南昌市南昌县龙泰・今日家园(莲西路),afd3888962bde61ea2d23067,1,0,115.934134,28.545674,,life,http://api.map.baidu.com/place/detail?uid=afd3888962bde61ea2d23067&output=html&source=placeapi_v2,,,,,,,,,,,,,,,,,,,,0
b7d464c957b29b301ef74daf,嘉丽小区-停车场,交通设施,停车场,江西省,南昌市,南昌县,江西省南昌市南昌县莲塘莲西路嘉丽小区西门,b7d464c957b29b301ef74daf,1,0,115.932559,28.555254,,life,http://api.map.baidu.com/place/detail?uid=b7d464c957b29b301ef74daf&output=html&source=placeapi_v2,,,,,,,,,,,,,,,,,,,,0
5945006a0501d0d903ff2dd5,农技中心小区-停车场,交通设施,停车场,江西省,南昌市,南昌县,南昌市南昌县斗柏路汇源・金泰西北侧约80米,5945006a0501d0d903ff2dd5,1,0,115.930009,28.550487,,life,http://api.map.baidu.com/place/detail?uid=5945006a0501d0d903ff2dd5&output=html&source=placeapi_v2,,00:00-24:00,,,,,,,,,,,,,,,,,,0
88d1684de9c1465ff33cba10,停车场(莲垦路),交通设施,停车场,江西省,南昌市,南昌县,南昌市南昌县澄湖中路南昌县莲塘三小西南侧约60米,88d1684de9c1465ff33cba10,1,0,115.92921,28.553736,,life,http://api.map.baidu.com/place/detail?uid=88d1684de9c1465ff33cba10&output=html&source=placeapi_v2,,00:00-24:00,,,,,,,,1,,,,,,,,,,0
9bb19353590512a514c8f620,停车棚,交通设施,停车场,江西省,南昌市,南昌县,南昌市南昌县富山大道迎宾珑湾西北侧,9bb19353590512a514c8f620,1,0,115.920462,28.550315,13037281939,life,http://api.map.baidu.com/place/detail?uid=9bb19353590512a514c8f620&output=html&source=placeapi_v2,,00:00-24:00,,,,,,,,1,,,,,,,,115.92070172498,28.550329822472,0
2d4be18a355c62703686f42b,停车场(澄湖国际大酒店西南),交通设施,停车场,江西省,南昌市,南昌县,南昌市南昌县澄湖中路南昌县莲塘三小,2d4be18a355c62703686f42b,1,0,115.930861,28.553988,,life,http://api.map.baidu.com/place/detail?uid=2d4be18a355c62703686f42b&output=html&source=placeapi_v2,,,,,,,,,,1,,,,,,,,,,0
14d0e597730faf17aeb22a77,阳光丽景-停车场,交通设施,停车场,江西省,南昌市,南昌县,江西省南昌市南昌县莲塘斗柏路阳光丽景,14d0e597730faf17aeb22a77,1,1,115.930431,28.552716,,life,http://api.map.baidu.com/place/detail?uid=14d0e597730faf17aeb22a77&output=html&source=placeapi_v2,,00:00-24:00,,,,,,,,,,,,,,,,115.93114992804,28.553098580762,1
11d778ca21cd136c58f6beba,汇源・金泰-停车场,交通设施,停车场,江西省,南昌市,南昌县,南昌市南昌县斗柏路汇源・金泰,11d778ca21cd136c58f6beba,1,1,115.93178,28.549795,,life,http://api.map.baidu.com/place/detail?uid=11d778ca21cd136c58f6beba&output=html&source=placeapi_v2,,00:00-24:00,,,,,,,,,,,,,,,,115.93192313193,28.549796726722,1
134307029cdcb6e23517dc92,南昌县莲塘镇卫生院-停车场,交通设施,停车场,江西省,南昌市,南昌县,南昌市南昌县兴西街,134307029cdcb6e23517dc92,1,1,115.929576,28.552225,,life,http://api.map.baidu.com/place/detail?uid=134307029cdcb6e23517dc92&output=html&source=placeapi_v2,,,,,,,,,,,,,,,,,,115.92925209596,28.552042665455,1
14f003a9dbd6e47ed5b74e33,停车场(嘉丽小区东南),交通设施,停车场,江西省,南昌市,南昌县,南昌市南昌县澄湖中路凤凰名苑北侧,,1,0,115.933642,28.554116,,life,http://api.map.baidu.com/place/detail?uid=14f003a9dbd6e47ed5b74e33&output=html&source=placeapi_v2,,,,,,,,,,1,,,,,,,,,,0
606303013677046ea8f0cd9a,停车场(馨雅北苑东),交通设施,停车场,江西省,南昌市,南昌县,南昌市南昌县澄湖中路嘉业澄苑,606303013677046ea8f0cd9a,1,0,115.925974,28.553678,,life,http://api.map.baidu.com/place/detail?uid=606303013677046ea8f0cd9a&output=html&source=placeapi_v2,,00:00-24:00,,,,,,,,,,,,,,,,,,0
d6bfa6ac1e1d74db0a5cb35e,玺园南区-停车场,交通设施,停车场,江西省,南昌市,南昌县,南昌市南昌县澄湖东路1111号,d6bfa6ac1e1d74db0a5cb35e,1,1,115.94448,28.556514,,life,http://api.map.baidu.com/place/detail?uid=d6bfa6ac1e1d74db0a5cb35e&output=html&source=placeapi_v2,,,,,,,,,,,,,,,,,,115.94454968184,28.557231691901,1
46f305c32da20f46ae080f33,华润万家(澄湖店)-停车场,交通设施,停车场,江西省,南昌市,南昌县,江西省南昌市南昌县莲塘镇永通澄湖国际街区(东区),46f305c32da20f46ae080f33,1,1,115.935763,28.563858,,life,http://api.map.baidu.com/place/detail?uid=46f305c32da20f46ae080f33&output=html&source=placeapi_v2,,00:00-24:00,0,,,,,,,2,0,,,,,,,115.93607653279,28.563730268606,1
5248b511f4be59b9b2077dd2,省送变电建设公司宿舍-停车场,交通设施,停车场,江西省,南昌市,南昌县,莲塘澄碧湖・阳光西南(澄湖中路),5248b511f4be59b9b2077dd2,1,2,115.927208,28.552993,,life,http://api.map.baidu.com/place/detail?uid=5248b511f4be59b9b2077dd2&output=html&source=placeapi_v2,,00:00-24:00,,,,,,,,1,,,,,,,,115.92715112106,28.550726734846,2
9a9a454925c431fb601c67e2,银城花园-停车场,交通设施,停车场,江西省,南昌市,南昌县,南昌市南昌县莲富路银城花园,9a9a454925c431fb601c67e2,1,1,115.930543,28.543436,,life,http://api.map.baidu.com/place/detail?uid=9a9a454925c431fb601c67e2&output=html&source=placeapi_v2,,00:00-24:00,,,,,,,,,,,,,,,,115.93065646277,28.543568739874,1
a3727f4f6d38cdc6fbdc8573,嘉丽小区-停车场,交通设施,停车场,江西省,南昌市,南昌县,南昌市南昌县莲西路澄湖彩虹世纪城西门南侧约40米,a3727f4f6d38cdc6fbdc8573,1,0,115.931544,28.556949,,life,http://api.map.baidu.com/place/detail?uid=a3727f4f6d38cdc6fbdc8573&output=html&source=placeapi_v2,,00:00-24:00,,,,,,,,1,,,,,,,,,,0
ab5aec656e11ae7cfb2213b9,凤凰名苑-停车场,交通设施,停车场,江西省,南昌市,南昌县,南昌市南昌县澄湖中路266号,ab5aec656e11ae7cfb2213b9,1,0,115.933552,28.553677,,life,http://api.map.baidu.com/place/detail?uid=ab5aec656e11ae7cfb2213b9&output=html&source=placeapi_v2,,00:00-24:00,,,,,,,,,,,,,,,,,,0
b53983e286c75a5f25e0a0ad,停车场(恒达花园小区东北),交通设施,停车场,江西省,南昌市,南昌县,南昌市南昌县莲西路彭安新区,,1,0,115.930533,28.558493,,life,http://api.map.baidu.com/place/detail?uid=b53983e286c75a5f25e0a0ad&output=html&source=placeapi_v2,,00:00-24:00,,,,,,,,,,,,,,,,,,0
d5d8e3d5f5385a0394ca0773,玺园-停车场,交通设施,停车场,江西省,南昌市,南昌县,南昌市南昌县南莲路6号,d5d8e3d5f5385a0394ca0773,1,0,115.947228,28.555992,,life,http://api.map.baidu.com/place/detail?uid=d5d8e3d5f5385a0394ca0773&output=html&source=placeapi_v2,小车：露天：８０元／月，室内：１８０元／月，智能化室内：２００元／月，临时停放：２元／次,00:00-24:00,0.0,,,,,,,1,,,,,,,,115.94764167994,28.555940202704,0
819e05e1a49ec04dbea24035,唐庄-地下停车场,交通设施,停车场,江西省,南昌市,南昌县,江西省南昌市南昌县斗柏路269号,819e05e1a49ec04dbea24035,1,1,115.935204,28.550563,,life,http://api.map.baidu.com/place/detail?uid=819e05e1a49ec04dbea24035&output=html&source=placeapi_v2,,00:00-24:00,,,,,,,,2,,,,,,,,,,1
608c3c2fed975f25ca09f0ca,出租车停靠点,交通设施,停车场,江西省,南昌市,南昌县,南昌市南昌县澄湖北大道桃源丰景小区南侧约50米,608c3c2fed975f25ca09f0ca,1,0,115.923728,28.562638,,life,http://api.map.baidu.com/place/detail?uid=608c3c2fed975f25ca09f0ca&output=html&source=placeapi_v2,,,,,,,,,,1,,,,,,,,,,0
17830a8cc075808eaeb22acc,台北k歌停车场,交通设施,停车场,江西省,南昌市,南昌县,南昌市南昌县澄湖北大道桃源丰景小区西南侧约60米,17830a8cc075808eaeb22acc,1,0,115.922937,28.562513,,life,http://api.map.baidu.com/place/detail?uid=17830a8cc075808eaeb22acc&output=html&source=placeapi_v2,,00:00-24:00,,,,,,,,2,,,,,,,,,,0
ba0bc7dbaf5ab24859bbbc6a,盛汇城市广场-停车场,交通设施,停车场,江西省,南昌市,南昌县,南昌市南昌县迎宾中大道江铃汽车大厦北侧约60米,ba0bc7dbaf5ab24859bbbc6a,1,3,115.923773,28.561219,,life,http://api.map.baidu.com/place/detail?uid=ba0bc7dbaf5ab24859bbbc6a&output=html&source=placeapi_v2,,00:00-24:00,,,,,,,,,,,,,,,,115.92294651319,28.561136174856,3
18bfae85fdead3e2b21e36d5,百合佳苑-停车场,交通设施,停车场,江西省,南昌市,南昌县,南昌市南昌县莲安北路毕加索花园西南侧,18bfae85fdead3e2b21e36d5,1,0,115.927092,28.5602,,life,http://api.map.baidu.com/place/detail?uid=18bfae85fdead3e2b21e36d5&output=html&source=placeapi_v2,,,,,,,,,,1,,,,,,,,115.92704055582,28.56000512909,0
cefebbee569e0b3f45572696,家宴院内-停车场,交通设施,停车场,江西省,南昌市,南昌县,江西省南昌市南昌县天祥棕榈湾(莲安北路南),cefebbee569e0b3f45572696,1,0,115.924434,28.559661,,life,http://api.map.baidu.com/place/detail?uid=cefebbee569e0b3f45572696&output=html&source=placeapi_v2,,,,,,,,,,2,,,,,,,,,,0
5fee222bb60190f8c4f50d15,南阳锦绣-停车场,交通设施,停车场,江西省,南昌市,南昌县,南昌市南昌县莲安北路南阳锦绣,5fee222bb60190f8c4f50d15,1,1,115.925386,28.559549,,life,http://api.map.baidu.com/place/detail?uid=5fee222bb60190f8c4f50d15&output=html&source=placeapi_v2,,00:00-24:00,,,,,,,,,,,,,,,,115.92529580039,28.559634537929,1
4c775c88c1d5abdbcac3db23,玺悦城生活广场-停车场,交通设施,停车场,江西省,南昌市,南昌县,南昌市南昌县莲塘镇澄湖东路1111号玺悦城生活广场F4,4c775c88c1d5abdbcac3db23,1,0,115.945012,28.558479,,life,http://api.map.baidu.com/place/detail?uid=4c775c88c1d5abdbcac3db23&output=html&source=placeapi_v2,,,,,,,,,,1,,,,,,,,115.94487244301,28.557553478832,0
d422f348bd145404ae0457c6,停车场(江铃国际西北),交通设施,停车场,江西省,南昌市,南昌县,南昌市南昌县迎宾大道2008号,d422f348bd145404ae0457c6,1,0,115.9223,28.562061,,life,http://api.map.baidu.com/place/detail?uid=d422f348bd145404ae0457c6&output=html&source=placeapi_v2,,,,,,,,,,1,,,,,,,,,,0
a608153f85f75d95f1193752,沃尔玛停车场,交通设施,停车场,江西省,南昌市,南昌县,江西省南昌市南昌县澄湖东路1111号,a608153f85f75d95f1193752,1,1,115.944664,28.557804,,life,http://api.map.baidu.com/place/detail?uid=a608153f85f75d95f1193752&output=html&source=placeapi_v2,,00:00-24:00,,,,,,,,,,,,,,,,115.94547011384,28.55772101865,1
6f6b5abd29664d01d12dd611,南昌县文化会展中心-停车场,交通设施,停车场,江西省,南昌市,南昌县,南昌市南昌县澄湖北大道579号,6f6b5abd29664d01d12dd611,1,1,115.936747,28.563668,,life,http://api.map.baidu.com/place/detail?uid=6f6b5abd29664d01d12dd611&output=html&source=placeapi_v2,,00:00-24:00,,,,,,,,,,,,,,,,115.93849268177,28.564136167775,1
188227819c200a328bfc0611,停车场(迎宾大道),交通设施,停车场,江西省,南昌市,南昌县,南昌市南昌县迎宾中大道桃源丰景小区,188227819c200a328bfc0611,1,0,115.922651,28.563155,,life,http://api.map.baidu.com/place/detail?uid=188227819c200a328bfc0611&output=html&source=placeapi_v2,,00:00-24:00,,,,,,,,,,,,,,,,,,0
95f868e83cbf131236b06c66,玺悦城北区-停车场,交通设施,停车场,江西省,南昌市,南昌县,南昌市南昌县湖东一路玺悦城-北区,95f868e83cbf131236b06c66,1,1,115.948502,28.558029,,life,http://api.map.baidu.com/place/detail?uid=95f868e83cbf131236b06c66&output=html&source=placeapi_v2,,00:00-24:00,,,,,,,,,,,,,,,,115.94851118183,28.557812572338,1
b59a8191916a0609f4b91633,梦里水乡-停车场,交通设施,停车场,江西省,南昌市,南昌县,南昌市南昌县,b59a8191916a0609f4b91633,1,2,115.935192,28.560694,,life,http://api.map.baidu.com/place/detail?uid=b59a8191916a0609f4b91633&output=html&source=placeapi_v2,,,,,,,,,,,,,,,,,,115.93586608227,28.560694833029,2
594433d556fed9c56ca3cc47,莲花家园-停车场,交通设施,停车场,江西省,南昌市,南昌县,南昌市南昌县向阳路莲花家园,594433d556fed9c56ca3cc47,1,0,115.938291,28.548353,,life,http://api.map.baidu.com/place/detail?uid=594433d556fed9c56ca3cc47&output=html&source=placeapi_v2,,00:00-24:00,,,,,,,,,,,,,,,,115.93820830609,28.547990667461,0
beb5aa9c3336821c72455bf9,停车场(橡西巷),交通设施,停车场,江西省,南昌市,南昌县,南昌市南昌县橡西巷莲塘工人新村西北侧约70米,beb5aa9c3336821c72455bf9,1,0,115.948047,28.547686,,life,http://api.map.baidu.com/place/detail?uid=beb5aa9c3336821c72455bf9&output=html&source=placeapi_v2,,07:30-21:00,,,,,,,,,,,,,,,,115.94807876486,28.54781768723,0
84205cbb4aad80c625e0a0ae,永通澄湖国际街区-地下停车场,交通设施,停车场,江西省,南昌市,南昌县,南昌市南昌县农科路永通澄湖国际街区,84205cbb4aad80c625e0a0ae,1,0,115.933491,28.567184,,life,http://api.map.baidu.com/place/detail?uid=84205cbb4aad80c625e0a0ae&output=html&source=placeapi_v2,,00:00-24:00,,,,,,,,1,,,,,,,,115.93297411704,28.5671277121,0
465a1ea729cb379c6168585f,丽晶广场-停车场,交通设施,停车场,江西省,南昌市,南昌县,南昌市南昌县澄湖东路嘉莱特花园国际酒店东北侧,465a1ea729cb379c6168585f,1,1,115.942527,28.564234,,life,http://api.map.baidu.com/place/detail?uid=465a1ea729cb379c6168585f&output=html&source=placeapi_v2,,,,,,,,,,1,,,,,,,,,,1
dad5b374a98aa39d1b94c68f,锦江之星-莲塘大型停车场,交通设施,停车场,江西省,南昌市,南昌县,南昌市南昌县莲塘镇莲西路与斗柏路交界处,dad5b374a98aa39d1b94c68f,1,0,115.933884,28.548071,,life,http://api.map.baidu.com/place/detail?uid=dad5b374a98aa39d1b94c68f&output=html&source=placeapi_v2,,,0.0,,,,,,,1,,,,,,,,115.93389499607,28.548034485984,0
4c2cdacf9197ca131029353a,停车场(澄湖北大道),交通设施,停车场,江西省,南昌市,南昌县,澄湖北大道1008西60米,,1,0,115.924373,28.563005,,life,http://api.map.baidu.com/place/detail?uid=4c2cdacf9197ca131029353a&output=html&source=placeapi_v2,,00:00-24:00,,,,,,,,,,,,,,,,,,0
038878575cd5882c32870a69,南昌县体育中心-停车场,交通设施,停车场,江西省,南昌市,南昌县,南昌市南昌县农贸西路体育馆小区东北侧约30米,038878575cd5882c32870a69,1,1,115.943932,28.546018,,life,http://api.map.baidu.com/place/detail?uid=038878575cd5882c32870a69&output=html&source=placeapi_v2,,00:00-24:00,,,,,,,,,,,,,,,,,,1
6a2e505a88ed8787d92f28f0,嘉业花园-停车场,交通设施,停车场,江西省,南昌市,南昌县,南昌市南昌县莲西路356号,6a2e505a88ed8787d92f28f0,1,0,115.934484,28.544935,,life,http://api.map.baidu.com/place/detail?uid=6a2e505a88ed8787d92f28f0&output=html&source=placeapi_v2,,00:00-24:00,2.0,,,,,,,,,,,,,,,115.93435821718,28.544911768185,0
b5df96024bc2c7290b1cc760,停车场(文卫路),交通设施,停车场,江西省,南昌市,南昌县,南昌市南昌县文卫路南昌县人民医院,b5df96024bc2c7290b1cc760,1,0,115.947929,28.550826,,life,http://api.map.baidu.com/place/detail?uid=b5df96024bc2c7290b1cc760&output=html&source=placeapi_v2,５元／次。,00:00-24:00,0.0,,,,,,,1,,,,,,,,115.94990987081,28.550239382119,0
b931f79754cb7512d0ff231d,碧湖银座-地下停车场,交通设施,停车场,江西省,南昌市,南昌县,南昌市南昌县澄湖西路368号,b931f79754cb7512d0ff231d,1,0,115.940221,28.549286,,life,http://api.map.baidu.com/place/detail?uid=b931f79754cb7512d0ff231d&output=html&source=placeapi_v2,,00:00-24:00,,,,,,,,,,,,,,,,115.94024069985,28.549200440824,0
14a6b9ece485853af4e73b8b,凤凰晴源-地下停车场,交通设施,停车场,江西省,南昌市,南昌县,南昌市南昌县澄湖北大道凤凰晴源,14a6b9ece485853af4e73b8b,1,1,115.929801,28.56327,,life,http://api.map.baidu.com/place/detail?uid=14a6b9ece485853af4e73b8b&output=html&source=placeapi_v2,,,,,,,,,,1,,,,,,,,115.93028691695,28.563209878285,1
ed584b99245041bf306212c2,都市晴园-地下停车场,交通设施,停车场,江西省,南昌市,南昌县,江西省南昌市南昌县迎宾中大道都市晴园(盛汇城市广场东),ed584b99245041bf306212c2,1,1,115.925128,28.562028,4000031680,life,http://api.map.baidu.com/place/detail?uid=ed584b99245041bf306212c2&output=html&source=placeapi_v2,,00:00-24:00,,,,,,,,1,,,,,,,,,,1
92a2696587f58f6f01897289,毕加索花园-地下停车场,交通设施,停车场,江西省,南昌市,南昌县,南昌市南昌县庄下路毕加索花园,92a2696587f58f6f01897289,1,0,115.926253,28.561442,,life,http://api.map.baidu.com/place/detail?uid=92a2696587f58f6f01897289&output=html&source=placeapi_v2,,00:00-24:00,,,,,,,,1,,,,,,,,115.92607510288,28.561122430677,0
72162deee7592d6b6140a9f6,盛汇城市广场-地下停车场,交通设施,停车场,江西省,南昌市,南昌县,南昌市南昌县,72162deee7592d6b6140a9f6,1,2,115.924326,28.562264,,life,http://api.map.baidu.com/place/detail?uid=72162deee7592d6b6140a9f6&output=html&source=placeapi_v2,,,,,,,,,,3,,,,,,,,115.92435694178,28.562456779549,2
c7c74b3cf3459030e6e96504,丽晶广场-地下停车场,交通设施,停车场,江西省,南昌市,南昌县,南昌市南昌县府东路丽晶V+公馆西北侧,c7c74b3cf3459030e6e96504,1,1,115.941588,28.565072,,life,http://api.map.baidu.com/place/detail?uid=c7c74b3cf3459030e6e96504&output=html&source=placeapi_v2,,,,,,,,,,1,,,,,,,,115.94134831683,28.565065524298,1
26adc95ec658d94e16a19078,停车场(澄湖北大道),交通设施,停车场,江西省,南昌市,南昌县,南昌市南昌县澄湖北大道永通澄湖国际街区南侧,26adc95ec658d94e16a19078,1,0,115.934317,28.562999,,life,http://api.map.baidu.com/place/detail?uid=26adc95ec658d94e16a19078&output=html&source=placeapi_v2,,,,,,,,,,,,,,,,,,,,0
75ac724468bb69663fe23195,南昌县人民医院-停车场,交通设施,停车场,江西省,南昌市,南昌县,江西省南昌市南昌县莲塘镇人民医院西门,75ac724468bb69663fe23195,1,3,115.948342,28.549979,,life,http://api.map.baidu.com/place/detail?uid=75ac724468bb69663fe23195&output=html&source=placeapi_v2,,00:00-24:00,0.0,,,,,,,,,,,,,,,115.94921654065,28.549602047991,3
90561e9b77623952cc06a4e4,嘉莱特花园国际酒店-停车场,交通设施,停车场,江西省,南昌市,南昌县,江西省南昌市南昌县澄湖北大道69号,90561e9b77623952cc06a4e4,1,1,115.942163,28.563214,(0791)85061888,life,http://api.map.baidu.com/place/detail?uid=90561e9b77623952cc06a4e4&output=html&source=placeapi_v2,,00:00-24:00,,,,,,,,,,,,,,,,115.94214157719,28.563159969741,1
dffdf47f0eae296ec7f025a2,停车场(晨晖・金谷西北),交通设施,停车场,江西省,南昌市,南昌县,南昌市南昌县莲富路晨晖金谷小区西北侧约30米,dffdf47f0eae296ec7f025a2,1,0,115.928755,28.543187,,life,http://api.map.baidu.com/place/detail?uid=dffdf47f0eae296ec7f025a2&output=html&source=placeapi_v2,,00:00-24:00,,,,,,,,,,,,,,,,,,0
8c36874d7f7b18fbfbdc859c,嘉业花园-停车场,交通设施,停车场,江西省,南昌市,南昌县,南昌市南昌县,8c36874d7f7b18fbfbdc859c,1,0,115.936351,28.545639,,life,http://api.map.baidu.com/place/detail?uid=8c36874d7f7b18fbfbdc859c&output=html&source=placeapi_v2,,,,,,,,,,,,,,,,,,115.93448666769,28.545391872141,0
d907f6690631c8c21f3894f8,澄湖春天-停车场,交通设施,停车场,江西省,南昌市,南昌县,南昌市南昌县澄湖东路澄湖春天,,1,1,115.943116,28.566032,,life,http://api.map.baidu.com/place/detail?uid=d907f6690631c8c21f3894f8&output=html&source=placeapi_v2,,00:00-24:00,,,,,,,,1,,,,,,,,115.94279360146,28.565987911338,1
5efb23e731e71c1c373a71ad,君悦府-地下停车场,交通设施,停车场,江西省,南昌市,南昌县,江西省南昌市南昌县君悦府底商101正北方向60米,,1,0,115.937611,28.568152,,life,http://api.map.baidu.com/place/detail?uid=5efb23e731e71c1c373a71ad&output=html&source=placeapi_v2,,,,,,,,,,,,,,,,,,,,0
75c3cdc1cf3733e3c5effbab,力高君御国际招商营销中心-停车场,交通设施,停车场,江西省,南昌市,南昌县,南昌市南昌县莲富路力高君御国际,75c3cdc1cf3733e3c5effbab,1,1,115.93873,28.54346,,life,http://api.map.baidu.com/place/detail?uid=75c3cdc1cf3733e3c5effbab&output=html&source=placeapi_v2,,00:00-24:00,,,,,,,,,,,,,,,,115.93867348372,28.543764163488,1
55c400274be7ba4ed4b74ec8,水岸皇庭-地下停车场,交通设施,停车场,江西省,南昌市,南昌县,南昌市南昌县站前西路999号,55c400274be7ba4ed4b74ec8,1,2,115.947409,28.555736,,life,http://api.map.baidu.com/place/detail?uid=55c400274be7ba4ed4b74ec8&output=html&source=placeapi_v2,汽车：室内１５０元／月，临时２元／次,,0,,,,,,,1,0,,,,,,,115.94764999107,28.555915262002,2
a1778fd870f1f5048f55ec8c,金色学府-地下停车场,交通设施,停车场,江西省,南昌市,南昌县,南昌市南昌县南一路金色学府,a1778fd870f1f5048f55ec8c,1,0,115.925766,28.568218,,life,http://api.map.baidu.com/place/detail?uid=a1778fd870f1f5048f55ec8c&output=html&source=placeapi_v2,,,,,,,,,,2,,,,,,,,115.92591411485,28.568092092011,0
076f92ac3dce9189725e8085,君悦府三期-地下停车场,交通设施,停车场,江西省,南昌市,南昌县,南昌市南昌县农科路君悦府,076f92ac3dce9189725e8085,1,0,115.935763,28.567774,,life,http://api.map.baidu.com/place/detail?uid=076f92ac3dce9189725e8085&output=html&source=placeapi_v2,,,,,,,,,,1,,,,,,,,,,0
3696387072f34dab0e0e6bc8,澄湖国际广场-地下停车场,交通设施,停车场,江西省,南昌市,南昌县,站前西路116-3号附近,3696387072f34dab0e0e6bc8,1,1,115.950391,28.554159,,life,http://api.map.baidu.com/place/detail?uid=3696387072f34dab0e0e6bc8&output=html&source=placeapi_v2,,00:00-24:00,,,,,,,,,,,,,,,,115.95085012719,28.55466838595,1
db26763a45f2d352f4b91686,停车场(站前市场住宅区西),交通设施,停车场,江西省,南昌市,南昌县,南昌市南昌县澄湖中路站前市场住宅区西南侧约30米,db26763a45f2d352f4b91686,1,0,115.950287,28.55492,,life,http://api.map.baidu.com/place/detail?uid=db26763a45f2d352f4b91686&output=html&source=placeapi_v2,,,,,,,,,,,,,,,,,,,,0
0ad9f6c41619348c8936eebf,星云时尚广场-地下停车场,交通设施,停车场,江西省,南昌市,南昌县,南昌市南昌县五一路星云峰尚东侧,0ad9f6c41619348c8936eebf,1,0,115.950952,28.548993,,life,http://api.map.baidu.com/place/detail?uid=0ad9f6c41619348c8936eebf&output=html&source=placeapi_v2,,00:00-24:00,0,,,,,,,,1,,,,,,,,,0
e8d3e09659d2b61414c8f69f,停车场(休闲购物广场东路),交通设施,停车场,江西省,南昌市,南昌县,南昌市南昌县五一路星云峰尚南侧约90米,e8d3e09659d2b61414c8f69f,1,0,115.950704,28.547774,,life,http://api.map.baidu.com/place/detail?uid=e8d3e09659d2b61414c8f69f&output=html&source=placeapi_v2,,,,,,,,,,,,,,,,,,,,0
55fa2c0b784ff0531ce99911,星云时尚广场-地下停车场,交通设施,停车场,江西省,南昌市,南昌县,南昌市南昌县五一路星云峰尚东北侧,55fa2c0b784ff0531ce99911,1,1,115.950599,28.54929,,life,http://api.map.baidu.com/place/detail?uid=55fa2c0b784ff0531ce99911&output=html&source=placeapi_v2,,00:00-24:00,0,,,,,,,1,1,,,,,,,115.95063390505,28.548653645587,1
7655e8d0dc5755faadcb66ed,华尔街国际公馆-停车场,交通设施,停车场,江西省,南昌市,南昌县,南昌市南昌县五一路华尔街国际公馆,7655e8d0dc5755faadcb66ed,1,1,115.952068,28.552415,,life,http://api.map.baidu.com/place/detail?uid=7655e8d0dc5755faadcb66ed&output=html&source=placeapi_v2,,,0.0,,,,,,,5,,,,,,,,115.95191400927,28.55237701252,1
658612e40c5459adce04ef77,停车场(团结中路),交通设施,停车场,江西省,南昌市,南昌县,南昌市南昌县团结中路南昌县团结中路小区东南侧约50米,,1,0,115.949873,28.552129,,life,http://api.map.baidu.com/place/detail?uid=658612e40c5459adce04ef77&output=html&source=placeapi_v2,,,,,,,,,,1,,,,,,,,,,0
6781910af47d6cf9067ce8a6,希真大厦-停车场,交通设施,停车场,江西省,南昌市,南昌县,莲塘中大道253希真大厦,6781910af47d6cf9067ce8a6,1,1,115.951891,28.55767,,life,http://api.map.baidu.com/place/detail?uid=6781910af47d6cf9067ce8a6&output=html&source=placeapi_v2,,00:00-24:00,0.0,,,,,,,1,0,,,,,,,,,1
9b05974a5f9f31a28f7727b2,四海丰盛酒楼-停车场,交通设施,停车场,江西省,南昌市,南昌县,江西省南昌市南昌县莲塘中大道454号原莲塘火车站,9b05974a5f9f31a28f7727b2,1,2,115.952609,28.555063,(0791)85713281,life,http://api.map.baidu.com/place/detail?uid=9b05974a5f9f31a28f7727b2&output=html&source=placeapi_v2,,00:00-24:00,,,,,,,,1,,,,,,,,115.95247444321,28.55482464337,2
b46bafc38b5c345731f71da9,停车场(华尔街国际公馆南),交通设施,停车场,江西省,南昌市,南昌县,南昌市南昌县莲塘中大道华尔街国际公馆,b46bafc38b5c345731f71da9,1,0,115.952679,28.552358,,life,http://api.map.baidu.com/place/detail?uid=b46bafc38b5c345731f71da9&output=html&source=placeapi_v2,,,,,,,,,,,,,,,,,,,,0
188b70208813271c2811d1a4,南井路桥头三轮车货运停车场,交通设施,停车场,江西省,南昌市,南昌县,南昌市南昌县莲塘南大道1-49号,188b70208813271c2811d1a4,1,1,115.953371,28.547275,,life,http://api.map.baidu.com/place/detail?uid=188b70208813271c2811d1a4&output=html&source=placeapi_v2,,00:00-24:00,,,,,,,,,,,,,,,,,,1
f9f6b903b4ed8a4188db7303,南昌融创永乐半山酒店-停车场,交通设施,停车场,江西省,南昌市,红谷滩区,江西省南昌市红谷滩区南龙蟠街555号,f9f6b903b4ed8a4188db7303,1,2,115.804501,28.58608,,life,http://api.map.baidu.com/place/detail?uid=f9f6b903b4ed8a4188db7303&output=html&source=placeapi_v2,,00:00-24:00,,,,,,,,,,,,,,,,115.80451323568,28.585823744605,2
c473958dfc4da62dd7851fca,停车场,交通设施,停车场,江西省,南昌市,红谷滩区,生米镇生米街X049,c473958dfc4da62dd7851fca,1,0,115.787175,28.578548,,life,http://api.map.baidu.com/place/detail?uid=c473958dfc4da62dd7851fca&output=html&source=placeapi_v2,,00:00-24:00,,,,,,,,,,,,,,,,,,0
653872590569966816a190fa,宜行宜停(南昌融创文旅城店),交通设施,停车场,江西省,南昌市,红谷滩区,江西南昌市红谷滩区生米镇九龙湖管理处九龙湖大道南龙蟠街铂尔曼酒店对面,,1,0,115.801139,28.585787,15070087991,life,http://api.map.baidu.com/place/detail?uid=653872590569966816a190fa&output=html&source=placeapi_v2,,08:30-19:30,0,,,,,,,7,1,,,,,,,115.80115441478,28.585850210199,0
af3941f6e054a352fd0eb085,停车场(同乐路),交通设施,停车场,江西省,南昌市,红谷滩区,南昌市红谷滩区同乐路万达文化旅游城D区西侧约30米,,1,0,115.800901,28.580536,,life,http://api.map.baidu.com/place/detail?uid=af3941f6e054a352fd0eb085&output=html&source=placeapi_v2,,,,,,,,,,1,,,,,,,,,,0
5936375359530481ab175aee,大型停车场,交通设施,停车场,江西省,南昌市,红谷滩区,南昌市红谷滩区X049新建区生米中心小学东南侧约140米,,1,0,115.807247,28.57597,,life,http://api.map.baidu.com/place/detail?uid=5936375359530481ab175aee&output=html&source=placeapi_v2,,00:00-24:00,,,,,,,,2,,,,,,,,,,0
ed3e9366859d5f89d518b7bb,融创茂(南龙蟠街店)-停车场,交通设施,停车场,江西省,南昌市,红谷滩区,南昌市红谷滩区南龙蟠街666号南昌融创茂,ed3e9366859d5f89d518b7bb,1,1,115.794351,28.58814,,life,http://api.map.baidu.com/place/detail?uid=ed3e9366859d5f89d518b7bb&output=html&source=placeapi_v2,,00:00-24:00,1,,,,,,,,1,,,,,,,115.79536007655,28.58839187805,1
2109772a1118f6c5d92f282b,融创旅游城E区-停车场,交通设施,停车场,江西省,南昌市,红谷滩区,南昌市红谷滩区霞埠街融创旅游城-E区,,1,0,115.808387,28.57984,,life,http://api.map.baidu.com/place/detail?uid=2109772a1118f6c5d92f282b&output=html&source=placeapi_v2,,,,,,,,,,,,,,,,,,,,0
d89d51b19a2e545f4bcc4a0a,南昌万达茂酒吧街-停车场,交通设施,停车场,江西省,南昌市,红谷滩区,南昌市红谷滩区红谷滩新区九龙湖南龙蟠街666号,,1,0,115.796741,28.587998,,life,http://api.map.baidu.com/place/detail?uid=d89d51b19a2e545f4bcc4a0a&output=html&source=placeapi_v2,,,,,,,,,,,,,,,,,,115.79670067535,28.587759489629,0
9db3eba07fd6d8ce9222e027,南昌融创诺富特酒店-停车场,交通设施,停车场,江西省,南昌市,红谷滩区,南昌市红谷滩区南龙蟠街977号,,1,0,115.794644,28.589594,(0791)87398888,life,http://api.map.baidu.com/place/detail?uid=9db3eba07fd6d8ce9222e027&output=html&source=placeapi_v2,,00:00-24:00,,,,,,,,,,,,,,,,115.7941467371,28.589779284463,0
c94bcec98dea4fe0f5c59c50,南昌融创乐园-小车停车场,交通设施,停车场,江西省,南昌市,红谷滩区,九龙湖新区南龙蟠街888号南昌万达主题乐园内,c94bcec98dea4fe0f5c59c50,1,1,115.792384,28.589487,,life,http://api.map.baidu.com/place/detail?uid=c94bcec98dea4fe0f5c59c50&output=html&source=placeapi_v2,,00:00-24:00,,,,,,,,,,,,,,,,115.79264813534,28.589875232338,1
914b82c594fb33845ebe865c,地下停车场,交通设施,停车场,江西省,南昌市,南昌县,南昌市南昌县杜鹃花路千亿建筑科技产业园,,1,0,115.836692,28.583611,,life,http://api.map.baidu.com/place/detail?uid=914b82c594fb33845ebe865c&output=html&source=placeapi_v2,,,,,,,,,,,,,,,,,,,,0
a29dc81bace4d146c17da26f,河岸丰景-地下停车场,交通设施,停车场,江西省,南昌市,南昌县,南昌市南昌县河洲路河岸丰景,,1,0,115.843162,28.579655,,life,http://api.map.baidu.com/place/detail?uid=a29dc81bace4d146c17da26f&output=html&source=placeapi_v2,,,,,,,,,,,,,,,,,,,,0
48a7af57aaa7d89a774ff198,大洲嘉苑-停车场,交通设施,停车场,江西省,南昌市,南昌县,江西省-南昌市-南昌县-东祥路大洲嘉苑,,1,0,115.849774,28.601945,,life,http://api.map.baidu.com/place/detail?uid=48a7af57aaa7d89a774ff198&output=html&source=placeapi_v2,,,,,,,,,,,,,,,,,,,,0
246b98e53da9cb63fbf0cb4f,停车场,交通设施,停车场,江西省,南昌市,南昌县,南昌市南昌县东莲路昌南体育公园,,1,0,115.870511,28.586154,,life,http://api.map.baidu.com/place/detail?uid=246b98e53da9cb63fbf0cb4f&output=html&source=placeapi_v2,,,,,,,,,,,,,,,,,,115.87041117348,28.586303546217,0
d7b5f351ba2434b261180928,停车场,交通设施,停车场,江西省,南昌市,南昌县,南昌市南昌县东新二路保集半岛御河湾,d7b5f351ba2434b261180928,1,0,115.877382,28.593599,,life,http://api.map.baidu.com/place/detail?uid=d7b5f351ba2434b261180928&output=html&source=placeapi_v2,,,,,,,,,,,,,,,,,,,,0
01f09fc5839990bb8e55ecb8,停车场,交通设施,停车场,江西省,南昌市,南昌县,南昌市南昌县海嘉路九里象湖城,,1,0,115.895442,28.600796,,life,http://api.map.baidu.com/place/detail?uid=01f09fc5839990bb8e55ecb8&output=html&source=placeapi_v2,,00:00-24:00,,,,,,,,,,,,,,,,,,0
edb81fbbe74cf9f2c909f0a6,停车场,交通设施,停车场,江西省,南昌市,南昌县,南昌市南昌县小洲路芳华集贸市场,edb81fbbe74cf9f2c909f0a6,1,0,115.88662,28.600357,,life,http://api.map.baidu.com/place/detail?uid=edb81fbbe74cf9f2c909f0a6&output=html&source=placeapi_v2,,,,,,,,,,1,,,,,,,,,,0
0f8946e105d3d918e912e493,停车场,交通设施,停车场,江西省,南昌市,南昌县,南昌市南昌县昌南体育中心健走步道昌南体育公园,,1,0,115.870597,28.587751,,life,http://api.map.baidu.com/place/detail?uid=0f8946e105d3d918e912e493&output=html&source=placeapi_v2,,,,,,,,,,1,,,,,,,,,,0
5bc46a7fd9e31fee71455b8a,停车场,交通设施,停车场,江西省,南昌市,南昌县,南昌市南昌县银湖二路中粮可口可乐饮料公司,5bc46a7fd9e31fee71455b8a,1,0,115.893747,28.568074,,life,http://api.map.baidu.com/place/detail?uid=5bc46a7fd9e31fee71455b8a&output=html&source=placeapi_v2,,00:00-24:00,,,,,,,,,,,,,,,,115.89397763463,28.568212553278,0
c26abe10b5e3eacc2fb96d3d,力高澜湖郡-停车场,交通设施,停车场,江西省,南昌市,南昌县,南昌市南昌县邓埠路维也纳酒店(LOFT南昌象湖小蓝工业园店),c26abe10b5e3eacc2fb96d3d,1,1,115.890599,28.581013,,life,http://api.map.baidu.com/place/detail?uid=c26abe10b5e3eacc2fb96d3d&output=html&source=placeapi_v2,,,,,,,,,,,,,,,,,,115.89027172196,28.581385396702,1
edb8bf4d4f44e6f14151c0d9,停车场(莲安路),交通设施,停车场,江西省,南昌市,南昌县,南昌市南昌县邓埠路维也纳酒店(LOFT南昌象湖小蓝工业园店)西北侧,edb8bf4d4f44e6f14151c0d9,1,0,115.890184,28.581456,,life,http://api.map.baidu.com/place/detail?uid=edb8bf4d4f44e6f14151c0d9&output=html&source=placeapi_v2,,,,,,,,,,1,,,,,,,,115.89027172196,28.581385396702,0
e86393d5d86fe7fb9868b471,幸福时光-停车场,交通设施,停车场,江西省,南昌市,南昌县,南昌市南昌县金沙二路幸福时光-二期,e86393d5d86fe7fb9868b471,1,2,115.884696,28.587576,,life,http://api.map.baidu.com/place/detail?uid=e86393d5d86fe7fb9868b471&output=html&source=placeapi_v2,,,,,,,,,,,,,,,,,,115.88469064505,28.587596875189,2
bf5fcacf967feb3cf723100e,幸福时光一期-停车场,交通设施,停车场,江西省,南昌市,南昌县,南昌市南昌县芳草路幸福时光-一期,bf5fcacf967feb3cf723100e,1,1,115.886215,28.590813,,life,http://api.map.baidu.com/place/detail?uid=bf5fcacf967feb3cf723100e&output=html&source=placeapi_v2,,,,,,,,,,,,,,,,,,115.8865378118,28.591162467666,1
147bdb573dbff39e970319fe,聚仁城-停车场,交通设施,停车场,江西省,南昌市,南昌县,江西省南昌市南昌县东岳大道23号,147bdb573dbff39e970319fe,1,0,115.891347,28.594884,,life,http://api.map.baidu.com/place/detail?uid=147bdb573dbff39e970319fe&output=html&source=placeapi_v2,,,,,,,,,,,,,,,,,,115.89055804786,28.595004784432,0
ae7c2245b3658820c16c14b8,江西泰豪动漫职业学院-停车场,交通设施,停车场,江西省,南昌市,南昌县,南昌市南昌县金沙二路江西泰豪动漫职业学院东南门西侧约30米,ae7c2245b3658820c16c14b8,1,0,115.885263,28.5788,,life,http://api.map.baidu.com/place/detail?uid=ae7c2245b3658820c16c14b8&output=html&source=placeapi_v2,,,,,,,,,,,,,,,,,,115.88555490118,28.578788628413,0
7faf98eadfdb494dad31e50b,力高澜湖郡-停车场,交通设施,停车场,江西省,南昌市,南昌县,南昌市南昌县邓埠西路力高澜湖郡,7faf98eadfdb494dad31e50b,1,1,115.891956,28.578584,,life,http://api.map.baidu.com/place/detail?uid=7faf98eadfdb494dad31e50b&output=html&source=placeapi_v2,,,,,,,,,,,,,,,,,,115.89170157999,28.578793984585,1
e984f539be30555f2b201ab5,幸福时光二期-停车场,交通设施,停车场,江西省,南昌市,南昌县,江西省南昌市南昌县金沙二路幸福时光二期,,1,0,115.883084,28.586661,,life,http://api.map.baidu.com/place/detail?uid=e984f539be30555f2b201ab5&output=html&source=placeapi_v2,,,,,,,,,,,,,,,,,,,,0
8957285d5ab42da1b2077d6b,聚仁万象酒店-停车场,交通设施,停车场,江西省,南昌市,南昌县,南昌市南昌县芳草路新力愉景湾西北侧约60米,8957285d5ab42da1b2077d6b,1,0,115.898971,28.591608,,life,http://api.map.baidu.com/place/detail?uid=8957285d5ab42da1b2077d6b&output=html&source=placeapi_v2,,,,,,,,,,,,,,,,,,,,0
258395293aee4b43d92f2883,幸福时光-地下停车场,交通设施,停车场,江西省,南昌市,南昌县,南昌市南昌县芳草路幸福时光一期北1门西北侧,258395293aee4b43d92f2883,1,0,115.882884,28.591068,,life,http://api.map.baidu.com/place/detail?uid=258395293aee4b43d92f2883&output=html&source=placeapi_v2,,,,,,,,,,2,,,,,,,,115.8864760533,28.591165492291,0
7d78beea5f13b3101ef74de5,华达・金沙逸城-停车场,交通设施,停车场,江西省,南昌市,南昌县,南昌市南昌县邓埠西路华达・金沙逸城,7d78beea5f13b3101ef74de5,1,2,115.891868,28.583168,,life,http://api.map.baidu.com/place/detail?uid=7d78beea5f13b3101ef74de5&output=html&source=placeapi_v2,,00:00-24:00,,,,,,,,,,,,,,,,115.89188689682,28.583143980885,2
8b29b0b58d8c916c54bfff1e,停车场(东岳大道),交通设施,停车场,江西省,南昌市,南昌县,南昌市南昌县东岳大道聚仁城,8b29b0b58d8c916c54bfff1e,1,0,115.890811,28.594955,,life,http://api.map.baidu.com/place/detail?uid=8b29b0b58d8c916c54bfff1e&output=html&source=placeapi_v2,,,,,,,,,,,,,,,,,,,,0
d2890b6948536ebfc61e51d7,幸福时光-地下停车场,交通设施,停车场,江西省,南昌市,南昌县,江西省南昌市南昌县东新乡芳草路幸福时光一期北一门,d2890b6948536ebfc61e51d7,1,0,115.886488,28.591087,,life,http://api.map.baidu.com/place/detail?uid=d2890b6948536ebfc61e51d7&output=html&source=placeapi_v2,,,,,,,,,,3,,,,,,,,,,0
ce8e2c173d8f4f04364aae58,地下停车场,交通设施,停车场,江西省,南昌市,南昌县,南昌市南昌县昌南体育中心健走步道昌南体育公园,ce8e2c173d8f4f04364aae58,1,0,115.875607,28.586893,,life,http://api.map.baidu.com/place/detail?uid=ce8e2c173d8f4f04364aae58&output=html&source=placeapi_v2,,,,,,,,,,,,,,,,,,,,0
662a2bb9b23ec034102935c5,停车场(幸福时光西),交通设施,停车场,江西省,南昌市,南昌县,南昌市南昌县金沙二路幸福时光,,1,0,115.884681,28.588695,,life,http://api.map.baidu.com/place/detail?uid=662a2bb9b23ec034102935c5&output=html&source=placeapi_v2,,00:00-24:00,,,,,,,,,,,,,,,,,,0
e082d9ca8adf20a94e2fdf4e,南昌医学院-停车场,交通设施,停车场,江西省,南昌市,南昌县,南昌市南昌县金沙大道南昌医学院,e082d9ca8adf20a94e2fdf4e,1,0,115.899181,28.583145,,life,http://api.map.baidu.com/place/detail?uid=e082d9ca8adf20a94e2fdf4e&output=html&source=placeapi_v2,,00:00-24:00,,,,,,,,,,,,,,,,115.89734681029,28.582212822315,0
05a73b680842b5e8306212ac,力高澜湖郡-地下停车场,交通设施,停车场,江西省,南昌市,南昌县,江西省南昌市南昌县小蓝经济开发区莲安路力高澜湖郡,05a73b680842b5e8306212ac,1,0,115.893816,28.581642,,life,http://api.map.baidu.com/place/detail?uid=05a73b680842b5e8306212ac&output=html&source=placeapi_v2,,00:00-24:00,,,,,,,,2,,,,,,,,115.89162986287,28.578754708866,0
69b81f405f538358c929151f,幸福时光四期-地下停车场,交通设施,停车场,江西省,南昌市,南昌县,江西省南昌市南昌县东新乡金沙二路幸福时光,69b81f405f538358c929151f,1,0,115.883287,28.587797,,life,http://api.map.baidu.com/place/detail?uid=69b81f405f538358c929151f&output=html&source=placeapi_v2,,,,,,,,,,1,,,,,,,,,,0
d0faa92518b67907f8dc8590,江西奥林匹克花园-地下停车场,交通设施,停车场,江西省,南昌市,南昌县,南昌市南昌县芳草路江西奥林匹克花园北门东侧约70米,d0faa92518b67907f8dc8590,1,1,115.894548,28.591102,,life,http://api.map.baidu.com/place/detail?uid=d0faa92518b67907f8dc8590&output=html&source=placeapi_v2,,00:00-24:00,,,,,,,,1,,,,,,,,,,1
01a1520a0bb86ffa5b109345,幸福时光-地下停车场,交通设施,停车场,江西省,南昌市,南昌县,东莲路幸福时光二期4-110号附近,01a1520a0bb86ffa5b109345,1,1,115.8784,28.585534,,life,http://api.map.baidu.com/place/detail?uid=01a1520a0bb86ffa5b109345&output=html&source=placeapi_v2,,00:00-24:00,,,,,,,,1,,,,,,,,115.87852623099,28.585512271555,1
aed86f59eaef066752e5c59a,江西建设职业技术学院(汇仁大道)-停车场,交通设施,停车场,江西省,南昌市,南昌县,南昌市南昌县金沙二路江西建设职业技术学院(汇仁大道),aed86f59eaef066752e5c59a,1,0,115.886259,28.578837,,life,http://api.map.baidu.com/place/detail?uid=aed86f59eaef066752e5c59a&output=html&source=placeapi_v2,,00:00-24:00,,,,,,,,,,,,,,,,115.88639399219,28.57918873384,0
2599a9eae978c459081cc7b9,恒大城-停车场,交通设施,停车场,江西省,南昌市,南昌县,南昌市南昌县金沙三路恒大城,2599a9eae978c459081cc7b9,1,1,115.875315,28.57353,,life,http://api.map.baidu.com/place/detail?uid=2599a9eae978c459081cc7b9&output=html&source=placeapi_v2,,00:00-24:00,,,,,,,,,,,,,,,,115.87554922828,28.5735809307,1
536e5d560034c200db13187c,新力愉景湾-停车场,交通设施,停车场,江西省,南昌市,南昌县,南昌市南昌县绿新路新力愉景湾,536e5d560034c200db13187c,1,1,115.902398,28.591983,,life,http://api.map.baidu.com/place/detail?uid=536e5d560034c200db13187c&output=html&source=placeapi_v2,,,,,,,,,,,,,,,,,,115.90230826301,28.592007931032,1
6c99411ff243f7bf8bb98827,新力愉景湾-停车场,交通设施,停车场,江西省,南昌市,南昌县,南昌市南昌县金沙大道新力都荟,6c99411ff243f7bf8bb98827,1,1,115.900513,28.589938,,life,http://api.map.baidu.com/place/detail?uid=6c99411ff243f7bf8bb98827&output=html&source=placeapi_v2,,00:00-24:00,,,,,,,,,,,,,,,,115.90053998814,28.589921020052,1
9776a4c246a5412fb8bd6304,丁香怡景-地下停车场,交通设施,停车场,江西省,南昌市,南昌县,江西省南昌市南昌县象湖南昌居住主题公园南区(金沙二路东),9776a4c246a5412fb8bd6304,1,0,115.888746,28.596279,,life,http://api.map.baidu.com/place/detail?uid=9776a4c246a5412fb8bd6304&output=html&source=placeapi_v2,,00:00-24:00,,,,,,,,2,,,,,,,,,,0
ea5583b35239519b31f71df3,平安象湖风情-地下停车场,交通设施,停车场,江西省,南昌市,南昌县,南昌市南昌县芳草路平安象湖风情,ea5583b35239519b31f71df3,1,0,115.894632,28.592118,,life,http://api.map.baidu.com/place/detail?uid=ea5583b35239519b31f71df3&output=html&source=placeapi_v2,,,,,,,,,,1,,,,,,,,,,0
a1058a07f09662b5e5073837,江西奥林匹克花园-停车场,交通设施,停车场,江西省,南昌市,南昌县,南昌市南昌县东莲路江西奥林匹克花园,a1058a07f09662b5e5073837,1,0,115.895153,28.58543,,life,http://api.map.baidu.com/place/detail?uid=a1058a07f09662b5e5073837&output=html&source=placeapi_v2,,00:00-24:00,,,,,,,,,,,,,,,,,,0
140e20709ab28f6f9d82ea4c,停车场(海嘉路),交通设施,停车场,江西省,南昌市,南昌县,南昌市南昌县海嘉路南昌居住主题公园-南区,,1,0,115.894683,28.596433,,life,http://api.map.baidu.com/place/detail?uid=140e20709ab28f6f9d82ea4c&output=html&source=placeapi_v2,,,,,,,,,,,,,,,,,,,,0
b348b9e9df7c13b39cec2bad,停车场(丁香怡景东南),交通设施,停车场,江西省,南昌市,南昌县,南昌市南昌县东岳大道丁香怡景西1门东南侧约60米,b348b9e9df7c13b39cec2bad,1,0,115.889328,28.595385,,life,http://api.map.baidu.com/place/detail?uid=b348b9e9df7c13b39cec2bad&output=html&source=placeapi_v2,,,,,,,,,,1,,,,,,,,,,0
8a54cfafe6be1cdd4d776e66,春和景明花园-地下停车场,交通设施,停车场,江西省,南昌市,南昌县,江西省南昌市南昌县春和景明(江西卫生职业学院西),8a54cfafe6be1cdd4d776e66,1,0,115.895832,28.580825,,life,http://api.map.baidu.com/place/detail?uid=8a54cfafe6be1cdd4d776e66&output=html&source=placeapi_v2,,00:00-24:00,,,,,,,,1,,,,,,,,,,0
0f5501ab6b866ed0a2a93499,金沙逸都-停车场,交通设施,停车场,江西省,南昌市,南昌县,金沙大道2567-1号楼附近,0f5501ab6b866ed0a2a93499,1,0,115.901592,28.595116,,life,http://api.map.baidu.com/place/detail?uid=0f5501ab6b866ed0a2a93499&output=html&source=placeapi_v2,,00:00-24:00,,,,,,,,,,,,,,,,115.90085004727,28.596433315196,0
6a414d3ffa7268662cb908e9,幸福时光-北门地下停车场,交通设施,停车场,江西省,南昌市,南昌县,南昌县八月湖街道芳草路西段(芳草学校西南),6a414d3ffa7268662cb908e9,1,0,115.879793,28.591077,,life,http://api.map.baidu.com/place/detail?uid=6a414d3ffa7268662cb908e9&output=html&source=placeapi_v2,,,,,,,,,,1,,,,,,,,115.87978793971,28.591200163275,0
4bc1f31c4747554e077ce8e3,力高国际城-停车场,交通设施,停车场,江西省,南昌市,南昌县,南昌市南昌县金沙二路力高国际城东3门西北侧,4bc1f31c4747554e077ce8e3,1,0,115.888044,28.596967,,life,http://api.map.baidu.com/place/detail?uid=4bc1f31c4747554e077ce8e3&output=html&source=placeapi_v2,,00:00-24:00,,,,,,,,,,,,,,,,,,0
eacb7fcb5fe00e3f9fec2b6b,江西奥林匹克花园-地下停车场,交通设施,停车场,江西省,南昌市,南昌县,江西省南昌市南昌县东新乡金沙大道江西奥林匹克花园,eacb7fcb5fe00e3f9fec2b6b,1,0,115.895292,28.590556,,life,http://api.map.baidu.com/place/detail?uid=eacb7fcb5fe00e3f9fec2b6b&output=html&source=placeapi_v2,,00:00-24:00,1.0,,,,,,,1,1,,,,,,,115.89563662524,28.590593495194,0
0d30b02eed93e00d17a19017,幸福时光滨河一品地下停车场,交通设施,停车场,江西省,南昌市,南昌县,南昌市南昌县东新二路幸福时光滨河壹品,0d30b02eed93e00d17a19017,1,1,115.878322,28.590122,,life,http://api.map.baidu.com/place/detail?uid=0d30b02eed93e00d17a19017&output=html&source=placeapi_v2,,00:00-24:00,,,,,,,,1,,,,,,,,115.87988063675,28.591051936381,1
84cf92add3e1e4cefd0eb0a6,雅庭停车场(保集半岛北),交通设施,停车场,江西省,南昌市,南昌县,南昌市南昌县东岳大道保集半岛西北侧,84cf92add3e1e4cefd0eb0a6,1,0,115.882743,28.594805,,life,http://api.map.baidu.com/place/detail?uid=84cf92add3e1e4cefd0eb0a6&output=html&source=placeapi_v2,,00:00-24:00,,,,,,,,4,,,,,,,,115.88280601626,28.594925323257,0
b1b6d59ed1f026e4715e8038,力高国际城-地下停车场,交通设施,停车场,江西省,南昌市,南昌县,南昌市南昌县金沙二路3382号,b1b6d59ed1f026e4715e8038,1,0,115.887648,28.599717,,life,http://api.map.baidu.com/place/detail?uid=b1b6d59ed1f026e4715e8038&output=html&source=placeapi_v2,,,,,,,,,,2,,,,,,,,115.88767038191,28.599862511498,0
b437e1280ce52bc405fef54f,江西建设职业技术学院(汇仁大道)-停车场,交通设施,停车场,江西省,南昌市,南昌县,南昌市南昌县邓埠西路江西建设职业技术学院(汇仁大道),b437e1280ce52bc405fef54f,1,0,115.890653,28.577233,,life,http://api.map.baidu.com/place/detail?uid=b437e1280ce52bc405fef54f&output=html&source=placeapi_v2,,00:00-24:00,,,,,,,,,,,,,,,,,,0
7220ec9bc66c6eab4c3a598e,保集半岛-地下停车场,交通设施,停车场,江西省,南昌市,南昌县,江西省南昌市南昌县金沙二路杭辉假日酒店(保集半岛东50米),7220ec9bc66c6eab4c3a598e,1,1,115.888096,28.594255,,life,http://api.map.baidu.com/place/detail?uid=7220ec9bc66c6eab4c3a598e&output=html&source=placeapi_v2,,00:00-24:00,,,,,,,,1,,,,,,,,115.88829031422,28.594223998247,1
71254fccb71b9cad744ff134,新力银湖湾-地下停车场,交通设施,停车场,江西省,南昌市,南昌县,南昌市南昌县金沙大道新力银湖湾,,1,0,115.896229,28.573209,,life,http://api.map.baidu.com/place/detail?uid=71254fccb71b9cad744ff134&output=html&source=placeapi_v2,,,,,,,,,,,,,,,,,,,,0
51a1e336c17f4c428b2fb5c6,枫林美庐-地下停车场,交通设施,停车场,江西省,南昌市,南昌县,江西省-南昌市-南昌县-海嘉路枫林美庐,,1,0,115.892487,28.597142,,life,http://api.map.baidu.com/place/detail?uid=51a1e336c17f4c428b2fb5c6&output=html&source=placeapi_v2,,,,,,,,,,,,,,,,,,,,0
c7e04ee74d410a17b21e3623,邓埠晟熠物流-停车场,交通设施,停车场,江西省,南昌市,南昌县,南昌市南昌县汇仁大道江西工商技工学校(小蓝校区)西侧约90米,c7e04ee74d410a17b21e3623,1,0,115.902767,28.575759,,life,http://api.map.baidu.com/place/detail?uid=c7e04ee74d410a17b21e3623&output=html&source=placeapi_v2,,00:00-24:00,,,,,,,,3,,,,,,,,,,0
77cb18a125593ca516764379,保集半岛御河湾-停车场,交通设施,停车场,江西省,南昌市,南昌县,南昌市南昌县东岳大道保集半岛御河湾,77cb18a125593ca516764379,1,1,115.880177,28.594843,19379879693,life,http://api.map.baidu.com/place/detail?uid=77cb18a125593ca516764379&output=html&source=placeapi_v2,,00:00-24:00,,,,,,,,1,,,,,,,,115.88154806425,28.59383056505,1
ad47c41e203d9ceccb213db5,力高国际城-地下车库,交通设施,停车场,江西省,南昌市,南昌县,江西省南昌市南昌县东新乡诚义路力高国际城瓦伦西亚,ad47c41e203d9ceccb213db5,1,0,115.880922,28.596101,,life,http://api.map.baidu.com/place/detail?uid=ad47c41e203d9ceccb213db5&output=html&source=placeapi_v2,,,1.0,,,,,,,,1,,,,,,,,,0
14663a32e9c57d412e473341,停车场,交通设施,停车场,江西省,南昌市,南昌县,南昌市南昌县澄湖西路泰然雅居,14663a32e9c57d412e473341,1,0,115.930642,28.578575,,life,http://api.map.baidu.com/place/detail?uid=14663a32e9c57d412e473341&output=html&source=placeapi_v2,,,,,,,,,,,,,,,,,,,,0
9a586812d1742cb70f0e6bee,停车场,交通设施,停车场,江西省,南昌市,南昌县,江西省南昌市南昌县G105,9a586812d1742cb70f0e6bee,1,0,115.942186,28.580452,,life,http://api.map.baidu.com/place/detail?uid=9a586812d1742cb70f0e6bee&output=html&source=placeapi_v2,,,,,,,,,,,,,,,,,,,,0
45c2c85132d565133a04b12c,正荣大湖之都-地下停车场,交通设施,停车场,江西省,南昌市,南昌县,南昌市南昌县振兴大道正荣大湖之都,45c2c85132d565133a04b12c,1,1,115.931704,28.585849,,life,http://api.map.baidu.com/place/detail?uid=45c2c85132d565133a04b12c&output=html&source=placeapi_v2,,00:00-24:00,,,,,,,,,,,,,,,,115.93188024323,28.585767823506,1
fb1cefafcd539ac9f5c59c36,中央首府-停车场,交通设施,停车场,江西省,南昌市,南昌县,南昌市南昌县河滨路中央首府,fb1cefafcd539ac9f5c59c36,1,1,115.93281,28.584631,,life,http://api.map.baidu.com/place/detail?uid=fb1cefafcd539ac9f5c59c36&output=html&source=placeapi_v2,,,,,,,,,,,,,,,,,,115.9328620166,28.584728220896,1
ec0108f6ee812c98c4f0251a,中央首府-停车场,交通设施,停车场,江西省,南昌市,南昌县,南昌市南昌县振兴大道中央首府,ec0108f6ee812c98c4f0251a,1,0,115.930962,28.584815,,life,http://api.map.baidu.com/place/detail?uid=ec0108f6ee812c98c4f0251a&output=html&source=placeapi_v2,,00:00-24:00,,,,,,,,1,,,,,,,,,,0
3e1fae9cf6875db993114cde,正荣大湖之都-停车场,交通设施,停车场,江西省,南昌市,南昌县,南昌市南昌县振兴大道正荣大湖之都,3e1fae9cf6875db993114cde,1,0,115.932928,28.585884,,life,http://api.map.baidu.com/place/detail?uid=3e1fae9cf6875db993114cde&output=html&source=placeapi_v2,,,,,,,,,,,,,,,,,,,,0
232f69d5c480bb139a005010,泰然雅居-停车场,交通设施,停车场,江西省,南昌市,南昌县,南昌市南昌县澄湖西路泰然雅居,232f69d5c480bb139a005010,1,1,115.929431,28.578981,,life,http://api.map.baidu.com/place/detail?uid=232f69d5c480bb139a005010&output=html&source=placeapi_v2,,00:00-24:00,,,,,,,,1,,,,,,,,115.92956933434,28.578938023577,1
0e875f46cce9f5c611882442,永通3期-停车场,交通设施,停车场,江西省,南昌市,南昌县,南昌市南昌县小蓝北路南昌县中医院东南侧,0e875f46cce9f5c611882442,1,1,115.931076,28.577103,,life,http://api.map.baidu.com/place/detail?uid=0e875f46cce9f5c611882442&output=html&source=placeapi_v2,,,,,,,,,,,,,,,,,,,,1
04582d4606a1ab423a04b183,巢蓝郡-停车场,交通设施,停车场,江西省,南昌市,南昌县,迎宾大道828号3栋附近,04582d4606a1ab423a04b183,1,1,115.917758,28.586284,,life,http://api.map.baidu.com/place/detail?uid=04582d4606a1ab423a04b183&output=html&source=placeapi_v2,,00:00-24:00,,,,,,,,,,,,,,,,115.91756417649,28.586327017213,1
ee72784a9bf292d093114c79,巢蓝郡-停车场,交通设施,停车场,江西省,南昌市,南昌县,南昌市南昌县邓埠一路巢蓝郡西侧,ee72784a9bf292d093114c79,1,1,115.915412,28.58589,,life,http://api.map.baidu.com/place/detail?uid=ee72784a9bf292d093114c79&output=html&source=placeapi_v2,,,,,,,,,,,,,,,,,,115.91555238268,28.585788794378,1
63df232448c8af54f2193753,停车场(振兴大道),交通设施,停车场,江西省,南昌市,南昌县,南昌市南昌县振兴大道银海蓝天,63df232448c8af54f2193753,1,0,115.919517,28.584295,,life,http://api.map.baidu.com/place/detail?uid=63df232448c8af54f2193753&output=html&source=placeapi_v2,,00:00-24:00,,,,,,,,1,,,,,,,,,,0
162e73c5325cabce3ce231e6,鹿鼎国际机车城-停车场,交通设施,停车场,江西省,南昌市,南昌县,南昌市南昌县莲塘北大道中国石化(小兰加油站)东南侧约240米,162e73c5325cabce3ce231e6,1,1,115.941597,28.585425,,life,http://api.map.baidu.com/place/detail?uid=162e73c5325cabce3ce231e6&output=html&source=placeapi_v2,,00:00-24:00,,,,,,,,,,,,,,,,115.94169449952,28.585390904296,1
f6ef6938bd1eafa940e192d2,木方格-停车场,交通设施,停车场,江西省,南昌市,南昌县,南昌市南昌县汇仁大道汇仁购物广场,f6ef6938bd1eafa940e192d2,1,2,115.918687,28.576128,,life,http://api.map.baidu.com/place/detail?uid=f6ef6938bd1eafa940e192d2&output=html&source=placeapi_v2,,00:00-24:00,,,,,,,,1,,,,,,,,,,2
dea52d1b5d0e35980482c295,正荣大湖之都-停车场,交通设施,停车场,江西省,南昌市,南昌县,南昌市南昌县正荣大湖社区健走步道正荣大湖之都南2门北侧约60米,dea52d1b5d0e35980482c295,1,0,115.930233,28.586555,,life,http://api.map.baidu.com/place/detail?uid=dea52d1b5d0e35980482c295&output=html&source=placeapi_v2,,,,,,,,,,,,,,,,,,115.93026488332,28.586518980538,0
113686a960c320002afc4881,南昌县中医院-停车场,交通设施,停车场,江西省,南昌市,南昌县,江西省南昌市南昌县澄湖西路2016号,113686a960c320002afc4881,1,0,115.929516,28.577214,(0791)87317980,life,http://api.map.baidu.com/place/detail?uid=113686a960c320002afc4881&output=html&source=placeapi_v2,,00:00-24:00,,,,,,,,,,,,,,,,115.9295370717,28.57696430825,0
3d58e2d7428ce8bcf03cba0f,大型停车场,交通设施,停车场,江西省,南昌市,南昌县,江西省南昌市南昌县众柏冠纱窗东100米(工业大道北),3d58e2d7428ce8bcf03cba0f,1,0,115.910777,28.578646,,life,http://api.map.baidu.com/place/detail?uid=3d58e2d7428ce8bcf03cba0f&output=html&source=placeapi_v2,,,,,,,,,,1,,,,,,,,115.91082707022,28.578544573501,0
c53767acedba1a6aa0acc463,正荣大湖之都凌湖峰-地下停车场,交通设施,停车场,江西省,南昌市,南昌县,南昌市南昌县正荣大湖社区健走步道正荣大湖之都凌湖峰西南2门东侧约30米,c53767acedba1a6aa0acc463,1,1,115.930302,28.587368,,life,http://api.map.baidu.com/place/detail?uid=c53767acedba1a6aa0acc463&output=html&source=placeapi_v2,,00:00-24:00,0.0,,,,,,,,,,,,,,,115.92973381678,28.587305867519,1
1573560b8b8105cbf03cbaa0,月星国际建材家居生活广场(振兴大道店)-地下停车场,交通设施,停车场,江西省,南昌市,南昌县,江西省南昌市南昌县莲塘镇振兴大道月星家居广场金屋店,1573560b8b8105cbf03cbaa0,1,0,115.92338,28.585408,,life,http://api.map.baidu.com/place/detail?uid=1573560b8b8105cbf03cbaa0&output=html&source=placeapi_v2,,00:00-24:00,,,,,,,,1,,,,,,,,,,0
dab0118fc4be5316f82d6133,南昌县洪州体育馆-停车场,交通设施,停车场,江西省,南昌市,南昌县,南昌市南昌县小蓝南路南昌县洪州体育馆,dab0118fc4be5316f82d6133,1,2,115.932256,28.571074,,life,http://api.map.baidu.com/place/detail?uid=dab0118fc4be5316f82d6133&output=html&source=placeapi_v2,,00:00-24:00,,,,,,,,1,,,,,,,,115.93249181681,28.570894269194,2
f2a75f16dfa8aecb3517dcb7,正荣大湖之都南岸公园-停车场,交通设施,停车场,江西省,南昌市,南昌县,南昌市南昌县振兴大道333号,f2a75f16dfa8aecb3517dcb7,1,0,115.934238,28.587375,,life,http://api.map.baidu.com/place/detail?uid=f2a75f16dfa8aecb3517dcb7&output=html&source=placeapi_v2,,00:00-24:00,,,,,,,,,,,,,,,,115.93409536042,28.587329489027,0
ee4154e2609e177c2efaa72c,联合一百宾馆-停车场,交通设施,停车场,江西省,南昌市,南昌县,江西省南昌市南昌县昌南客运站振兴大道958号,ee4154e2609e177c2efaa72c,1,0,115.920195,28.584363,(0791)82076866,life,http://api.map.baidu.com/place/detail?uid=ee4154e2609e177c2efaa72c&output=html&source=placeapi_v2,,00:00-24:00,,,,,,,,,,,,,,,,,,0
1b71a9a4a9b0946cd72ce230,停车场(迎宾中大道),交通设施,停车场,江西省,南昌市,南昌县,南昌市南昌县迎宾中大道煌盛中央公园,,1,0,115.920434,28.571663,,life,http://api.map.baidu.com/place/detail?uid=1b71a9a4a9b0946cd72ce230&output=html&source=placeapi_v2,,,,,,,,,,,,,,,,,,,,0
d1f128c01e56b860c72ba1c4,正荣大湖之都-停车场,交通设施,停车场,江西省,南昌市,南昌县,南昌市南昌县振兴大道333号正荣・大湖之都南岸公园,d1f128c01e56b860c72ba1c4,1,1,115.933246,28.592171,,life,http://api.map.baidu.com/place/detail?uid=d1f128c01e56b860c72ba1c4&output=html&source=placeapi_v2,,,,,,,,,,,,,,,,,,,,1
581aeba30281968dc056acf0,欧尚超市扶梯-停车场,交通设施,停车场,江西省,南昌市,南昌县,南昌市南昌县迎宾中大道1188号开心哈乐木方格B1,581aeba30281968dc056acf0,1,0,115.918807,28.57541,,life,http://api.map.baidu.com/place/detail?uid=581aeba30281968dc056acf0&output=html&source=placeapi_v2,,,,,,,,,,,,,,,,,,,,0
9de4af331f6cfd1ad4b74e92,停车场(海湾假日宾馆北),交通设施,停车场,江西省,南昌市,南昌县,南昌市南昌县迎宾中大道凯旋公馆西南侧,9de4af331f6cfd1ad4b74e92,1,0,115.917165,28.592486,,life,http://api.map.baidu.com/place/detail?uid=9de4af331f6cfd1ad4b74e92&output=html&source=placeapi_v2,,,,,,,,,,,,,,,,,,,,0
b6d441ca330ae5158c55ec52,地下车库,交通设施,停车场,江西省,南昌市,南昌县,南昌市南昌县李埠南路百城晶典,b6d441ca330ae5158c55ec52,1,0,115.919261,28.587512,,life,http://api.map.baidu.com/place/detail?uid=b6d441ca330ae5158c55ec52&output=html&source=placeapi_v2,,,,,,,,,,1,,,,,,,,,,0
55a3e013326868ddb04c49f8,尚南云顶停车场,交通设施,停车场,江西省,南昌市,南昌县,江西省-南昌市-南昌县-定埠路55号尚南云顶,,1,0,115.917907,28.581497,(0791)85888585,life,http://api.map.baidu.com/place/detail?uid=55a3e013326868ddb04c49f8&output=html&source=placeapi_v2,,,,,,,,,,,,,,,,,,,,0
c8ba94cf223991978415415e,百城晶典-地下停车场,交通设施,停车场,江西省,南昌市,南昌县,江西省南昌市南昌县迎宾大道繁荣路百城・晶典南区北门,c8ba94cf223991978415415e,1,1,115.919018,28.587937,,life,http://api.map.baidu.com/place/detail?uid=c8ba94cf223991978415415e&output=html&source=placeapi_v2,,00:00-24:00,,,,,,,,1,,,,,,,,115.91926884954,28.588011896369,1
2317f2e94a8fe16bc5effbbf,南昌汇仁精品商务宾馆-停车场,交通设施,停车场,江西省,南昌市,南昌县,江西省南昌市南昌县迎宾北大道1189号,2317f2e94a8fe16bc5effbbf,1,0,115.919449,28.576623,(0791)85709888,life,http://api.map.baidu.com/place/detail?uid=2317f2e94a8fe16bc5effbbf&output=html&source=placeapi_v2,,00:00-24:00,,,,,,,,,,,,,,,,,,0
a5b89df9939f4a8e430245ae,停车场(创意590商务会所东),交通设施,停车场,江西省,南昌市,南昌县,南昌市南昌县汇仁大道泰豪小蓝工业园,a5b89df9939f4a8e430245ae,1,0,115.914529,28.576146,,life,http://api.map.baidu.com/place/detail?uid=a5b89df9939f4a8e430245ae&output=html&source=placeapi_v2,,00:00-24:00,,,,,,,,,,,,,,,,,,0
6c27567a9d3c61eb157643b5,华宇尚城-地下停车场,交通设施,停车场,江西省,南昌市,南昌县,江西省南昌市南昌县华宇尚城(迎宾中大道西230米),6c27567a9d3c61eb157643b5,1,0,115.914886,28.58901,,life,http://api.map.baidu.com/place/detail?uid=6c27567a9d3c61eb157643b5&output=html&source=placeapi_v2,,,,,,,,,,1,,,,,,,,115.91531747669,28.589147817525,0
fd262fe3060801167069d3e3,南昌中大城-1号地下停车场,交通设施,停车场,江西省,南昌市,南昌县,南昌市南昌县小蓝南路南昌中大城,fd262fe3060801167069d3e3,1,1,115.93418,28.571073,,life,http://api.map.baidu.com/place/detail?uid=fd262fe3060801167069d3e3&output=html&source=placeapi_v2,,00:00-24:00,,,,,,,,1,,,,,,,,115.93400475193,28.571078953086,1
a1778fd870f1f5048f55ec8c,金色学府-地下停车场,交通设施,停车场,江西省,南昌市,南昌县,南昌市南昌县南一路金色学府,a1778fd870f1f5048f55ec8c,1,0,115.925766,28.568218,,life,http://api.map.baidu.com/place/detail?uid=a1778fd870f1f5048f55ec8c&output=html&source=placeapi_v2,,,,,,,,,,2,,,,,,,,115.92591411485,28.568092092011,0
f67325111462a53b3be4a62b,汇仁阳光花园-地下停车场,交通设施,停车场,江西省,南昌市,南昌县,南昌市南昌县迎宾中大道南昌汇仁精品商务宾馆北侧约30米,f67325111462a53b3be4a62b,1,1,115.919361,28.577304,(0791)85798888,life,http://api.map.baidu.com/place/detail?uid=f67325111462a53b3be4a62b&output=html&source=placeapi_v2,,00:00-24:00,0.0,,,,,,,4,,,,,,,,115.9193431394,28.577804781419,1
ab605548ea5c685e4354d7e7,江西信息应用职业技术学院-停车场,交通设施,停车场,江西省,南昌市,青云谱区,南昌市青云谱区气象路江西信息应用职业技术学院,,1,0,115.912525,28.593922,,life,http://api.map.baidu.com/place/detail?uid=ab605548ea5c685e4354d7e7&output=html&source=placeapi_v2,,00:00-24:00,,,,,,,,,,,,,,,,,,0
7152f769ba81da853a04b18d,汇仁・阳光花园-地下停车场6号坡道,交通设施,停车场,江西省,南昌市,南昌县,南昌市南昌县定埠路汇仁阳光花园-北区,,1,0,115.917366,28.579533,,life,http://api.map.baidu.com/place/detail?uid=7152f769ba81da853a04b18d&output=html&source=placeapi_v2,,,,,,,,,,,,,,,,,,,,0
008c7e747495bc0d157643d7,君悦府二期-地下停车场,交通设施,停车场,江西省,南昌市,南昌县,南昌市南昌县小蓝南路君悦府,,1,0,115.937102,28.571047,,life,http://api.map.baidu.com/place/detail?uid=008c7e747495bc0d157643d7&output=html&source=placeapi_v2,,,,,,,,,,,,,,,,,,,,0
8c78ce245461953c725e8041,电动车停放处,交通设施,停车场,江西省,南昌市,青山湖区,南昌市青山湖区昌南大道与罗家大道交叉路口往西北约280米,,1,0,115.98392,28.598229,,life,http://api.map.baidu.com/place/detail?uid=8c78ce245461953c725e8041&output=html&source=placeapi_v2,,,,,,,,,,,,,,,,,,,,0
9fcb647edfc8c884d5b74e0a,恒望博览中心-停车场,交通设施,停车场,江西省,南昌市,新建区,南昌市新建区杨岐山大道新力・钰珑湾,,1,0,115.735277,28.630142,,life,http://api.map.baidu.com/place/detail?uid=9fcb647edfc8c884d5b74e0a&output=html&source=placeapi_v2,,,,,,,,,,,,,,,,,,,,0
83ed2cede196d7f728b97c9a,南昌工学院-停车场,交通设施,停车场,江西省,南昌市,红谷滩区,江西省南昌市红谷滩区望城镇南昌工学院-民族教育学院附近,83ed2cede196d7f728b97c9a,1,0,115.766046,28.618588,,life,http://api.map.baidu.com/place/detail?uid=83ed2cede196d7f728b97c9a&output=html&source=placeapi_v2,,00:00-24:00,,,,,,,,,,,,,,,,115.76590257099,28.618618013623,0
7fbae36beee92b5428b97c36,南昌工学院-停车场,交通设施,停车场,江西省,南昌市,红谷滩区,江西省南昌市红谷滩区创业南路998号,,1,0,115.764716,28.61979,,life,http://api.map.baidu.com/place/detail?uid=7fbae36beee92b5428b97c36&output=html&source=placeapi_v2,,,,,,,,,,,,,,,,,,115.76474583287,28.619727201944,0
769b8286cfc0d17a471a3272,南昌西站-地下停车场,交通设施,停车场,江西省,南昌市,红谷滩区,江西省南昌市红谷滩区南昌西站北广场,769b8286cfc0d17a471a3272,1,1,115.800266,28.631289,,life,http://api.map.baidu.com/place/detail?uid=769b8286cfc0d17a471a3272&output=html&source=placeapi_v2,,,0,,,,,,,,0,,,,,,,115.8001288634,28.633225075708,1
7dd642a352066ce0f21937c8,南昌绿地国际博览中心-停车场,交通设施,停车场,江西省,南昌市,红谷滩区,南昌市红谷滩区上饶大街南昌绿地国际博览中心4号门西北侧,,1,0,115.803087,28.613835,,life,http://api.map.baidu.com/place/detail?uid=7dd642a352066ce0f21937c8&output=html&source=placeapi_v2,,,,,,,,,,,,,,,,,,,,0
2fe44e1bd502fd2ad22dd63a,南昌西站-网约车地下停车场,交通设施,停车场,江西省,南昌市,红谷滩区,石钟山路与龙兴大街交叉口东北150米,2fe44e1bd502fd2ad22dd63a,1,0,115.795712,28.626896,,life,http://api.map.baidu.com/place/detail?uid=2fe44e1bd502fd2ad22dd63a&output=html&source=placeapi_v2,,,0,,,,,,,1,1,,,,,,,115.79563777063,28.626988244246,0
d705fa4425925f207bf79645,南昌西站-停车场,交通设施,停车场,江西省,南昌市,红谷滩区,江西省南昌市红谷滩区西站大街附近,d705fa4425925f207bf79645,1,0,115.800252,28.63244,,life,http://api.map.baidu.com/place/detail?uid=d705fa4425925f207bf79645&output=html&source=placeapi_v2,,,3,,,,,,,,4,,,,,,,115.80006684349,28.633340682263,0
47998cb033e7f075b1077d54,绿地国际会展大厦-停车场,交通设施,停车场,江西省,南昌市,红谷滩区,南昌市红谷滩区上饶大街绿地国际会展大厦北侧,,1,1,115.79976,28.615379,,life,http://api.map.baidu.com/place/detail?uid=47998cb033e7f075b1077d54&output=html&source=placeapi_v2,,,,,,,,,,,,,,,,,,,,1
4283eeae85b15730095cb3c6,南昌西站-北广场A-D地下停车场,交通设施,停车场,江西省,南昌市,红谷滩区,南昌市红谷滩区婺源路与平安东二街交叉路口西北侧(南昌西站),4283eeae85b15730095cb3c6,1,2,115.802962,28.63058,,life,http://api.map.baidu.com/place/detail?uid=4283eeae85b15730095cb3c6&output=html&source=placeapi_v2,,00:00-24:00,2.7,,,,,,,2,3,,,,,,,115.80302707096,28.63070688297,2
03f0ef6425c1cdca03ff2d83,南昌西站-北广场E-G地下停车场,交通设施,停车场,江西省,南昌市,红谷滩区,江西省南昌市红谷滩区南昌西站北广场附近,03f0ef6425c1cdca03ff2d83,1,2,115.80019,28.632448,,life,http://api.map.baidu.com/place/detail?uid=03f0ef6425c1cdca03ff2d83&output=html&source=placeapi_v2,,00:00-24:00,0,,,,,,,,0,,,,,,,115.80020942703,28.632518710513,2
fc53ea55e3db91f53f9a5e0e,绿地地下停车场,交通设施,停车场,江西省,南昌市,红谷滩区,南昌市红谷滩区黄岗山路绿地悦城-D区,,1,0,115.81645,28.624412,,life,http://api.map.baidu.com/place/detail?uid=fc53ea55e3db91f53f9a5e0e&output=html&source=placeapi_v2,,,,,,,,,,,,,,,,,,,,0
322b6451ce0da8f3d1f49e31,南昌西站-东停车场,交通设施,停车场,江西省,南昌市,红谷滩区,南昌市红谷滩区婺源路与平安东二街交叉路口往西约100米(南昌西站),322b6451ce0da8f3d1f49e31,1,0,115.801245,28.630203,,life,http://api.map.baidu.com/place/detail?uid=322b6451ce0da8f3d1f49e31&output=html&source=placeapi_v2,,00:00-24:00,,,,,,,,,,,,,,,,115.80317292703,28.630738333886,0
cfc292cf65f056a8ede4a5b9,华润凯旋门-停车场,交通设施,停车场,江西省,南昌市,红谷滩区,南昌市红谷滩区平安东二街华润凯旋门,,1,0,115.807395,28.628031,,life,http://api.map.baidu.com/place/detail?uid=cfc292cf65f056a8ede4a5b9&output=html&source=placeapi_v2,,,,,,,,,,,,,,,,,,115.8074295414,28.628035506333,0
5dee76c756944b1f3904b120,绿地国际会展大厦-停车场,交通设施,停车场,江西省,南昌市,红谷滩区,江西省南昌市红谷滩区圭峰大道绿地国际会展大厦,,1,0,115.797884,28.614486,,life,http://api.map.baidu.com/place/detail?uid=5dee76c756944b1f3904b120&output=html&source=placeapi_v2,,,,,,,,,,,,,,,,,,115.79766382145,28.614385308373,0
e3b2abf65d430c121ef74df1,南昌绿地国际博览中心-停车场,交通设施,停车场,江西省,南昌市,红谷滩区,江西省南昌市红谷滩区怀玉山大道1315号,,1,0,115.798427,28.609081,,life,http://api.map.baidu.com/place/detail?uid=e3b2abf65d430c121ef74df1&output=html&source=placeapi_v2,,,,,,,,,,,,,,,,,,,,0
57880a6ddfeee08e4f6d4622,南昌西站-南广场U-W地下停车场,交通设施,停车场,江西省,南昌市,红谷滩区,南昌市红谷滩区石钟山路与龙兴大街交叉路口往北约100米(南昌西站),57880a6ddfeee08e4f6d4622,1,2,115.79542,28.627136,,life,http://api.map.baidu.com/place/detail?uid=57880a6ddfeee08e4f6d4622&output=html&source=placeapi_v2,,00:00-24:00,,,,,,,,,,,,,,,,115.79527265436,28.626995623196,2
4f8f1f7fdcfbc6968936eeb1,绿地地下停车场,交通设施,停车场,江西省,南昌市,红谷滩区,南昌市红谷滩区黄岗山路绿地悦城-A区,4f8f1f7fdcfbc6968936eeb1,1,0,115.818155,28.629641,,life,http://api.map.baidu.com/place/detail?uid=4f8f1f7fdcfbc6968936eeb1&output=html&source=placeapi_v2,,,,,,,,,,1,,,,,,,,,,0
424ce59132e55dee16764341,绿地悦城-地下停车场,交通设施,停车场,江西省,南昌市,红谷滩区,南昌市红谷滩区西站大街绿地悦城-E区,424ce59132e55dee16764341,1,1,115.818187,28.624225,,life,http://api.map.baidu.com/place/detail?uid=424ce59132e55dee16764341&output=html&source=placeapi_v2,,00:00-24:00,5.0,,,,,,,4,1,,,,,,,115.81759071429,28.624000380129,1
71c6340da727abef46e2748c,南昌长途汽车西站-地下停车场,交通设施,停车场,江西省,南昌市,红谷滩区,江西省南昌市红谷滩区南昌西站旁南昌长途汽车西站,,1,2,115.796633,28.631619,,life,http://api.map.baidu.com/place/detail?uid=71c6340da727abef46e2748c&output=html&source=placeapi_v2,,,,,,,,,,,,,,,,,,115.79659396205,28.631560116186,2
95f0a7e5ed127edca6da3972,恒锦花苑-地下车库,交通设施,停车场,江西省,南昌市,红谷滩区,南昌市红谷滩区景德镇街恒锦花苑,,1,0,115.798698,28.620163,,life,http://api.map.baidu.com/place/detail?uid=95f0a7e5ed127edca6da3972&output=html&source=placeapi_v2,,,,,,,,,,,,,,,,,,,,0
ed99e166c88b380dcae33cec,藏珑小区-地下停车场,交通设施,停车场,江西省,南昌市,红谷滩区,南昌市红谷滩区婺源路绿地国际博览城1期藏珑,ed99e166c88b380dcae33cec,1,1,115.794732,28.614031,,life,http://api.map.baidu.com/place/detail?uid=ed99e166c88b380dcae33cec&output=html&source=placeapi_v2,,,,,,,,,,,,,,,,,,115.7940033891,28.613999139641,1
135b079ae4c38e4b82a12e74,九龙明珠D区-地下停车场,交通设施,停车场,江西省,南昌市,红谷滩区,江西省-南昌市-红谷滩区-景德镇街九龙明珠D区,,1,0,115.815036,28.611796,,life,http://api.map.baidu.com/place/detail?uid=135b079ae4c38e4b82a12e74&output=html&source=placeapi_v2,,,,,,,,,,,,,,,,,,,,0
72097b76e31adaf38bf15d24,芙蓉海珀・九龙停车场,交通设施,停车场,江西省,南昌市,红谷滩区,南昌市红谷滩区雅瑶路绿地国际博览城2期东南侧约70米,,1,0,115.818358,28.604787,,life,http://api.map.baidu.com/place/detail?uid=72097b76e31adaf38bf15d24&output=html&source=placeapi_v2,,,,,,,,,,,,,,,,,,,,0
752cc2e45d603e8200ff2d94,绿地国际博览城・博睿停车场,交通设施,停车场,江西省,南昌市,红谷滩区,南昌市红谷滩区城运路绿地国际博览城2期,,1,0,115.816684,28.606575,,life,http://api.map.baidu.com/place/detail?uid=752cc2e45d603e8200ff2d94&output=html&source=placeapi_v2,,,,,,,,,,,,,,,,,,,,0
790d48ac16a363928433049d,九龙明珠A区-地下停车场,交通设施,停车场,江西省,南昌市,红谷滩区,南昌市红谷滩区上饶大街九龙明珠,,1,0,115.814196,28.610184,,life,http://api.map.baidu.com/place/detail?uid=790d48ac16a363928433049d&output=html&source=placeapi_v2,,,,,,,,,,,,,,,,,,,,0
7eaeb985b7e5028cbea24020,悦城F区南区绿地地下停车场,交通设施,停车场,江西省,南昌市,红谷滩区,江西省南昌市红谷滩区九龙湖管理处西站大街悦城F区南区,7eaeb985b7e5028cbea24020,1,0,115.821765,28.621893,,life,http://api.map.baidu.com/place/detail?uid=7eaeb985b7e5028cbea24020&output=html&source=placeapi_v2,,,,,,,,,,,,,,,,,,115.82182884422,28.621961778037,0
d8444be2d7ef0c92c2f1cf80,恒天时尚中心-汉庭南昌国体中心酒店停车场,交通设施,停车场,江西省,南昌市,红谷滩区,南昌市红谷滩区城运路恒天时尚中心,,1,2,115.823717,28.620494,,life,http://api.map.baidu.com/place/detail?uid=d8444be2d7ef0c92c2f1cf80&output=html&source=placeapi_v2,,,,,,,,,,,,,,,,,,115.82355987715,28.62053817298,2
93318fc03671bded774ff197,荣府(悦城店)-地下停车场,交通设施,停车场,江西省,南昌市,红谷滩区,南昌市红谷滩区西站大街绿地悦城E区北区西门斜对面,,1,0,115.818593,28.625042,(0791)86209868,life,http://api.map.baidu.com/place/detail?uid=93318fc03671bded774ff197&output=html&source=placeapi_v2,,,,,,,,,,,,,,,,,,,,0
a7ee3639e1f3de72e0110386,永富路公交停车场,交通设施,停车场,江西省,南昌市,西湖区,南昌市西湖区永乐路正荣御品,,1,0,115.858501,28.623856,,life,http://api.map.baidu.com/place/detail?uid=a7ee3639e1f3de72e0110386&output=html&source=placeapi_v2,,,,,,,,,,,,,,,,,,,,0
47b7705c65bfdc919d9d68ea,新洪城大市场-停车场,交通设施,停车场,江西省,南昌市,南昌县,江西省南昌市南昌县X018,47b7705c65bfdc919d9d68ea,1,0,115.853568,28.612541,,life,http://api.map.baidu.com/place/detail?uid=47b7705c65bfdc919d9d68ea&output=html&source=placeapi_v2,,,0,,,,,,,1,1,,,,,,,,,0
9523d1c22e1ca5b1631c67c1,洪大・赣江城-停车场,交通设施,停车场,江西省,南昌市,南昌县,南昌市南昌县河洲路洪大・赣江城,9523d1c22e1ca5b1631c67c1,1,1,115.849557,28.611425,,life,http://api.map.baidu.com/place/detail?uid=9523d1c22e1ca5b1631c67c1&output=html&source=placeapi_v2,,,,,,,,,,,,,,,,,,115.8496330149,28.61140621621,1
060059106762cb30841541ea,朝阳明珠停车场,交通设施,停车场,江西省,南昌市,南昌县,南昌市南昌县八月湖路诚至朝阳明珠,,1,0,115.853802,28.608801,,life,http://api.map.baidu.com/place/detail?uid=060059106762cb30841541ea&output=html&source=placeapi_v2,,,,,,,,,,,,,,,,,,,,0
af6c4d5c56abb1ff17b54ba3,正荣・御品-停车场,交通设施,停车场,江西省,南昌市,西湖区,南昌市西湖区永富路正荣御品,af6c4d5c56abb1ff17b54ba3,1,1,115.856269,28.624264,,life,http://api.map.baidu.com/place/detail?uid=af6c4d5c56abb1ff17b54ba3&output=html&source=placeapi_v2,,00:00-24:00,,,,,,,,,,,,,,,,115.85806519942,28.624967604361,1
987b33051df9c715c7f50dfc,正荣御峰-停车场,交通设施,停车场,江西省,南昌市,西湖区,南昌市西湖区兰宫路正荣御o,987b33051df9c715c7f50dfc,1,1,115.853902,28.629924,,life,http://api.map.baidu.com/place/detail?uid=987b33051df9c715c7f50dfc&output=html&source=placeapi_v2,,00:00-24:00,,,,,,,,,,,,,,,,115.85386238995,28.629872504463,1
8b3a467a7bcc476304026f96,正荣御尊-停车场,交通设施,停车场,江西省,南昌市,西湖区,南昌市西湖区丁家洲路正荣御尊,8b3a467a7bcc476304026f96,1,1,115.859546,28.624464,,life,http://api.map.baidu.com/place/detail?uid=8b3a467a7bcc476304026f96&output=html&source=placeapi_v2,,,,,,,,,,1,,,,,,,,115.85971451169,28.624546968397,1
f5db944704dd059021f0178d,正荣御峰-停车场,交通设施,停车场,江西省,南昌市,西湖区,南昌市西湖区桂殿路正荣御o,f5db944704dd059021f0178d,1,0,115.855967,28.629887,,life,http://api.map.baidu.com/place/detail?uid=f5db944704dd059021f0178d&output=html&source=placeapi_v2,,00:00-24:00,,,,,,,,,,,,,,,,115.85612617913,28.629838114278,0
d05fcab9e5e67115eee4a5b8,橡树湾(永乐路)-停车场,交通设施,停车场,江西省,南昌市,西湖区,南昌市西湖区永乐路橡树湾(永乐路),,1,2,115.859931,28.62591,,life,http://api.map.baidu.com/place/detail?uid=d05fcab9e5e67115eee4a5b8&output=html&source=placeapi_v2,,00:00-24:00,,,,,,,,,,,,,,,,115.85963809553,28.625827130113,2
22ff6eb0bfcb194e4e3a5932,云海停车场,交通设施,停车场,江西省,南昌市,西湖区,南昌市西湖区抚生南路橡树湾(永乐路)东北侧约250米,22ff6eb0bfcb194e4e3a5932,1,0,115.863009,28.628305,,life,http://api.map.baidu.com/place/detail?uid=22ff6eb0bfcb194e4e3a5932&output=html&source=placeapi_v2,,00:00-24:00,,,,,,,,2,,,,,,,,,,0
d3001150a48c19b3734b87aa,正荣御尊-地下停车场,交通设施,停车场,江西省,南昌市,西湖区,江西省南昌市西湖区朝阳农场抚生南路正荣・御尊,d3001150a48c19b3734b87aa,1,1,115.860527,28.623511,,life,http://api.map.baidu.com/place/detail?uid=d3001150a48c19b3734b87aa&output=html&source=placeapi_v2,,00:00-24:00,,,,,,,,1,,,,,,,,,,1
c5ced4f64ce994f751e5c5cd,世贸大观一期南苑-停车场,交通设施,停车场,江西省,南昌市,西湖区,南昌市西湖区丁家洲街世茂大观-南区,c5ced4f64ce994f751e5c5cd,1,1,115.854138,28.62629,,life,http://api.map.baidu.com/place/detail?uid=c5ced4f64ce994f751e5c5cd&output=html&source=placeapi_v2,,00:00-24:00,,,,,,,,1,,,,,,,,115.85414581882,28.626227307055,1
0099ab526d66404a4f3a594d,尚水花园-停车场,交通设施,停车场,江西省,南昌市,西湖区,南昌市西湖区兰宫路尚水花园,0099ab526d66404a4f3a594d,1,1,115.853521,28.629798,,life,http://api.map.baidu.com/place/detail?uid=0099ab526d66404a4f3a594d&output=html&source=placeapi_v2,,00:00-24:00,,,,,,,,,,,,,,,,115.85362283793,28.629758238875,1
48a7af57aaa7d89a774ff198,大洲嘉苑-停车场,交通设施,停车场,江西省,南昌市,南昌县,江西省-南昌市-南昌县-东祥路大洲嘉苑,,1,0,115.849774,28.601945,,life,http://api.map.baidu.com/place/detail?uid=48a7af57aaa7d89a774ff198&output=html&source=placeapi_v2,,,,,,,,,,,,,,,,,,,,0
050376a1edab064fec74f8ae,美迪斯智能车库,交通设施,停车场,江西省,南昌市,南昌县,南昌市南昌县八月湖路南昌小商品城北门东南侧约40米,050376a1edab064fec74f8ae,1,0,115.847422,28.610702,4008352007,life,http://api.map.baidu.com/place/detail?uid=050376a1edab064fec74f8ae&output=html&source=placeapi_v2,,,,,,,,,,,,,,,,,,,,0
d8031c2e91264ddece04efdb,停车场(银亿・上尚城北),交通设施,停车场,江西省,南昌市,南昌县,南昌市南昌县八月湖路银亿上尚城,d8031c2e91264ddece04efdb,1,0,115.862895,28.610367,,life,http://api.map.baidu.com/place/detail?uid=d8031c2e91264ddece04efdb&output=html&source=placeapi_v2,,,4.0,,,,,,,,1,,,,,,,,,0
7e598e3f5a24e843daeced3c,正荣御湾-地下停车场,交通设施,停车场,江西省,南昌市,西湖区,南昌市西湖区兰宫路十里江山,,1,0,115.853599,28.632128,,life,http://api.map.baidu.com/place/detail?uid=7e598e3f5a24e843daeced3c&output=html&source=placeapi_v2,,,,,,,,,,,,,,,,,,,,0
65181890955603f831870a61,正荣御品-地下停车场,交通设施,停车场,江西省,南昌市,西湖区,江西省南昌市西湖区正荣・御品(永乐路西),65181890955603f831870a61,1,0,115.858098,28.624895,,life,http://api.map.baidu.com/place/detail?uid=65181890955603f831870a61&output=html&source=placeapi_v2,,,,,,,,,,1,,,,,,,,115.8588474214,28.624195937885,0
3101850063c58ac897ca0731,银亿・上尚城观澜1栋-观澜1号停车场,交通设施,停车场,江西省,南昌市,南昌县,八月湖路1999号A03地块附近,3101850063c58ac897ca0731,1,0,115.861978,28.609266,,life,http://api.map.baidu.com/place/detail?uid=3101850063c58ac897ca0731&output=html&source=placeapi_v2,,00:00-24:00,,,,,,,,,,,,,,,,,,0
8442af0c318f474907026f6b,停车场,交通设施,停车场,江西省,南昌市,南昌县,南昌市南昌县金沙二路水云间东侧约230米,8442af0c318f474907026f6b,1,0,115.888874,28.60861,,life,http://api.map.baidu.com/place/detail?uid=8442af0c318f474907026f6b&output=html&source=placeapi_v2,,00:00-24:00,,,,,,,,,,,,,,,,,,0
f595e62eed8ba52f85420eab,停车场,交通设施,停车场,江西省,南昌市,西湖区,南昌市西湖区桃新大道悦湖佳苑小区西侧,f595e62eed8ba52f85420eab,1,0,115.869809,28.61025,,life,http://api.map.baidu.com/place/detail?uid=f595e62eed8ba52f85420eab&output=html&source=placeapi_v2,,,,,,,,,,1,,,,,,,,,,0
edb81fbbe74cf9f2c909f0a6,停车场,交通设施,停车场,江西省,南昌市,南昌县,南昌市南昌县小洲路芳华集贸市场,edb81fbbe74cf9f2c909f0a6,1,0,115.88662,28.600357,,life,http://api.map.baidu.com/place/detail?uid=edb81fbbe74cf9f2c909f0a6&output=html&source=placeapi_v2,,,,,,,,,,1,,,,,,,,,,0
e9db78780d766c1c3617dc4d,停车场,交通设施,停车场,江西省,南昌市,西湖区,南昌市西湖区桃新大道悦湖佳苑小区,e9db78780d766c1c3617dc4d,1,0,115.871219,28.61087,,life,http://api.map.baidu.com/place/detail?uid=e9db78780d766c1c3617dc4d&output=html&source=placeapi_v2,,,,,,,,,,,,,,,,,,,,0
5850499f03f2ba24fb2d61c2,停车场,交通设施,停车场,江西省,南昌市,西湖区,南昌市西湖区桃新大道悦湖佳苑小区,5850499f03f2ba24fb2d61c2,1,0,115.870836,28.609096,,life,http://api.map.baidu.com/place/detail?uid=5850499f03f2ba24fb2d61c2&output=html&source=placeapi_v2,,,,,,,,,,,,,,,,,,,,0
3779ae954fe2b7cfc7f50d29,江西省交通设计研究院-停车场,交通设施,停车场,江西省,南昌市,南昌县,南昌市南昌县东新一路江西省交通设计研究院,3779ae954fe2b7cfc7f50d29,1,1,115.878283,28.603724,,life,http://api.map.baidu.com/place/detail?uid=3779ae954fe2b7cfc7f50d29&output=html&source=placeapi_v2,,00:00-24:00,,,,,,,,1,,,,,,,,115.87849736754,28.603708218681,1
3c9725fa3df8bfdd704b87bb,地下停车场,交通设施,停车场,江西省,南昌市,西湖区,南昌市西湖区云海路海亮珑园,3c9725fa3df8bfdd704b87bb,1,1,115.879862,28.622584,,life,http://api.map.baidu.com/place/detail?uid=3c9725fa3df8bfdd704b87bb&output=html&source=placeapi_v2,,,,,,,,,,1,,,,,,,,115.8799709479,28.622436394858,1
1fb5572bd7124cb131870ad2,停车场(芳湖路),交通设施,停车场,江西省,南昌市,南昌县,南昌市南昌县芳湖路乌龙香院,1fb5572bd7124cb131870ad2,1,0,115.883172,28.610931,,life,http://api.map.baidu.com/place/detail?uid=1fb5572bd7124cb131870ad2&output=html&source=placeapi_v2,,00:00-24:00,,,,,,,,,,,,,,,,115.88303234882,28.611109069939,0
2dcb428cd998ea1000ff2dcd,停车场(云锦路),交通设施,停车场,江西省,南昌市,西湖区,南昌市西湖区云锦路南昌市第三医院(朝阳院区),,1,0,115.881426,28.631823,,life,http://api.map.baidu.com/place/detail?uid=2dcb428cd998ea1000ff2dcd&output=html&source=placeapi_v2,,,,,,,,,,,,,,,,,,,,0
40b43acb5fc9f4efcb213d44,银燕物流基地-停车场,交通设施,停车场,江西省,南昌市,西湖区,南昌市西湖区桃花路立交银燕物流,40b43acb5fc9f4efcb213d44,1,0,115.87182,28.620776,,life,http://api.map.baidu.com/place/detail?uid=40b43acb5fc9f4efcb213d44&output=html&source=placeapi_v2,,,,,,,,,,1,,,,,,,,115.8719675812,28.620672463865,0
7b866af359303e02b8bd63c9,银燕停车场,交通设施,停车场,江西省,南昌市,西湖区,南昌市西湖区桃花路立交银燕物流,7b866af359303e02b8bd63c9,1,0,115.871738,28.621436,,life,http://api.map.baidu.com/place/detail?uid=7b866af359303e02b8bd63c9&output=html&source=placeapi_v2,,,,,,,,,,,,,,,,,,115.87193542186,28.621381832134,0
8b9efa5327d5de7aee74f8de,象湖南湿地公园-停车场,交通设施,停车场,江西省,南昌市,西湖区,南昌市西湖区芳湖路象湖南湿地公园,,1,1,115.88637,28.613275,,life,http://api.map.baidu.com/place/detail?uid=8b9efa5327d5de7aee74f8de&output=html&source=placeapi_v2,,,,,,,,,,,,,,,,,,115.88633368265,28.613213651955,1
7f322d1568e8bed30a5cb366,国贸蓝湾-停车场,交通设施,停车场,江西省,南昌市,西湖区,江西省南昌市西湖区云锦路国贸蓝湾,7f322d1568e8bed30a5cb366,1,0,115.88556,28.629283,(0791)83860136,life,http://api.map.baidu.com/place/detail?uid=7f322d1568e8bed30a5cb366&output=html&source=placeapi_v2,,00:00-24:00,,,,,,,,,,,,,,,,115.88562277805,28.629460994718,0
6ed6d0c055e3fad381288a24,停车场(桃花南路),交通设施,停车场,江西省,南昌市,西湖区,南昌市西湖区云卿路中国石化(银燕加油站)南侧约110米,6ed6d0c055e3fad381288a24,1,0,115.872722,28.620203,,life,http://api.map.baidu.com/place/detail?uid=6ed6d0c055e3fad381288a24&output=html&source=placeapi_v2,,,,,,,,,,,,,,,,,,,,0
ddd0c374fc45d94743024514,银燕物流基地-室外停车场,交通设施,停车场,江西省,南昌市,西湖区,江西省南昌市西湖区朝阳农场玉兰路中国石化银燕加油站旁,ddd0c374fc45d94743024514,1,1,115.871909,28.621239,,life,http://api.map.baidu.com/place/detail?uid=ddd0c374fc45d94743024514&output=html&source=placeapi_v2,,,,,,,,,,2,,,,,,,,115.87192047046,28.621352064093,1
40e4e66b53b833e2a4c7567c,朝阳天成-停车场,交通设施,停车场,江西省,南昌市,西湖区,南昌市西湖区祥狮路朝阳天成,,1,1,115.888176,28.635414,,life,http://api.map.baidu.com/place/detail?uid=40e4e66b53b833e2a4c7567c&output=html&source=placeapi_v2,,00:00-24:00,,,,,,,,,,,,,,,,115.88890441653,28.635011354719,1
7425d1a98dfedd28c72ba17f,国贸春天-地下停车场,交通设施,停车场,江西省,南昌市,西湖区,南昌市西湖区红梅路国贸春天,7425d1a98dfedd28c72ba17f,1,1,115.877295,28.628408,,life,http://api.map.baidu.com/place/detail?uid=7425d1a98dfedd28c72ba17f&output=html&source=placeapi_v2,,00:00-24:00,,,,,,,,,,,,,,,,115.87720208286,28.628487197646,1
fd2536c36abccb19f8dc85d1,象湖南湿地公园-停车场,交通设施,停车场,江西省,南昌市,南昌县,南昌市南昌县芳湖路象湖湿地公园,,1,1,115.894163,28.612424,,life,http://api.map.baidu.com/place/detail?uid=fd2536c36abccb19f8dc85d1&output=html&source=placeapi_v2,,,,,,,,,,,,,,,,,,115.89412645331,28.61232963708,1
f4729c9a8d3830efc0364411,国贸春天-停车场,交通设施,停车场,江西省,南昌市,西湖区,南昌市西湖区雷池街国贸春天,f4729c9a8d3830efc0364411,1,1,115.879732,28.629043,,life,http://api.map.baidu.com/place/detail?uid=f4729c9a8d3830efc0364411&output=html&source=placeapi_v2,,00:00-24:00,,,,,,,,2,,,,,,,,,,1
60143bfa6f825f504afc8db9,桃花园小区-停车场,交通设施,停车场,江西省,南昌市,西湖区,南昌市西湖区园常寺路桃花园小区,60143bfa6f825f504afc8db9,1,1,115.877303,28.620638,,life,http://api.map.baidu.com/place/detail?uid=60143bfa6f825f504afc8db9&output=html&source=placeapi_v2,,00:00-24:00,,,,,,,,1,,,,,,,,115.87727980425,28.620670788848,1
4416134f7192b763e315f947,朝阳天成-停车场,交通设施,停车场,江西省,南昌市,西湖区,南昌市西湖区子羽路朝阳天成,4416134f7192b763e315f947,1,2,115.888928,28.635108,,life,http://api.map.baidu.com/place/detail?uid=4416134f7192b763e315f947&output=html&source=placeapi_v2,,00:00-24:00,,,,,,,,,,,,,,,,115.88900691319,28.635068472513,2
64f089bc53954ca588db7332,锦竹幸福里-停车场,交通设施,停车场,江西省,南昌市,南昌县,南昌市南昌县东新二路锦竹幸福里,64f089bc53954ca588db7332,1,1,115.873122,28.606164,,life,http://api.map.baidu.com/place/detail?uid=64f089bc53954ca588db7332&output=html&source=placeapi_v2,,00:00-24:00,,,,,,,,,,,,,,,,115.87298763046,28.606115788962,1
940452560fa99052f02d8307,兄弟停车场,交通设施,停车场,江西省,南昌市,西湖区,南昌市西湖区玉兰路华润橡府西南侧约40米,940452560fa99052f02d8307,1,0,115.871427,28.62558,,life,http://api.map.baidu.com/place/detail?uid=940452560fa99052f02d8307&output=html&source=placeapi_v2,,00:00-24:00,,,,,,,,,,,,,,,,115.8715542331,28.625402198077,0
935b1f40c58beba15cbe86a4,临峰香阁-地下停车场,交通设施,停车场,江西省,南昌市,南昌县,江西省南昌市南昌县东新乡金沙二路伟梦・清水湾,935b1f40c58beba15cbe86a4,1,0,115.885893,28.610148,,life,http://api.map.baidu.com/place/detail?uid=935b1f40c58beba15cbe86a4&output=html&source=placeapi_v2,,00:00-24:00,,,,,,,,1,,,,,,,,,,0
341ad8bad17e1d2acd04ef53,星光园小区-停车场,交通设施,停车场,江西省,南昌市,西湖区,南昌市西湖区桃花南路61号,,1,0,115.87709,28.623144,,life,http://api.map.baidu.com/place/detail?uid=341ad8bad17e1d2acd04ef53&output=html&source=placeapi_v2,,,,,,,,,,,,,,,,,,115.87722832596,28.623252710205,0
128c94613922b9db88f15db1,象湖里-停车场,交通设施,停车场,江西省,南昌市,南昌县,南昌市南昌县金沙二路九里象湖城西3门西南侧,128c94613922b9db88f15db1,1,0,115.888966,28.605132,,life,http://api.map.baidu.com/place/detail?uid=128c94613922b9db88f15db1&output=html&source=placeapi_v2,,00:00-24:00,,,,,,,,1,,,,,,,,,,0
bc74ed15c01dbd4ee31103e3,中海朝阳郡-熙岸停车场,交通设施,停车场,江西省,南昌市,西湖区,南昌市西湖区子羽路中海朝阳郡・熙岸,bc74ed15c01dbd4ee31103e3,1,2,115.883864,28.626305,,life,http://api.map.baidu.com/place/detail?uid=bc74ed15c01dbd4ee31103e3&output=html&source=placeapi_v2,,00:00-24:00,,,,,,,,,,,,,,,,115.88415130152,28.626389690352,2
4cf8400ecdb985d097ec8484,停车场(伟梦・清水湾东北),交通设施,停车场,江西省,南昌市,南昌县,南昌市南昌县芳湖路伟梦・清水湾,,1,0,115.886555,28.609749,,life,http://api.map.baidu.com/place/detail?uid=4cf8400ecdb985d097ec8484&output=html&source=placeapi_v2,,00:00-24:00,,,,,,,,,,,,,,,,,,0
8283649f93bcd56c3a13fdf3,静安里-地下停车场,交通设施,停车场,江西省,南昌市,南昌县,江西省南昌市南昌县东新乡八月湖路九里象湖城,8283649f93bcd56c3a13fdf3,1,0,115.891663,28.605431,,life,http://api.map.baidu.com/place/detail?uid=8283649f93bcd56c3a13fdf3&output=html&source=placeapi_v2,,,,,,,,,,1,,,,,,,,,,0
1f6253fc14f2be82118824aa,华润橡府-地下停车场,交通设施,停车场,江西省,南昌市,西湖区,江西省南昌市西湖区云飞路华润・橡府(南昌市第一中学南),1f6253fc14f2be82118824aa,1,0,115.875192,28.627782,,life,http://api.map.baidu.com/place/detail?uid=1f6253fc14f2be82118824aa&output=html&source=placeapi_v2,,00:00-24:00,,,,,,,,2,,,,,,,,115.87516504486,28.627936420625,0
b90581093d75e9cdd618b71e,银燕物流信息交易大楼-地下停车场,交通设施,停车场,江西省,南昌市,西湖区,南昌市西湖区,b90581093d75e9cdd618b71e,1,2,115.872866,28.623999,,life,http://api.map.baidu.com/place/detail?uid=b90581093d75e9cdd618b71e&output=html&source=placeapi_v2,,,,,,,,,,,,,,,,,,115.87296662897,28.624169436234,2
c99ef6c218634185223bf2f5,国贸阳光-地下停车场,交通设施,停车场,江西省,南昌市,西湖区,江西省南昌市西湖区国贸阳光北区(云锦路南),c99ef6c218634185223bf2f5,1,1,115.878453,28.632818,,life,http://api.map.baidu.com/place/detail?uid=c99ef6c218634185223bf2f5&output=html&source=placeapi_v2,,00:00-24:00,,,,,,,,1,,,,,,,,115.8784892563,28.633201181482,1
251a81e71a95dfb215c9053a,停车场(八月湖路),交通设施,停车场,江西省,南昌市,南昌县,八月湖路与金沙二路交叉口南150米,251a81e71a95dfb215c9053a,1,0,115.8885,28.60523,,life,http://api.map.baidu.com/place/detail?uid=251a81e71a95dfb215c9053a&output=html&source=placeapi_v2,,00:00-24:00,,,,,,,,,,,,,,,,,,0
