{ "type": "FeatureCollection", "features": [{"type":"Feature","geometry":null,"properties":{"nta":null,"city":"Long Island City","name":"American Taxi Meter","latitude":null,"state":"New York","postcode":"11101","bbl":null,"last_updated_date":"2023-08-25T00:00:00.000","longitude":null,"installation":"Install","census_tract":null,"address":"21-46, 44 th Drive","bin":null,"community_board":null,"borough":"Queens","phone":"718-937-4600","council_district":null}},{"type":"Feature","geometry":{"type":"Point","coordinates":[-73.940398,40.677952]},"properties":{"nta":"BK0802","city":"Brooklyn","name":"Brooklyn Partitions","latitude":"40.677952","state":"New York","postcode":"11213","bbl":"3012040018","last_updated_date":"2023-08-25T00:00:00.000","longitude":"-73.940398","installation":"Manufacture & Install","census_tract":"311","address":"1542 Atlantic Avenue","bin":"3029907","community_board":"308","borough":"Brooklyn","phone":"718-773-9246","council_district":"36"}},{"type":"Feature","geometry":{"type":"Point","coordinates":[-73.934362,40.740809]},"properties":{"nta":"QN0202","city":"Long Island City","name":"Millennium Taximeters Corp","latitude":"40.740809","state":"New York","postcode":"11101","bbl":"4002840014","last_updated_date":"2023-08-25T00:00:00.000","longitude":"-73.934362","installation":"Install","census_tract":"19902","address":"48-02 Van Dam Street","bin":"4003543","community_board":"402","borough":"Queens","phone":"718-729-3442","council_district":"26"}},{"type":"Feature","geometry":null,"properties":{"nta":null,"city":"Long Island City","name":"Metro Meter  Shop Inc","latitude":null,"state":"New York","postcode":"11106","bbl":null,"last_updated_date":"2023-08-25T00:00:00.000","longitude":null,"installation":"Install","census_tract":null,"address":"11-11, 34th Ave","bin":null,"community_board":null,"borough":"Queens","phone":"718-786-8585","council_district":null}},{"type":"Feature","geometry":{"type":"Point","coordinates":[-73.905381,40.766255]},"properties":{"nta":"QN0104","city":"Astoria","name":"Oldee Taxi Inst Corp","latitude":"40.766255","state":"New York","postcode":"11102","bbl":"4007320022","last_updated_date":"2023-08-25T00:00:00.000","longitude":"-73.905381","installation":"Manufacture & install","census_tract":"141","address":"24-50 47th St","bin":"4013579","community_board":"401","borough":"Queens","phone":"718-729-6533","council_district":"22"}},{"type":"Feature","geometry":{"type":"Point","coordinates":[-74.003422,40.750676]},"properties":{"nta":"MN0401","city":"New York","name":"Trizz Taximeter Repair Corp","latitude":"40.750676","state":"New York","postcode":"10001","bbl":"1006990022","last_updated_date":"2023-08-25T00:00:00.000","longitude":"-74.003422","installation":"Install","census_tract":"9902","address":"519 west 27 street","bin":"1012406","community_board":"104","borough":"NY","phone":"646-336-7625","council_district":"3"}},{"type":"Feature","geometry":{"type":"Point","coordinates":[-73.918712,40.841012]},"properties":{"nta":"BX0403","city":"Bronx","name":"Taxicabs Partitions Inc","latitude":"40.841012","state":"New York","postcode":"10452","bbl":"2028570051","last_updated_date":"2023-08-25T00:00:00.000","longitude":"-73.918712","installation":"Manufacture & Install","census_tract":"219","address":"1415 Inwood Avenue","bin":"2008305","community_board":"204","borough":"Bronx","phone":"718-538-7272","council_district":"16"}},{"type":"Feature","geometry":null,"properties":{"nta":null,"city":"Corona","name":"Skillman Auto Upholstery","latitude":null,"state":"New York","postcode":"11368","bbl":null,"last_updated_date":"2023-08-25T00:00:00.000","longitude":null,"installation":"Manufacture & Install","census_tract":null,"address":"37-11, 126 street","bin":null,"community_board":null,"borough":"Queens","phone":"718-458-4321","council_district":null}},{"type":"Feature","geometry":{"type":"Point","coordinates":[-73.951277,40.644984]},"properties":{"nta":"BK1701","city":"Brooklyn","name":"Rogers Taxi Partitions","latitude":"40.644984","state":"New York","postcode":"11226","bbl":"3051710005","last_updated_date":"2023-08-25T00:00:00.000","longitude":"-73.951277","installation":"Manufacture & Install","census_tract":"826","address":"2714 Beverly Road","bin":"3328255","community_board":"317","borough":"Brooklyn","phone":"718-693-5033","council_district":"40"}}], "crs" : { "type": "name", "properties": { "name": "urn:ogc:def:crs:OGC:1.3:CRS84" } } }