[{"_":"1","name":"1750 SUNSHINE WHOLESALE INC.","license_no":"SJ-03370","business_address":"7802 20TH AVENUE","city_or_town":"BROOKLYN","state":"NY","zip_code":"11214","phone_no":"718-259-1548","latitude":"40.609034","longitude":"-73.993661","community_board":"11","council_district":"47","census_tract":"274","bin":"3162262","bbl":"3062620039","nta":"Bensonhurst West"}
,{"_":"2","name":"53RD QUEENS BEER INC.","license_no":"SJ-03417","business_address":"104-06 53RD AVENUE","city_or_town":"CORONA","state":"NY","zip_code":"11368","phone_no":"718-760-8010","latitude":"40.741696","longitude":"-73.856543","community_board":"4","council_district":"21","census_tract":"439","bin":"4047869","bbl":"4019440047","nta":"Corona"}
,{"_":"3","name":"A & G WHOLESALE CANDY & PAPER BAG INC.","license_no":"SJ-03176","business_address":"488 EAST 164TH STREET","city_or_town":"BRONX","state":"NY","zip_code":"10456","phone_no":"718-239-0010","latitude":"40.82572","longitude":"-73.909531","community_board":"3","council_district":"17","census_tract":"185","bin":"2114611","bbl":"2023687501","nta":"Morrisania-Melrose"}
,{"_":"4","name":"A & H TOBACCO WHOLESALE INC.","license_no":"SJ-03451","business_address":"264-B BUTLER STREET","city_or_town":"BROOKLYN","state":"NY","zip_code":"11217","phone_no":"718-875-1771","latitude":"40.681221","longitude":"-73.984616","community_board":"6","council_district":"33","census_tract":"127","bin":"3006607","bbl":"3004120021","nta":"DUMBO-Vinegar Hill-Downtown Brooklyn-Boerum Hill"}
,{"_":"5","name":"AIR KING TRADING INC.","license_no":"SJ-03448","business_address":"415 DEVOE AVENUE","city_or_town":"BRONX","state":"NY","zip_code":"10460","phone_no":"718-824-6400","latitude":"40.840577","longitude":"-73.877049","community_board":"6","council_district":"15","census_tract":"220","bin":"2042419","bbl":"2040030032","nta":"East Tremont"}
,{"_":"6","name":"AMERICAN TOBACCO CORP.","license_no":"SJ-03464","business_address":"272 WAKEMAN PLACE","city_or_town":"BROOKLYN","state":"NY","zip_code":"11220","phone_no":"718-837-3333","latitude":"40.638445","longitude":"-74.025308","community_board":"10","council_district":"43","census_tract":"70","bin":"3344061","bbl":"3058410037","nta":"Bay Ridge"}
,{"_":"7","name":"AMSTERDAM TOBACCO CO. INC.","license_no":"SJ-03495","business_address":"1614 AMSTERDAM AVENUE","city_or_town":"NEW YORK","state":"NY","zip_code":"10031","phone_no":"212-862-5860","latitude":"40.821789","longitude":"-73.950143","community_board":"9","council_district":"7","census_tract":"225","bin":"1061737","bbl":"1020710032","nta":"Hamilton Heights"}
,{"_":"8","name":"BAYRIDGE TOBACCO DISTRIBUTORS INC.","license_no":"SJ-02897","business_address":"9225 5TH AVENUE","city_or_town":"BROOKLYN","state":"NY","zip_code":"11209","phone_no":"718-745-3011","latitude":"40.617567","longitude":"-74.029572","community_board":"10","council_district":"43","census_tract":"160","bin":"3155321","bbl":"3061090016","nta":"Bay Ridge"}
,{"_":"9","name":"BENGAL WHOLESALE CO. INC.","license_no":"SJ-03246","business_address":"1024 CONEY ISLAND AVENUE","city_or_town":"BROOKLYN","state":"NY","zip_code":"11230","phone_no":"718-434-6296","latitude":"40.63269","longitude":"-73.966901","community_board":"14","council_district":"40","census_tract":"482","bin":"3128203","bbl":"3054290024","nta":"Flatbush"}
,{"_":"10","name":"BRONX TRADING CO. INC.","license_no":"SJ-03425","business_address":"1375 SEABURY AVENUE","city_or_town":"BRONX","state":"NY","zip_code":"10461","phone_no":"718-931-6448","latitude":"40.837404","longitude":"-73.842662","community_board":"10","council_district":"13","census_tract":"96","bin":"2027255","bbl":"2038470018","nta":"Westchester-Unionport"}
,{"_":"11","name":"CANDY STAR INC.","license_no":"SJ-03429","business_address":"153 20TH STREET","city_or_town":"BROOKLYN","state":"NY","zip_code":"11232","phone_no":"718-832-2555","latitude":"40.66382","longitude":"-73.996006","community_board":"7","council_district":"38","census_tract":"143","bin":"3009140","bbl":"3006360052","nta":"Park Slope-Gowanus"}
,{"_":"12","name":"CIGARETTES PLUS INC.","license_no":"SJ-03438","business_address":"3855 NINTH AVENUE","city_or_town":"NEW YORK","state":"NY","zip_code":"10034","phone_no":"212-569-9710","latitude":"40.863117","longitude":"-73.917474","community_board":"12","council_district":"10","census_tract":"299","bin":"1064482","bbl":"1021870001","nta":"Marble Hill-Inwood"}
,{"_":"13","name":"CJS WHOLESALERS INC.","license_no":"SJ-03482","business_address":"260 WEST 36TH STREET","city_or_town":"NEW YORK","state":"NY","zip_code":"10018","phone_no":"212-629-3400","latitude":"40.752965","longitude":"-73.991338","community_board":"5","council_district":"3","census_tract":"109","bin":"1014436","bbl":"1007850075","nta":"Midtown-Midtown South"}
,{"_":"14","name":"CROWN U.S.A. DISTRIBUTOR INC.","license_no":"SJ-03347","business_address":"1329 JEROME AVENUE","city_or_town":"BRONX","state":"NY","zip_code":"10452","phone_no":"718-293-1921","latitude":"40.838767","longitude":"-73.918758","community_board":"4","council_district":"16","census_tract":"219","bin":"2117796","bbl":"2028560053","nta":"Highbridge"}
,{"_":"15","name":"DAN JAY TOBACCO CORP.","license_no":"SJ-03023","business_address":"854 RALPH AVENUE","city_or_town":"BROOKLYN","state":"NY","zip_code":"11236","phone_no":"718-385-1453","latitude":"40.653306","longitude":"-73.920872","community_board":"17","council_district":"41","census_tract":"864","bin":"3102450","bbl":"3046850020","nta":"Rugby-Remsen Village"}
,{"_":"16","name":"ESPINOZA CORP.","license_no":"SJ-03089","business_address":"110-40 DUNKIRK STREET","city_or_town":"ST. ALBANS","state":"NY","zip_code":"11412","phone_no":"718-658-2900","latitude":"40.69943","longitude":"-73.771627","community_board":"12","council_district":"27","census_tract":"424","bin":"4219736","bbl":"4103040038","nta":"St. Albans"}
,{"_":"17","name":"FAST SERVICE WHOLESALE OF N.Y. INC.","license_no":"SJ-03151","business_address":"5504 3RD AVENUE","city_or_town":"BROOKLYN","state":"NY","zip_code":"11220","phone_no":"718-871-8749","latitude":"40.644787","longitude":"-74.017603","community_board":"7","council_district":"38","census_tract":"22","bin":"3014868","bbl":"3008290034","nta":"Sunset Park West"}
,{"_":"18","name":"FOURTH AVENUE CIGARETTE WHOLESALE INC.","license_no":"SJ-03196","business_address":"149 29TH STREET","city_or_town":"BROOKLYN","state":"NY","zip_code":"11220","phone_no":"718-788-4361","latitude":"40.658713","longitude":"-74.001106","community_board":"7","council_district":"38","census_tract":"101","bin":"3009783","bbl":"3006640042","nta":"Sunset Park West"}
,{"_":"19","name":"GLOBAL WHOLESALE INC.","license_no":"SJ-03478","business_address":"121-09 JAMAICA AVENUE","city_or_town":"RICHMOND HILL","state":"NY","zip_code":"11418","phone_no":"718-514-7250","latitude":"40.700443","longitude":"-73.828689","community_board":"9","council_district":"29","census_tract":"144","bin":"4193744","bbl":"4092750063","nta":"Richmond Hill"}
,{"_":"20","name":"GLOBE WHOLESALE TOBACCO DISTRIBUTORS INC.","license_no":"AJ-00713","business_address":"5406 3RD AVENUE","city_or_town":"BROOKLYN","state":"NY","zip_code":"11220","phone_no":"718-439-7478","latitude":"40.645308","longitude":"-74.017066","community_board":"7","council_district":"38","census_tract":"22","bin":"3014503","bbl":"3008210040","nta":"Sunset Park West"}
,{"_":"21","name":"H & K FOODS,  INC.","license_no":"SJ-03435","business_address":"855 EAST 92ND STREET","city_or_town":"BROOKLYN","state":"NY","zip_code":"11236","phone_no":"718-649-0800","latitude":"40.6472","longitude":"-73.911715","community_board":"18","council_district":"42","census_tract":"962","bin":"3228570","bbl":"3081250041","nta":"Canarsie"}
,{"_":"22","name":"JNJ CITRO CORP.","license_no":"SJ-03423","business_address":"45-42 162ND STREET, BSMT.","city_or_town":"FLUSHING","state":"NY","zip_code":"11358","phone_no":"718-886-9599"}
,{"_":"23","name":"M. POGGI & CO. INC.","license_no":"SJ-00830","business_address":"293 SMITH STREET","city_or_town":"BROOKLYN","state":"NY","zip_code":"11231","phone_no":"718-875-5581","latitude":"40.681977","longitude":"-73.993672","community_board":"6","council_district":"39","census_tract":"75","bin":"3007056","bbl":"3004290005","nta":"Carroll Gardens-Columbia Street-Red Hook"}
,{"_":"24","name":"MENAGED TOBACCO & CANDY CORP.","license_no":"SJ-03033","business_address":"402 JOHNSON AVENUE","city_or_town":"BROOKLYN","state":"NY","zip_code":"11206","phone_no":"718-386-7696","latitude":"40.707692","longitude":"-73.932598","community_board":"1","council_district":"34","census_tract":"453","bin":"3071321","bbl":"3030750021","nta":"Bushwick North"}
,{"_":"25","name":"NICE ENTERPRISE CORP.","license_no":"SJ-03440","business_address":"25-11 HUNTERS POINT AVENUE","city_or_town":"LONG ISLAND CITY","state":"NY","zip_code":"11101","phone_no":"718-302-5433"}
,{"_":"26","name":"PRAMUKH 89 INC.","license_no":"SJ-03494","business_address":"89-19 130TH STREET","city_or_town":"RICHMOND HILL","state":"NY","zip_code":"11418","phone_no":"516 787-3200","latitude":"40.699204","longitude":"-73.820938","community_board":"9","council_district":"29","census_tract":"14202","bin":"4456275","bbl":"4093570008","nta":"Richmond Hill"}
,{"_":"27","name":"R&S NY CORP.","license_no":"SJ-03413","business_address":"641 N. RAILROAD AVENUE","city_or_town":"STATEN ISLAND","state":"NY","zip_code":"10304","phone_no":"718-236-0995","latitude":"40.588957","longitude":"-74.096233","community_board":"2","council_district":"50","census_tract":"9602","bin":"5048947","bbl":"5033200036","nta":"Old Town-Dongan Hills-South Beach"}
,{"_":"28","name":"RAM'S WHOLESALE CIGARETTE & PAPER PROD. INC.","license_no":"SJ-03278","business_address":"42 MELROSE STREET","city_or_town":"BROOKLYN","state":"NY","zip_code":"11206","phone_no":"718-443-3456","latitude":"40.698222","longitude":"-73.935208","community_board":"4","council_district":"34","census_tract":"389","bin":"3326162","bbl":"3031600021","nta":"Bushwick South"}
,{"_":"29","name":"RIDGEWOOD TOBACCO & CANDY INC.","license_no":"SJ-03330","business_address":"77-04 CYPRESS AVENUE","city_or_town":"RIDGEWOOD","state":"NY","zip_code":"11385","phone_no":"718-821-3797","latitude":"40.695344","longitude":"-73.898846","community_board":"5","council_district":"30","census_tract":"565","bin":"4549245","bbl":"4035580003","nta":"Glendale"}
,{"_":"30","name":"RELIABLE TELECOMMUNICATION INC.","license_no":"SJ-03498","business_address":"92-29 QUEENS BLVD., CU 10","city_or_town":"REGO PARK","state":"NY","zip_code":"11374","phone_no":"718-896-6517"}
,{"_":"31","name":"RIDGEWOOD TOBACCO & CANDY INC.","license_no":"SJ-03330","business_address":"77-04 CYPRESS AVENUE","city_or_town":"RIDGEWOOD","state":"NY","zip_code":"11385","phone_no":"718-821-3797","latitude":"40.695344","longitude":"-73.898846","community_board":"5","council_district":"30","census_tract":"565","bin":"4549245","bbl":"4035580003","nta":"Glendale"}
,{"_":"32","name":"S/A CIGARETTE CO. INC.","license_no":"SJ-03485","business_address":"840 ST ANNS AVENUE","city_or_town":"BRONX","state":"NY","zip_code":"10456","phone_no":"718-402-5639","latitude":"40.821707","longitude":"-73.909721","community_board":"1","council_district":"17","census_tract":"71","bin":"2004357","bbl":"2026190001","nta":"Melrose South-Mott Haven North"}
,{"_":"33","name":"SAM'S SURPRISES INC.","license_no":"SJ-03318","business_address":"81-03 NORTHERN BLVD.","city_or_town":"JACKSON HEIGHTS","state":"NY","zip_code":"11372","phone_no":"718-446-3101","latitude":"40.755486","longitude":"-73.886147","community_board":"3","council_district":"25","census_tract":"327","bin":"4026956","bbl":"4011770044","nta":"Jackson Heights"}
,{"_":"34","name":"SUNRISE CANDY & TOBACCO CORP.","license_no":"AJ-00075","business_address":"150 CRESCENT STREET","city_or_town":"BROOKLYN","state":"NY","zip_code":"11208","phone_no":"718-235-5030","latitude":"40.685717","longitude":"-73.872846","community_board":"5","council_district":"37","census_tract":"117602","bin":"3091683","bbl":"3041180042","nta":"Cypress Hills-City Line"}
,{"_":"35","name":"SUNRISE WHOLESALERS INC.","license_no":"SJ-03350","business_address":"12-17 JACKSON AVENUE","city_or_town":"LONG ISLAND CITY","state":"NY","zip_code":"11101","phone_no":"718-361-1112","latitude":"40.743688","longitude":"-73.950444","community_board":"2","council_district":"26","census_tract":"7","bin":"4436620","bbl":"4000600004","nta":"Hunters Point-Sunnyside-West Maspeth"}
,{"_":"36","name":"T&R TOBACCO SALES CO. INC.","license_no":"SJ-02826","business_address":"203-07 LINDEN BLVD","city_or_town":"ST. ALBANS","state":"NY","zip_code":"11412","phone_no":"718-525-4283","latitude":"40.695277","longitude":"-73.749268","community_board":"12","council_district":"27","census_tract":"530","bin":"4238587","bbl":"4110750006","nta":"St. Albans"}
,{"_":"37","name":"THE KOGER COMPANY INC.","license_no":"AJ-00343","business_address":"635-637 MORRIS PARK AVENUE","city_or_town":"BRONX","state":"NY","zip_code":"10460","phone_no":"718-597-5555","latitude":"40.844657","longitude":"-73.868389","community_board":"11","council_district":"15","census_tract":"220","bin":"2042496","bbl":"2040110023","nta":"East Tremont"}
,{"_":"38","name":"V & D WHOLESALE INC.","license_no":"SJ-03454","business_address":"5305 4TH AVENUE","city_or_town":"BROOKLYN","state":"NY","zip_code":"11220","phone_no":"718-567-9603","latitude":"40.644686","longitude":"-74.014421","community_board":"7","council_district":"38","census_tract":"76","bin":"3014234","bbl":"3008150008","nta":"Sunset Park West"}
,{"_":"39","name":"WELLSPRING CORP.","license_no":"SJ-03026","business_address":"54 LUDLOW STREET","city_or_town":"NEW YORK","state":"NY","zip_code":"10002","phone_no":"212-529-5454","latitude":"40.716616","longitude":"-73.990123","community_board":"3","council_district":"1","census_tract":"16","bin":"1004026","bbl":"1003100010","nta":"Chinatown"}
,{"_":"40","name":"BELL TRADING INC.","license_no":"AJ-03374","business_address":"593 JERUSALEM AVENUE","city_or_town":"UNIONDALE","state":"NY","zip_code":"11553","phone_no":"516-483-3444"}
,{"_":"41","name":"C&S WHOLESALE GROCERS INC.","license_no":"AJ-03402","business_address":"1500 CORPORATE BLVD","city_or_town":"NEWBURGH","state":"NY","zip_code":"12550","phone_no":"845-567-6800"}
,{"_":"42","name":"HAROLD LEVINSON ASSOCIATES, LLC","license_no":"AJ-03491","business_address":"21 BANFI PLAZA","city_or_town":"FARMINGDALE","state":"NY","zip_code":"11735","phone_no":"631-962-2400"}
,{"_":"43","name":"MCLANE EASTERN INC.","license_no":"AJ-02990","business_address":"2828 MCLANE DRIVE","city_or_town":"BALDWINSVILLE","state":"NY","zip_code":"13027","phone_no":"315-638-7244"}
,{"_":"44","name":"MOUNTAIN CANDY & CIGAR CO. INC.","license_no":"AJ-03373","business_address":"40 LAKE STREET","city_or_town":"SOUTH FALLSBURG","state":"NY","zip_code":"12779","phone_no":"845-434-5674"}
,{"_":"45","name":"SUPER VALUE DISTRIBUTORS INC.","license_no":"SJ-03436","business_address":"395 MEACHAM AVENUE","city_or_town":"ELMONT","state":"NY","zip_code":"11003","phone_no":"516-502-4560"}
,{"_":"46","name":"C&S WHOLESALE GROCERS INC.","license_no":"AJ-03490","business_address":"KING SPRINGS ROAD","city_or_town":"WINDSOR LOCKS","state":"CT","zip_code":"6096","phone_no":"603-354-7310"}
,{"_":"47","name":"CONSUMER PRODUCT DISTRIBUTORS INC.","license_no":"AJ-03337","business_address":"705 MEADOW STREET","city_or_town":"CHICOPEE","state":"MA","zip_code":"1013","phone_no":"413-592-4141"}
,{"_":"48","name":"CORE-MARK MIDCONTINENT INC.","license_no":"AJ-03453","business_address":"100 WEST END ROAD","city_or_town":"HANOVER TOWNSHIP","state":"PA","zip_code":"18706","phone_no":"570-823-6865"}
,{"_":"49","name":"ITG BRANDS, LLC","license_no":"SJ-03493","business_address":"714 GREEN VALLEY ROAD","city_or_town":"GREENSBORO","state":"NC","zip_code":"27408","phone_no":"336-335-7000"}
,{"_":"50","name":"JAY'S DISTRIBUTORS INC.","license_no":"SJ-03252","business_address":"3900 WEST SIDE AVENUE","city_or_town":"NORTH BERGEN","state":"NJ","zip_code":"7047","phone_no":"201-222-0400"}
,{"_":"51","name":"MCLANE EASTERN INC.","license_no":"AJ-03394","business_address":"932 MAPLE STREET","city_or_town":"CONTOOCOOK","state":"NH","zip_code":"3229","phone_no":"603-746-8000"}
,{"_":"52","name":"MCLANE EASTERN INC.","license_no":"AJ-03481","business_address":"43 VALLEY VIEW BUSINESS PARK","city_or_town":"JESSUP","state":"PA","zip_code":"18434","phone_no":"570-330-8400"}
,{"_":"53","name":"PLAINFIELD TOBACCO AND CANDY CO. INC.","license_no":"AJ-03332","business_address":"25 VAN DYKE AVENUE","city_or_town":"NEW BRUNSWICK","state":"NJ","zip_code":"8901","phone_no":"732-296-8900"}
,{"_":"54","name":"SHERMAN'S 1400 BROADWAY N.Y.C., LLC","license_no":"AJ-03497","business_address":"7615 BOEING DRIVE","city_or_town":"GREENSBORO","state":"NC","zip_code":"27409","phone_no":"201-735-9046"}
,{"_":"55","name":"SUPER FOOD SERVICES INC.","license_no":"AJ-03488","business_address":"4067 COUNTY ROAD 130","city_or_town":"BELLEFONTAINE","state":"OH","zip_code":"43311","phone_no":"937-599-1110"}
,{"_":"56","name":"SUPER FOOD SERVICES INC.","license_no":"AJ-03489","business_address":"1100 PROSPERITY ROAD","city_or_town":"LIMA","state":"OH","zip_code":"45802","phone_no":"419-228-3141"}
,{"_":"57","name":"SUPER FOOD SERVICES INC.","license_no":"AJ-03499","business_address":"4228 S. 72ND STREET","city_or_town":"OMAHA","state":"NE","zip_code":"68127","phone_no":"952-897-8164"}
,{"_":"58","name":"WAKEFERN FOOD CORP.","license_no":"SJ-03455","business_address":"355 DAVIDSONS MILL ROAD","city_or_town":"JAMESBURG","state":"NJ","zip_code":"8831","phone_no":"732-521-8611"}
,{"_":"gis_xCoordinate="}
,{"name":"1705 SUNSHINE WHOLESALE INC","license_no":"SJ-03370","business_address":"7804 20TH AVE","city_or_town":"BROOKLYN","state":"NY","zip_code":"11214","phone_no":"(718) 232-6968","latitude":"40.609026","longitude":"-73.993668","community_board":"11","council_district":"47","census_tract":"274","bin":"3162262","bbl":"3062620039","nta":"Bensonhurst West","effective_date":"2020-03-09T00:00:00.000"}
,{"name":"53RD QUEENS BEER INC","license_no":"SJ-03417","business_address":"10406 53RD AVE","city_or_town":"CORONA","state":"NY","zip_code":"11368","phone_no":"(718) 760-8009","latitude":"40.741696","longitude":"-73.856543","community_board":"4","council_district":"21","census_tract":"439","bin":"4047869","bbl":"4019440047","nta":"Corona","effective_date":"2020-03-09T00:00:00.000"}
,{"name":"A & G WHOLESALE CANDY/PAPERBAG, INC.","license_no":"SJ-03176","business_address":"488 E 164TH ST","city_or_town":"BRONX","state":"NY","zip_code":"10456","phone_no":"(718) 293-0010","latitude":"40.82572","longitude":"-73.909531","community_board":"3","council_district":"17","census_tract":"185","bin":"2114611","bbl":"2023687501","nta":"Morrisania-Melrose","effective_date":"2020-03-09T00:00:00.000"}
,{"name":"A & H TOBACCO WHOLESALE, INC.","license_no":"SJ-03451","business_address":"264-B BUTLER STREET","city_or_town":"BROOKLYN","state":"NY","zip_code":"11217","phone_no":"(718) 875-1771","latitude":"40.681221","longitude":"-73.984616","community_board":"6","council_district":"33","census_tract":"127","bin":"3006607","bbl":"3004120021","nta":"DUMBO-Vinegar Hill-Downtown Brooklyn-Boerum Hill","effective_date":"2020-03-09T00:00:00.000"}
,{"name":"AIR KING TRADING, INC.","license_no":"SJ-03448","business_address":"415 DEVOE AVE","city_or_town":"BRONX","state":"NY","zip_code":"10460","phone_no":"(718) 824-6400","latitude":"40.840577","longitude":"-73.877049","community_board":"6","council_district":"15","census_tract":"220","bin":"2042419","bbl":"2040030032","nta":"East Tremont","effective_date":"2020-03-09T00:00:00.000"}
,{"name":"AMERICAN TOBACCO CORP","license_no":"SJ-03464","business_address":"272 WAKEMAN PL","city_or_town":"BROOKLYN","state":"NY","zip_code":"11220","phone_no":"(917) 254-9574","latitude":"40.638445","longitude":"-74.025308","community_board":"10","council_district":"43","census_tract":"70","bin":"3344061","bbl":"3058410037","nta":"Bay Ridge","effective_date":"2020-03-09T00:00:00.000"}
,{"name":"AMSTERDAM TOBACCO CO INC","license_no":"SJ-03495","business_address":"1614 AMSTERDAM AVE","city_or_town":"NEW YORK","state":"NY","zip_code":"10031","phone_no":"(212) 862-5860","latitude":"40.821789","longitude":"-73.950143","community_board":"9","council_district":"7","census_tract":"225","bin":"1061737","bbl":"1020710032","nta":"Hamilton Heights","effective_date":"2020-03-09T00:00:00.000"}
,{"name":"BAY RIDGE TOBACCO DISTRIBUTORS INC","license_no":"SJ-02897","business_address":"9225 5TH AVE","city_or_town":"BROOKLYN","state":"NY","zip_code":"11209","phone_no":"(718) 745-3011","latitude":"40.617567","longitude":"-74.029572","community_board":"10","council_district":"43","census_tract":"160","bin":"3155321","bbl":"3061090016","nta":"Bay Ridge","effective_date":"2020-03-09T00:00:00.000"}
,{"name":"BENGAL WHOLESALE COMPANY INC","license_no":"SJ-03246","business_address":"1024 CONEY ISLAND AVE","city_or_town":"BROOKLYN","state":"NY","zip_code":"11230","phone_no":"(718) 434-6296","latitude":"40.63269","longitude":"-73.966901","community_board":"14","council_district":"40","census_tract":"482","bin":"3128203","bbl":"3054290024","nta":"Flatbush","effective_date":"2020-03-09T00:00:00.000"}
,{"name":"BRONX TRADING CO., INC.","license_no":"SJ-03425","business_address":"1375 SEABURY AVE","city_or_town":"BRONX","state":"NY","zip_code":"10461","phone_no":"(914) 361-1111","latitude":"40.837404","longitude":"-73.842662","community_board":"10","council_district":"13","census_tract":"96","bin":"2027255","bbl":"2038470018","nta":"Westchester-Unionport","effective_date":"2020-03-09T00:00:00.000"}
,{"name":"CANDY STAR INC","license_no":"SJ-03429","business_address":"932 UTICA AVE","city_or_town":"BROOKLYN","state":"NY","zip_code":"11203","phone_no":"(917) 328-8810","latitude":"40.650465","longitude":"-73.930256","community_board":"17","council_district":"45","census_tract":"860","bin":"3102839","bbl":"3046970031","nta":"East Flatbush-Farragut","effective_date":"2020-03-09T00:00:00.000"}
,{"name":"CIGARETTES PLUS INC","license_no":"SJ-03438","business_address":"3855 9TH AVE","city_or_town":"NEW YORK","state":"NY","zip_code":"10034","phone_no":"(212) 569-9710","latitude":"40.863117","longitude":"-73.917474","community_board":"12","council_district":"10","census_tract":"299","bin":"1064482","bbl":"1021870001","nta":"Marble Hill-Inwood","effective_date":"2020-03-09T00:00:00.000"}
,{"name":"CJS WHOLESALERS INC","license_no":"SJ-03482","business_address":"152 W 36TH ST","city_or_town":"NEW YORK","state":"NY","zip_code":"10018","phone_no":"(212) 629-3400","latitude":"40.751806","longitude":"-73.988588","community_board":"5","council_district":"3","census_tract":"109","bin":"1015233","bbl":"1008110062","nta":"Midtown-Midtown South","effective_date":"2020-03-09T00:00:00.000"}
,{"name":"CROWN USA DISTRIBUTOR INC","license_no":"SJ-03347","business_address":"1217 JEROME AVE","city_or_town":"BRONX","state":"NY","zip_code":"10452","phone_no":"(718) 293-1921","latitude":"40.836088","longitude":"-73.922422","community_board":"4","council_district":"16","census_tract":"199","bin":"2003083","bbl":"2025060062","nta":"Highbridge","effective_date":"2020-03-09T00:00:00.000"}
,{"name":"DAN JAY TOBACCO CORP","license_no":"SJ-03023","business_address":"854 RALPH AVE","city_or_town":"BROOKLYN","state":"NY","zip_code":"11236","phone_no":"(718) 385-1454","latitude":"40.653306","longitude":"-73.920872","community_board":"17","council_district":"41","census_tract":"864","bin":"3102450","bbl":"3046850020","nta":"Rugby-Remsen Village","effective_date":"2020-03-09T00:00:00.000"}
,{"name":"FAST SERVICE WHOLESALE OF NY, INC.","license_no":"SJ-03151","business_address":"5504 3RD AVE","city_or_town":"BROOKLYN","state":"NY","zip_code":"11220","latitude":"40.644787","longitude":"-74.017603","community_board":"7","council_district":"38","census_tract":"22","bin":"3014868","bbl":"3008290034","nta":"Sunset Park West","effective_date":"2020-03-09T00:00:00.000"}
,{"name":"FOURTH AVENUE CIGARETTES WHOLESALE INC","license_no":"SJ-03196","business_address":"149 29TH ST","city_or_town":"BROOKLYN","state":"NY","zip_code":"11232","phone_no":"(718) 788-4361","latitude":"40.658713","longitude":"-74.001106","community_board":"7","council_district":"38","census_tract":"101","bin":"3009783","bbl":"3006640042","nta":"Sunset Park West","effective_date":"2020-03-09T00:00:00.000"}
,{"name":"GLOBAL WHOLESALE INC.","license_no":"SJ-03478","business_address":"12109 JAMAICA AVE","city_or_town":"RICHMOND HILL","state":"NY","zip_code":"11418","phone_no":"(718) 433-7343","latitude":"40.700443","longitude":"-73.828689","community_board":"9","council_district":"29","census_tract":"144","bin":"4193744","bbl":"4092750063","nta":"Richmond Hill","effective_date":"2020-03-09T00:00:00.000"}
,{"name":"GLOBE WHOLESALE TOBACCO DIST INC","license_no":"AJ-00713","business_address":"5406 3RD AVE","city_or_town":"BROOKLYN","state":"NY","zip_code":"11220","phone_no":"(718) 439-7478","latitude":"40.645308","longitude":"-74.017066","community_board":"7","council_district":"38","census_tract":"22","bin":"3014503","bbl":"3008210040","nta":"Sunset Park West","effective_date":"2020-03-09T00:00:00.000"}
,{"name":"H & K FOODS INC","license_no":"SJ-03435","business_address":"855 E 92ND ST","city_or_town":"BROOKLYN","state":"NY","zip_code":"11236","phone_no":"(718) 649-0800","latitude":"40.6472","longitude":"-73.911715","community_board":"18","council_district":"42","census_tract":"962","bin":"3228570","bbl":"3081250041","nta":"Canarsie","effective_date":"2020-03-09T00:00:00.000"}
,{"name":"JNJ CITRO CORP","license_no":"SJ-03423","business_address":"4564 162ND ST","city_or_town":"FLUSHING","state":"NY","zip_code":"11358","phone_no":"(718) 886-9499","latitude":"40.7548","longitude":"-73.804756","community_board":"7","council_district":"20","census_tract":"1191","bin":"4530449","bbl":"4054400072","nta":"East Flushing","effective_date":"2020-03-09T00:00:00.000"}
,{"name":"M POGGI & CO INC","license_no":"SJ-00830","business_address":"293 SMITH ST","city_or_town":"BROOKLYN","state":"NY","zip_code":"11231","phone_no":"(929) 484-9796","latitude":"40.681977","longitude":"-73.993672","community_board":"6","council_district":"39","census_tract":"75","bin":"3007056","bbl":"3004290005","nta":"Carroll Gardens-Columbia Street-Red Hook","effective_date":"2020-03-09T00:00:00.000"}
,{"name":"NICE ENTERPRISE CORP","license_no":"SJ-03440","business_address":"51-18 GRAND AVENUE, WAREHOUSE #9","city_or_town":"MASPETH","state":"NY","zip_code":"11378","phone_no":"(718) 784-4400","effective_date":"2020-03-09T00:00:00.000"}
,{"name":"PRAMUKH 89 INC.","license_no":"SJ-03494","business_address":"8919 130TH ST","city_or_town":"RICHMOND HILL","state":"NY","zip_code":"11418","phone_no":"(516) 787-3200","latitude":"40.699204","longitude":"-73.820938","community_board":"9","council_district":"29","census_tract":"14202","bin":"4456275","bbl":"4093570008","nta":"Richmond Hill","effective_date":"2020-03-09T00:00:00.000"}
,{"name":"RAMS WHOLESALE CIGARETTE & PAPER PRODUCTS INC","license_no":"SJ-03278","business_address":"42 MELROSE ST","city_or_town":"BROOKLYN","state":"NY","zip_code":"11206","phone_no":"(718) 443-3456","latitude":"40.698222","longitude":"-73.935208","community_board":"4","council_district":"34","census_tract":"389","bin":"3326162","bbl":"3031600021","nta":"Bushwick South","effective_date":"2020-03-09T00:00:00.000"}
,{"name":"RIDGEWOOD TOBACCO & CANDY INC","license_no":"SJ-03330","business_address":"7704 CYPRESS AVE","city_or_town":"GLENDALE","state":"NY","zip_code":"11385","phone_no":"(516) 458-9865","latitude":"40.695344","longitude":"-73.898846","community_board":"5","council_district":"30","census_tract":"565","bin":"4549245","bbl":"4035580003","nta":"Glendale","effective_date":"2020-03-09T00:00:00.000"}
,{"name":"SA CIGARETTE CO INC","license_no":"SJ-03485","business_address":"840 SAINT ANNS AVE","city_or_town":"BRONX","state":"NY","zip_code":"10456","phone_no":"(718) 402-5639","latitude":"40.821707","longitude":"-73.909721","community_board":"1","council_district":"17","census_tract":"71","bin":"2004357","bbl":"2026190001","nta":"Melrose South-Mott Haven North","effective_date":"2020-03-09T00:00:00.000"}
,{"name":"SAM'S SURPRISES INC","license_no":"SJ-03318","business_address":"8103 NORTHERN BLVD","city_or_town":"JACKSON HEIGHTS","state":"NY","zip_code":"11372","phone_no":"(718) 594-2111","latitude":"40.755486","longitude":"-73.886147","community_board":"3","council_district":"25","census_tract":"327","bin":"4026956","bbl":"4011770044","nta":"Jackson Heights","effective_date":"2020-03-09T00:00:00.000"}
,{"name":"SUNRISE CANDY & TOBACCO CORP","license_no":"AJ-00075","business_address":"150 CRESCENT ST","city_or_town":"BROOKLYN","state":"NY","zip_code":"11208","phone_no":"(718) 235-5030","latitude":"40.685717","longitude":"-73.872846","community_board":"5","council_district":"37","census_tract":"117602","bin":"3091683","bbl":"3041180042","nta":"Cypress Hills-City Line","effective_date":"2020-03-09T00:00:00.000"}
,{"name":"T & R TOBACCO SALES CO INC","license_no":"SJ-02826","business_address":"20307 LINDEN BLVD","city_or_town":"SAINT ALBANS","state":"NY","zip_code":"11412","phone_no":"(718) 525-4283","latitude":"40.695277","longitude":"-73.749268","community_board":"12","council_district":"27","census_tract":"530","bin":"4238587","bbl":"4110750006","nta":"St. Albans","effective_date":"2020-03-09T00:00:00.000"}
,{"name":"THE KOGER CO INC","license_no":"AJ-00343","business_address":"635-37 MORRIS PARK AVE","city_or_town":"BRONX","state":"NY","zip_code":"10460","phone_no":"(718) 597-5555","latitude":"40.844657","longitude":"-73.868389","community_board":"11","council_district":"15","census_tract":"220","bin":"2042496","bbl":"2040110023","nta":"East Tremont","effective_date":"2020-03-09T00:00:00.000"}
,{"name":"WELLSPRING CORP","license_no":"SJ-03026","business_address":"54 LUDLOW ST","city_or_town":"NEW YORK","state":"NY","zip_code":"10002","phone_no":"(212) 529-5454","latitude":"40.716616","longitude":"-73.990123","community_board":"3","council_district":"1","census_tract":"16","bin":"1004026","bbl":"1003100010","nta":"Chinatown","effective_date":"2020-03-09T00:00:00.000"}
,{"name":"BELL TRADING INC","license_no":"AJ-03374","business_address":"593 JERUSALEM AVE","city_or_town":"UNIONDALE","state":"NY","zip_code":"11553","phone_no":"(516) 483-3444","effective_date":"2020-03-09T00:00:00.000"}
,{"name":"C AND S WHOLESALE GROCERS INC","license_no":"AJ-03402","business_address":"1500 CORPORATE BLVD","city_or_town":"NEWBURGH","state":"NY","zip_code":"12550","phone_no":"(603) 354-7307","effective_date":"2020-03-09T00:00:00.000"}
,{"name":"HAROLD LEVINSON ASSOCIATES, LLC","license_no":"AJ-03491","business_address":"21 BANFI PLAZA","city_or_town":"FARMINGDALE","state":"NY","zip_code":"11735","phone_no":"(631) 962-2400","effective_date":"2020-03-09T00:00:00.000"}
,{"name":"MCLANE EASTERN INC","license_no":"AJ-02990","business_address":"2828 MCLANE RD","city_or_town":"BALDWINSVILLE","state":"NY","zip_code":"13027","phone_no":"(254) 742-3424","effective_date":"2020-03-09T00:00:00.000"}
,{"name":"MOUNTAIN CANDY & CIGAR CO INC","license_no":"AJ-03373","business_address":"40 LAKE ST","city_or_town":"SOUTH FALLSBURG","state":"NY","zip_code":"12779","phone_no":"(845) 434-5674","effective_date":"2020-03-09T00:00:00.000"}
,{"name":"SUPER VALUE DISTRIBUTORS, INC.","license_no":"SJ-03436","business_address":"395 MEACHAM AVE","city_or_town":"ELMONT","state":"NY","zip_code":"11003","phone_no":"(516) 502-4560","effective_date":"2020-03-09T00:00:00.000"}
,{"name":"C AND S WHOLESALE GROCERS INC","license_no":"AJ-03490","business_address":"100 KING SPRING RD","city_or_town":"WINDSOR LOCKS","state":"CT","zip_code":"6096","phone_no":"(603) 354-7307","effective_date":"2020-03-09T00:00:00.000"}
,{"name":"CONSUMER PRODUCT DISTRIBUTORS, LLC","license_no":"AJ-03337","business_address":"705 MEADOW ST","city_or_town":"CHICOPEE","state":"MA","zip_code":"1013","phone_no":"(413) 888-1250","effective_date":"2020-03-09T00:00:00.000"}
,{"name":"CORE-MARK MIDCONTINENT, INC.","license_no":"AJ-03453","business_address":"100 WEST END ROAD, PO BOX 1450","city_or_town":"HANOVER TOWNSHIP","state":"PA","zip_code":"18706","phone_no":"(570) 823-6865","effective_date":"2020-03-09T00:00:00.000"}
,{"name":"ITG BRANDS, LLC","license_no":"SJ-03493","business_address":"714 GREEN VALLEY RD","city_or_town":"GREENSBORO","state":"NC","zip_code":"27408","phone_no":"(336) 335-7479","effective_date":"2020-03-09T00:00:00.000"}
,{"name":"JAY'S DISTRIBUTOR'S INC","license_no":"SJ-03252","business_address":"3900 W SIDE AVE","city_or_town":"NORTH BERGEN","state":"NJ","zip_code":"7047","phone_no":"(201) 601-2311","effective_date":"2020-03-09T00:00:00.000"}
,{"name":"MCLANE EASTERN INC","license_no":"AJ-03394","business_address":"932 MAPLE ST","city_or_town":"HOPKINTON","state":"NH","zip_code":"3229","phone_no":"(254) 742-3424","effective_date":"2020-03-09T00:00:00.000"}
,{"name":"MCLANE EASTERN INC","license_no":"AJ-03481","business_address":"43 VALLY VIEW BUSINESS PARK","city_or_town":"JESSUP","state":"PA","zip_code":"18434","phone_no":"(254) 742-3424","effective_date":"2020-03-09T00:00:00.000"}
,{"name":"PLAINFIELD TOBACCO & CANDY CO INC","license_no":"AJ-03332","business_address":"25 VAN DYKE AVE","city_or_town":"NEW BRUNSWICK","state":"NJ","zip_code":"8901","phone_no":"(732) 296-8900","effective_date":"2020-03-09T00:00:00.000"}
,{"name":"SHERMAN'S 1400 BROADWAY N.Y.C., LLC","license_no":"AJ-03497","business_address":"7615 BOEING DR","city_or_town":"GREENSBORO","state":"NC","zip_code":"27409","phone_no":"(201) 735-9046","effective_date":"2020-03-09T00:00:00.000"}
,{"name":"SUNRISE WHOLESALERS INC","license_no":"SJ-03350","business_address":"751 TONNELE AVE","city_or_town":"JERSEY CITY","state":"NJ","zip_code":"7307","phone_no":"(201) 653-1112","effective_date":"2020-03-09T00:00:00.000"}
,{"name":"SUPER FOOD SERVICES, INC.","license_no":"AJ-03488","business_address":"4067 COUNTY ROAD 130","city_or_town":"BELLEFONTAINE","state":"OH","zip_code":"43311","phone_no":"(937) 599-1110","effective_date":"2020-03-09T00:00:00.000"}
,{"name":"SUPER FOOD SERVICES, INC.","license_no":"AJ-03499","business_address":"4228 S 72ND ST","city_or_town":"OMAHA","state":"NE","zip_code":"68127","phone_no":"(402) 537-6662","effective_date":"2020-03-09T00:00:00.000"}
,{"name":"WAKEFERN FOOD CORP","license_no":"SJ-03455","business_address":"355 DAVIDSONS MILL RD","city_or_town":"JAMESBURG","state":"NJ","zip_code":"8831","phone_no":"(732) 521-8611","effective_date":"2020-03-09T00:00:00.000"}
,{"name":"1705 SUNSHINE WHOLESALE INC","license_no":"SJ-03370","business_address":"7804 20TH AVE","city_or_town":"BROOKLYN","state":"NY","zip_code":"11214","phone_no":"(718) 232-6968","latitude":"40.609026","longitude":"-73.993668","community_board":"311","council_district":"47","census_tract":"274","bin":"3162262","bbl":"3062620039","nta":"Bensonhurst West","effective_date":"2020-09-10T00:00:00.000"}
,{"name":"53RD QUEENS BEER INC","license_no":"SJ-03417","business_address":"10406 53RD AVE","city_or_town":"CORONA","state":"NY","zip_code":"11368","phone_no":"(718) 760-8009","latitude":"40.741696","longitude":"-73.856543","community_board":"404","council_district":"21","census_tract":"439","bin":"4047869","bbl":"4019440047","nta":"Corona","effective_date":"2020-09-10T00:00:00.000"}
,{"name":"A & G WHOLESALE CANDY/PAPERBAG, INC.","license_no":"SJ-03176","business_address":"488 E 164TH ST","city_or_town":"BRONX","state":"NY","zip_code":"10456","phone_no":"(718) 293-0010","latitude":"40.82572","longitude":"-73.909531","community_board":"203","council_district":"17","census_tract":"185","bin":"2114611","bbl":"2023687501","nta":"Morrisania-Melrose","effective_date":"2020-09-10T00:00:00.000"}
,{"name":"A & H TOBACCO WHOLESALE, INC.","license_no":"SJ-03451","business_address":"264-B BUTLER STREET","city_or_town":"BROOKLYN","state":"NY","zip_code":"11217","phone_no":"(718) 875-1771","effective_date":"2020-09-10T00:00:00.000"}
,{"name":"AIR KING TRADING, INC.","license_no":"SJ-03448","business_address":"415 DEVOE AVE","city_or_town":"BRONX","state":"NY","zip_code":"10460","phone_no":"(718) 824-6400","latitude":"40.84058","longitude":"-73.877031","community_board":"206","council_district":"15","census_tract":"220","bin":"2042419","bbl":"2040030032","nta":"East Tremont","effective_date":"2020-09-10T00:00:00.000"}
,{"name":"AMERICAN TOBACCO CORP","license_no":"SJ-03464","business_address":"272 WAKEMAN PL","city_or_town":"BROOKLYN","state":"NY","zip_code":"11220","phone_no":"(917) 254-9574","latitude":"40.638445","longitude":"-74.025308","community_board":"310","council_district":"43","census_tract":"70","bin":"3344061","bbl":"3058410037","nta":"Bay Ridge","effective_date":"2020-09-10T00:00:00.000"}
,{"name":"AMSTERDAM TOBACCO CO INC","license_no":"SJ-03495","business_address":"1614 AMSTERDAM AVE","city_or_town":"NEW YORK","state":"NY","zip_code":"10031","phone_no":"(212) 862-5860","latitude":"40.821789","longitude":"-73.950143","community_board":"109","council_district":"7","census_tract":"225","bin":"1061737","bbl":"1020710032","nta":"Hamilton Heights","effective_date":"2020-09-10T00:00:00.000"}
,{"name":"BAY RIDGE TOBACCO DISTRIBUTORS INC","license_no":"SJ-02897","business_address":"9225 5TH AVE","city_or_town":"BROOKLYN","state":"NY","zip_code":"11209","phone_no":"(718) 745-3011","latitude":"40.617567","longitude":"-74.029572","community_board":"310","council_district":"43","census_tract":"160","bin":"3155321","bbl":"3061090016","nta":"Bay Ridge","effective_date":"2020-09-10T00:00:00.000"}
,{"name":"BENGAL WHOLESALE COMPANY INC","license_no":"SJ-03246","business_address":"1024 CONEY ISLAND AVE","city_or_town":"BROOKLYN","state":"NY","zip_code":"11230","phone_no":"(718) 434-6296","latitude":"40.63269","longitude":"-73.966901","community_board":"314","council_district":"40","census_tract":"482","bin":"3128203","bbl":"3054290024","nta":"Flatbush","effective_date":"2020-09-10T00:00:00.000"}
,{"name":"BRONX TRADING CO., INC.","license_no":"SJ-03425","business_address":"1375 SEABURY AVE","city_or_town":"BRONX","state":"NY","zip_code":"10461","phone_no":"(914) 361-1111","latitude":"40.837404","longitude":"-73.842662","community_board":"210","council_district":"13","census_tract":"96","bin":"2027255","bbl":"2038470018","nta":"Westchester-Unionport","effective_date":"2020-09-10T00:00:00.000"}
,{"name":"CANDY STAR INC","license_no":"SJ-03429","business_address":"932 UTICA AVE","city_or_town":"BROOKLYN","state":"NY","zip_code":"11203","phone_no":"(917) 328-8810","latitude":"40.650465","longitude":"-73.930256","community_board":"317","council_district":"45","census_tract":"860","bin":"3102839","bbl":"3046970031","nta":"East Flatbush-Farragut","effective_date":"2020-09-10T00:00:00.000"}
,{"name":"CIGARETTES PLUS INC","license_no":"SJ-03438","business_address":"3855 9TH AVE","city_or_town":"NEW YORK","state":"NY","zip_code":"10034","phone_no":"(212) 569-9710","latitude":"40.863117","longitude":"-73.917474","community_board":"112","council_district":"10","census_tract":"299","bin":"1064482","bbl":"1021870001","nta":"Marble Hill-Inwood","effective_date":"2020-09-10T00:00:00.000"}
,{"name":"CJS WHOLESALERS INC","license_no":"SJ-03482","business_address":"152 W 36TH ST","city_or_town":"NEW YORK","state":"NY","zip_code":"10018","phone_no":"(212) 629-3400","latitude":"40.751806","longitude":"-73.988588","community_board":"105","council_district":"3","census_tract":"109","bin":"1015233","bbl":"1008110062","nta":"Midtown-Midtown South","effective_date":"2020-09-10T00:00:00.000"}
,{"name":"CROWN USA DISTRIBUTOR INC","license_no":"SJ-03347","business_address":"1217 JEROME AVE","city_or_town":"BRONX","state":"NY","zip_code":"10452","phone_no":"(718) 293-1921","latitude":"40.836439","longitude":"-73.922356","community_board":"204","council_district":"16","census_tract":"199","bin":"2003083","bbl":"2025060062","nta":"Highbridge","effective_date":"2020-09-10T00:00:00.000"}
,{"name":"DAN JAY TOBACCO CORP","license_no":"SJ-03023","business_address":"854 RALPH AVE","city_or_town":"BROOKLYN","state":"NY","zip_code":"11236","phone_no":"(718) 385-1454","latitude":"40.653306","longitude":"-73.920872","community_board":"317","council_district":"41","census_tract":"864","bin":"3102450","bbl":"3046850020","nta":"Rugby-Remsen Village","effective_date":"2020-09-10T00:00:00.000"}
,{"name":"FAST SERVICE WHOLESALE OF NY, INC.","license_no":"SJ-03151","business_address":"5504 3RD AVE","city_or_town":"BROOKLYN","state":"NY","zip_code":"11220","latitude":"40.644787","longitude":"-74.017603","community_board":"307","council_district":"38","census_tract":"22","bin":"3014868","bbl":"3008290034","nta":"Sunset Park West","effective_date":"2020-09-10T00:00:00.000"}
,{"name":"FOURTH AVENUE CIGARETTES WHOLESALE INC","license_no":"SJ-03196","business_address":"149 29TH ST","city_or_town":"BROOKLYN","state":"NY","zip_code":"11232","phone_no":"(718) 788-4361","latitude":"40.658713","longitude":"-74.001106","community_board":"307","council_district":"38","census_tract":"101","bin":"3009783","bbl":"3006640042","nta":"Sunset Park West","effective_date":"2020-09-10T00:00:00.000"}
,{"name":"GLOBAL WHOLESALE INC.","license_no":"SJ-03478","business_address":"12109 JAMAICA AVE","city_or_town":"RICHMOND HILL","state":"NY","zip_code":"11418","phone_no":"(718) 433-7343","latitude":"40.700443","longitude":"-73.828689","community_board":"409","council_district":"29","census_tract":"144","bin":"4193744","bbl":"4092750063","nta":"Richmond Hill","effective_date":"2020-09-10T00:00:00.000"}
,{"name":"GLOBE WHOLESALE TOBACCO DIST INC","license_no":"AJ-00713","business_address":"5406 3RD AVE","city_or_town":"BROOKLYN","state":"NY","zip_code":"11220","phone_no":"(718) 439-7478","latitude":"40.645308","longitude":"-74.017066","community_board":"307","council_district":"38","census_tract":"22","bin":"3014503","bbl":"3008210040","nta":"Sunset Park West","effective_date":"2020-09-10T00:00:00.000"}
,{"name":"H & K FOODS INC","license_no":"SJ-03435","business_address":"855 E 92ND ST","city_or_town":"BROOKLYN","state":"NY","zip_code":"11236","phone_no":"(718) 649-0800","latitude":"40.6472","longitude":"-73.911715","community_board":"318","council_district":"42","census_tract":"962","bin":"3228570","bbl":"3081250041","nta":"Canarsie","effective_date":"2020-09-10T00:00:00.000"}
,{"name":"JNJ CITRO CORP","license_no":"SJ-03423","business_address":"4564 162ND ST","city_or_town":"FLUSHING","state":"NY","zip_code":"11358","phone_no":"(718) 886-9499","latitude":"40.7548","longitude":"-73.804756","community_board":"407","council_district":"20","census_tract":"1191","bin":"4530449","bbl":"4054400072","nta":"East Flushing","effective_date":"2020-09-10T00:00:00.000"}
,{"name":"M POGGI & CO INC","license_no":"SJ-00830","business_address":"293 SMITH ST","city_or_town":"BROOKLYN","state":"NY","zip_code":"11231","phone_no":"(929) 484-9796","latitude":"40.681977","longitude":"-73.993672","community_board":"306","council_district":"39","census_tract":"75","bin":"3007056","bbl":"3004290005","nta":"Carroll Gardens-Columbia Street-Red Hook","effective_date":"2020-09-10T00:00:00.000"}
,{"name":"NICE ENTERPRISE CORP","license_no":"SJ-03440","business_address":"51-18 GRAND AVENUE, WAREHOUSE #9","city_or_town":"MASPETH","state":"NY","zip_code":"11378","phone_no":"(718) 784-4400","latitude":"40.717967","longitude":"-73.917282","community_board":"405","council_district":"30","census_tract":"535","bin":"4439290","bbl":"4026110136","nta":"Maspeth","effective_date":"2020-09-10T00:00:00.000"}
,{"name":"PRAMUKH 89 INC.","license_no":"SJ-03494","business_address":"8919 130TH ST","city_or_town":"RICHMOND HILL","state":"NY","zip_code":"11418","phone_no":"(516) 787-3200","latitude":"40.699204","longitude":"-73.820938","community_board":"409","council_district":"29","census_tract":"14202","bin":"4456275","bbl":"4093570008","nta":"Richmond Hill","effective_date":"2020-09-10T00:00:00.000"}
,{"name":"RAMS WHOLESALE CIGARETTE & PAPER PRODUCTS INC","license_no":"SJ-03278","business_address":"42 MELROSE ST","city_or_town":"BROOKLYN","state":"NY","zip_code":"11206","phone_no":"(718) 443-3456","latitude":"40.698222","longitude":"-73.935208","community_board":"304","council_district":"34","census_tract":"389","bin":"3326162","bbl":"3031600021","nta":"Bushwick South","effective_date":"2020-09-10T00:00:00.000"}
,{"name":"RIDGEWOOD TOBACCO & CANDY INC","license_no":"SJ-03330","business_address":"7704 CYPRESS AVE","city_or_town":"GLENDALE","state":"NY","zip_code":"11385","phone_no":"(516) 458-9865","latitude":"40.695344","longitude":"-73.898846","community_board":"405","council_district":"30","census_tract":"565","bin":"4549245","bbl":"4035580003","nta":"Glendale","effective_date":"2020-09-10T00:00:00.000"}
,{"name":"SA CIGARETTE CO INC","license_no":"SJ-03485","business_address":"840 SAINT ANNS AVE","city_or_town":"BRONX","state":"NY","zip_code":"10456","phone_no":"(718) 402-5639","latitude":"40.821707","longitude":"-73.909721","community_board":"201","council_district":"17","census_tract":"71","bin":"2004357","bbl":"2026190001","nta":"Melrose South-Mott Haven North","effective_date":"2020-09-10T00:00:00.000"}
,{"name":"SAM'S SURPRISES INC","license_no":"SJ-03318","business_address":"8103 NORTHERN BLVD","city_or_town":"JACKSON HEIGHTS","state":"NY","zip_code":"11372","phone_no":"(718) 594-2111","latitude":"40.755486","longitude":"-73.886147","community_board":"403","council_district":"25","census_tract":"327","bin":"4026956","bbl":"4011770044","nta":"Jackson Heights","effective_date":"2020-09-10T00:00:00.000"}
,{"name":"SUNRISE CANDY & TOBACCO CORP","license_no":"AJ-00075","business_address":"150 CRESCENT ST","city_or_town":"BROOKLYN","state":"NY","zip_code":"11208","phone_no":"(718) 235-5030","latitude":"40.685717","longitude":"-73.872846","community_board":"305","council_district":"37","census_tract":"117602","bin":"3091683","bbl":"3041180042","nta":"Cypress Hills-City Line","effective_date":"2020-09-10T00:00:00.000"}
,{"name":"T & R TOBACCO SALES CO INC","license_no":"SJ-02826","business_address":"20307 LINDEN BLVD","city_or_town":"SAINT ALBANS","state":"NY","zip_code":"11412","phone_no":"(718) 525-4283","latitude":"40.695277","longitude":"-73.749268","community_board":"412","council_district":"27","census_tract":"530","bin":"4238587","bbl":"4110750006","nta":"St. Albans","effective_date":"2020-09-10T00:00:00.000"}
,{"name":"THE KOGER CO INC","license_no":"AJ-00343","business_address":"635-37 MORRIS PARK AVE","city_or_town":"BRONX","state":"NY","zip_code":"10460","phone_no":"(718) 597-5555","latitude":"40.844657","longitude":"-73.868389","community_board":"211","council_district":"15","census_tract":"220","bin":"2042496","bbl":"2040110023","nta":"East Tremont","effective_date":"2020-09-10T00:00:00.000"}
,{"name":"TRUE PINLESS INC","license_no":"SJ-03500","business_address":"3805 20TH AVE","city_or_town":"ASTORIA","state":"NY","zip_code":"11105","phone_no":"(718) 746-0008","latitude":"40.77688","longitude":"-73.90225","community_board":"401","council_district":"22","census_tract":"12301","bin":"4616405","bbl":"4008110001","nta":"Steinway","effective_date":"2020-09-10T00:00:00.000"}
,{"name":"WELLSPRING CORP","license_no":"SJ-03026","business_address":"54 LUDLOW ST","city_or_town":"NEW YORK","state":"NY","zip_code":"10002","phone_no":"(212) 529-5454","latitude":"40.716657","longitude":"-73.990101","community_board":"103","council_district":"1","census_tract":"16","bin":"1004026","bbl":"1003100010","nta":"Chinatown","effective_date":"2020-09-10T00:00:00.000"}
,{"name":"BELL TRADING INC","license_no":"AJ-03374","business_address":"593 JERUSALEM AVE","city_or_town":"UNIONDALE","state":"NY","zip_code":"11553","phone_no":"(516) 483-3444","effective_date":"2020-09-10T00:00:00.000"}
,{"name":"C AND S WHOLESALE GROCERS INC","license_no":"AJ-03402","business_address":"1500 CORPORATE BLVD","city_or_town":"NEWBURGH","state":"NY","zip_code":"12550","phone_no":"(603) 354-7307","effective_date":"2020-09-10T00:00:00.000"}
,{"name":"HAROLD LEVINSON ASSOCIATES, LLC","license_no":"AJ-03491","business_address":"21 BANFI PLAZA","city_or_town":"FARMINGDALE","state":"NY","zip_code":"11735","phone_no":"(631) 962-2400","effective_date":"2020-09-10T00:00:00.000"}
,{"name":"MCLANE EASTERN INC","license_no":"AJ-02990","business_address":"2828 MCLANE RD","city_or_town":"BALDWINSVILLE","state":"NY","zip_code":"13027","phone_no":"(254) 742-3424","effective_date":"2020-09-10T00:00:00.000"}
,{"name":"MOUNTAIN CANDY & CIGAR CO INC","license_no":"AJ-03373","business_address":"40 LAKE ST","city_or_town":"SOUTH FALLSBURG","state":"NY","zip_code":"12779","phone_no":"(845) 434-5674","effective_date":"2020-09-10T00:00:00.000"}
,{"name":"SUPER VALUE DISTRIBUTORS, INC.","license_no":"SJ-03436","business_address":"395 MEACHAM AVE","city_or_town":"ELMONT","state":"NY","zip_code":"11003","phone_no":"(516) 502-4560","effective_date":"2020-09-10T00:00:00.000"}
,{"name":"C AND S WHOLESALE GROCERS INC","license_no":"AJ-03490","business_address":"100 KING SPRING RD","city_or_town":"WINDSOR LOCKS","state":"CT","zip_code":"06096","phone_no":"(603) 354-7307","effective_date":"2020-09-10T00:00:00.000"}
,{"name":"CONSUMER PRODUCT DISTRIBUTORS, LLC","license_no":"AJ-03337","business_address":"705 MEADOW ST","city_or_town":"CHICOPEE","state":"MA","zip_code":"01013","phone_no":"(413) 888-1250","effective_date":"2020-09-10T00:00:00.000"}
,{"name":"CORE-MARK MIDCONTINENT, INC.","license_no":"AJ-03453","business_address":"100 WEST END ROAD, PO BOX 1450","city_or_town":"HANOVER TOWNSHIP","state":"PA","zip_code":"18706","phone_no":"(570) 823-6865","effective_date":"2020-09-10T00:00:00.000"}
,{"name":"ITG BRANDS, LLC","license_no":"SJ-03493","business_address":"714 GREEN VALLEY RD","city_or_town":"GREENSBORO","state":"NC","zip_code":"27408","phone_no":"(336) 335-7479","effective_date":"2020-09-10T00:00:00.000"}
,{"name":"JAY'S DISTRIBUTOR'S INC","license_no":"SJ-03252","business_address":"3900 W SIDE AVE","city_or_town":"NORTH BERGEN","state":"NJ","zip_code":"07047","phone_no":"(201) 601-2311","effective_date":"2020-09-10T00:00:00.000"}
,{"name":"MCLANE EASTERN INC","license_no":"AJ-03394","business_address":"932 MAPLE ST","city_or_town":"HOPKINTON","state":"NH","zip_code":"03229","phone_no":"(254) 742-3424","effective_date":"2020-09-10T00:00:00.000"}
,{"name":"MCLANE EASTERN INC","license_no":"AJ-03481","business_address":"43 VALLY VIEW BUSINESS PARK","city_or_town":"JESSUP","state":"PA","zip_code":"18434","phone_no":"(254) 742-3424","effective_date":"2020-09-10T00:00:00.000"}
,{"name":"PLAINFIELD TOBACCO & CANDY CO INC","license_no":"AJ-03332","business_address":"25 VAN DYKE AVE","city_or_town":"NEW BRUNSWICK","state":"NJ","zip_code":"08901","phone_no":"(732) 296-8900","effective_date":"2020-09-10T00:00:00.000"}
,{"name":"SUNRISE WHOLESALERS INC","license_no":"SJ-03350","business_address":"751 TONNELE AVE","city_or_town":"JERSEY CITY","state":"NJ","zip_code":"07307","phone_no":"(201) 653-1112","effective_date":"2020-09-10T00:00:00.000"}
,{"name":"SUPER FOOD SERVICES, INC.","license_no":"AJ-03488","business_address":"4067 COUNTY ROAD 130","city_or_town":"BELLEFONTAINE","state":"OH","zip_code":"43311","phone_no":"(937) 599-1110","effective_date":"2020-09-10T00:00:00.000"}
,{"name":"SUPER FOOD SERVICES, INC.","license_no":"AJ-03499","business_address":"4228 S 72ND ST","city_or_town":"OMAHA","state":"NE","zip_code":"68127","phone_no":"(402) 537-6662","effective_date":"2020-09-10T00:00:00.000"}
,{"name":"WAKEFERN FOOD CORP","license_no":"SJ-03455","business_address":"355 DAVIDSONS MILL RD","city_or_town":"JAMESBURG","state":"NJ","zip_code":"08831","phone_no":"(732) 521-8611","effective_date":"2020-09-10T00:00:00.000"}
,{"name":"1705 SUNSHINE WHOLESALE INC","license_no":"SJ-03370","business_address":"7804 20TH AVE","city_or_town":"BROOKLYN","state":"NY","zip_code":"11214","phone_no":"(718) 232-6968","latitude":"40.609026","longitude":"-73.993668","community_board":"11","council_district":"47","census_tract":"274","bin":"3162262","bbl":"3062620039","nta":"Bensonhurst West","effective_date":"2021-09-03T00:00:00.000"}
,{"name":"53RD QUEENS BEER INC","license_no":"SJ-03417","business_address":"10409 53RD AVE","city_or_town":"CORONA","state":"NY","zip_code":"11368","phone_no":"(718) 760-8009","latitude":"40.741715","longitude":"-73.856546","community_board":"4","council_district":"21","census_tract":"439","bin":"4047833","bbl":"4019430096","nta":"Corona","effective_date":"2021-09-03T00:00:00.000"}
,{"name":"A & G WHOLESALE CANDY/PAPERBAG, INC.","license_no":"SJ-03176","business_address":"511 WHITTIER ST","city_or_town":"BRONX","state":"NY","zip_code":"10474","phone_no":"(718) 293-0010","latitude":"40.810989","longitude":"-73.882689","community_board":"2","council_district":"17","census_tract":"93","bin":"2006856","bbl":"2027690112","nta":"Hunts Point","effective_date":"2021-09-03T00:00:00.000"}
,{"name":"A & H TOBACCO WHOLESALE, INC.","license_no":"SJ-03451","business_address":"264-B BUTLER STREET","city_or_town":"BROOKLYN","state":"NY","zip_code":"11217","phone_no":"(718) 875-1771","latitude":"40.681221","longitude":"-73.984616","community_board":"6","council_district":"33","census_tract":"127","bin":"3006607","bbl":"3004120021","nta":"DUMBO-Vinegar Hill-Downtown Brooklyn-Boerum Hill","effective_date":"2021-09-03T00:00:00.000"}
,{"name":"AIR KING TRADING, INC.","license_no":"SJ-03448","business_address":"415 DEVOE AVE","city_or_town":"BRONX","state":"NY","zip_code":"10460","phone_no":"(718) 824-6400","latitude":"40.84058","longitude":"-73.877031","community_board":"6","council_district":"15","census_tract":"220","bin":"2042419","bbl":"2040030032","nta":"East Tremont","effective_date":"2021-09-03T00:00:00.000"}
,{"name":"AMERICAN TOBACCO CORP","license_no":"SJ-03464","business_address":"272 WAKEMAN PL","city_or_town":"BROOKLYN","state":"NY","zip_code":"11220","phone_no":"(917) 254-9574","latitude":"40.638445","longitude":"-74.025308","community_board":"10","council_district":"43","census_tract":"70","bin":"3344061","bbl":"3058410037","nta":"Bay Ridge","effective_date":"2021-09-03T00:00:00.000"}
,{"name":"AMSTERDAM TOBACCO CO INC","license_no":"SJ-03495","business_address":"1614 AMSTERDAM AVE","city_or_town":"NEW YORK","state":"NY","zip_code":"10031","phone_no":"(212) 862-5860","latitude":"40.821789","longitude":"-73.950143","community_board":"9","council_district":"7","census_tract":"225","bin":"1061737","bbl":"1020710032","nta":"Hamilton Heights","effective_date":"2021-09-03T00:00:00.000"}
,{"name":"BAY RIDGE TOBACCO DISTRIBUTORS INC","license_no":"SJ-02897","business_address":"9225 5TH AVE","city_or_town":"BROOKLYN","state":"NY","zip_code":"11209","phone_no":"(718) 745-3011","latitude":"40.617567","longitude":"-74.029572","community_board":"10","council_district":"43","census_tract":"160","bin":"3155321","bbl":"3061090016","nta":"Bay Ridge","effective_date":"2021-09-03T00:00:00.000"}
,{"name":"BENGAL WHOLESALE COMPANY INC","license_no":"SJ-03246","business_address":"1024 CONEY ISLAND AVE","city_or_town":"BROOKLYN","state":"NY","zip_code":"11230","phone_no":"(718) 434-6296","latitude":"40.63269","longitude":"-73.966901","community_board":"14","council_district":"40","census_tract":"482","bin":"3128203","bbl":"3054290024","nta":"Flatbush","effective_date":"2021-09-03T00:00:00.000"}
,{"name":"BM WHOLESALE CORP","license_no":"SJ-03501","business_address":"6947 COOPER AVE","city_or_town":"GLENDALE","state":"NY","zip_code":"11385","phone_no":"(646) 912-5785","latitude":"40.701442","longitude":"-73.881406","community_board":"5","council_district":"30","census_tract":"629","bin":"4090368","bbl":"4037050006","nta":"Glendale","effective_date":"2021-09-03T00:00:00.000"}
,{"name":"BRONX TRADING CO., INC.","license_no":"SJ-03425","business_address":"1375 SEABURY AVE","city_or_town":"BRONX","state":"NY","zip_code":"10461","phone_no":"(718) 931-6448","latitude":"40.837404","longitude":"-73.842662","community_board":"10","council_district":"13","census_tract":"96","bin":"2027255","bbl":"2038470018","nta":"Westchester-Unionport","effective_date":"2021-09-03T00:00:00.000"}
,{"name":"CANDY STAR INC","license_no":"SJ-03429","business_address":"932 UTICA AVE","city_or_town":"BROOKLYN","state":"NY","zip_code":"11203","phone_no":"(917) 328-8810","latitude":"40.650465","longitude":"-73.930256","community_board":"17","council_district":"45","census_tract":"860","bin":"3102839","bbl":"3046970031","nta":"East Flatbush-Farragut","effective_date":"2021-09-03T00:00:00.000"}
,{"name":"CIGARETTES PLUS INC","license_no":"SJ-03438","business_address":"3855 9TH AVE","city_or_town":"NEW YORK","state":"NY","zip_code":"10034","phone_no":"(212) 569-9710","latitude":"40.863117","longitude":"-73.917474","community_board":"12","council_district":"10","census_tract":"299","bin":"1064482","bbl":"1021870001","nta":"Marble Hill-Inwood","effective_date":"2021-09-03T00:00:00.000"}
,{"name":"CJS WHOLESALERS INC","license_no":"SJ-03482","business_address":"152 W 36TH ST","city_or_town":"NEW YORK","state":"NY","zip_code":"10018","phone_no":"(212) 629-3400","latitude":"40.751806","longitude":"-73.988588","community_board":"5","council_district":"3","census_tract":"109","bin":"1015233","bbl":"1008110062","nta":"Midtown-Midtown South","effective_date":"2021-09-03T00:00:00.000"}
,{"name":"CROWN USA DISTRIBUTOR INC","license_no":"SJ-03347","business_address":"1217 JEROME AVE","city_or_town":"BRONX","state":"NY","zip_code":"10452","phone_no":"(718) 293-1921","latitude":"40.836439","longitude":"-73.922356","community_board":"4","council_district":"16","census_tract":"199","bin":"2003083","bbl":"2025060062","nta":"Highbridge","effective_date":"2021-09-03T00:00:00.000"}
,{"name":"DAN JAY TOBACCO CORP","license_no":"SJ-03023","business_address":"854 RALPH AVE","city_or_town":"BROOKLYN","state":"NY","zip_code":"11236","phone_no":"(718) 385-1454","latitude":"40.653306","longitude":"-73.920872","community_board":"17","council_district":"41","census_tract":"864","bin":"3102450","bbl":"3046850020","nta":"Rugby-Remsen Village","effective_date":"2021-09-03T00:00:00.000"}
,{"name":"FAST SERVICE WHOLESALE OF NY, INC.","license_no":"SJ-03151","business_address":"5504 3RD AVE","city_or_town":"BROOKLYN","state":"NY","zip_code":"11220","phone_no":"(718) 871-8749","latitude":"40.64477","longitude":"-74.017578","community_board":"7","council_district":"38","census_tract":"22","bin":"3014868","bbl":"3008290034","nta":"Sunset Park West","effective_date":"2021-09-03T00:00:00.000"}
,{"name":"GLOBAL WHOLESALE INC.","license_no":"SJ-03478","business_address":"12109 JAMAICA AVE","city_or_town":"RICHMOND HILL","state":"NY","zip_code":"11418","phone_no":"(718) 433-7343","latitude":"40.700443","longitude":"-73.828689","community_board":"9","council_district":"29","census_tract":"144","bin":"4193744","bbl":"4092750063","nta":"Richmond Hill","effective_date":"2021-09-03T00:00:00.000"}
,{"name":"GLOBE WHOLESALE TOBACCO DIST INC","license_no":"AJ-00713","business_address":"5406 3RD AVE","city_or_town":"BROOKLYN","state":"NY","zip_code":"11220","phone_no":"(718) 439-7478","latitude":"40.645292","longitude":"-74.017041","community_board":"7","council_district":"38","census_tract":"22","bin":"3014503","bbl":"3008210040","nta":"Sunset Park West","effective_date":"2021-09-03T00:00:00.000"}
,{"name":"JNJ CITRO CORP","license_no":"SJ-03423","business_address":"4564 162ND ST","city_or_town":"FLUSHING","state":"NY","zip_code":"11358","phone_no":"(718) 886-9499","latitude":"40.7548","longitude":"-73.804756","community_board":"7","council_district":"20","census_tract":"1191","bin":"4530449","bbl":"4054400072","nta":"East Flushing","effective_date":"2021-09-03T00:00:00.000"}
,{"name":"M POGGI & CO INC","license_no":"SJ-00830","business_address":"293 SMITH ST","city_or_town":"BROOKLYN","state":"NY","zip_code":"11231","phone_no":"(929) 484-9796","latitude":"40.681977","longitude":"-73.993672","community_board":"6","council_district":"39","census_tract":"75","bin":"3007056","bbl":"3004290005","nta":"Carroll Gardens-Columbia Street-Red Hook","effective_date":"2021-09-03T00:00:00.000"}
,{"name":"NICE ENTERPRISE CORP","license_no":"SJ-03440","business_address":"51-18 GRAND AVENUE","city_or_town":"MASPETH","state":"NY","zip_code":"11378","phone_no":"(718) 784-4400","latitude":"40.717967","longitude":"-73.917282","community_board":"5","council_district":"30","census_tract":"535","bin":"4439290","bbl":"4026110136","nta":"Maspeth","effective_date":"2021-09-03T00:00:00.000"}
,{"name":"PRAMUKH 89 INC.","license_no":"SJ-03494","business_address":"13202 89TH AVE","city_or_town":"JAMAICA","state":"NY","zip_code":"11418","phone_no":"(516) 787-3200","latitude":"40.70033","longitude":"-73.819485","community_board":"9","council_district":"29","census_tract":"14202","bin":"4438600","bbl":"4093610020","nta":"Richmond Hill","effective_date":"2021-09-03T00:00:00.000"}
,{"name":"RAMS WHOLESALE CIGARETTE & PAPER PRODUCTS INC","license_no":"SJ-03278","business_address":"42 MELROSE ST","city_or_town":"BROOKLYN","state":"NY","zip_code":"11206","phone_no":"(347) 236-0657","latitude":"40.698222","longitude":"-73.935208","community_board":"4","council_district":"34","census_tract":"389","bin":"3326162","bbl":"3031600021","nta":"Bushwick South","effective_date":"2021-09-03T00:00:00.000"}
,{"name":"RIDGEWOOD TOBACCO & CANDY INC","license_no":"SJ-03330","business_address":"7704 CYPRESS AVE","city_or_town":"GLENDALE","state":"NY","zip_code":"11385","phone_no":"(516) 458-9865","latitude":"40.695344","longitude":"-73.898846","community_board":"5","council_district":"30","census_tract":"565","bin":"4549245","bbl":"4035580003","nta":"Glendale","effective_date":"2021-09-03T00:00:00.000"}
,{"name":"SA CIGARETTE CO INC","license_no":"SJ-03485","business_address":"840 SAINT ANNS AVE","city_or_town":"BRONX","state":"NY","zip_code":"10456","phone_no":"(718) 402-5639","latitude":"40.821707","longitude":"-73.909721","community_board":"1","council_district":"17","census_tract":"71","bin":"2004357","bbl":"2026190001","nta":"Melrose South-Mott Haven North","effective_date":"2021-09-03T00:00:00.000"}
,{"name":"SAM'S SURPRISES INC","license_no":"SJ-03318","business_address":"8103 NORTHERN BLVD","city_or_town":"JACKSON HEIGHTS","state":"NY","zip_code":"11372","phone_no":"(718) 446-3101","latitude":"40.755486","longitude":"-73.886147","community_board":"3","council_district":"25","census_tract":"327","bin":"4026956","bbl":"4011770044","nta":"Jackson Heights","effective_date":"2021-09-03T00:00:00.000"}
,{"name":"SUNRISE CANDY & TOBACCO CORP","license_no":"AJ-00075","business_address":"150 CRESCENT ST","city_or_town":"BROOKLYN","state":"NY","zip_code":"11208","phone_no":"(718) 235-5030","latitude":"40.685717","longitude":"-73.872846","community_board":"5","council_district":"37","census_tract":"117602","bin":"3091683","bbl":"3041180042","nta":"Cypress Hills-City Line","effective_date":"2021-09-03T00:00:00.000"}
,{"name":"T & R TOBACCO SALES CO INC","license_no":"SJ-02826","business_address":"20307 LINDEN BLVD","city_or_town":"SAINT ALBANS","state":"NY","zip_code":"11412","phone_no":"(718) 525-4283","latitude":"40.695277","longitude":"-73.749268","community_board":"12","council_district":"27","census_tract":"530","bin":"4238587","bbl":"4110750006","nta":"St. Albans","effective_date":"2021-09-03T00:00:00.000"}
,{"name":"THE KOGER CO INC","license_no":"AJ-00343","business_address":"635-37 MORRIS PARK AVE","city_or_town":"BRONX","state":"NY","zip_code":"10460","phone_no":"(718) 597-5555","latitude":"40.844657","longitude":"-73.868389","community_board":"11","council_district":"15","census_tract":"220","bin":"2042496","bbl":"2040110023","nta":"East Tremont","effective_date":"2021-09-03T00:00:00.000"}
,{"name":"TRUE PINLESS INC","license_no":"SJ-03500","business_address":"3805 20TH AVE","city_or_town":"ASTORIA","state":"NY","zip_code":"11105","phone_no":"(718) 746-0008","latitude":"40.77688","longitude":"-73.90225","community_board":"1","council_district":"22","census_tract":"12301","bin":"4616405","bbl":"4008110001","nta":"Steinway","effective_date":"2021-09-03T00:00:00.000"}
,{"name":"WELLSPRING CORP","license_no":"SJ-03026","business_address":"54 LUDLOW ST","city_or_town":"NEW YORK","state":"NY","zip_code":"10002","phone_no":"(212) 529-5454","latitude":"40.716657","longitude":"-73.990101","community_board":"3","council_district":"1","census_tract":"16","bin":"1004026","bbl":"1003100010","nta":"Chinatown","effective_date":"2021-09-03T00:00:00.000"}
,{"name":"BELL TRADING INC","license_no":"AJ-03374","business_address":"593 JERUSALEM AVE","city_or_town":"UNIONDALE","state":"NY","zip_code":"11553","phone_no":"(516) 483-3444","effective_date":"2021-09-03T00:00:00.000"}
,{"name":"C AND S WHOLESALE GROCERS INC","license_no":"AJ-03402","business_address":"1500 CORPORATE BLVD","city_or_town":"NEWBURGH","state":"NY","zip_code":"12550","phone_no":"(603) 354-7307","effective_date":"2021-09-03T00:00:00.000"}
,{"name":"HAROLD LEVINSON ASSOCIATES, LLC","license_no":"AJ-03491","business_address":"21 BANFI PLAZA","city_or_town":"FARMINGDALE","state":"NY","zip_code":"11735","phone_no":"(631) 962-2400","effective_date":"2021-09-03T00:00:00.000"}
,{"name":"MCLANE EASTERN INC","license_no":"AJ-02990","business_address":"2828 MCLANE RD","city_or_town":"BALDWINSVILLE","state":"NY","zip_code":"13027","phone_no":"(254) 770-2800","effective_date":"2021-09-03T00:00:00.000"}
,{"name":"MOUNTAIN CANDY & CIGAR CO INC","license_no":"AJ-03373","business_address":"40 LAKE ST","city_or_town":"SOUTH FALLSBURG","state":"NY","zip_code":"12779","phone_no":"(845) 434-5674","effective_date":"2021-09-03T00:00:00.000"}
,{"name":"SUPER VALUE DISTRIBUTORS, INC.","license_no":"SJ-03436","business_address":"395 MEACHAM AVE","city_or_town":"ELMONT","state":"NY","zip_code":"11003","phone_no":"(516) 502-4560","effective_date":"2021-09-03T00:00:00.000"}
,{"name":"C AND S WHOLESALE GROCERS INC","license_no":"AJ-03490","business_address":"100 KING SPRING RD","city_or_town":"WINDSOR LOCKS","state":"CT","zip_code":"6096","phone_no":"(603) 354-7307","effective_date":"2021-09-03T00:00:00.000"}
,{"name":"CONSUMER PRODUCT DISTRIBUTORS, LLC","license_no":"AJ-03337","business_address":"705 MEADOW ST","city_or_town":"CHICOPEE","state":"MA","zip_code":"1013","phone_no":"(413) 888-1250","effective_date":"2021-09-03T00:00:00.000"}
,{"name":"CORE-MARK MIDCONTINENT, INC.","license_no":"AJ-03453","business_address":"100 WEST END ROAD","city_or_town":"HANOVER TOWNSHIP","state":"PA","zip_code":"18706","phone_no":"(570) 823-6865","effective_date":"2021-09-03T00:00:00.000"}
,{"name":"ITG BRANDS, LLC","license_no":"SJ-03493","business_address":"714 GREEN VALLEY RD","city_or_town":"GREENSBORO","state":"NC","zip_code":"27408","phone_no":"(336) 335-7479","effective_date":"2021-09-03T00:00:00.000"}
,{"name":"MCLANE EASTERN INC","license_no":"AJ-03394","business_address":"932 MAPLE ST","city_or_town":"HOPKINTON","state":"NH","zip_code":"3229","phone_no":"(603) 746-8000","effective_date":"2021-09-03T00:00:00.000"}
,{"name":"MCLANE EASTERN INC","license_no":"AJ-03481","business_address":"43 VALLY VIEW BUSINESS PARK","city_or_town":"JESSUP","state":"PA","zip_code":"18434","phone_no":"(570) 330-8400","effective_date":"2021-09-03T00:00:00.000"}
,{"name":"PLAINFIELD TOBACCO & CANDY CO INC","license_no":"AJ-03332","business_address":"25 VAN DYKE AVE","city_or_town":"NEW BRUNSWICK","state":"NJ","zip_code":"8901","phone_no":"(732) 296-8900","effective_date":"2021-09-03T00:00:00.000"}
,{"name":"SUNRISE WHOLESALERS INC","license_no":"SJ-03350","business_address":"751 TONNELE AVE","city_or_town":"JERSEY CITY","state":"NJ","zip_code":"7307","phone_no":"(201) 653-1112","effective_date":"2021-09-03T00:00:00.000"}
,{"name":"SUPER FOOD SERVICES, INC.","license_no":"AJ-03488","business_address":"4067 COUNTY ROAD 130","city_or_town":"BELLEFONTAINE","state":"OH","zip_code":"43311","phone_no":"(937) 599-1110","effective_date":"2021-09-03T00:00:00.000"}
,{"name":"SUPER FOOD SERVICES, INC.","license_no":"AJ-03499","business_address":"4228 S 72ND ST","city_or_town":"OMAHA","state":"NE","zip_code":"68127","phone_no":"(402) 537-6662","effective_date":"2021-09-03T00:00:00.000"}
,{"name":"WAKEFERN FOOD CORP","license_no":"SJ-03455","business_address":"355 DAVIDSONS MILL RD","city_or_town":"JAMESBURG","state":"NJ","zip_code":"8831","phone_no":"(732) 521-8611","effective_date":"2021-09-03T00:00:00.000"}]
