uid,name,cat_L1,cat_L2,province,city,area,address,street_id,detail,child_num,loc_lng,loc_lat,telephone,type,detail_url,price,shop_hours,overall_rating,taste_rating,service_rating,environment_rating,facility_rating,hygiene_rating,technology_rating,image_num,comment_num,groupon_num,discount_num,favorite_num,checkin_num,brand,content_tag,naviloc_lng,naviloc_lat,child_num
ea8b3fc78ebb9c6817c8f678,中能石化(南斯港加油加气站),交通设施,加油加气站,江苏省,苏州市,吴江区,苏州市吴江区平望镇莺湖路(莺湖村村民委员会东南),ea8b3fc78ebb9c6817c8f678,1,0,120.641437,30.973635,13814884140,life,http://api.map.baidu.com/place/detail?uid=ea8b3fc78ebb9c6817c8f678&output=html&source=placeapi_v2,,00:00-24:00,1,,,,,,,8,2,,,,,,,120.64220910384,30.973925931369,0
35debf293ed9f544a6da39c5,中国海油协和石油加油站(平西站),交通设施,加油加气站,江苏省,苏州市,吴江区,江苏省苏州市吴江区平运路,35debf293ed9f544a6da39c5,1,0,120.628701,30.98041,(0512)63667709,life,http://api.map.baidu.com/place/detail?uid=35debf293ed9f544a6da39c5&output=html&source=placeapi_v2,,00:00-24:00,5,,,,,,,1,1,,,,,,,120.6291139349,30.980033250493,0
d991e116588923551f3894c7,中国石化壳牌加油站(吴江第二站),交通设施,加油加气站,江苏省,苏州市,吴江区,苏州市吴江区平望镇平湖路23号,d991e116588923551f3894c7,1,0,120.641234,30.97933,95388,life,http://api.map.baidu.com/place/detail?uid=d991e116588923551f3894c7&output=html&source=placeapi_v2,,00:00-24:00,0,,,,,,,3,1,,,,,,,120.64113289162,30.979618826639,0
6db419ccc1b7df3c8d7727ed,南斯乡村风情园,,,江苏省,苏州市,吴江区,苏州市吴江区五渡港路中能石化(南斯港加油加气站)北侧约70米,6db419ccc1b7df3c8d7727ed,1,0,120.641636,30.974595,,life,http://api.map.baidu.com/place/detail?uid=6db419ccc1b7df3c8d7727ed&output=html&source=placeapi_v2,,,,,,,,,,3,,,,,,,,,,0
b703e96b9df998fa8f1a89cb,中国石化(吴江新庙港加油站),交通设施,加油加气站,江苏省,苏州市,吴江区,苏州市吴江区沿湖东路,b703e96b9df998fa8f1a89cb,1,0,120.474669,31.002023,(0512)63738202,life,http://api.map.baidu.com/place/detail?uid=b703e96b9df998fa8f1a89cb&output=html&source=placeapi_v2,,06:00-22:00,5,,,,,,,16,4,,,,,,,120.47505762023,31.001972394816,0
5e53af1a778b1b5f4151c0c0,中石化壳牌(吴江第九加油站),交通设施,加油加气站,江苏省,苏州市,吴江区,江苏省苏州市吴江区环河路1600号,5e53af1a778b1b5f4151c0c0,1,0,120.517415,31.014547,(0512)63709534,life,http://api.map.baidu.com/place/detail?uid=5e53af1a778b1b5f4151c0c0&output=html&source=placeapi_v2,,06:00-22:00,5,,,,,,,5,1,,,,,,,120.51764059279,31.01430044383,0
6deee30832aa116a29fc48c2,中国石油(新大加油站),交通设施,加油加气站,江苏省,苏州市,吴江区,江苏省苏州市吴江区227省道与鲈中路交汇处的南方北庄附近,6deee30832aa116a29fc48c2,1,0,120.657358,31.025441,(0512)63648595,life,http://api.map.baidu.com/place/detail?uid=6deee30832aa116a29fc48c2&output=html&source=placeapi_v2,,06:00-22:00,5,,,,,,,6,2,,,,,,,120.65766523167,31.025447209481,0
da8c5ec8c814120a0aa8d4b4,苏州市国安英盾驻警区,交通设施,加油加气站,江苏省,苏州市,吴江区,苏州市吴江区东安路苏州泰硕电子有限公司,da8c5ec8c814120a0aa8d4b4,1,0,120.715655,31.012202,,life,http://api.map.baidu.com/place/detail?uid=da8c5ec8c814120a0aa8d4b4&output=html&source=placeapi_v2,,,,,,,,,,,,,,,,,,120.71559840208,31.012074976477,0
9e9da81c2df82ebaad31e576,顺隆石化加油站,交通设施,加油加气站,江苏省,苏州市,吴江区,苏州市吴江区318国道与苏同黎公路交汇处的东边第一个加油站,9e9da81c2df82ebaad31e576,1,0,120.745739,31.006462,18068009773,life,http://api.map.baidu.com/place/detail?uid=9e9da81c2df82ebaad31e576&output=html&source=placeapi_v2,,00:00-24:00,2.0,,,,,,,1,2,,,,,,,120.74568980861,31.006641812633,0
c6ba9f287499ef5ad91318bc,华港集团(上海)石油天然气有限公司(汾湖LNG加注站),交通设施,加油加气站,江苏省,苏州市,吴江区,吴江区汾湖国道路2228东南方向110米,c6ba9f287499ef5ad91318bc,1,0,120.81385,31.018048,,life,http://api.map.baidu.com/place/detail?uid=c6ba9f287499ef5ad91318bc&output=html&source=placeapi_v2,,,,,,,,,,3,,,,,,,,120.81379972943,31.017900882778,0
2848ffd6cce1a00f48cc4ac2,中国石化壳牌加油站(吴江二十六站),交通设施,加油加气站,江苏省,苏州市,吴江区,江苏省苏州市吴江区524国道,2848ffd6cce1a00f48cc4ac2,1,0,120.668833,31.057693,(0512)63365370,life,http://api.map.baidu.com/place/detail?uid=2848ffd6cce1a00f48cc4ac2&output=html&source=placeapi_v2,,06:00-22:00,0.0,,,,,,,1,,,,,,,,120.66917604661,31.057790265327,0
f4a33da9679841743010af71,中国石化东山加油站,交通设施,加油加气站,江苏省,苏州市,吴中区,江苏省苏州市吴中区渡桥南街兵营村92号,f4a33da9679841743010af71,1,0,120.42502,31.084764,(0512)66202215,life,http://api.map.baidu.com/place/detail?uid=f4a33da9679841743010af71&output=html&source=placeapi_v2,,04:30-22:30,4.8,,,,,,,28,12,,,,,,,120.42502207069,31.084697516941,0
504d61139b93d4b3465726fc,中国石化吴江光明加油站(莘七线),交通设施,加油加气站,江苏省,苏州市,吴江区,苏州市吴江区金厍路288号,504d61139b93d4b3465726fc,1,0,120.790004,31.083638,(0512)63204368,life,http://api.map.baidu.com/place/detail?uid=504d61139b93d4b3465726fc&output=html&source=placeapi_v2,,00:00-24:00,5,,,,,,,26,7,,,,,,,120.78995868412,31.083615088815,0
f6ba9a7bd1168de0ab0dd81a,东恒压缩天然气加气站,交通设施,加油加气站,江苏省,苏州市,吴江区,苏州市吴江区中能石化吴江经济开发区龙桥路666号,f6ba9a7bd1168de0ab0dd81a,1,0,120.674836,31.118807,,life,http://api.map.baidu.com/place/detail?uid=f6ba9a7bd1168de0ab0dd81a&output=html&source=placeapi_v2,,00:00-24:00,1,,,,,,,12,2,,,,,,,120.67453251121,31.118850518702,0
ceddd2fdb1cdad890ab93a8b,中国石油加油站(苏州河路),交通设施,加油加气站,江苏省,苏州市,吴江区,江苏省苏州市吴江区苏州河路滨河名墅(体育路和高新路)对面,ceddd2fdb1cdad890ab93a8b,1,0,120.630118,31.14965,(0512)63199242,life,http://api.map.baidu.com/place/detail?uid=ceddd2fdb1cdad890ab93a8b&output=html&source=placeapi_v2,,00:00-24:00,2.4,,,,,,,3,13,,,,,,,120.63023639368,31.149752871166,0
4877b20ed798effcae0457ce,LNG加气站,交通设施,加油加气站,江苏省,苏州市,吴江区,苏州市吴江区长板路(中国石油加油站东南侧),4877b20ed798effcae0457ce,1,0,120.669684,31.140405,,life,http://api.map.baidu.com/place/detail?uid=4877b20ed798effcae0457ce&output=html&source=placeapi_v2,,,,,,,,,,1,,,,,,,,,,0
9094589b48ae740fcb09f047,中国石化(吴江屯村加油站),交通设施,加油加气站,江苏省,苏州市,吴江区,江苏省苏州市吴江区松北路17号,9094589b48ae740fcb09f047,1,0,120.771562,31.15423,(0512)63371180,life,http://api.map.baidu.com/place/detail?uid=9094589b48ae740fcb09f047&output=html&source=placeapi_v2,,00:00-24:00,4.5,,,,,,,10,9,,,,,,,120.77175273893,31.153876022341,0
315b1395542a87cc6fa3ccc9,巨能石化加油站(水上站),交通设施,加油加气站,江苏省,苏州市,吴江区,吴江同里镇成人教育中心校附近,,1,0,120.77211,31.157157,,life,http://api.map.baidu.com/place/detail?uid=315b1395542a87cc6fa3ccc9&output=html&source=placeapi_v2,,00:00-24:00,,,,,,,,2,,,,,,,,120.77241216883,31.157028693201,0
c7fb04bd08f9d215fa0cad4a,横泾加油站,交通设施,加油加气站,江苏省,苏州市,吴中区,江苏省苏州市吴中区木东路7525号,c7fb04bd08f9d215fa0cad4a,1,0,120.539327,31.185278,(0512)66201324,life,http://api.map.baidu.com/place/detail?uid=c7fb04bd08f9d215fa0cad4a&output=html&source=placeapi_v2,,00:00-24:00,1.5,,,,,,,13,16,,,,,,,120.53970873515,31.185193028579,0
37e0a20b07518ec55cbe8627,中国石化壳牌加油站(江兴站),交通设施,加油加气站,江苏省,苏州市,吴江区,江苏省苏州市吴江区江兴东路28号中石化合资有限公司,37e0a20b07518ec55cbe8627,1,0,120.710275,31.177122,(0512)63327627,life,http://api.map.baidu.com/place/detail?uid=37e0a20b07518ec55cbe8627&output=html&source=placeapi_v2,,00:00-24:00,4,,,,,,,13,10,,,,,,,120.7103957651,31.176982783865,0
631c4157396d816231f71d71,苏新石化加油站,交通设施,加油加气站,江苏省,苏州市,吴江区,江苏省苏州市吴江区交通北路6066号,631c4157396d816231f71d71,1,0,120.668956,31.219908,(0512)63054058,life,http://api.map.baidu.com/place/detail?uid=631c4157396d816231f71d71&output=html&source=placeapi_v2,,00:00-24:00,4.4,,,,,,,13,14,,,,,,,120.66901427646,31.219774762942,0
e889a7448b894ab58605bf46,中国石油加油站,交通设施,加油加气站,江苏省,苏州市,吴中区,苏州市吴中区苏嘉杭高速公路白洋湖服务区西,e889a7448b894ab58605bf46,1,0,120.682987,31.21054,,life,http://api.map.baidu.com/place/detail?uid=e889a7448b894ab58605bf46&output=html&source=placeapi_v2,,00:00-24:00,0,,,,,,,3,1,,,,,,,120.68310740234,31.21051158151,0
3a0fbba8026531419ee321f7,中国石化壳牌加油站(吴江第二十一站),交通设施,加油加气站,江苏省,苏州市,吴江区,江苏省苏州市吴江区花港村夹浦桥北,3a0fbba8026531419ee321f7,1,0,120.669996,31.205481,(0512)63409578,life,http://api.map.baidu.com/place/detail?uid=3a0fbba8026531419ee321f7&output=html&source=placeapi_v2,,00:00-24:00,3.2,,,,,,,8,4,,,,,,,120.66994506799,31.205395046114,0
75036835acca12af5e0d0277,盛春加油站,交通设施,加油加气站,江苏省,苏州市,吴中区,苏州市吴中区太湖东路301号月浜路口,75036835acca12af5e0d0277,1,0,120.642188,31.267819,(0512)65250367,life,http://api.map.baidu.com/place/detail?uid=75036835acca12af5e0d0277&output=html&source=placeapi_v2,,00:00-24:00,3,,,,,,,12,14,,,,,,,120.64197659723,31.267997660639,0
4423e1c4594ebb7f220262be,中国石油(郭新西路加油站),交通设施,加油加气站,江苏省,苏州市,吴中区,江苏省苏州市吴中区吴东路与郭新西路交叉口东北角,4423e1c4594ebb7f220262be,1,0,120.665153,31.256435,(0512)65975110,life,http://api.map.baidu.com/place/detail?uid=4423e1c4594ebb7f220262be&output=html&source=placeapi_v2,,00:00-24:00,3,,,,,,,22,3,,,,,,,120.66510320129,31.256398096317,0
342d9b8169277a3c2e4733d1,港华燃气加气站(通园路LNG站),交通设施,加油加气站,江苏省,苏州市,苏州工业园区,苏州市苏州工业园区通园路公交停保场内,342d9b8169277a3c2e4733d1,1,0,120.675134,31.26947,18951117378,life,http://api.map.baidu.com/place/detail?uid=342d9b8169277a3c2e4733d1&output=html&source=placeapi_v2,,,,,,,,,,,,,,,,,,,,0
ef773a0fcadd9c342202206f,中石化壳牌(苏州澄湖加油站),交通设施,加油加气站,江苏省,苏州市,吴中区,江苏省苏州市吴中区f直镇甫澄中路228号,ef773a0fcadd9c342202206f,1,0,120.872771,31.259426,(0512)66029685,life,http://api.map.baidu.com/place/detail?uid=ef773a0fcadd9c342202206f&output=html&source=placeapi_v2,,00:00-24:00,3.7,,,,,,,13,4,,,,,,,120.8730722938,31.259715053804,0
5a0724fcd8883317e315f97a,中石化壳牌加油站(永安站),交通设施,加油加气站,江苏省,苏州市,姑苏区,江苏省苏州市姑苏区桐泾南路940号,5a0724fcd8883317e315f97a,1,0,120.598394,31.30248,95388,life,http://api.map.baidu.com/place/detail?uid=5a0724fcd8883317e315f97a&output=html&source=placeapi_v2,,00:00-24:00,3.5,,,,,,,17,9,,,,,,,120.5985555712,31.302551837399,0
4d8e0c2ac653b3db15a190f0,中国石油CNG加气站,交通设施,加油加气站,江苏省,苏州市,虎丘区,江苏省苏州市虎丘区晋源路与滨南路交叉路口往西约50米(远发金屋家居装饰广场西侧),,1,0,120.580327,31.275015,,life,http://api.map.baidu.com/place/detail?uid=4d8e0c2ac653b3db15a190f0&output=html&source=placeapi_v2,,,,,,,,,,3,,,,,,,,120.58040604049,31.275006707372,0
3828321cb0a1e263fb2d61d9,中国石化壳牌加油站(桐泾站),交通设施,加油加气站,江苏省,苏州市,姑苏区,苏州市姑苏区胥江街道桐泾南路620号,3828321cb0a1e263fb2d61d9,1,0,120.601273,31.296849,(0512)68264841,life,http://api.map.baidu.com/place/detail?uid=3828321cb0a1e263fb2d61d9&output=html&source=placeapi_v2,,00:00-24:00,4.5,,,,,,,12,10,,,,,,,120.60114384898,31.296774749696,0
0a46dc0f25d0fc5c31621297,苏州燃料有限公司第六加油站(解放西路),交通设施,加油加气站,江苏省,苏州市,姑苏区,江苏省苏州市姑苏区西环路与解放西路交叉口,0a46dc0f25d0fc5c31621297,1,0,120.597904,31.282025,(0512)68208009,life,http://api.map.baidu.com/place/detail?uid=0a46dc0f25d0fc5c31621297&output=html&source=placeapi_v2,,00:00-24:00,3.2,,,,,,,20,21,,,,,,,120.59803687702,31.281977837148,0
79cceb36246e87891e580077,中国石油(宝带西路加油店),交通设施,加油加气站,江苏省,苏州市,吴中区,江苏省苏州市吴中区宝带西路20号,79cceb36246e87891e580077,1,0,120.632878,31.272738,(0512)65284893,life,http://api.map.baidu.com/place/detail?uid=79cceb36246e87891e580077&output=html&source=placeapi_v2,,00:00-24:00,4.3,,,,,,,14,23,,,,,,,120.63272899924,31.272839654976,0
36b759e77cefbcc9d4851f1e,中国石化加气站(东南环立交站),交通设施,加油加气站,江苏省,苏州市,姑苏区,苏州市姑苏区东南环立交与南城湾街交叉路口往南约160米,36b759e77cefbcc9d4851f1e,1,0,120.657557,31.286453,,life,http://api.map.baidu.com/place/detail?uid=36b759e77cefbcc9d4851f1e&output=html&source=placeapi_v2,,08:00-18:30,,,,,,,,,,,,,,,,120.65742268918,31.286545282571,0
eb36750338580c1b00ec0177,大通加油站,交通设施,加油加气站,江苏省,苏州市,吴中区,苏州市吴中区吴东路1409号,eb36750338580c1b00ec0177,1,0,120.658359,31.281303,(0512)67259476,life,http://api.map.baidu.com/place/detail?uid=eb36750338580c1b00ec0177&output=html&source=placeapi_v2,,00:00-24:00,3.1,,,,,,,19,25,,,,,,,120.65829799807,31.281322653391,0
6305ea57f695cc870f0e6be6,中国石化壳牌加油站(机场路站),交通设施,加油加气站,江苏省,苏州市,苏州工业园区,江苏省苏州市苏州工业园区金鸡湖大道1675号,6305ea57f695cc870f0e6be6,1,0,120.665891,31.301866,(0512)67616473,life,http://api.map.baidu.com/place/detail?uid=6305ea57f695cc870f0e6be6&output=html&source=placeapi_v2,,00:00-24:00,4.2,,,,,,,4,12,,,,,,,120.66599452158,31.301910313108,0
a27c87fd025630f9f90cad50,苏创燃气中宇能源东环南路L-CNG加气站,交通设施,加油加气站,江苏省,苏州市,吴中区,江苏省苏州市吴中区和诚大厦南50米(227省道东),a27c87fd025630f9f90cad50,1,0,120.659567,31.282046,,life,http://api.map.baidu.com/place/detail?uid=a27c87fd025630f9f90cad50&output=html&source=placeapi_v2,,00:00-24:00,1,,,,,,,9,2,,,,,,,120.65948785609,31.281959754588,0
342d9b8169277a3c2e4733d1,港华燃气加气站(通园路LNG站),交通设施,加油加气站,江苏省,苏州市,苏州工业园区,苏州市苏州工业园区通园路公交停保场内,342d9b8169277a3c2e4733d1,1,0,120.675134,31.26947,18951117378,life,http://api.map.baidu.com/place/detail?uid=342d9b8169277a3c2e4733d1&output=html&source=placeapi_v2,,,,,,,,,,,,,,,,,,,,0
d991e1169b3762281f389479,中国石化壳牌加油站(f直站),交通设施,加油加气站,江苏省,苏州市,吴中区,苏州市吴中区联谊路165号,d991e1169b3762281f389479,1,0,120.829413,31.272743,(0512)65011213,life,http://api.map.baidu.com/place/detail?uid=d991e1169b3762281f389479&output=html&source=placeapi_v2,,00:00-24:00,3.4,,,,,,,13,7,,,,,,,120.82939429601,31.272881101147,0
504d61139c02d5b34657266f,中国石油板桥加油站(金鸡湖大道辅路),交通设施,加油加气站,江苏省,苏州市,吴中区,江苏省苏州市吴中区金鸡湖大道f直镇板桥村245号(吴淞江大桥附近),504d61139c02d5b34657266f,1,0,120.813282,31.288079,(0512)65015216,life,http://api.map.baidu.com/place/detail?uid=504d61139c02d5b34657266f&output=html&source=placeapi_v2,,06:30-21:30,5,,,,,,,20,4,,,,,,,120.81323709104,31.288351669489,0
f9fd60621579c7620f0e6b1b,中国石化(翠园路加油站),交通设施,加油加气站,江苏省,苏州市,苏州工业园区,江苏省苏州市苏州工业园区苏州大道东299号,f9fd60621579c7620f0e6b1b,1,0,120.736893,31.330163,95388,life,http://api.map.baidu.com/place/detail?uid=f9fd60621579c7620f0e6b1b&output=html&source=placeapi_v2,,06:00-22:00,3.7,,,,,,,44,26,,,,,,,120.73695865903,31.330224835894,0
631c415742752a6131f71d6f,中国石化壳牌加油站(苏锦站),交通设施,加油加气站,江苏省,苏州市,苏州工业园区,江苏省苏州市苏州工业园区中新大道东883号,631c415742752a6131f71d6f,1,0,120.768365,31.314542,(0512)62831345,life,http://api.map.baidu.com/place/detail?uid=631c415742752a6131f71d6f&output=html&source=placeapi_v2,,00:00-24:00,3.2,,,,,,,12,36,,,,,,,120.76817477551,31.314931991912,0
5508504d156600cbc7f0256f,中国石油胜浦加油站(兴浦路店),交通设施,加油加气站,江苏省,苏州市,苏州工业园区,苏州市苏州工业园区胜浦镇兴浦路118号,5508504d156600cbc7f0256f,1,0,120.828464,31.325005,(0512)62826191,life,http://api.map.baidu.com/place/detail?uid=5508504d156600cbc7f0256f&output=html&source=placeapi_v2,,00:00-24:00,3.2,,,,,,,12,7,,,,,,,120.82846904134,31.325127499967,0
ce3de93b624e72e3e507380c,交投燃气加气站,交通设施,加油加气站,江苏省,苏州市,姑苏区,苏州市姑苏区虎北路金阊教育集团苏州市金筑实验小学西侧约60米,ce3de93b624e72e3e507380c,1,0,120.565012,31.35913,,life,http://api.map.baidu.com/place/detail?uid=ce3de93b624e72e3e507380c&output=html&source=placeapi_v2,,,,,,,,,,,,,,,,,,120.56481637416,31.359253512745,0
9ca90aa547d8684552e5c5e1,交投燃气加油站,交通设施,加油加气站,江苏省,苏州市,姑苏区,平海路与苏虞张公路交叉口东北150米,9ca90aa547d8684552e5c5e1,1,0,120.596829,31.35288,,life,http://api.map.baidu.com/place/detail?uid=9ca90aa547d8684552e5c5e1&output=html&source=placeapi_v2,,00:00-24:00,2.5,,,,,,,2,4,,,,,,,120.59710147419,31.352785488727,0
c244a1961914d4a4b54f541c,中国石油加油站(江宙路),交通设施,加油加气站,江苏省,苏州市,姑苏区,江苏省苏州市姑苏区城北东路638号,c244a1961914d4a4b54f541c,1,0,120.627942,31.349079,(0512)67081987,life,http://api.map.baidu.com/place/detail?uid=c244a1961914d4a4b54f541c&output=html&source=placeapi_v2,,00:00-24:00,0,,,,,,,10,0,,,,,,,120.62816734098,31.348909103262,0
3da907f39726442eb320a809,园区石油(双泾加油站),交通设施,加油加气站,江苏省,苏州市,苏州工业园区,苏州市苏州工业园区唯亭街道312国道南侧,3da907f39726442eb320a809,1,0,120.765992,31.354466,(0512)62708842,life,http://api.map.baidu.com/place/detail?uid=3da907f39726442eb320a809&output=html&source=placeapi_v2,,00:00-24:00,3.3,,,,,,,4,15,,,,,,,120.76594967276,31.354520952244,0
07f3c8b5937cc71e6240a909,中国石化(大华加油站),交通设施,加油加气站,江苏省,苏州市,苏州工业园区,江苏省苏州市苏州工业园区葑亭大道209号,07f3c8b5937cc71e6240a909,1,0,120.782135,31.368166,(0512)65915421,life,http://api.map.baidu.com/place/detail?uid=07f3c8b5937cc71e6240a909&output=html&source=placeapi_v2,,00:00-24:00,4.2,,,,,,,29,22,,,,,,,120.78191458376,31.368210419144,0
3b23974a63332b4ea7c7568b,中国石油(亭和路CNG加油加气站),交通设施,加油加气站,江苏省,苏州市,苏州工业园区,震川西路附近(唯亭镇渔业村与312国道交界处),3b23974a63332b4ea7c7568b,1,0,120.832367,31.367937,(0512)65078470,life,http://api.map.baidu.com/place/detail?uid=3b23974a63332b4ea7c7568b&output=html&source=placeapi_v2,,05:00-23:00,1,,,,,,,5,1,,,,,,,120.83241538312,31.367768287897,0
87248d96f33c7ccd2806ce7f,中国石油(227省道加油站),交通设施,加油加气站,江苏省,苏州市,相城区,江苏省苏州市相城区227省道与富元路交叉口向南330米路东,87248d96f33c7ccd2806ce7f,1,0,120.67191,31.399913,(0512)69228774,life,http://api.map.baidu.com/place/detail?uid=87248d96f33c7ccd2806ce7f&output=html&source=placeapi_v2,,00:00-24:00,1,,,,,,,2,6,,,,,,,120.67145205633,31.399811220261,0
165227802b1b1bff725e80d7,中国石油太平加油站(富升路),交通设施,加油加气站,江苏省,苏州市,相城区,江苏省苏州市相城区兴太路47号,165227802b1b1bff725e80d7,1,0,120.70778,31.440681,(0512)65439664,life,http://api.map.baidu.com/place/detail?uid=165227802b1b1bff725e80d7&output=html&source=placeapi_v2,,00:00-24:00,3,,,,,,,21,4,,,,,,,120.7077547469,31.440678208555,0
617467847d857b78ed74f8ec,中国石油(太东路加油站),交通设施,加油加气站,江苏省,苏州市,相城区,江苏省苏州市相城区中市路与太东路交叉口,617467847d857b78ed74f8ec,1,0,120.572597,31.45131,(0512)65408930,life,http://api.map.baidu.com/place/detail?uid=617467847d857b78ed74f8ec&output=html&source=placeapi_v2,,00:00-24:00,3.1,,,,,,,3,12,,,,,,,120.57239450549,31.451180647567,0
165227802b1b1bff725e80d7,中国石油太平加油站(富升路),交通设施,加油加气站,江苏省,苏州市,相城区,江苏省苏州市相城区兴太路47号,165227802b1b1bff725e80d7,1,0,120.70778,31.440681,(0512)65439664,life,http://api.map.baidu.com/place/detail?uid=165227802b1b1bff725e80d7&output=html&source=placeapi_v2,,00:00-24:00,3,,,,,,,21,4,,,,,,,120.7077547469,31.440678208555,0
