uid,name,cat_L1,cat_L2,province,city,area,address,street_id,detail,child_num,loc_lng,loc_lat,telephone,type,detail_url,price,shop_hours,overall_rating,taste_rating,service_rating,environment_rating,facility_rating,hygiene_rating,technology_rating,image_num,comment_num,groupon_num,discount_num,favorite_num,checkin_num,brand,content_tag,naviloc_lng,naviloc_lat,child_num
91b589da57ea939a4354d739,方舟老年公寓,医疗,疗养院,黑龙江省,哈尔滨市,双城区,哈尔滨市双城区晨钟胡同与南环城西路交叉路口往南约80米,,1,1,126.322528,45.359189,,hospital,http://api.map.baidu.com/place/detail?uid=91b589da57ea939a4354d739&output=html&source=placeapi_v2,,,,,,,,,,,,,,,,,,,,1
7a6a4351bb5dc2f7df1e52eb,宪云老年公寓,医疗,疗养院,黑龙江省,哈尔滨市,双城区,哈尔滨市双城区明亮胡同双城区第十一小学南侧约160米,,1,1,126.318636,45.362672,,hospital,http://api.map.baidu.com/place/detail?uid=7a6a4351bb5dc2f7df1e52eb&output=html&source=placeapi_v2,,00:00-24:00,,,,,,,,,,,,,,,,,,1
803053fc83de96f1bea240fe,长寿老年公寓,医疗,疗养院,黑龙江省,哈尔滨市,双城区,和平大街与进展胡同交叉口西50米,803053fc83de96f1bea240fe,1,0,126.328233,45.36533,13614507974,hospital,http://api.map.baidu.com/place/detail?uid=803053fc83de96f1bea240fe&output=html&source=placeapi_v2,,,,,,,,,,,,,,,,,,,,0
46fa046050790e97f82d6156,百祥老年公寓,医疗,疗养院,黑龙江省,哈尔滨市,双城区,哈尔滨市双城区民乐胡同福泰嘉园东南侧约30米,46fa046050790e97f82d6156,1,0,126.32891,45.372095,(0451)53110288,hospital,http://api.map.baidu.com/place/detail?uid=46fa046050790e97f82d6156&output=html&source=placeapi_v2,,,0.0,,,,,,,6,0,,,,,,,126.32914000014,45.372130877739,0
b9f2f4887db3588ec5f02507,福安老年公寓,医疗,疗养院,黑龙江省,哈尔滨市,双城区,中山路39号附近,,1,1,126.287166,45.399619,,hospital,http://api.map.baidu.com/place/detail?uid=b9f2f4887db3588ec5f02507&output=html&source=placeapi_v2,,,,,,,,,,,,,,,,,,,,1
fc68c8ff6eb4df250c0e6b5e,和谐老年公寓,医疗,疗养院,黑龙江省,哈尔滨市,双城区,黑龙江省哈尔滨市双城区凤凰城C4栋3单元,fc68c8ff6eb4df250c0e6b5e,1,0,126.309473,45.391882,,hospital,http://api.map.baidu.com/place/detail?uid=fc68c8ff6eb4df250c0e6b5e&output=html&source=placeapi_v2,,00:00-24:00,,,,,,,,,,,,,,,,,,0
dcfd23706dfb698d430245d5,阳光老年公寓,医疗,疗养院,黑龙江省,哈尔滨市,双城区,黑龙江省哈尔滨市双城区双兴达路与承旭北路交叉口旁,dcfd23706dfb698d430245d5,1,0,126.313298,45.398453,,hospital,http://api.map.baidu.com/place/detail?uid=dcfd23706dfb698d430245d5&output=html&source=placeapi_v2,,00:00-24:00,,,,,,,,4,,,,,,,,126.31314051786,45.398606243969,0
20d3f021f44582d8901fc940,康祥缘老年公寓,医疗,疗养院,黑龙江省,哈尔滨市,双城区,哈尔滨市双城区八一路航天家园小区,20d3f021f44582d8901fc940,1,0,126.312269,45.398445,,hospital,http://api.map.baidu.com/place/detail?uid=20d3f021f44582d8901fc940&output=html&source=placeapi_v2,,00:00-24:00,,,,,,,,3,,,,,,,,,,0
65638ee47c660a4bf90cadc4,善缘老年公寓,医疗,疗养院,黑龙江省,哈尔滨市,双城区,哈尔滨市双城区站前街双城堡车站派出所东侧约220米,65638ee47c660a4bf90cadc4,1,1,126.302242,45.401984,,hospital,http://api.map.baidu.com/place/detail?uid=65638ee47c660a4bf90cadc4&output=html&source=placeapi_v2,,,,,,,,,,3,,,,,,,,126.3021826917,45.401833822122,1
937a3c71ce6e571b213bf244,双城区蒙爱之家老年公寓,医疗,疗养院,黑龙江省,哈尔滨市,双城区,哈尔滨市双城区火磨街绿色家园西侧约50米,937a3c71ce6e571b213bf244,1,0,126.300651,45.394745,,hospital,http://api.map.baidu.com/place/detail?uid=937a3c71ce6e571b213bf244&output=html&source=placeapi_v2,,00:00-24:00,0,,,,,,,1,0,,,,,,,,,0
3eaaf0120601323bc7effb5c,金秋老年公寓,医疗,疗养院,黑龙江省,哈尔滨市,双城区,哈尔滨市双城区通达街鑫马春城,3eaaf0120601323bc7effb5c,1,0,126.306459,45.384758,,hospital,http://api.map.baidu.com/place/detail?uid=3eaaf0120601323bc7effb5c&output=html&source=placeapi_v2,,00:00-24:00,,,,,,,,,,,,,,,,126.30624356351,45.384739528351,0
ece572f2dcf23b610f0a7039,银龄老年公寓,医疗,疗养院,黑龙江省,哈尔滨市,双城区,黑龙江省哈尔滨市双城区车站街中医院车站分院北侧约130米,ece572f2dcf23b610f0a7039,1,0,126.301132,45.40073,,hospital,http://api.map.baidu.com/place/detail?uid=ece572f2dcf23b610f0a7039&output=html&source=placeapi_v2,,00:00-24:00,,,,,,,,7,,,,,,,,126.3021319617,45.401843119078,0
e6c65dada2d9b6abf82213f1,悦心老年公寓,医疗,疗养院,黑龙江省,哈尔滨市,双城区,哈尔滨市双城区东环城北路平安小区(东环城北路)西侧,e6c65dada2d9b6abf82213f1,1,1,126.331275,45.384871,,hospital,http://api.map.baidu.com/place/detail?uid=e6c65dada2d9b6abf82213f1&output=html&source=placeapi_v2,,00:00-24:00,,,,,,,,4,,,,,,,,126.3313271396,45.384805016846,1
fb02be8cd5bce94d3b221c94,利康老年公寓,医疗,疗养院,黑龙江省,哈尔滨市,双城区,黑龙江省哈尔滨市双城区车站街龙门新天地商业中心二号楼,fb02be8cd5bce94d3b221c94,1,0,126.299707,45.40007,,hospital,http://api.map.baidu.com/place/detail?uid=fb02be8cd5bce94d3b221c94&output=html&source=placeapi_v2,,,,,,,,,,5,,,,,,,,,,0
3611ab367d586e050b5cb344,全家福老年公寓,医疗,疗养院,黑龙江省,哈尔滨市,双城区,黑龙江省哈尔滨市双城区东门外2号楼,3611ab367d586e050b5cb344,1,0,126.350442,45.380848,(0451)53127977,hospital,http://api.map.baidu.com/place/detail?uid=3611ab367d586e050b5cb344&output=html&source=placeapi_v2,,00:00-24:00,,,,,,,,0,,,,,,,,126.35032542259,45.381027768964,0
0c48d56ef4661cca932ca3e4,阿城区复员退伍军人光荣院,医疗,疗养院,黑龙江省,哈尔滨市,阿城区,哈尔滨市阿城区X005,,1,0,126.980579,45.438634,,life,http://api.map.baidu.com/place/detail?uid=0c48d56ef4661cca932ca3e4&output=html&source=placeapi_v2,,,,,,,,,,,,,,,,,,,,0
a476eab464d8c0bcb64f54d4,乡村老年公寓,医疗,疗养院,黑龙江省,哈尔滨市,双城区,哈尔滨市双城区,,1,0,126.553857,45.517094,,hospital,http://api.map.baidu.com/place/detail?uid=a476eab464d8c0bcb64f54d4&output=html&source=placeapi_v2,,,,,,,,,,,,,,,,,,,,0
6e7fc0ad3617d3bd1e5800b6,金晚霞老年公寓,医疗,疗养院,黑龙江省,哈尔滨市,阿城区,哈尔滨市阿城区延川大街广大富廷西侧约30米,6e7fc0ad3617d3bd1e5800b6,1,0,126.977201,45.53567,15946088808,hospital,http://api.map.baidu.com/place/detail?uid=6e7fc0ad3617d3bd1e5800b6&output=html&source=placeapi_v2,,00:00-24:00,,,,,,,,3,,,,,,,,126.97704261027,45.53568172838,0
9ce77f530a32ef6195f08cb5,金源老年公寓,医疗,疗养院,黑龙江省,哈尔滨市,阿城区,黑龙江省哈尔滨市阿城区延川大街71号,9ce77f530a32ef6195f08cb5,1,0,126.976751,45.535977,,hospital,http://api.map.baidu.com/place/detail?uid=9ce77f530a32ef6195f08cb5&output=html&source=placeapi_v2,,00:00-24:00,0,,,,,,,0,0,,,,,,,126.9769798286,45.53596143661,0
08932d5c67d8c5fae8e58233,美佳老年公寓,医疗,疗养院,黑龙江省,哈尔滨市,阿城区,黑龙江省哈尔滨市阿城区延川大街168号,08932d5c67d8c5fae8e58233,1,0,126.976216,45.532225,(0451)53737985,hospital,http://api.map.baidu.com/place/detail?uid=08932d5c67d8c5fae8e58233&output=html&source=placeapi_v2,,,,,,,,,,3,,,,,,,,,,0
11767564545a40e0ae0457a1,如家老年公寓,医疗,疗养院,黑龙江省,哈尔滨市,阿城区,哈尔滨市阿城区延川大街上京华府东侧约150米,,1,0,126.976843,45.532536,,hospital,http://api.map.baidu.com/place/detail?uid=11767564545a40e0ae0457a1&output=html&source=placeapi_v2,,,,,,,,,,5,,,,,,,,126.97659838202,45.532552962287,0
969a0fd5a474b8962b201ab0,满意老年公寓,医疗,疗养院,黑龙江省,哈尔滨市,阿城区,黑龙江省哈尔滨市阿城区金都大街沿江小区20号楼,,1,0,126.995987,45.536881,13654596891,hospital,http://api.map.baidu.com/place/detail?uid=969a0fd5a474b8962b201ab0&output=html&source=placeapi_v2,,,,,,,,,,,,,,,,,,126.99598652242,45.536941584295,0
dcc65125cb6497eac26c14b7,迦美老年公寓,医疗,疗养院,黑龙江省,哈尔滨市,阿城区,黑龙江省哈尔滨市阿城区体东路22号,dcc65125cb6497eac26c14b7,1,0,126.990487,45.542916,,hospital,http://api.map.baidu.com/place/detail?uid=dcc65125cb6497eac26c14b7&output=html&source=placeapi_v2,,,,,,,,,,4,,,,,,,,126.99062750843,45.542907070708,0
02b7882acfef18b5eb1e9748,山水老年公寓,医疗,疗养院,黑龙江省,哈尔滨市,阿城区,哈尔滨市阿城区山水大道东环嘉园2期,02b7882acfef18b5eb1e9748,1,0,126.997208,45.541479,13684578880,hospital,http://api.map.baidu.com/place/detail?uid=02b7882acfef18b5eb1e9748&output=html&source=placeapi_v2,,,,,,,,,,1,,,,,,,,126.99756183408,45.54154990515,0
18cc3412847b0067eee4a518,哈尔滨市第三社会福利院老年公寓,医疗,疗养院,黑龙江省,哈尔滨市,阿城区,哈尔滨市阿城区穆统领胡同阳光公寓西侧约40米,18cc3412847b0067eee4a518,1,1,126.979819,45.54072,,hospital,http://api.map.baidu.com/place/detail?uid=18cc3412847b0067eee4a518&output=html&source=placeapi_v2,,00:00-24:00,,,,,,,,3,,,,,,,,126.98001188098,45.540899394459,1
340899bf2a6887e82de67b78,老年公寓,医疗,疗养院,黑龙江省,哈尔滨市,阿城区,哈尔滨市阿城区工商街经委楼东南侧约90米,340899bf2a6887e82de67b78,1,0,126.977679,45.539666,,hospital,http://api.map.baidu.com/place/detail?uid=340899bf2a6887e82de67b78&output=html&source=placeapi_v2,,00:00-24:00,,,,,,,,1,,,,,,,,,,0
8567802716dde1e99fec2b83,人和老年公寓,医疗,疗养院,黑龙江省,哈尔滨市,阿城区,黑龙江省哈尔滨市阿城区中直路松纺小区37号楼,8567802716dde1e99fec2b83,1,0,126.967134,45.557744,,hospital,http://api.map.baidu.com/place/detail?uid=8567802716dde1e99fec2b83&output=html&source=placeapi_v2,,,,,,,,,,3,,,,,,,,126.96719395337,45.55759347224,0
93658085410ef4952902e1f2,福寿康老年公寓,医疗,疗养院,黑龙江省,哈尔滨市,阿城区,哈尔滨市阿城区上京广场b16号1单元101室,93658085410ef4952902e1f2,1,0,126.964281,45.550462,,hospital,http://api.map.baidu.com/place/detail?uid=93658085410ef4952902e1f2&output=html&source=placeapi_v2,,00:00-24:00,0,,,,,,,9,0,,,,,,,126.96428786767,45.550311905521,0
ee7270206e9ee3a06c3e1beb,松鹤居老年公寓,医疗,疗养院,黑龙江省,哈尔滨市,阿城区,哈尔滨市阿城区哈红公路松纺小区北侧约210米,ee7270206e9ee3a06c3e1beb,1,0,126.962796,45.562525,13234514111,hospital,http://api.map.baidu.com/place/detail?uid=ee7270206e9ee3a06c3e1beb&output=html&source=placeapi_v2,,,,,,,,,,3,,,,,,,,126.96276709753,45.562601440754,0
322ea13547c9806703ec0151,新世纪老年公寓,医疗,疗养院,黑龙江省,哈尔滨市,阿城区,哈尔滨市阿城区中都大街铭洋・首府东北侧约100米,322ea13547c9806703ec0151,1,0,126.985003,45.561574,,hospital,http://api.map.baidu.com/place/detail?uid=322ea13547c9806703ec0151&output=html&source=placeapi_v2,,,,,,,,,,5,,,,,,,,,,0
f38368f1b308d3f8018972b2,正德老年公寓,医疗,疗养院,黑龙江省,哈尔滨市,阿城区,哈尔滨市阿城区中都大街铭洋・首府北侧约180米,f38368f1b308d3f8018972b2,1,0,126.984772,45.562289,,hospital,http://api.map.baidu.com/place/detail?uid=f38368f1b308d3f8018972b2&output=html&source=placeapi_v2,,,,,,,,,,2,,,,,,,,126.98459882115,45.562065298046,0
b09fa1866e3a7def130daa94,紫竹林老年公寓,医疗,疗养院,黑龙江省,哈尔滨市,阿城区,黑龙江省哈尔滨市阿城区牌路大街700号,,1,0,126.983016,45.560213,,hospital,http://api.map.baidu.com/place/detail?uid=b09fa1866e3a7def130daa94&output=html&source=placeapi_v2,,,,,,,,,,,,,,,,,,,,0
178671a955c1d38e3517dc4d,康乐福老年公寓,医疗,疗养院,黑龙江省,哈尔滨市,阿城区,哈尔滨市阿城区金紫邑小区d7号,178671a955c1d38e3517dc4d,1,0,126.988595,45.550621,13946000253,hospital,http://api.map.baidu.com/place/detail?uid=178671a955c1d38e3517dc4d&output=html&source=placeapi_v2,,00:00-24:00,,,,,,,,,,,,,,,,126.98858056931,45.550619868702,0
3f8a07392a03b8ea471a322d,阳光老年公寓,医疗,疗养院,黑龙江省,哈尔滨市,阿城区,黑龙江省哈尔滨市阿城区上京大道355号,3f8a07392a03b8ea471a322d,1,0,126.98541,45.552759,,hospital,http://api.map.baidu.com/place/detail?uid=3f8a07392a03b8ea471a322d&output=html&source=placeapi_v2,,,,,,,,,,4,,,,,,,,126.98560254371,45.552763950585,0
3596024dbb8638b204fef59f,夕阳红老年公寓,医疗,疗养院,黑龙江省,哈尔滨市,阿城区,哈尔滨市阿城区安福胡同铁路小区南侧,3596024dbb8638b204fef59f,1,0,127.003573,45.553372,,hospital,http://api.map.baidu.com/place/detail?uid=3596024dbb8638b204fef59f&output=html&source=placeapi_v2,,,,,,,,,,3,,,,,,,,127.00365934414,45.553320683329,0
de53b5dc85892509c03644e3,金京康复老年公寓,医疗,疗养院,黑龙江省,哈尔滨市,阿城区,黑龙江省哈尔滨市阿城区会宁路248号201室,de53b5dc85892509c03644e3,1,0,126.994001,45.552476,18345352502,hospital,http://api.map.baidu.com/place/detail?uid=de53b5dc85892509c03644e3&output=html&source=placeapi_v2,,,,,,,,,,2,,,,,,,,,,0
8eec007bba806eab03ff2d00,金福园老年公寓,医疗,疗养院,黑龙江省,哈尔滨市,阿城区,黑龙江省哈尔滨市阿城区中都大街福园小区3号楼,8eec007bba806eab03ff2d00,1,0,126.997427,45.555183,,hospital,http://api.map.baidu.com/place/detail?uid=8eec007bba806eab03ff2d00&output=html&source=placeapi_v2,,00:00-24:00,,,,,,,,4,,,,,,,,126.99727588278,45.555237112845,0
8567802716dde1e99fec2b83,人和老年公寓,医疗,疗养院,黑龙江省,哈尔滨市,阿城区,黑龙江省哈尔滨市阿城区中直路松纺小区37号楼,8567802716dde1e99fec2b83,1,0,126.967134,45.557744,,hospital,http://api.map.baidu.com/place/detail?uid=8567802716dde1e99fec2b83&output=html&source=placeapi_v2,,,,,,,,,,3,,,,,,,,126.96719395337,45.55759347224,0
c8a98337c3527176c7f50df3,赵成启康复所,医疗,疗养院,黑龙江省,哈尔滨市,阿城区,哈尔滨市阿城区延川大街光华家园东北侧约30米,,1,0,126.974628,45.5522,,hospital,http://api.map.baidu.com/place/detail?uid=c8a98337c3527176c7f50df3&output=html&source=placeapi_v2,,,,,,,,,,1,,,,,,,,,,0
0d96bac68fddb9721f3894a1,众泰老年公寓,医疗,疗养院,黑龙江省,哈尔滨市,阿城区,黑龙江省哈尔滨市阿城区新兴路和平小区41~42号楼,0d96bac68fddb9721f3894a1,1,0,126.987865,45.549107,13503606658,hospital,http://api.map.baidu.com/place/detail?uid=0d96bac68fddb9721f3894a1&output=html&source=placeapi_v2,,09:00-18:00,,,,,,,,,,,,,,,,,,0
7715b08b4497e34516a190db,爱视嘉眼疾康复,医疗,疗养院,黑龙江省,哈尔滨市,阿城区,哈尔滨市阿城区民权大街永泰广小区东北侧,,1,0,126.975708,45.547203,,hospital,http://api.map.baidu.com/place/detail?uid=7715b08b4497e34516a190db&output=html&source=placeapi_v2,,,,,,,,,,,,,,,,,,126.97570636286,45.547074775107,0
653abf8377a48769c2f1cf9a,夕福乐老年公寓(宣化胡同),医疗,疗养院,黑龙江省,哈尔滨市,阿城区,黑龙江省哈尔滨市阿城区民权大街北新小区b栋,653abf8377a48769c2f1cf9a,1,0,126.974768,45.548219,"(0451)53745673,13199444393",hospital,http://api.map.baidu.com/place/detail?uid=653abf8377a48769c2f1cf9a&output=html&source=placeapi_v2,,00:00-24:00,,,,,,,,2,,,,,,,,126.97497375968,45.548217482521,0
b9183dc0e7997bd1cae33c51,爱侬老年公寓,医疗,疗养院,黑龙江省,哈尔滨市,阿城区,黑龙江省哈尔滨市阿城区民权大街98号,b9183dc0e7997bd1cae33c51,1,0,126.980921,45.547267,(0451)53761333,hospital,http://api.map.baidu.com/place/detail?uid=b9183dc0e7997bd1cae33c51&output=html&source=placeapi_v2,,,,,,,,,,7,,,,,,,,126.98090852373,45.547418914353,0
ee7270206e9ee3a06c3e1beb,松鹤居老年公寓,医疗,疗养院,黑龙江省,哈尔滨市,阿城区,哈尔滨市阿城区哈红公路松纺小区北侧约210米,ee7270206e9ee3a06c3e1beb,1,0,126.962796,45.562525,13234514111,hospital,http://api.map.baidu.com/place/detail?uid=ee7270206e9ee3a06c3e1beb&output=html&source=placeapi_v2,,,,,,,,,,3,,,,,,,,126.96276709753,45.562601440754,0
5aeacdf01925047300ff2daa,光华老年公寓,医疗,疗养院,黑龙江省,哈尔滨市,阿城区,黑龙江省哈尔滨市阿城区@电大街1号,,1,1,127.032333,45.562242,,hospital,http://api.map.baidu.com/place/detail?uid=5aeacdf01925047300ff2daa&output=html&source=placeapi_v2,,00:00-24:00,,,,,,,,,,,,,,,,,,1
e2de023f199390e143024520,家和老年公寓,医疗,疗养院,黑龙江省,哈尔滨市,阿城区,黑龙江省哈尔滨市阿城区继电大街3号,,1,0,127.021292,45.560813,(0451)53705107,hospital,http://api.map.baidu.com/place/detail?uid=e2de023f199390e143024520&output=html&source=placeapi_v2,,00:00-24:00,5,,,,,,,5,1,,,,,,,,,0
de237e753f66e5cb373a71bd,河东老年公寓,医疗,疗养院,黑龙江省,哈尔滨市,阿城区,黑龙江省哈尔滨市阿城区河东街继电器医院四楼,,1,0,127.025188,45.559628,,hospital,http://api.map.baidu.com/place/detail?uid=de237e753f66e5cb373a71bd&output=html&source=placeapi_v2,,,,,,,,,,1,,,,,,,,127.02506963582,45.5596809407,0
dcdd3ad97a5f6445d1f49ed3,如家老年公寓,医疗,疗养院,黑龙江省,哈尔滨市,南岗区,黑龙江省哈尔滨市南岗区江南中环路朝阳新城4号楼,dcdd3ad97a5f6445d1f49ed3,1,0,126.511345,45.596344,,hospital,http://api.map.baidu.com/place/detail?uid=dcdd3ad97a5f6445d1f49ed3&output=html&source=placeapi_v2,,,,,,,,,,,,,,,,,,126.51152111104,45.596407472021,0
92b471f722d08b24cac3dbcb,祥缘老年公寓,医疗,疗养院,黑龙江省,哈尔滨市,道里区,黑龙江省哈尔滨市道里区闫家岗农场太平湖温泉小镇一期一号楼,,1,0,126.319188,45.639889,(0451)52997567,hospital,http://api.map.baidu.com/place/detail?uid=92b471f722d08b24cac3dbcb&output=html&source=placeapi_v2,,,,,,,,,,0,,,,,,,,,,0
6f1469257593b634b7265513,哈尔滨市华丽老年公寓,医疗,疗养院,黑龙江省,哈尔滨市,道里区,哈尔滨市道里区机场路新农镇卫生院西南侧约250米,6f1469257593b634b7265513,1,1,126.349263,45.642863,,hospital,http://api.map.baidu.com/place/detail?uid=6f1469257593b634b7265513&output=html&source=placeapi_v2,,00:00-24:00,,,,,,,,,,,,,,,,,,1
1428f31c6d6b396fa8175a52,平安老年公寓,医疗,疗养院,黑龙江省,哈尔滨市,香坊区,黑龙江省哈尔滨市香坊区朝阳镇第二小学校,,1,0,126.600668,45.625091,,hospital,http://api.map.baidu.com/place/detail?uid=1428f31c6d6b396fa8175a52&output=html&source=placeapi_v2,,00:00-24:00,,,,,,,,,,,,,,,,126.60082246846,45.624989146285,0
64a57d9363284fee3b221c08,博能康复,医疗,疗养院,黑龙江省,哈尔滨市,香坊区,黑龙江省哈尔滨市香坊区松花路37号博能汽车3楼,,1,1,126.610902,45.614416,,hospital,http://api.map.baidu.com/place/detail?uid=64a57d9363284fee3b221c08&output=html&source=placeapi_v2,,09:00-20:00,,,,,,,,,,,,,,,,126.61150444206,45.614044970387,1
145c742e125c58433904b173,冠诚老年公寓,医疗,疗养院,黑龙江省,哈尔滨市,道里区,黑龙江省哈尔滨市道里区新农镇和平村东井子屯,,1,0,126.355409,45.661963,,hospital,http://api.map.baidu.com/place/detail?uid=145c742e125c58433904b173&output=html&source=placeapi_v2,,,,,,,,,,0,,,,,,,,,,0
8f85753fa271f655441a32be,幸福老年公寓,医疗,疗养院,黑龙江省,哈尔滨市,道里区,哈尔滨市道里区新企路花园东侧约40米,,1,0,126.49566,45.665099,,hospital,http://api.map.baidu.com/place/detail?uid=8f85753fa271f655441a32be&output=html&source=placeapi_v2,,00:00-24:00,,,,,,,,,,,,,,,,126.49577396367,45.665445617785,0
b652fa6d66b41d2b3b221c72,悠乐园老年公寓,医疗,疗养院,黑龙江省,哈尔滨市,南岗区,哈尔滨市南岗区电缆街哈达新区幼儿园西北侧约100米,b652fa6d66b41d2b3b221c72,1,0,126.613702,45.674771,13163660067,hospital,http://api.map.baidu.com/place/detail?uid=b652fa6d66b41d2b3b221c72&output=html&source=placeapi_v2,,,,,,,,,,8,,,,,,,,126.61308041398,45.674623586558,0
b117ec8d7a6f8599740269b8,天恩老年公寓,医疗,疗养院,黑龙江省,哈尔滨市,香坊区,黑龙江哈尔滨市香坊区哈平路231号哈南之星小区4号楼7号门市,b117ec8d7a6f8599740269b8,1,0,126.657959,45.664195,,hospital,http://api.map.baidu.com/place/detail?uid=b117ec8d7a6f8599740269b8&output=html&source=placeapi_v2,,,,,,,,,,6,,,,,,,,126.65810101041,45.664223194001,0
e93761f635762771223bf21c,哈尔滨市康乐园养老院,医疗,疗养院,黑龙,哈尔滨市,道里区,黑龙哈尔滨市道里区新发镇庆丰村辛家,,1,0,126.461542,45.694225,13313609886,life,http://api.map.baidu.com/place/detail?uid=e93761f635762771223bf21c&output=html&source=placeapi_v2,,,0.0,,,,,,,0,0,,,,,,,126.46190296275,45.692785953215,0
9cb37ce79c145d198c55ec40,世辉老年公寓,医疗,疗养院,黑龙江省,哈尔滨市,道里区,黑龙江省哈尔滨市道里区哈双北路10公里处,9cb37ce79c145d198c55ec40,1,0,126.454672,45.690606,,hospital,http://api.map.baidu.com/place/detail?uid=9cb37ce79c145d198c55ec40&output=html&source=placeapi_v2,,,,,,,,,,,,,,,,,,,,0
e93761f635762771223bf21c,哈尔滨市康乐园养老院,医疗,疗养院,黑龙,哈尔滨市,道里区,黑龙哈尔滨市道里区新发镇庆丰村辛家,,1,0,126.461542,45.694225,13313609886,life,http://api.map.baidu.com/place/detail?uid=e93761f635762771223bf21c&output=html&source=placeapi_v2,,,0.0,,,,,,,0,0,,,,,,,126.46190296275,45.692785953215,0
9b8b5e254674133ff7e73b6c,天赐老年公寓,医疗,疗养院,黑龙江省,哈尔滨市,道里区,哈尔滨市道里区龙华路鸿祥家园西南侧约240米,,1,0,126.56176,45.707908,,hospital,http://api.map.baidu.com/place/detail?uid=9b8b5e254674133ff7e73b6c&output=html&source=placeapi_v2,,,,,,,,,,5,,,,,,,,126.56174450524,45.70799551228,0
69f479dcff8a48d70f0e6bee,温馨花园老年公寓,医疗,疗养院,黑龙江省,哈尔滨市,南岗区,黑龙江省哈尔滨市南岗区学府路239号,,1,0,126.619611,45.692417,,hospital,http://api.map.baidu.com/place/detail?uid=69f479dcff8a48d70f0e6bee&output=html&source=placeapi_v2,,00:00-24:00,0,,,,,,,0,0,,,,,,,,,0
c31a767f93b79853b8bd6388,美罗湾老年公寓,医疗,疗养院,黑龙江省,哈尔滨市,香坊区,黑龙江省哈尔滨市香坊区军立街97号立汇美罗湾A27栋,c31a767f93b79853b8bd6388,1,0,126.69597,45.697517,13624619929,hospital,http://api.map.baidu.com/place/detail?uid=c31a767f93b79853b8bd6388&output=html&source=placeapi_v2,,00:00-24:00,,,,,,,,18,,,,,,,,126.69589837015,45.697483907457,0
ba2940b4e7d2253bbd484266,哈尔滨黎明康复老年公寓,医疗,疗养院,黑龙江省,哈尔滨市,香坊区,黑龙江省哈尔滨市香坊区进乡街134号,,1,0,126.706545,45.691891,,hospital,http://api.map.baidu.com/place/detail?uid=ba2940b4e7d2253bbd484266&output=html&source=placeapi_v2,,10:00-22:00,0,,,,,,,0,0,,,,,,,,,0
71b364fe3b6f1694b2077d5c,舒心家园老年公寓,医疗,疗养院,黑龙江省,哈尔滨市,香坊区,黑龙江省哈尔滨市香坊区碧园街1号,,1,0,126.808013,45.709126,,hospital,http://api.map.baidu.com/place/detail?uid=71b364fe3b6f1694b2077d5c&output=html&source=placeapi_v2,,00:00-24:00,,,,,,,,,,,,,,,,,,0
227e874761e9bc965fbe86f2,鑫福老年公寓,医疗,疗养院,黑龙江省,哈尔滨市,道里区,黑龙江省哈尔滨市道里区工农大街146号理想0451小区1号楼2单元302号,227e874761e9bc965fbe86f2,1,0,126.570882,45.727414,13904613596,hospital,http://api.map.baidu.com/place/detail?uid=227e874761e9bc965fbe86f2&output=html&source=placeapi_v2,,,,,,,,,,15,,,,,,,,,,0
8de884abf09e0c3fda2f282a,馨悦老年公寓,医疗,疗养院,黑龙江省,哈尔滨市,道里区,黑龙江省哈尔滨市道里区哈双北路5-14号桐楠格领誉a1栋2单元,8de884abf09e0c3fda2f282a,1,0,126.555427,45.722275,13845059870,hospital,http://api.map.baidu.com/place/detail?uid=8de884abf09e0c3fda2f282a&output=html&source=placeapi_v2,,00:00-24:00,3.6,,,,,,,3,,,,,,,,,,0
0c69d22ac277362f76e5b6cd,阳光老年公寓,医疗,疗养院,黑龙江省,哈尔滨市,南岗区,黑龙江省哈尔滨市南岗区和兴十一道街28号仪兴小区7号楼,0c69d22ac277362f76e5b6cd,1,0,126.614684,45.734504,13936438382,hospital,http://api.map.baidu.com/place/detail?uid=0c69d22ac277362f76e5b6cd&output=html&source=placeapi_v2,,00:00-24:00,0,,,,,,,12,0,,,,,,,,,0
16f7d8f530c37156f5c59c8d,新华老年公寓(顾乡南二道街),医疗,疗养院,黑龙江省,哈尔滨市,道里区,哈尔滨市道里区新华小区5号楼,16f7d8f530c37156f5c59c8d,1,0,126.597562,45.744696,,hospital,http://api.map.baidu.com/place/detail?uid=16f7d8f530c37156f5c59c8d&output=html&source=placeapi_v2,,00:00-24:00,0.0,,,,,,,14,1,,,,,,,126.59758355518,45.744719577924,0
d203f30e7ec2d1f91911d550,澳洲MRC儿童矫治中心,医疗,疗养院,黑龙江省,哈尔滨市,南岗区,哈尔滨市南岗区学府三道街黑龙江大学西4门西南侧,d203f30e7ec2d1f91911d550,1,0,126.62007,45.71789,,hospital,http://api.map.baidu.com/place/detail?uid=d203f30e7ec2d1f91911d550&output=html&source=placeapi_v2,,,,,,,,,,3,,,,,,,,126.62002848371,45.718047857339,0
4ea3f2f1c4af9fd7aecb664b,哈尔滨市残疾人温馨家园,医疗,疗养院,黑龙江省,哈尔滨市,南岗区,黑龙江省哈尔滨市南岗区学府三道街16号,4ea3f2f1c4af9fd7aecb664b,1,1,126.635418,45.718966,,hospital,http://api.map.baidu.com/place/detail?uid=4ea3f2f1c4af9fd7aecb664b&output=html&source=placeapi_v2,,,3.0,,,,,,,7,1,,,,,,,126.63487330565,45.719507579236,1
2770fa02496706f117948eeb,博爱之家老年公寓,医疗,疗养院,黑龙江省,哈尔滨市,香坊区,黑龙江省哈尔滨市香坊区通天街01~2号,2770fa02496706f117948eeb,1,0,126.708113,45.729992,15561578577,hospital,http://api.map.baidu.com/place/detail?uid=2770fa02496706f117948eeb&output=html&source=placeapi_v2,,00:00-24:00,3.5,,,,,,,14,0,,,,,,,126.70801883251,45.729985474815,0
bd17545d3a1aa2ab6fc02cd3,罗马老年公寓,医疗,疗养院,黑龙江省,哈尔滨市,香坊区,黑龙江省哈尔滨市香坊区三合路73号,bd17545d3a1aa2ab6fc02cd3,1,0,126.675674,45.722656,,hospital,http://api.map.baidu.com/place/detail?uid=bd17545d3a1aa2ab6fc02cd3&output=html&source=placeapi_v2,,"08:00-11:30,13:30-18:30",3.6,,,,,,,7,,,,,,,,126.67554435172,45.722698811164,0
1b3791c8a8180722e6e965a4,福顺老年公寓,医疗,疗养院,黑龙江省,哈尔滨市,香坊区,黑龙江省哈尔滨市香坊区香滨路民香小区b13栋,1b3791c8a8180722e6e965a4,1,0,126.674817,45.736632,13936009595,hospital,http://api.map.baidu.com/place/detail?uid=1b3791c8a8180722e6e965a4&output=html&source=placeapi_v2,,,,,,,,,,6,,,,,,,,126.67468175654,45.736692023962,0
90a68dc6704679913c9a5ed1,民生老年公寓(中民街店),医疗,疗养院,黑龙江省,哈尔滨市,香坊区,黑龙江省哈尔滨市香坊区民生路103号,90a68dc6704679913c9a5ed1,1,3,126.673409,45.739753,15546227873,life,http://api.map.baidu.com/place/detail?uid=90a68dc6704679913c9a5ed1&output=html&source=placeapi_v2,53.5,00:00-24:00,0,,,,,,,17,0,,,,,,,126.6726560354,45.739438788495,3
6194e95ec08d8a89a8f72928,哈尔滨市春华德善老年公寓,医疗,疗养院,黑龙江省,哈尔滨市,香坊区,黑龙江省哈尔滨市香坊区哈成路煤管街1号,6194e95ec08d8a89a8f72928,1,1,126.785605,45.719788,(0451)86232666,hospital,http://api.map.baidu.com/place/detail?uid=6194e95ec08d8a89a8f72928&output=html&source=placeapi_v2,,00:00-24:00,,,,,,,,1,,,,,,,,126.7856142639,45.719756096419,1
750368358bfa2baf5e0d0247,哈尔滨市圣奇老年公寓,医疗,疗养院,黑龙江省,哈尔滨市,香坊区,黑龙江省哈尔滨市香坊区香福路香企街2号,750368358bfa2baf5e0d0247,1,1,126.764197,45.724297,,life,http://api.map.baidu.com/place/detail?uid=750368358bfa2baf5e0d0247&output=html&source=placeapi_v2,,,5.0,,,,,,,6,0,,,,,,,126.76402364462,45.724479223426,1
bb58e319e6e83d88d4851f78,黑龙江民福哈尔滨老年公寓,医疗,疗养院,黑龙江省,哈尔滨市,香坊区,黑龙江哈尔滨市香坊区靠河路c7栋4单元,,1,0,126.840792,45.723718,,hospital,http://api.map.baidu.com/place/detail?uid=bb58e319e6e83d88d4851f78&output=html&source=placeapi_v2,,00:00-24:00,0,,,,,,,0,0,,,,,,,126.84092117082,45.723780198799,0
d2e19dacea6d7dde593ac898,宜家人老年公寓,医疗,疗养院,黑龙江省,哈尔滨市,香坊区,哈尔滨市香坊区,,1,0,126.805459,45.717838,,hospital,http://api.map.baidu.com/place/detail?uid=d2e19dacea6d7dde593ac898&output=html&source=placeapi_v2,,00:00-24:00,,,,,,,,4,,,,,,,,126.80532794217,45.717870403634,0
bb58e319e6e83d88d4851f78,黑龙江民福哈尔滨老年公寓,医疗,疗养院,黑龙江省,哈尔滨市,香坊区,黑龙江哈尔滨市香坊区靠河路c7栋4单元,,1,0,126.840792,45.723718,,hospital,http://api.map.baidu.com/place/detail?uid=bb58e319e6e83d88d4851f78&output=html&source=placeapi_v2,,00:00-24:00,0,,,,,,,0,0,,,,,,,126.84092117082,45.723780198799,0
2eaec903291bfab66e4760ad,阳光老年公寓,医疗,疗养院,黑龙江省,哈尔滨市,道里区,黑龙江省哈尔滨市道里区通达街230号1号楼,2eaec903291bfab66e4760ad,1,0,126.597879,45.760591,,hospital,http://api.map.baidu.com/place/detail?uid=2eaec903291bfab66e4760ad&output=html&source=placeapi_v2,,,,,,,,,,10,,,,,,,,,,0
0787e41e6b181706e60738cf,道里区夕阳红老年公寓,医疗,疗养院,黑龙江省,哈尔滨市,道里区,黑龙江省哈尔滨市道里区安静街104-2号,0787e41e6b181706e60738cf,1,1,126.619683,45.765481,(0451)57828680,hospital,http://api.map.baidu.com/place/detail?uid=0787e41e6b181706e60738cf&output=html&source=placeapi_v2,,00:00-24:00,0,,,,,,,7,0,,,,,,,,,1
c24c73f02975c73e631c676b,RN诚信老年公寓,医疗,疗养院,黑龙江省,哈尔滨市,道里区,哈尔滨市道里区河松小区三期807栋4单元101室,c24c73f02975c73e631c676b,1,0,126.590639,45.753523,,hospital,http://api.map.baidu.com/place/detail?uid=c24c73f02975c73e631c676b&output=html&source=placeapi_v2,,,,,,,,,,,,,,,,,,,,0
11058a35f88502cd9a0050cb,福寿星老年公寓,医疗,疗养院,黑龙江省,哈尔滨市,道里区,黑龙江省哈尔滨市道里区抚安街5号,11058a35f88502cd9a0050cb,1,0,126.627593,45.760986,(0451)86473198,life,http://api.map.baidu.com/place/detail?uid=11058a35f88502cd9a0050cb&output=html&source=placeapi_v2,,,0,,,,,,,21,0,,,,,,,126.62773968193,45.760961923785,0
de8159536d8929af601c670e,燎原温馨老年公寓,医疗,疗养院,黑龙江省,哈尔滨市,南岗区,黑龙江哈尔滨市南岗区燎原街61号,de8159536d8929af601c670e,1,0,126.665335,45.774318,(0451)82528349,hospital,http://api.map.baidu.com/place/detail?uid=de8159536d8929af601c670e&output=html&source=placeapi_v2,,00:00-24:00,0,,,,,,,10,0,,,,,,,126.66525600301,45.774248997286,0
50edf043b393a6dbad080f10,修胜视力养护中心,医疗,疗养院,黑龙江省,哈尔滨市,南岗区,黑龙江省哈尔滨市南岗区铁工街副3-1号,,1,0,126.632831,45.753637,,hospital,http://api.map.baidu.com/place/detail?uid=50edf043b393a6dbad080f10&output=html&source=placeapi_v2,,08:30-21:00,,,,,,,,1,,,,,,,,,,0
11058a35f88502cd9a0050cb,福寿星老年公寓,医疗,疗养院,黑龙江省,哈尔滨市,道里区,黑龙江省哈尔滨市道里区抚安街5号,11058a35f88502cd9a0050cb,1,0,126.627593,45.760986,(0451)86473198,life,http://api.map.baidu.com/place/detail?uid=11058a35f88502cd9a0050cb&output=html&source=placeapi_v2,,,0,,,,,,,21,0,,,,,,,126.62773968193,45.760961923785,0
851386e09fddae2b9e9d6873,哈尔滨体育学院-运动医疗康复中心,医疗,疗养院,黑龙江省,哈尔滨市,南岗区,黑龙江省哈尔滨市南岗区大成街1号,851386e09fddae2b9e9d6873,1,0,126.68208,45.765234,,hospital,http://api.map.baidu.com/place/detail?uid=851386e09fddae2b9e9d6873&output=html&source=placeapi_v2,,,0,,,,,,,4,0,,,,,,,126.68158174114,45.765283688467,0
10de466e0dc1fda4fb2d613c,阿里郎老年公寓,医疗,疗养院,黑龙江省,哈尔滨市,道外区,黑龙江省哈尔滨市道外区辽河路红旗老区51栋,10de466e0dc1fda4fb2d613c,1,0,126.705722,45.772644,13624501846,hospital,http://api.map.baidu.com/place/detail?uid=10de466e0dc1fda4fb2d613c&output=html&source=placeapi_v2,,,,,,,,,,15,,,,,,,,,,0
f5040c5bc267250a94ec8491,黑龙江省社会康复医院,医疗,疗养院,黑龙江省,哈尔滨市,香坊区,哈尔滨市香坊区南直路75号,f5040c5bc267250a94ec8491,1,5,126.717796,45.751808,,hospital,http://api.map.baidu.com/place/detail?uid=f5040c5bc267250a94ec8491&output=html&source=placeapi_v2,,08:00-16:30,0,,,,,,,8,0,,,,,,,126.71723893786,45.7521185578,5
15ed53ce770490549222e04c,哈尔滨凯峰老年公寓(会展家园店),医疗,疗养院,黑龙江省,哈尔滨市,南岗区,黑龙江省哈尔滨市南岗区南直路75号老年公寓护理区,15ed53ce770490549222e04c,1,0,126.719611,45.752278,,hospital,http://api.map.baidu.com/place/detail?uid=15ed53ce770490549222e04c&output=html&source=placeapi_v2,,00:00-24:00,,,,,,,,11,,,,,,,,,,0
a13b45b3094239d725d2bb9f,鑫爱老年公寓,医疗,疗养院,黑龙江省,哈尔滨市,道外区,黑龙江省哈尔滨市道外区先锋路174号,a13b45b3094239d725d2bb9f,1,0,126.716167,45.775522,14798056789,hospital,http://api.map.baidu.com/place/detail?uid=a13b45b3094239d725d2bb9f&output=html&source=placeapi_v2,,10:00-22:00,0,,,,,,,12,0,,,,,,,126.71620408722,45.775525443029,0
a9ddcf35b51845aebfa82297,哈尔滨市残疾人康复中心,医疗,疗养院,黑龙江省,哈尔滨市,道外区,黑龙江省哈尔滨市道外区北新街133号,a9ddcf35b51845aebfa82297,1,0,126.658892,45.797117,,hospital,http://api.map.baidu.com/place/detail?uid=a9ddcf35b51845aebfa82297&output=html&source=placeapi_v2,,,0,,,,,,,10,0,,,,,,,126.65892725834,45.797033378086,0
0dd16fd9e700d11242d63e95,仁爱老年公寓,医疗,疗养院,黑龙江省,哈尔滨市,道外区,哈尔滨市道外区长春街丰光江景公寓东侧约80米,0dd16fd9e700d11242d63e95,1,0,126.643549,45.79198,,hospital,http://api.map.baidu.com/place/detail?uid=0dd16fd9e700d11242d63e95&output=html&source=placeapi_v2,,00:00-24:00,,,,,,,,4,,,,,,,,,,0
970054ee170e039d7dc876cb,道外区残疾人综合服务中心(安太胡同),医疗,疗养院,黑龙江省,哈尔滨市,道外区,黑龙江省哈尔滨市道外区北十八道街191号,970054ee170e039d7dc876cb,1,0,126.661573,45.801858,,hospital,http://api.map.baidu.com/place/detail?uid=970054ee170e039d7dc876cb&output=html&source=placeapi_v2,,09:00-17:00,,,,,,,,9,,,,,,,,,,0
d82d66976ebf5ea6d518b776,电力佳顺老年公寓,医疗,疗养院,黑龙江省,哈尔滨市,道外区,黑龙江省哈尔滨市道外区集良街1号,d82d66976ebf5ea6d518b776,1,0,126.669371,45.799672,(0451)88989981,life,http://api.map.baidu.com/place/detail?uid=d82d66976ebf5ea6d518b776&output=html&source=placeapi_v2,,00:00-24:00,0.0,,,,,,,8,0,,,,,,,126.66923273683,45.799317946135,0
3d0f3a615bcb5d00c51b7535,康之家老年公寓,医疗,疗养院,黑龙江省,哈尔滨市,道外区,黑龙江省哈尔滨市道外区南直路街道红旗大街1108-2号陶瓷小区B栋附近,3d0f3a615bcb5d00c51b7535,1,0,126.683627,45.800539,,hospital,http://api.map.baidu.com/place/detail?uid=3d0f3a615bcb5d00c51b7535&output=html&source=placeapi_v2,,00:00-24:00,,,,,,,,12,,,,,,,,126.68389784737,45.800512985431,0
dd568482cbd5d3bff11937d8,柏龄老年公寓,医疗,疗养院,黑龙江省,哈尔滨市,道外区,哈尔滨市道外区三棵头道街天恒小区南侧约30米,dd568482cbd5d3bff11937d8,1,0,126.706675,45.799867,"15904614866,18946116366",hospital,http://api.map.baidu.com/place/detail?uid=dd568482cbd5d3bff11937d8&output=html&source=placeapi_v2,,00:00-24:00,,,,,,,,15,,,,,,,,126.70653615771,45.799839071423,0
d82d66976ebf5ea6d518b776,电力佳顺老年公寓,医疗,疗养院,黑龙江省,哈尔滨市,道外区,黑龙江省哈尔滨市道外区集良街1号,d82d66976ebf5ea6d518b776,1,0,126.669371,45.799672,(0451)88989981,life,http://api.map.baidu.com/place/detail?uid=d82d66976ebf5ea6d518b776&output=html&source=placeapi_v2,,00:00-24:00,0.0,,,,,,,8,0,,,,,,,126.66923273683,45.799317946135,0
6ecbca86f8b67d9f8f55ec52,凯轩老年公寓,医疗,疗养院,黑龙江省,哈尔滨市,松北区,黑龙江省哈尔滨市松北区龙轩路2013号,,1,0,126.526707,45.831728,18944508150,hospital,http://api.map.baidu.com/place/detail?uid=6ecbca86f8b67d9f8f55ec52&output=html&source=placeapi_v2,,00:00-24:00,,,,,,,,8,,,,,,,,126.52669680136,45.831492019547,0
71937d80938488bed0ff2346,昕昕易养天园老年公寓,医疗,疗养院,黑龙江省,哈尔滨市,松北区,黑龙江省哈尔滨市松北区左岸大街1284号,71937d80938488bed0ff2346,1,0,126.513907,45.832708,(0451)87170660,hospital,http://api.map.baidu.com/place/detail?uid=71937d80938488bed0ff2346&output=html&source=placeapi_v2,,,,,,,,,,8,,,,,,,,126.51426867725,45.832704454236,0
71c8b1a3552bd9ca9868b422,招恩老年公寓,医疗,疗养院,黑龙江省,哈尔滨市,松北区,黑龙江省哈尔滨市松北区红光路18号,71c8b1a3552bd9ca9868b422,1,0,126.573057,45.837236,,life,http://api.map.baidu.com/place/detail?uid=71c8b1a3552bd9ca9868b422&output=html&source=placeapi_v2,,,5.0,,,,,,,0,0,,,,,,,126.57291705246,45.83740194068,0
84f66da662c4999496f08c22,润福老年公寓,医疗,疗养院,黑龙江省,哈尔滨市,松北区,黑龙江省哈尔滨市松北区江都街1号,84f66da662c4999496f08c22,1,1,126.552049,45.823277,"(0451)88303333,(0451)88305555",hospital,http://api.map.baidu.com/place/detail?uid=84f66da662c4999496f08c22&output=html&source=placeapi_v2,,00:00-24:00,3.5,,,,,,,6,0,,,,,,,126.55105274011,45.822488444548,1
17c2093f4d975592b9df8fb1,哈尔滨百姓康年老年公寓,医疗,疗养院,黑龙江省,哈尔滨市,松北区,黑龙江省哈尔滨市松北区学海路3266号,17c2093f4d975592b9df8fb1,1,0,126.55917,45.837655,,life,http://api.map.baidu.com/place/detail?uid=17c2093f4d975592b9df8fb1&output=html&source=placeapi_v2,,,,,,,,,,3,,,,,,,,126.56067327052,45.837700244037,0
2620631fd2058f3cd2f49e29,玉和颐养老年公寓,医疗,疗养院,黑龙江省,哈尔滨市,道外区,黑龙江省哈尔滨市道外区水泥路102号,,1,0,126.730273,45.834385,,hospital,http://api.map.baidu.com/place/detail?uid=2620631fd2058f3cd2f49e29&output=html&source=placeapi_v2,,,,,,,,,,1,,,,,,,,,,0
ec3c4abfab135e096849f3d9,花园老年公寓,医疗,疗养院,黑龙江省,哈尔滨市,道外区,哈尔滨市道外区环村路与金玉街交叉路口往北约50米,ec3c4abfab135e096849f3d9,1,1,126.827961,45.825173,,hospital,http://api.map.baidu.com/place/detail?uid=ec3c4abfab135e096849f3d9&output=html&source=placeapi_v2,,00:00-24:00,,,,,,,,,,,,,,,,,,1
9d17d8f610966d444f3a5949,圣泽园老年公寓,医疗,疗养院,黑龙江省,哈尔滨市,松北区,哈尔滨市松北区万宝村万宝屯676号,9d17d8f610966d444f3a5949,1,1,126.407854,45.869445,,hospital,http://api.map.baidu.com/place/detail?uid=9d17d8f610966d444f3a5949&output=html&source=placeapi_v2,,,,,,,,,,0,,,,,,,,126.40794475111,45.869262930183,1
047b6dd891783263b8bd631e,黑龙江省荣誉军人康复医院,医疗,疗养院,黑龙江省,哈尔滨市,呼兰区,哈尔滨市呼兰区南京路369号,047b6dd891783263b8bd631e,1,2,126.562221,45.897587,(0451)56890369,hospital,http://api.map.baidu.com/place/detail?uid=047b6dd891783263b8bd631e&output=html&source=placeapi_v2,,,,,,,,,,1,,,,,,,,126.56233513572,45.896786689848,2
84de6b1f6f0198afc0f1cfad,松柏老年公寓,医疗,疗养院,黑龙江省,哈尔滨市,呼兰区,哈尔滨市呼兰区码头路沿河小区西侧约190米,,1,0,126.602643,45.981508,,hospital,http://api.map.baidu.com/place/detail?uid=84de6b1f6f0198afc0f1cfad&output=html&source=placeapi_v2,,,,,,,,,,1,,,,,,,,126.60257678367,45.981473746838,0
3eff86839e91916c45e27474,孝夕阳老年公寓,医疗,疗养院,黑龙江省,哈尔滨市,呼兰区,哈尔滨市呼兰区码头路沿河小区西侧约180米,,1,0,126.602965,45.981236,18746173273,hospital,http://api.map.baidu.com/place/detail?uid=3eff86839e91916c45e27474&output=html&source=placeapi_v2,,,,,,,,,,2,,,,,,,,,,0
9afbc19823c811bf33169b4c,如意老年公寓,医疗,疗养院,黑龙江省,哈尔滨市,呼兰区,哈尔滨市呼兰区码头路沿河小区西侧约180米,,1,0,126.602897,45.981328,,hospital,http://api.map.baidu.com/place/detail?uid=9afbc19823c811bf33169b4c&output=html&source=placeapi_v2,,00:00-24:00,,,,,,,,0,,,,,,,,,,0
5ddc187fa3915b252b11d1b6,福寿缘特护老年公寓,医疗,疗养院,黑龙江省,哈尔滨市,呼兰区,黑龙江省哈尔滨市呼兰区萧红大道鹏达5号楼,,1,0,126.602897,45.981328,,hospital,http://api.map.baidu.com/place/detail?uid=5ddc187fa3915b252b11d1b6&output=html&source=placeapi_v2,,00:00-24:00,,,,,,,,1,,,,,,,,,,0
c2994f8ec8f8a0240b1cc7f8,永康老年公寓,医疗,疗养院,黑龙江省,哈尔滨市,呼兰区,哈尔滨市呼兰区北大街157-159号,,1,0,126.60923,45.996136,,hospital,http://api.map.baidu.com/place/detail?uid=c2994f8ec8f8a0240b1cc7f8&output=html&source=placeapi_v2,,,,,,,,,,2,,,,,,,,126.60907960557,45.996160023522,0
dd5e0198bc7659e16849f35f,德仁馨老年公寓,医疗,疗养院,黑龙江省,哈尔滨市,呼兰区,黑龙江省哈尔滨市呼兰区和平街金街花园小区1号楼16号,,1,0,126.61018,45.994727,15124540888,hospital,http://api.map.baidu.com/place/detail?uid=dd5e0198bc7659e16849f35f&output=html&source=placeapi_v2,,00:00-24:00,,,,,,,,2,,,,,,,,,,0
f4432c430bb1576600ff2d35,鑫雅老年公寓,医疗,疗养院,黑龙江省,哈尔滨市,呼兰区,黑龙江省哈尔滨市呼兰区顺南小区西44门市,,1,0,126.604929,45.993621,,hospital,http://api.map.baidu.com/place/detail?uid=f4432c430bb1576600ff2d35&output=html&source=placeapi_v2,,,,,,,,,,2,,,,,,,,,,0
cedd0995452636b417948e43,亚鹤老年公寓,医疗,疗养院,黑龙江省,哈尔滨市,呼兰区,黑龙江省哈尔滨市呼兰区顺记胡同顺鑫小区8号楼小2层,cedd0995452636b417948e43,1,0,126.605442,45.992355,13766906215,hospital,http://api.map.baidu.com/place/detail?uid=cedd0995452636b417948e43&output=html&source=placeapi_v2,,00:00-24:00,,,,,,,,1,,,,,,,,126.60566052275,45.992365025169,0
97d9020355516f859ff7795a,福缘老年公寓,医疗,疗养院,黑龙江省,哈尔滨市,呼兰区,哈尔滨市呼兰区公园路哈尔滨市呼兰区建国小学校南侧,,1,0,126.608131,45.992064,,hospital,http://api.map.baidu.com/place/detail?uid=97d9020355516f859ff7795a&output=html&source=placeapi_v2,,,,,,,,,,0,,,,,,,,,,0
08b09a8c5580924df5c59cf4,耐心老年公寓,医疗,疗养院,黑龙江省,哈尔滨市,呼兰区,黑龙江省哈尔滨市呼兰区繁华小区1号楼7门,,1,0,126.60977,45.989475,,hospital,http://api.map.baidu.com/place/detail?uid=08b09a8c5580924df5c59cf4&output=html&source=placeapi_v2,,00:00-24:00,,,,,,,,4,,,,,,,,,,0
00987b1cba906a76a6da39c1,同心老年公寓,医疗,疗养院,黑龙江省,哈尔滨市,呼兰区,黑龙江省哈尔滨市呼兰区四道街瑞凯世纪城4号楼,,1,0,126.619473,45.993638,,hospital,http://api.map.baidu.com/place/detail?uid=00987b1cba906a76a6da39c1&output=html&source=placeapi_v2,,,,,,,,,,3,,,,,,,,,,0
9a831b5c04abdaa87dc87681,联建老年公寓,医疗,疗养院,黑龙江省,哈尔滨市,呼兰区,黑龙江省哈尔滨市呼兰区东直路562号,,1,1,126.629504,45.999302,(0451)57388891,hospital,http://api.map.baidu.com/place/detail?uid=9a831b5c04abdaa87dc87681&output=html&source=placeapi_v2,,00:00-24:00,,,,,,,,4,,,,,,,,,,1
9a831b5c04abdaa87dc87681,联建老年公寓,医疗,疗养院,黑龙江省,哈尔滨市,呼兰区,黑龙江省哈尔滨市呼兰区东直路562号,,1,1,126.629504,45.999302,(0451)57388891,hospital,http://api.map.baidu.com/place/detail?uid=9a831b5c04abdaa87dc87681&output=html&source=placeapi_v2,,00:00-24:00,,,,,,,,4,,,,,,,,,,1
7f82bd0955e0f8efb34c49b2,田园老年公寓,医疗,疗养院,黑龙江省,哈尔滨市,呼兰区,哈尔滨市呼兰区双达南路,,1,0,126.685096,45.98257,,hospital,http://api.map.baidu.com/place/detail?uid=7f82bd0955e0f8efb34c49b2&output=html&source=placeapi_v2,,00:00-24:00,,,,,,,,,,,,,,,,,,0
da2708e0ab98415a14948e67,雅乐居老年公寓,医疗,疗养院,黑龙江省,哈尔滨市,松北区,哈尔滨市松北区乐业镇台屯村,,1,0,126.434414,46.042821,,hospital,http://api.map.baidu.com/place/detail?uid=da2708e0ab98415a14948e67&output=html&source=placeapi_v2,,00:00-24:00,,,,,,,,,,,,,,,,,,0
685d4216d9114c1c57bfff9a,福寿堂老年公寓,医疗,疗养院,黑龙江省,哈尔滨市,呼兰区,哈尔滨市呼兰区康金街道油米场3号楼,,1,0,126.820987,46.204015,,hospital,http://api.map.baidu.com/place/detail?uid=685d4216d9114c1c57bfff9a&output=html&source=placeapi_v2,,,,,,,,,,,,,,,,,,,,0
addc1b60e548a2ab0b1cc744,农研老年公寓,医疗,疗养院,黑龙江省,哈尔滨市,呼兰区,黑龙江省哈尔滨市呼兰区康金街道第二人民医院东康铁路南,,1,0,126.821174,46.20345,15846109077,hospital,http://api.map.baidu.com/place/detail?uid=addc1b60e548a2ab0b1cc744&output=html&source=placeapi_v2,,,,,,,,,,,,,,,,,,,,0
