uid,name,cat_L1,cat_L2,province,city,area,address,street_id,detail,child_num,loc_lng,loc_lat,telephone,type,detail_url,price,shop_hours,overall_rating,taste_rating,service_rating,environment_rating,facility_rating,hygiene_rating,technology_rating,image_num,comment_num,groupon_num,discount_num,favorite_num,checkin_num,brand,content_tag,naviloc_lng,naviloc_lat,child_num
e5e3d81fe143026bc9e33cab,颜奇美容工作室,丽人,美容,黑龙江省,哈尔滨市,双城区,黑龙江省哈尔滨市双城区哈前公路长红石化加油站西南侧约90米,,1,0,126.305065,45.366542,18814509399,beauty,http://api.map.baidu.com/place/detail?uid=e5e3d81fe143026bc9e33cab&output=html&source=placeapi_v2,,,,,,,,,,,,,,,,,,126.30513932954,45.366442972397,0
d61a5842dd5004ffc37da29f,时尚丽人美容院(解放路店),丽人,美容,黑龙江省,哈尔滨市,双城区,黑龙江省哈尔滨市双城区北二道街世纪现代城5号楼12号门市,d61a5842dd5004ffc37da29f,1,0,126.322969,45.37492,13766986272,beauty,http://api.map.baidu.com/place/detail?uid=d61a5842dd5004ffc37da29f&output=html&source=placeapi_v2,262.0,08:00-18:00,0.0,,,,,,,,,,,,,,,126.32304642466,45.374803322633,0
a34c8e41223220117ab55cf6,李忠英美容工作室,丽人,美容,黑龙江省,哈尔滨市,双城区,哈尔滨市双城区先进街千层麻花旁,a34c8e41223220117ab55cf6,1,0,126.318842,45.3732,13945630777,beauty,http://api.map.baidu.com/place/detail?uid=a34c8e41223220117ab55cf6&output=html&source=placeapi_v2,,,,,,,,,,,,,,,,,,,,0
f615485b32dfc60fd518b775,平泰美发养生馆,丽人,美容,黑龙江省,哈尔滨市,双城区,哈尔滨市双城区交通街哈尔滨市双城市骨伤科医院东南侧约100米,f615485b32dfc60fd518b775,1,0,126.317087,45.370287,,beauty,http://api.map.baidu.com/place/detail?uid=f615485b32dfc60fd518b775&output=html&source=placeapi_v2,,,,,,,,,,,,,,,,,,126.31700284438,45.370397278174,0
fbb107c52a1fe18b430245cf,樱樱美容院,丽人,美容,黑龙江省,哈尔滨市,双城区,黑龙江省哈尔滨市双城区世纪现代城1栋底商17号,,1,0,126.32147,45.374487,,beauty,http://api.map.baidu.com/place/detail?uid=fbb107c52a1fe18b430245cf&output=html&source=placeapi_v2,,,,,,,,,,,,,,,,,,126.3215178222,45.374403940231,0
e6ccb8340b2f69efe9f853bd,沙宣美业(先进街店),丽人,美容,黑龙江省,哈尔滨市,双城区,哈尔滨市双城区街道管委会北二道街生姿门市原老广播局对面,e6ccb8340b2f69efe9f853bd,1,0,126.316808,45.372815,15764515007,beauty,http://api.map.baidu.com/place/detail?uid=e6ccb8340b2f69efe9f853bd&output=html&source=placeapi_v2,,10:00-21:00,,,,,,,,,,,,,,,,126.31666094751,45.373035509137,0
2dcfccecde603f316018097b,可喜安健康生活馆,丽人,美容,黑龙江省,哈尔滨市,双城区,哈尔滨市双城区和平大街卓越时代购物广场北侧约90米,2dcfccecde603f316018097b,1,0,126.321371,45.371969,,beauty,http://api.map.baidu.com/place/detail?uid=2dcfccecde603f316018097b&output=html&source=placeapi_v2,,,,,,,,,,,,,,,,,,,,0
0e6baadda633eba7b04c49de,天使轩草美业,丽人,美容,黑龙江省,哈尔滨市,双城区,哈尔滨市双城区民富街民安小区(民富街),,1,0,126.32718,45.370605,,beauty,http://api.map.baidu.com/place/detail?uid=0e6baadda633eba7b04c49de&output=html&source=placeapi_v2,,,,,,,,,,,,,,,,,,,,0
3778a1fb46284adeb13c816c,琪雅,丽人,美容,黑龙江省,哈尔滨市,双城区,哈尔滨市双城区工农街东南阳光-二区,3778a1fb46284adeb13c816c,1,0,126.325322,45.372491,13804611977,beauty,http://api.map.baidu.com/place/detail?uid=3778a1fb46284adeb13c816c&output=html&source=placeapi_v2,,,,,,,,,,,,,,,,,,126.32528471723,45.372560495224,0
95e139e7793bce763310af46,谷氏专业纹绣,丽人,美容,黑龙江省,哈尔滨市,双城区,黑龙江省哈尔滨市双城区双城市街道管委会北二道街世纪现代城正门往东第二地下室口,95e139e7793bce763310af46,1,0,126.322689,45.374827,18746198883,beauty,http://api.map.baidu.com/place/detail?uid=95e139e7793bce763310af46&output=html&source=placeapi_v2,,,,,,,,,,,,,,,,,,,,0
a471495497b9de2fc9291513,梵峰美业,丽人,美容,黑龙江省,哈尔滨市,双城区,哈尔滨市双城区工农街东南阳光-二区,,1,0,126.325922,45.372634,15246680854,beauty,http://api.map.baidu.com/place/detail?uid=a471495497b9de2fc9291513&output=html&source=placeapi_v2,,,,,,,,,,,,,,,,,,126.32592183143,45.37273300356,0
e56990f688012635a1a93487,汇源美业,丽人,美容,黑龙江省,哈尔滨市,双城区,黑龙江省哈尔滨市双城区双城市街道管委会北三道街龙华商住小区楼下,e56990f688012635a1a93487,1,0,126.324453,45.37348,13763438997,beauty,http://api.map.baidu.com/place/detail?uid=e56990f688012635a1a93487&output=html&source=placeapi_v2,,,,,,,,,,,,,,,,,,126.32441645016,45.373632605283,0
a9890e5e15ac21cd1ef74dab,明泽美业,丽人,美容,黑龙江省,哈尔滨市,双城区,市街道管委会北二道街世纪现代城对面,a9890e5e15ac21cd1ef74dab,1,0,126.322312,45.374394,15246681171,beauty,http://api.map.baidu.com/place/detail?uid=a9890e5e15ac21cd1ef74dab&output=html&source=placeapi_v2,,08:00-20:30,,,,,,,,,,,,,,,,126.32224421359,45.374513717727,0
8419c72cfef7deed2811d136,艾纳菲美容会所,丽人,美容,黑龙江省,哈尔滨市,双城区,哈尔滨市双城区解放路世纪现代城,7609742a01594715ab0dd8a9,1,0,126.32305,45.374951,,beauty,http://api.map.baidu.com/place/detail?uid=8419c72cfef7deed2811d136&output=html&source=placeapi_v2,,,,,,,,,,,,,,,,,,126.32312988623,45.374830883569,0
6bcd172f4b095702b817e7fe,B.F美甲美容,丽人,美容,黑龙江省,哈尔滨市,双城区,哈尔滨市双城区解放街世纪现代城,,1,0,126.323027,45.374928,18249208609,beauty,http://api.map.baidu.com/place/detail?uid=6bcd172f4b095702b817e7fe&output=html&source=placeapi_v2,,,,,,,,,,,,,,,,,,126.32309833325,45.374820464058,0
76a128c392c382e46e20b9c9,爱尚高科技美肤中心,丽人,美容,黑龙江省,哈尔滨市,双城区,黑龙江省哈尔滨市双城区北二道街世纪现代城5号楼2楼10号,76a128c392c382e46e20b9c9,1,0,126.322876,45.374911,18944663334,beauty,http://api.map.baidu.com/place/detail?uid=76a128c392c382e46e20b9c9&output=html&source=placeapi_v2,,07:30-19:00,,,,,,,,,,,,,,,,,,0
0a1ba059aef93f84f02d83dd,康瑞国际养生会馆,丽人,美容,黑龙江省,哈尔滨市,双城区,哈尔滨市双城区新华胡同世纪现代城,0a1ba059aef93f84f02d83dd,1,0,126.320676,45.375808,,beauty,http://api.map.baidu.com/place/detail?uid=0a1ba059aef93f84f02d83dd&output=html&source=placeapi_v2,,,,,,,,,,,,,,,,,,126.32064701112,45.375837532149,0
2153216cdaee5226343a715b,花情颜美容美体,丽人,美容,黑龙江省,哈尔滨市,双城区,哈尔滨市双城区解放路世纪现代城,2153216cdaee5226343a715b,1,0,126.323132,45.374959,,beauty,http://api.map.baidu.com/place/detail?uid=2153216cdaee5226343a715b&output=html&source=placeapi_v2,,,,,,,,,,,,,,,,,,,,0
4bcac287770bfa6b0ab93af6,悦心颜美容会馆,丽人,美容,黑龙江省,哈尔滨市,双城区,黑龙江省哈尔滨市双城区解放路世纪现代城,,1,0,126.32329,45.375006,,beauty,http://api.map.baidu.com/place/detail?uid=4bcac287770bfa6b0ab93af6&output=html&source=placeapi_v2,,,,,,,,,,,,,,,,,,,,0
c1339e81f412f6e22fb96d8c,车宝贝美容养护馆,丽人,美容,黑龙江省,哈尔滨市,五常市,哈尔滨市五常市牛家镇中学东南侧,,1,0,126.745057,45.361128,,beauty,http://api.map.baidu.com/place/detail?uid=c1339e81f412f6e22fb96d8c&output=html&source=placeapi_v2,,,,,,,,,,,,,,,,,,,,0
d23c7fa63e32b93fc6effb45,特莱维减肥美容美体会馆,丽人,美容,黑龙江省,哈尔滨市,双城区,黑龙江省哈尔滨市双城区腾达大街三环综合楼1楼5号西南方向110米,,1,0,126.314668,45.390671,15845126163,beauty,http://api.map.baidu.com/place/detail?uid=d23c7fa63e32b93fc6effb45&output=html&source=placeapi_v2,,09:00-20:00,,,,,,,,,,,,,,,,,,0
7950fc2946242f57f4231023,唯美度养生美容馆,丽人,美容,黑龙江省,哈尔滨市,双城区,黑龙江省哈尔滨市双城区龙升小区A栋,7950fc2946242f57f4231023,1,0,126.316417,45.390686,18845136988,beauty,http://api.map.baidu.com/place/detail?uid=7950fc2946242f57f4231023&output=html&source=placeapi_v2,,,0,,,,,,,,1,,,,,,,126.31606432083,45.390768102902,0
9d39b99cd527f5a795f08cf9,鸿运养生体验中心,丽人,美容,黑龙江省,哈尔滨市,双城区,哈尔滨市双城区凤凰路凤凰城,,1,0,126.310746,45.393659,,beauty,http://api.map.baidu.com/place/detail?uid=9d39b99cd527f5a795f08cf9&output=html&source=placeapi_v2,,,,,,,,,,,,,,,,,,126.31066447526,45.393742647001,0
571bd4ddf51b2114aecb669a,丽恩媛美容院,丽人,美容,黑龙江省,哈尔滨市,双城区,哈尔滨市双城区凤凰路园丁名苑-北区西南侧约40米,,1,0,126.311902,45.394229,,beauty,http://api.map.baidu.com/place/detail?uid=571bd4ddf51b2114aecb669a&output=html&source=placeapi_v2,,08:30-20:00,,,,,,,,,,,,,,,,126.31181184675,45.394315224164,0
88dee3bf3336a9f628d7ab42,纹绣美容会所,丽人,美容,黑龙江省,哈尔滨市,双城区,哈尔滨市双城区凤凰路园丁名苑-北区东南侧约30米,,1,0,126.313244,45.394862,,beauty,http://api.map.baidu.com/place/detail?uid=88dee3bf3336a9f628d7ab42&output=html&source=placeapi_v2,,,,,,,,,,,,,,,,,,126.31313320206,45.394974258763,0
d85ff5eca82b9803715e8060,朵美美容院,丽人,美容,黑龙江省,哈尔滨市,双城区,黑龙江省哈尔滨市双城区凤凰路福瑞家园二期6号楼5号门市,d85ff5eca82b9803715e8060,1,0,126.315364,45.396045,13394611817,beauty,http://api.map.baidu.com/place/detail?uid=d85ff5eca82b9803715e8060&output=html&source=placeapi_v2,,08:00-18:00,,,,,,,,,,,,,,,,,,0
ba97f9c7f8518b09be48423e,煜轩美容院,丽人,美容,黑龙江省,哈尔滨市,双城区,哈尔滨市双城区新兴路双城客运总站东侧约50米,,1,0,126.318071,45.387322,,beauty,http://api.map.baidu.com/place/detail?uid=ba97f9c7f8518b09be48423e&output=html&source=placeapi_v2,,09:00-20:00,,,,,,,,,,,,,,,,126.3183323554,45.387189935756,0
c34874f56da0353dda2f28fc,佳慕专业祛痘・祛黑头・修复连锁机构,丽人,美容,黑龙江省,哈尔滨市,双城区,黑龙江省哈尔滨市双城区民宗局东51号门市(美好生活烤肉隔壁),,1,0,126.321843,45.386459,15845007512,beauty,http://api.map.baidu.com/place/detail?uid=c34874f56da0353dda2f28fc&output=html&source=placeapi_v2,,08:30-18:00,,,,,,,,,,,,,,,,126.32200042875,45.386511754953,0
4acb13122a74691617948e39,合合美业,丽人,美容,黑龙江省,哈尔滨市,双城区,黑龙江省哈尔滨市双城区三道街帝王美业斜对面,4acb13122a74691617948e39,1,0,126.319891,45.385202,18244827999,beauty,http://api.map.baidu.com/place/detail?uid=4acb13122a74691617948e39&output=html&source=placeapi_v2,,,4,,,,,,,,1,,,,,,,126.32007852207,45.385263808547,0
dfd44d20c47c4644ddee8bda,红蜻蜓美容养生馆,丽人,美容,黑龙江省,哈尔滨市,双城区,黑龙江省哈尔滨市双城区迎宾路212号,,1,0,126.314293,45.383632,15204508778,beauty,http://api.map.baidu.com/place/detail?uid=dfd44d20c47c4644ddee8bda&output=html&source=placeapi_v2,,,,,,,,,,,,,,,,,,126.31422771635,45.383581868673,0
68a9f076754c62aa8515414a,小于微美,丽人,美容,黑龙江省,哈尔滨市,双城区,黑龙江省哈尔滨市双城区新兴路1号民乐高层8号楼,,1,0,126.32411,45.388764,13796771558,beauty,http://api.map.baidu.com/place/detail?uid=68a9f076754c62aa8515414a&output=html&source=placeapi_v2,,09:30-16:00,0,,,,,,,,1,,,,,,,126.32395968067,45.388974144903,0
677be1bb383cf25e2e47334c,正蓉美容连锁,丽人,美容,黑龙江省,哈尔滨市,双城区,哈尔滨市双城区兴旺路丁香园小区西南侧,,1,0,126.322975,45.385559,,beauty,http://api.map.baidu.com/place/detail?uid=677be1bb383cf25e2e47334c&output=html&source=placeapi_v2,,,,,,,,,,,,,,,,,,126.3227832454,45.385495074104,0
a48b705d39770776c92915cb,帝王美业(超值店),丽人,美容,黑龙江省,哈尔滨市,双城区,黑龙江省哈尔滨市双城区双城镇发达路民宗局住宅小区西南门,,1,0,126.32003,45.385216,,beauty,http://api.map.baidu.com/place/detail?uid=a48b705d39770776c92915cb&output=html&source=placeapi_v2,,,,,,,,,,,,,,,,,,,,0
0377cd92c0bade1e9f09f76b,静仁养生馆,丽人,美容,黑龙江省,哈尔滨市,双城区,哈尔滨市双城区兴旺路民宗局住宅小区,,1,0,126.322299,45.385672,,beauty,http://api.map.baidu.com/place/detail?uid=0377cd92c0bade1e9f09f76b&output=html&source=placeapi_v2,,,,,,,,,,,,,,,,,,126.32251554946,45.385746730944,0
8d7b8e1c32e0485016c90586,芈月美容院,丽人,美容,黑龙江省,哈尔滨市,双城区,哈尔滨市双城区粮食胡同六和城南侧,,1,0,126.317985,45.380713,15246687589,beauty,http://api.map.baidu.com/place/detail?uid=8d7b8e1c32e0485016c90586&output=html&source=placeapi_v2,,,,,,,,,,,,,,,,,,126.31816005501,45.380660591615,0
e43c17ddeac39f144207c1ea,韩方科颜美容院(双城店),丽人,美容,黑龙江省,哈尔滨市,双城区,哈尔滨市双城区新华胡同世纪现代城,e43c17ddeac39f144207c1ea,1,0,126.322466,45.376552,,beauty,http://api.map.baidu.com/place/detail?uid=e43c17ddeac39f144207c1ea&output=html&source=placeapi_v2,202.0,09:00-20:00,5.0,,,,,,,,1,,,,,,,126.32237469516,45.376664925535,0
ab3a484cf2b9aff4c9291567,叁歌美业,丽人,美容,黑龙江省,哈尔滨市,双城区,哈尔滨市双城区北环城东路审计家园东侧约30米,,1,0,126.322581,45.384371,,beauty,http://api.map.baidu.com/place/detail?uid=ab3a484cf2b9aff4c9291567&output=html&source=placeapi_v2,,08:30-19:30,,,,,,,,,,,,,,,,126.32265832524,45.384251687525,0
49c3ae9da18c4e94a80dd858,初新美容美体会馆,丽人,美容,黑龙江省,哈尔滨市,双城区,双城镇民乐B区6栋小广场,,1,0,126.328152,45.388005,15146043104,beauty,http://api.map.baidu.com/place/detail?uid=49c3ae9da18c4e94a80dd858&output=html&source=placeapi_v2,,,,,,,,,,,,,,,,,,126.32834430538,45.388114448252,0
c0de66ad7645a084f7e73b09,无限极美容,丽人,美容,黑龙江省,哈尔滨市,双城区,黑龙江省哈尔滨市双城区迎宾路盛世家园,,1,0,126.301447,45.397634,,beauty,http://api.map.baidu.com/place/detail?uid=c0de66ad7645a084f7e73b09&output=html&source=placeapi_v2,,,,,,,,,,,,,,,,,,126.30170051275,45.397750134011,0
5a14488d4e1233ab13293559,克丽缇娜(民安大街店),丽人,美容,黑龙江省,哈尔滨市,双城区,哈尔滨市双城区民安大街鸿源小区西侧约50米,,1,0,126.320724,45.382835,,beauty,http://api.map.baidu.com/place/detail?uid=5a14488d4e1233ab13293559&output=html&source=placeapi_v2,,08:30-18:30,,,,,,,,,,,,,,,,,,0
521dec4805fd3b37ed74f8a7,茵芝堂(双城店),丽人,美容,黑龙江省,哈尔滨市,双城区,世纪现代城11栋1层20号商服,,1,0,126.322528,45.376575,15545466323,beauty,http://api.map.baidu.com/place/detail?uid=521dec4805fd3b37ed74f8a7&output=html&source=placeapi_v2,260.0,,4.8,,,,,,,,30,,,,,,,126.32243566944,45.376689306613,0
bf40cc4f557a5e631b11d583,缤诺丝健康抗衰会所,丽人,美容,黑龙江省,哈尔滨市,双城区,哈尔滨市双城区粮食胡同六和城南侧,,1,0,126.318183,45.380768,(0451)53126666,beauty,http://api.map.baidu.com/place/detail?uid=bf40cc4f557a5e631b11d583&output=html&source=placeapi_v2,,,,,,,,,,,,,,,,,,,,0
52a26cd11de90e082eb90871,玉芳美容院(双城店),丽人,美容,黑龙江省,哈尔滨市,双城区,黑龙江省哈尔滨市双城区民安大街民安嘉园E栋,52a26cd11de90e082eb90871,1,0,126.322788,45.37806,13845953161,beauty,http://api.map.baidu.com/place/detail?uid=52a26cd11de90e082eb90871&output=html&source=placeapi_v2,,08:00-19:30,,,,,,,,,,,,,,,,126.32282075685,45.378006522343,0
ffc1ab8f874e5676f21937be,吉祥美容,丽人,美容,黑龙江省,哈尔滨市,双城区,黑龙江省哈尔滨市双城区北三道街世纪现代城4号楼18号,ffc1ab8f874e5676f21937be,1,0,126.320765,45.375857,13895828234,beauty,http://api.map.baidu.com/place/detail?uid=ffc1ab8f874e5676f21937be&output=html&source=placeapi_v2,,,,,,,,,,,,,,,,,,126.32072161989,45.375885507894,0
5eb7faa9c071b73e95ca0709,聚缘堂养生馆,丽人,美容,黑龙江省,哈尔滨市,双城区,黑龙江省哈尔滨市双城区第五大道创越家园A栋6号商服(盛世帝豪KTV旁),5eb7faa9c071b73e95ca0709,1,0,126.316685,45.377678,,beauty,http://api.map.baidu.com/place/detail?uid=5eb7faa9c071b73e95ca0709&output=html&source=placeapi_v2,,,,,,,,,,,,,,,,,,,,0
030d23e0b2115c2e4d554747,婉晴美业,丽人,美容,黑龙江省,哈尔滨市,双城区,黑龙江省哈尔滨市双城区堡旭大道枫桥郡小区24栋正西方向160米,,1,0,126.33334,45.387214,15764514919,beauty,http://api.map.baidu.com/place/detail?uid=030d23e0b2115c2e4d554747&output=html&source=placeapi_v2,,,,,,,,,,,,,,,,,,126.33328342622,45.38729919211,0
5e73e9be3833538a3904b1cb,头道汤养生坊,丽人,美容,黑龙江省,哈尔滨市,双城区,哈尔滨市双城区新华胡同世纪现代城,5e73e9be3833538a3904b1cb,1,0,126.32246,45.376593,,beauty,http://api.map.baidu.com/place/detail?uid=5e73e9be3833538a3904b1cb&output=html&source=placeapi_v2,,,,,,,,,,,,,,,,,,,,0
b1a7e38c7f42538332f71d65,欧丽阿娜美容院,丽人,美容,黑龙江省,哈尔滨市,双城区,黑龙江省哈尔滨市双城区双北四道街民安嘉园e栋13号,,1,0,126.322183,45.377901,13503680229,beauty,http://api.map.baidu.com/place/detail?uid=b1a7e38c7f42538332f71d65&output=html&source=placeapi_v2,,,,,,,,,,,,,,,,,,,,0
1978e5e73c6c06a98a36eed3,晟淼美容院(高春玲双城店),丽人,美容,黑龙江省,哈尔滨市,双城区,黑龙江省哈尔滨市双城区民安嘉园民政局D栋底商,1978e5e73c6c06a98a36eed3,1,0,126.321038,45.378181,18645048255,beauty,http://api.map.baidu.com/place/detail?uid=1978e5e73c6c06a98a36eed3&output=html&source=placeapi_v2,,,,,,,,,,,,,,,,,,126.32089169697,45.378136990994,0
f7a48b0ad69e91b0a8f0cd31,佳慕痘肌修复面部健康(NO.02206店),丽人,美容,黑龙江省,哈尔滨市,双城区,哈尔滨市双城区景观大道北瑞宝宾馆对面,,1,0,126.322182,45.376501,15545466323,beauty,http://api.map.baidu.com/place/detail?uid=f7a48b0ad69e91b0a8f0cd31&output=html&source=placeapi_v2,,08:30-18:00,,,,,,,,,,,,,,,,126.32210655636,45.376599811099,0
b61871c46bd32d236fc02cbf,彬特美业,丽人,美容,黑龙江省,哈尔滨市,双城区,黑龙江省哈尔滨市双城区民安大街景观名苑多层4号楼13号,,1,0,126.322446,45.376544,18346172726,beauty,http://api.map.baidu.com/place/detail?uid=b61871c46bd32d236fc02cbf&output=html&source=placeapi_v2,,,,,,,,,,,,,,,,,,,,0
b656d940f17e3d4a601c6717,小鱼美业,丽人,美容,黑龙江省,哈尔滨市,双城区,黑龙江省哈尔滨市双城区花园大街39号,,1,0,126.323422,45.377613,15146395925,beauty,http://api.map.baidu.com/place/detail?uid=b656d940f17e3d4a601c6717&output=html&source=placeapi_v2,,08:00-21:00,,,,,,,,,,,,,,,,126.323763621,45.377642157247,0
54ee24a3b049b18c3010af16,翔宇皮鞋美容,丽人,美容,黑龙江省,哈尔滨市,双城区,黑龙江省哈尔滨市双城区双城镇客运站对面新华书店综合楼,54ee24a3b049b18c3010af16,1,0,126.318433,45.386916,15046122040,beauty,http://api.map.baidu.com/place/detail?uid=54ee24a3b049b18c3010af16&output=html&source=placeapi_v2,,09:00-20:00,0.0,,,,,,,,,,,,,,,,,0
a101c22f8269c403f6c59c8b,忒艺美业,丽人,美容,黑龙江省,哈尔滨市,双城区,黑龙江省哈尔滨市双城区北三道街8-9-10号双城龙华商住6号,,1,0,126.320332,45.375895,,beauty,http://api.map.baidu.com/place/detail?uid=a101c22f8269c403f6c59c8b&output=html&source=placeapi_v2,,08:00-21:00,,,,,,,,,,,,,,,,,,0
44e0b0de121e4b2c2eb9084f,雅旭X美容会馆,丽人,美容,黑龙江省,哈尔滨市,双城区,黑龙江省哈尔滨市双城区北四道街景观名苑12号,,1,0,126.322044,45.377529,,beauty,http://api.map.baidu.com/place/detail?uid=44e0b0de121e4b2c2eb9084f&output=html&source=placeapi_v2,,,,,,,,,,,,,,,,,,126.32197515402,45.377651630482,0
3fbc2d600ad5496ad22dd6bf,瑞轩阁美容会所,丽人,美容,黑龙江省,哈尔滨市,双城区,黑龙江省哈尔滨市双城区金安奥运新城5栋,3fbc2d600ad5496ad22dd6bf,1,0,126.324847,45.377269,,beauty,http://api.map.baidu.com/place/detail?uid=3fbc2d600ad5496ad22dd6bf&output=html&source=placeapi_v2,,08:00-20:00,0,,,,,,,,0,,,,,,,126.32483238717,45.377431575091,0
89242797928e4086130daac8,唯美非凡美容会馆,丽人,美容,黑龙江省,哈尔滨市,双城区,哈尔滨市双城区枫桥郡24号-3,,1,0,126.336419,45.388106,18246647567,beauty,http://api.map.baidu.com/place/detail?uid=89242797928e4086130daac8&output=html&source=placeapi_v2,,,,,,,,,,,,,,,,,,126.33642000993,45.388298082521,0
9b0acd83c50c844d46e2740d,韩妆绣苑美容管理中心,丽人,美容,黑龙江省,哈尔滨市,双城区,哈尔滨市双城区新华胡同景观名苑,,1,0,126.322478,45.37693,,beauty,http://api.map.baidu.com/place/detail?uid=9b0acd83c50c844d46e2740d&output=html&source=placeapi_v2,,,,,,,,,,,,,,,,,,126.32252005806,45.376829217445,0
da2cdf049e11b792c9291520,唯善美甲美容工作室,丽人,美容,黑龙江省,哈尔滨市,双城区,黑龙江省哈尔滨市双城区新华胡同世纪现代城,,1,0,126.322351,45.37651,,beauty,http://api.map.baidu.com/place/detail?uid=da2cdf049e11b792c9291520&output=html&source=placeapi_v2,,,,,,,,,,,,,,,,,,126.32229120485,45.376669207901,0
089e6ad67bc75fd0471a323a,韵颜养生馆,丽人,美容,黑龙江省,哈尔滨市,双城区,哈尔滨市双城区新华胡同世纪现代城,089e6ad67bc75fd0471a323a,1,0,126.322125,45.376424,"18348514873,18724658823",beauty,http://api.map.baidu.com/place/detail?uid=089e6ad67bc75fd0471a323a&output=html&source=placeapi_v2,,,,,,,,,,,,,,,,,,126.32200328985,45.376561000035,0
0a1ba059aef93f84f02d83dd,康瑞国际养生会馆,丽人,美容,黑龙江省,哈尔滨市,双城区,哈尔滨市双城区新华胡同世纪现代城,0a1ba059aef93f84f02d83dd,1,0,126.320676,45.375808,,beauty,http://api.map.baidu.com/place/detail?uid=0a1ba059aef93f84f02d83dd&output=html&source=placeapi_v2,,,,,,,,,,,,,,,,,,126.32064701112,45.375837532149,0
ba7b707c0ed8229d1188241e,甄慧美美容院,丽人,美容,黑龙江省,哈尔滨市,双城区,黑龙江省哈尔滨市双城区新华胡同世纪现代城11号楼12号,,1,0,126.322396,45.376528,13100853444,beauty,http://api.map.baidu.com/place/detail?uid=ba7b707c0ed8229d1188241e&output=html&source=placeapi_v2,,,,,,,,,,,,,,,,,,126.32230760162,45.376638097461,0
1adfcef5bb6ce85128201a60,欣荣美容院,丽人,美容,黑龙江省,哈尔滨市,双城区,黑龙江省哈尔滨市双城区景观大道三道街金安奥运多层3栋4单元201号,,1,0,126.325874,45.377602,,beauty,http://api.map.baidu.com/place/detail?uid=1adfcef5bb6ce85128201a60&output=html&source=placeapi_v2,,,,,,,,,,,,,,,,,,126.3258103113,45.37771457052,0
462133f947396aa8efdfca49,缇琳美容院,丽人,美容,黑龙江省,哈尔滨市,双城区,黑龙江省哈尔滨市双城区北三道街世纪现代城4号楼2层,,1,0,126.321187,45.376021,,beauty,http://api.map.baidu.com/place/detail?uid=462133f947396aa8efdfca49&output=html&source=placeapi_v2,,,,,,,,,,,,,,,,,,126.32111521963,45.376124962942,0
3b495e352c4ed90bf4e73b8c,怡荟草堂美肤管理中心,丽人,美容,黑龙江省,哈尔滨市,双城区,黑龙江省哈尔滨市双城区三道街景观名苑6号,,1,0,126.321675,45.376602,18904817599,beauty,http://api.map.baidu.com/place/detail?uid=3b495e352c4ed90bf4e73b8c&output=html&source=placeapi_v2,,,,,,,,,,,,,,,,,,,,0
c5943e7b60811c4ae81e97bc,肤美容院,丽人,美容,黑龙江省,哈尔滨市,双城区,哈尔滨市双城区堡旭大道民乐家园东北侧约140米,,1,0,126.339516,45.391253,,beauty,http://api.map.baidu.com/place/detail?uid=c5943e7b60811c4ae81e97bc&output=html&source=placeapi_v2,,,,,,,,,,,,,,,,,,,,0
6d624176f6b07fca96ca079b,怡颜美容院,丽人,美容,黑龙江省,哈尔滨市,双城区,黑龙江省哈尔滨市双城区双城镇景观道大道中央红负一层,,1,0,126.323633,45.375497,13796220043,beauty,http://api.map.baidu.com/place/detail?uid=6d624176f6b07fca96ca079b&output=html&source=placeapi_v2,,,,,,,,,,,,,,,,,,126.32373505938,45.37552341475,0
4f6033178deea77821f017c0,艾米美容院,丽人,美容,黑龙江省,哈尔滨市,双城区,黑龙江省哈尔滨市双城区兴旺路鑫马电业1号楼27号,,1,0,126.327496,45.377008,15603667772,beauty,http://api.map.baidu.com/place/detail?uid=4f6033178deea77821f017c0&output=html&source=placeapi_v2,,,,,,,,,,,,,,,,,,,,0
21a2ee90b1f2ec7f901fc990,秀娟皮鞋美容,丽人,美容,黑龙江省,哈尔滨市,双城区,哈尔滨市双城区站前街小夫子国学幼儿园北侧约160米,21a2ee90b1f2ec7f901fc990,1,0,126.301928,45.401118,15146041291,beauty,http://api.map.baidu.com/place/detail?uid=21a2ee90b1f2ec7f901fc990&output=html&source=placeapi_v2,,,,,,,,,,,,,,,,,,,,0
c5943e7b60811c4ae81e97bc,肤美容院,丽人,美容,黑龙江省,哈尔滨市,双城区,哈尔滨市双城区堡旭大道民乐家园东北侧约140米,,1,0,126.339516,45.391253,,beauty,http://api.map.baidu.com/place/detail?uid=c5943e7b60811c4ae81e97bc&output=html&source=placeapi_v2,,,,,,,,,,,,,,,,,,,,0
030d23e0b2115c2e4d554747,婉晴美业,丽人,美容,黑龙江省,哈尔滨市,双城区,黑龙江省哈尔滨市双城区堡旭大道枫桥郡小区24栋正西方向160米,,1,0,126.33334,45.387214,15764514919,beauty,http://api.map.baidu.com/place/detail?uid=030d23e0b2115c2e4d554747&output=html&source=placeapi_v2,,,,,,,,,,,,,,,,,,126.33328342622,45.38729919211,0
89242797928e4086130daac8,唯美非凡美容会馆,丽人,美容,黑龙江省,哈尔滨市,双城区,哈尔滨市双城区枫桥郡24号-3,,1,0,126.336419,45.388106,18246647567,beauty,http://api.map.baidu.com/place/detail?uid=89242797928e4086130daac8&output=html&source=placeapi_v2,,,,,,,,,,,,,,,,,,126.33642000993,45.388298082521,0
37ddf230ae1f114d31f71d84,熙媛国际美容养生会馆,丽人,美容,黑龙江省,哈尔滨市,双城区,黑龙江省哈尔滨市周家街道周家镇政府3号楼第14门市,,1,0,126.669701,45.466184,15146067209,beauty,http://api.map.baidu.com/place/detail?uid=37ddf230ae1f114d31f71d84&output=html&source=placeapi_v2,,,,,,,,,,,,,,,,,,,,0
37ddf230ae1f114d31f71d84,熙媛国际美容养生会馆,丽人,美容,黑龙江省,哈尔滨市,双城区,黑龙江省哈尔滨市周家街道周家镇政府3号楼第14门市,,1,0,126.669701,45.466184,15146067209,beauty,http://api.map.baidu.com/place/detail?uid=37ddf230ae1f114d31f71d84&output=html&source=placeapi_v2,,,,,,,,,,,,,,,,,,,,0
e4b8ec850629ceed130daae2,丽颜纹绣微整,丽人,美容,黑龙江省,哈尔滨市,双城区,哈尔滨市双城区钱江路奇才幼儿园西侧约200米,,1,0,126.51271,45.518246,,beauty,http://api.map.baidu.com/place/detail?uid=e4b8ec850629ceed130daae2&output=html&source=placeapi_v2,,,,,,,,,,,,,,,,,,,,0
2dd9dc5d255e4225e1110351,孙静纹绣私人定制美容,丽人,美容,黑龙江省,哈尔滨市,阿城区,黑龙江省哈尔滨市阿城区万博豪庭21-16,,1,0,126.984263,45.536662,,beauty,http://api.map.baidu.com/place/detail?uid=2dd9dc5d255e4225e1110351&output=html&source=placeapi_v2,,,,,,,,,,,,,,,,,,,,0
a38c2ff60e1908a7b817e72d,凯韵诗美容会所,丽人,美容,黑龙江省,哈尔滨市,阿城区,黑龙江省哈尔滨市阿城区延川大街长安小区4~6号楼,a38c2ff60e1908a7b817e72d,1,0,126.976051,45.536675,,beauty,http://api.map.baidu.com/place/detail?uid=a38c2ff60e1908a7b817e72d&output=html&source=placeapi_v2,,,,,,,,,,,,,,,,,,,,0
b33de3b761a636f14151c0a1,克丽缇娜专业美容护肤中心(阿城香缇店),丽人,美容,黑龙江省,哈尔滨市,阿城区,黑龙江省哈尔滨市阿城区金都街道延川大街畜牧大厦胡同春来居饭店对面,b33de3b761a636f14151c0a1,1,0,126.975852,45.542398,,beauty,http://api.map.baidu.com/place/detail?uid=b33de3b761a636f14151c0a1&output=html&source=placeapi_v2,,08:00-18:00,5,,,,,,,,2,,,,,,,126.97577800003,45.542194286099,0
5089bef7797ed71646572691,AUGE奥格皮肤管理中心(达仁・印象城购物中心店),丽人,美容,黑龙江省,哈尔滨市,阿城区,哈尔滨市阿城区会宁路印象城风情街2楼29号,,1,0,126.986425,45.543212,(0451)53760414,beauty,http://api.map.baidu.com/place/detail?uid=5089bef7797ed71646572691&output=html&source=placeapi_v2,,09:00-18:00,0,,,,,,,,0,,,,,,,126.98642453817,45.543211971062,0
22bcbbb001720a3df7eafcb5,印象御品美颜养生,丽人,美容,黑龙江省,哈尔滨市,阿城区,黑龙江省哈尔滨市阿城区金都大街49号,,1,0,126.983421,45.53866,13303614321,beauty,http://api.map.baidu.com/place/detail?uid=22bcbbb001720a3df7eafcb5&output=html&source=placeapi_v2,,,,,,,,,,,,,,,,,,126.98346051087,45.538529678704,0
41885715ca86dc3135b06c09,艺佳美业,丽人,美容,黑龙江省,哈尔滨市,阿城区,黑龙江省哈尔滨市阿城区金都大街29号,41885715ca86dc3135b06c09,1,0,126.984407,45.538819,18556657776,beauty,http://api.map.baidu.com/place/detail?uid=41885715ca86dc3135b06c09&output=html&source=placeapi_v2,,08:00-20:30,,,,,,,,,,,,,,,,126.98435122749,45.538681357308,0
e18ac7e9a4f14b2ffea7783c,王欣美容生活会馆,丽人,美容,黑龙江省,哈尔滨市,阿城区,黑龙江省哈尔滨市阿城区高明胡同50号华龙金城1号楼,e18ac7e9a4f14b2ffea7783c,1,0,126.984111,45.545141,(0451)53963977,beauty,http://api.map.baidu.com/place/detail?uid=e18ac7e9a4f14b2ffea7783c&output=html&source=placeapi_v2,,08:00-17:00,3,,,,,,,,2,,,,,,,126.984110964,45.54527735992,0
ab21e217937f0dcf2fb96d7f,畅畅绣美・工作室,丽人,美容,黑龙江省,哈尔滨市,阿城区,黑龙江省哈尔滨市阿城区会同和胡同人大3号楼,,1,0,126.984954,45.539846,18346220669,beauty,http://api.map.baidu.com/place/detail?uid=ab21e217937f0dcf2fb96d7f&output=html&source=placeapi_v2,,,,,,,,,,,,,,,,,,,,0
5866dd9c64e1feab4d776e38,添姿维雅美容养生馆,丽人,美容,黑龙江省,哈尔滨市,阿城区,黑龙江省哈尔滨市阿城区人大2号楼19门市,,1,0,126.984975,45.539654,,beauty,http://api.map.baidu.com/place/detail?uid=5866dd9c64e1feab4d776e38&output=html&source=placeapi_v2,,09:00-21:00,,,,,,,,,,,,,,,,126.98498007728,45.539763974324,0
215f513b7b563942c2f1cf1b,微微美容院,丽人,美容,黑龙江省,哈尔滨市,阿城区,东姓胡同康乐小区A座附近,,1,0,126.980448,45.539107,,beauty,http://api.map.baidu.com/place/detail?uid=215f513b7b563942c2f1cf1b&output=html&source=placeapi_v2,,,,,,,,,,,,,,,,,,126.98047968435,45.5389825889,0
21c19b668e22254d715e8029,和治堂养生馆,丽人,美容,黑龙江省,哈尔滨市,阿城区,黑龙江省哈尔滨市阿城区通顺长胡同45号,,1,0,126.97984,45.54013,15663422225,beauty,http://api.map.baidu.com/place/detail?uid=21c19b668e22254d715e8029&output=html&source=placeapi_v2,,08:00-21:00,,,,,,,,,,,,,,,,126.97991392346,45.540014139694,0
149e02236db41510441a32b6,薇肽酵素养生馆(灵枢美业连锁店),丽人,美容,黑龙江省,哈尔滨市,阿城区,通顺长胡同19,,1,0,126.981008,45.540562,15045267955,beauty,http://api.map.baidu.com/place/detail?uid=149e02236db41510441a32b6&output=html&source=placeapi_v2,,,,,,,,,,,,,,,,,,,,0
0a41f2af6cfb7b850b69d986,英潮馆欧韩时尚会所,丽人,美容,黑龙江省,哈尔滨市,阿城区,东大坡金水国际A2,0a41f2af6cfb7b850b69d986,1,0,126.994521,45.544062,13945688353,beauty,http://api.map.baidu.com/place/detail?uid=0a41f2af6cfb7b850b69d986&output=html&source=placeapi_v2,,10:00-21:00,,,,,,,,,,,,,,,,126.99452649839,45.544241721852,0
ec4206fbcbb62d803e9a5e5e,丹丹美容工作室,丽人,美容,黑龙江省,哈尔滨市,阿城区,哈尔滨市阿城区体东路体东名城,ec4206fbcbb62d803e9a5e5e,1,0,126.990495,45.542601,13796097555,beauty,http://api.map.baidu.com/place/detail?uid=ec4206fbcbb62d803e9a5e5e&output=html&source=placeapi_v2,,,,,,,,,,,,,,,,,,126.99058849592,45.542595039144,0
16b773f02bbb1e589f09f706,伽美护肤会所,丽人,美容,黑龙江省,哈尔滨市,阿城区,哈尔滨市阿城区会宁路庆云小区东侧约30米,,1,0,126.986519,45.542712,15945799188,beauty,http://api.map.baidu.com/place/detail?uid=16b773f02bbb1e589f09f706&output=html&source=placeapi_v2,,08:30-20:00,,,,,,,,,,,,,,,,,,0
126ebb0bd4a4f83d7369d375,黛美尔减肥美容美体健康管理,丽人,美容,黑龙江省,哈尔滨市,阿城区,黑龙江省哈尔滨市阿城区金澜路清真小区29号楼,126ebb0bd4a4f83d7369d375,1,0,126.972143,45.541587,13163433310,beauty,http://api.map.baidu.com/place/detail?uid=126ebb0bd4a4f83d7369d375&output=html&source=placeapi_v2,,08:00-18:00,,,,,,,,,,,,,,,,126.97197188138,45.541587110813,0
4982b5ab5f77b2a930169bbd,红源美容减肥养生馆,丽人,美容,黑龙江省,哈尔滨市,阿城区,黑龙江省哈尔滨市阿城区金都大道祥泰小区10号楼101室,,1,0,126.977324,45.540824,13936201578,beauty,http://api.map.baidu.com/place/detail?uid=4982b5ab5f77b2a930169bbd&output=html&source=placeapi_v2,,,,,,,,,,,,,,,,,,,,0
a44ff46bd1102dc38e772759,国肽生物健康馆,丽人,美容,黑龙江省,哈尔滨市,阿城区,哈尔滨市阿城区礼让胡同哈尔滨市阿城区回民小学校北侧,,1,0,126.97253,45.541366,,beauty,http://api.map.baidu.com/place/detail?uid=a44ff46bd1102dc38e772759&output=html&source=placeapi_v2,,,,,,,,,,,,,,,,,,126.97253600376,45.541215120426,0
63c3be252708e3b0c61e5126,李娜纹绣美容会馆,丽人,美容,黑龙江省,哈尔滨市,双城区,黑龙江省哈尔滨市双城区466乡道保利新城小区7号楼,,1,0,126.396666,45.551543,13895811993,beauty,http://api.map.baidu.com/place/detail?uid=63c3be252708e3b0c61e5126&output=html&source=placeapi_v2,,,,,,,,,,,,,,,,,,,,0
29f1f171f997611436b06c97,美容纹绣,丽人,美容,黑龙江省,哈尔滨市,平房区,哈尔滨市平房区哈南十五路宇光万和城,,1,0,126.649686,45.576591,,beauty,http://api.map.baidu.com/place/detail?uid=29f1f171f997611436b06c97&output=html&source=placeapi_v2,,09:00-20:30,,,,,,,,,,,,,,,,126.64960854779,45.576451889664,0
643666aac965295b62685822,鸿博专业美颜会所,丽人,美容,黑龙江省,哈尔滨市,平房区,黑龙江省哈尔滨市平房区哈南十五路宇光万和城25号楼,,1,0,126.649641,45.576602,,beauty,http://api.map.baidu.com/place/detail?uid=643666aac965295b62685822&output=html&source=placeapi_v2,,,,,,,,,,,,,,,,,,126.6496754985,45.576433625907,0
2880ffdef8451271c26c1484,恩惠理容,丽人,美容,黑龙江省,哈尔滨市,阿城区,黑龙江省哈尔滨市阿城区龙涤小区3号楼101室,2880ffdef8451271c26c1484,1,0,126.949024,45.561972,13936102594,beauty,http://api.map.baidu.com/place/detail?uid=2880ffdef8451271c26c1484&output=html&source=placeapi_v2,,08:30-20:00,,,,,,,,,,,,,,,,,,0
e1e5341ad3cc1b5438221c53,丽姿美容美体,丽人,美容,黑龙江省,哈尔滨市,阿城区,黑龙江省哈尔滨市阿城区北新路哈尔滨科学技术职业学院西北侧约30米,,1,0,126.96185,45.550415,,beauty,http://api.map.baidu.com/place/detail?uid=e1e5341ad3cc1b5438221c53&output=html&source=placeapi_v2,,,,,,,,,,,,,,,,,,126.96185744911,45.550257341031,0
8abffbfd17e6a03c1188241d,美滋滋美容养生坊,丽人,美容,黑龙江省,哈尔滨市,阿城区,哈尔滨市阿城区牌东路和平小区(民权大街),,1,0,126.984961,45.550035,,beauty,http://api.map.baidu.com/place/detail?uid=8abffbfd17e6a03c1188241d&output=html&source=placeapi_v2,,08:00-20:00,,,,,,,,,,,,,,,,,,0
8a13cd4704ea9e7eadb22a16,苗方清颜专业祛痘(牌路大街店),丽人,美容,黑龙江省,哈尔滨市,阿城区,黑龙江省哈尔滨市阿城区牌路大街486号,8a13cd4704ea9e7eadb22a16,1,0,126.982359,45.551218,(0451)56566494,beauty,http://api.map.baidu.com/place/detail?uid=8a13cd4704ea9e7eadb22a16&output=html&source=placeapi_v2,136.0,10:00-20:00,0,,,,,,,,0,,,,,,,126.982377379,45.551216440065,0
ed99cf449b43e6a683a00c1b,百惠美容苑,丽人,美容,黑龙江省,哈尔滨市,阿城区,黑龙江省哈尔滨市阿城区华龙路51号朝阳公寓2号楼,ed99cf449b43e6a683a00c1b,1,0,126.978625,45.550921,13674518455,beauty,http://api.map.baidu.com/place/detail?uid=ed99cf449b43e6a683a00c1b&output=html&source=placeapi_v2,,,,,,,,,,,,,,,,,,126.97865820914,45.550790732303,0
251adf8c3bc38ee62afc4869,冬雪美容美睫会馆,丽人,美容,黑龙江省,哈尔滨市,阿城区,黑龙江省哈尔滨市阿城区牌东路和平小区19号楼,,1,0,126.983708,45.549305,18845028584,beauty,http://api.map.baidu.com/place/detail?uid=251adf8c3bc38ee62afc4869&output=html&source=placeapi_v2,,,,,,,,,,,,,,,,,,,,0
e18ac7e9a4f14b2ffea7783c,王欣美容生活会馆,丽人,美容,黑龙江省,哈尔滨市,阿城区,黑龙江省哈尔滨市阿城区高明胡同50号华龙金城1号楼,e18ac7e9a4f14b2ffea7783c,1,0,126.984111,45.545141,(0451)53963977,beauty,http://api.map.baidu.com/place/detail?uid=e18ac7e9a4f14b2ffea7783c&output=html&source=placeapi_v2,,08:00-17:00,3,,,,,,,,2,,,,,,,126.984110964,45.54527735992,0
99519d4a086d8f4f5e0d02a7,聚萍养生馆,丽人,美容,黑龙江省,哈尔滨市,阿城区,哈尔滨市阿城区新兴路和平小区(民权大街),,1,0,126.986169,45.549941,,beauty,http://api.map.baidu.com/place/detail?uid=99519d4a086d8f4f5e0d02a7&output=html&source=placeapi_v2,,,,,,,,,,,,,,,,,,,,0
c492205f5499af2608f5eb40,百年养生糖友生活管理机构,丽人,美容,黑龙江省,哈尔滨市,阿城区,黑龙江哈尔滨市阿城区会宁路383号,,1,0,126.98612,45.545545,,beauty,http://api.map.baidu.com/place/detail?uid=c492205f5499af2608f5eb40&output=html&source=placeapi_v2,,,,,,,,,,,,,,,,,,,,0
ac82e1e9429a066c54bfff56,爱尚养生会馆,丽人,美容,黑龙江省,哈尔滨市,阿城区,黑龙江省哈尔滨市阿城区解放大街和平小区28号楼,ac82e1e9429a066c54bfff56,1,0,126.984834,45.549194,18845595227,beauty,http://api.map.baidu.com/place/detail?uid=ac82e1e9429a066c54bfff56&output=html&source=placeapi_v2,,08:00-18:00,,,,,,,,,,,,,,,,126.98482352239,45.549131082725,0
5089bef7797ed71646572691,AUGE奥格皮肤管理中心(达仁・印象城购物中心店),丽人,美容,黑龙江省,哈尔滨市,阿城区,哈尔滨市阿城区会宁路印象城风情街2楼29号,,1,0,126.986425,45.543212,(0451)53760414,beauty,http://api.map.baidu.com/place/detail?uid=5089bef7797ed71646572691&output=html&source=placeapi_v2,,09:00-18:00,0,,,,,,,,0,,,,,,,126.98642453817,45.543211971062,0
ba8e88800b267262f33cbac4,唯伊美容养生会馆,丽人,美容,黑龙江省,哈尔滨市,阿城区,黑龙江省哈尔滨市阿城区民权大街永泰广小区24号楼,,1,0,126.9728,45.546872,15045483339,beauty,http://api.map.baidu.com/place/detail?uid=ba8e88800b267262f33cbac4&output=html&source=placeapi_v2,,,,,,,,,,,,,,,,,,126.97279848773,45.547020902035,0
d5bc562bcccdfcbf306212d3,佳丽养生会,丽人,美容,黑龙江省,哈尔滨市,阿城区,哈尔滨市阿城区勤俭胡同高明小区,,1,0,126.98581,45.546824,,beauty,http://api.map.baidu.com/place/detail?uid=d5bc562bcccdfcbf306212d3&output=html&source=placeapi_v2,,,,,,,,,,,,,,,,,,,,0
d77cd68bfcf2eb3ee011037e,蓝灵美容保健生活馆,丽人,美容,黑龙江省,哈尔滨市,阿城区,黑龙江省哈尔滨市阿城区高明地税公寓对面,d77cd68bfcf2eb3ee011037e,1,0,126.984413,45.546319,,beauty,http://api.map.baidu.com/place/detail?uid=d77cd68bfcf2eb3ee011037e&output=html&source=placeapi_v2,,,,,,,,,,,,,,,,,,126.98449277349,45.54632119449,0
0a41f2af6cfb7b850b69d986,英潮馆欧韩时尚会所,丽人,美容,黑龙江省,哈尔滨市,阿城区,东大坡金水国际A2,0a41f2af6cfb7b850b69d986,1,0,126.994521,45.544062,13945688353,beauty,http://api.map.baidu.com/place/detail?uid=0a41f2af6cfb7b850b69d986&output=html&source=placeapi_v2,,10:00-21:00,,,,,,,,,,,,,,,,126.99452649839,45.544241721852,0
d14a93b645f547a99f09f7e0,魏博士美肤中心,丽人,美容,黑龙江省,哈尔滨市,阿城区,哈尔滨市阿城区高明胡同高明小区,d14a93b645f547a99f09f7e0,1,0,126.984957,45.545381,13936614877,beauty,http://api.map.baidu.com/place/detail?uid=d14a93b645f547a99f09f7e0&output=html&source=placeapi_v2,,,,,,,,,,,,,,,,,,,,0
ff0e0dd30f5c26dcaeb22ad4,瑶芳清颜痘敏斑皮肤管理,丽人,美容,黑龙江省,哈尔滨市,阿城区,黑龙江省哈尔滨市阿城区富贵胡同48号,,1,0,126.983884,45.545734,13684509705,beauty,http://api.map.baidu.com/place/detail?uid=ff0e0dd30f5c26dcaeb22ad4&output=html&source=placeapi_v2,,,,,,,,,,,,,,,,,,126.98386904045,45.54584732896,0
2d5376281a69953d41d63e15,冰城理容,丽人,美容,黑龙江省,哈尔滨市,阿城区,黑龙江省哈尔滨市阿城区高明胡同高明小区14号楼52号,2d5376281a69953d41d63e15,1,0,126.984131,45.545201,18249132533,beauty,http://api.map.baidu.com/place/detail?uid=2d5376281a69953d41d63e15&output=html&source=placeapi_v2,,09:00-20:00,,,,,,,,,,,,,,,,126.98406078107,45.545275755593,0
b6be77c0adb503f9c71b7544,风格美容,丽人,美容,黑龙江省,哈尔滨市,阿城区,黑龙江省哈尔滨市阿城区牌路大街金城小区6号楼,,1,0,126.979276,45.545849,,beauty,http://api.map.baidu.com/place/detail?uid=b6be77c0adb503f9c71b7544&output=html&source=placeapi_v2,,,,,,,,,,,,,,,,,,,,0
0830a4c1095687ebf60e77c9,和颜绣色,丽人,美容,黑龙江省,哈尔滨市,阿城区,黑龙江省哈尔滨市阿城区延川大街286号,0830a4c1095687ebf60e77c9,1,0,126.978951,45.54599,15124658026,beauty,http://api.map.baidu.com/place/detail?uid=0830a4c1095687ebf60e77c9&output=html&source=placeapi_v2,,,,,,,,,,,,,,,,,,,,0
a97a3f49b046b6a1b9df8fb7,旭彩美容院,丽人,美容,黑龙江省,哈尔滨市,阿城区,哈尔滨市阿城区继电大街哈尔滨市阿城区继电高级中学西南侧约160米,,1,0,127.029227,45.561879,15546005131,beauty,http://api.map.baidu.com/place/detail?uid=a97a3f49b046b6a1b9df8fb7&output=html&source=placeapi_v2,,,,,,,,,,,,,,,,,,127.02916559633,45.561723880959,0
1388891d51ec0180b45f1eea,小赵修鞋工作室,丽人,美容,黑龙江省,哈尔滨市,阿城区,哈尔滨市阿城区继电大街与继林路交叉路口往东约150米,,1,0,127.027082,45.561063,,beauty,http://api.map.baidu.com/place/detail?uid=1388891d51ec0180b45f1eea&output=html&source=placeapi_v2,,09:00-18:00,,,,,,,,,,,,,,,,127.0275533724,45.561124345584,0
8e4c1d7b2e9a3d9109b93aa8,维京美容美体会馆,丽人,美容,黑龙江省,哈尔滨市,香坊区,哈尔滨市香坊区滨河大道小福星幼儿园西侧约110米,8e4c1d7b2e9a3d9109b93aa8,1,0,126.61764,45.606147,,beauty,http://api.map.baidu.com/place/detail?uid=8e4c1d7b2e9a3d9109b93aa8&output=html&source=placeapi_v2,,,,,,,,,,,,,,,,,,,,0
6975ce5857424ae8c9291552,惟尚美业(哈南十五路04号),丽人,美容,黑龙江省,哈尔滨市,平房区,黑龙江省哈尔滨市平房区哈南十五路04号秀水名苑一期,,1,0,126.652228,45.587649,"18345072218,18345073218",beauty,http://api.map.baidu.com/place/detail?uid=6975ce5857424ae8c9291552&output=html&source=placeapi_v2,,09:00-21:00,,,,,,,,,,,,,,,,126.65236991737,45.587616944485,0
401c74dd51a8366fa8175a61,仟花佰俪美肤馆,丽人,美容,黑龙江省,哈尔滨市,平房区,黑龙江省哈尔滨市平房区谷丰东街(国际花都2期东侧),,1,0,126.639701,45.598308,13674670956,beauty,http://api.map.baidu.com/place/detail?uid=401c74dd51a8366fa8175a61&output=html&source=placeapi_v2,,08:30-20:30,,,,,,,,,,,,,,,,,,0
0ad8cdda7fd9b32c210220c1,特睐唯美容院(平房分店),丽人,美容,黑龙江省,哈尔滨市,平房区,哈尔滨市平房区北厂友协东三道街280楼(哈飞俱乐部后身),0ad8cdda7fd9b32c210220c1,1,0,126.644163,45.609925,(0451)86590118,beauty,http://api.map.baidu.com/place/detail?uid=0ad8cdda7fd9b32c210220c1&output=html&source=placeapi_v2,,,4,,,,,,,,2,,,,,,,,,0
21d869fb483683dc6dc02c49,超天科技美容抗衰,丽人,美容,黑龙江省,哈尔滨市,平房区,黑龙江省哈尔滨市平房区双拥路731楼会宾家园731楼,,1,0,126.652977,45.608731,(0451)86512650,beauty,http://api.map.baidu.com/place/detail?uid=21d869fb483683dc6dc02c49&output=html&source=placeapi_v2,,08:00-20:00,,,,,,,,,,,,,,,,126.65284024229,45.608687466882,0
9702126f2a6c92cde856fa3a,金粉之乡美容美体会馆,丽人,美容,黑龙江省,哈尔滨市,平房区,黑龙江省哈尔滨市平房区友协大街东安名苑267楼,9702126f2a6c92cde856fa3a,1,0,126.672567,45.5943,(0451)86517830,beauty,http://api.map.baidu.com/place/detail?uid=9702126f2a6c92cde856fa3a&output=html&source=placeapi_v2,,08:30-20:00,3.0,,,,,,,,,,,,,,,,,0
a736f1a0811e3873d3ff231e,施恩爱经络养生馆,丽人,美容,黑龙江省,哈尔滨市,平房区,哈尔滨市平房区友协东头道街哈飞住宅,a736f1a0811e3873d3ff231e,1,0,126.645466,45.604864,15652028444,beauty,http://api.map.baidu.com/place/detail?uid=a736f1a0811e3873d3ff231e&output=html&source=placeapi_v2,,,,,,,,,,,,,,,,,,126.64535476848,45.604904898372,0
f465b7db0c76d9bd49fd3fcc,天依养生馆,丽人,美容,黑龙江省,哈尔滨市,平房区,黑龙江省哈尔滨市平房区兴建街4号757楼2楼5号商服,,1,0,126.651462,45.607193,,beauty,http://api.map.baidu.com/place/detail?uid=f465b7db0c76d9bd49fd3fcc&output=html&source=placeapi_v2,,10:00-22:00,,,,,,,,,,,,,,,,126.65165140771,45.607203948337,0
45248e05197516f87702694e,孜兰美容养生会所,丽人,美容,黑龙江省,哈尔滨市,平房区,哈尔滨市平房区兴建街兴建小区-B区,,1,0,126.651491,45.607146,18746144309,beauty,http://api.map.baidu.com/place/detail?uid=45248e05197516f87702694e&output=html&source=placeapi_v2,,,,,,,,,,,,,,,,,,126.651655919,45.607196772313,0
34615393e456a25c71455bec,新焦点美容养生会馆,丽人,美容,黑龙江省,哈尔滨市,平房区,黑龙江省哈尔滨市平房区南郡豪庭1号楼101门市,34615393e456a25c71455bec,1,0,126.667074,45.58977,15124684931,beauty,http://api.map.baidu.com/place/detail?uid=34615393e456a25c71455bec&output=html&source=placeapi_v2,,10:00-22:00,,,,,,,,,,,,,,,,126.66705797422,45.5895819411,0
c6f53fe891058f1ff3193723,予童美容院,丽人,美容,黑龙江省,哈尔滨市,平房区,黑龙江省哈尔滨市平房区新国街038号,,1,0,126.668512,45.591297,18345167516,beauty,http://api.map.baidu.com/place/detail?uid=c6f53fe891058f1ff3193723&output=html&source=placeapi_v2,,08:30-20:30,,,,,,,,,,,,,,,,126.66853914347,45.591554165522,0
40c2a937e032a85b46e2741d,阳阳私人定制美妆会馆,丽人,美容,黑龙江省,哈尔滨市,平房区,哈尔滨市平房区南城十一路绿色新城-东区,,1,0,126.66722,45.586465,,beauty,http://api.map.baidu.com/place/detail?uid=40c2a937e032a85b46e2741d&output=html&source=placeapi_v2,,,,,,,,,,,,,,,,,,126.66718565039,45.586355645018,0
760e5c4bf31305564d554727,琦丽美容减肥,丽人,美容,黑龙江省,哈尔滨市,平房区,哈尔滨市平房区建文街建平小区,760e5c4bf31305564d554727,1,0,126.647892,45.608992,,beauty,http://api.map.baidu.com/place/detail?uid=760e5c4bf31305564d554727&output=html&source=placeapi_v2,,,,,,,,,,,,,,,,,,126.64807547536,45.609046610183,0
874c4aaaf033ee839222e089,黎姿美容院,丽人,美容,黑龙江省,哈尔滨市,平房区,哈尔滨市平房区南红街南郡豪庭,,1,0,126.671626,45.590644,,beauty,http://api.map.baidu.com/place/detail?uid=874c4aaaf033ee839222e089&output=html&source=placeapi_v2,,08:30-20:00,,,,,,,,,,,,,,,,126.67183710147,45.590748666775,0
237d7a9453db8f918e55ecab,天使美容减肥,丽人,美容,黑龙江省,哈尔滨市,平房区,黑龙江省哈尔滨市平房区东安名苑609楼4单元201室,237d7a9453db8f918e55ecab,1,0,126.675303,45.594371,18686791722,beauty,http://api.map.baidu.com/place/detail?uid=237d7a9453db8f918e55ecab&output=html&source=placeapi_v2,,,0.0,,,,,,,,,,,,,,,,,0
20899fbe306fa2a3a1046410,阿君理容中心,丽人,美容,黑龙江省,哈尔滨市,平房区,黑龙江省哈尔滨市平房区建文街722楼6号库,20899fbe306fa2a3a1046410,1,0,126.652525,45.610363,15046184975,beauty,http://api.map.baidu.com/place/detail?uid=20899fbe306fa2a3a1046410&output=html&source=placeapi_v2,91.0,,0,,,,,,,,2,,,,,,,126.65249569092,45.610381882847,0
8f919f54e5642b6788f15d1c,庭美丽生活馆,丽人,美容,黑龙江省,哈尔滨市,平房区,黑龙江省哈尔滨市平房区建文街7723楼4~8号,,1,0,126.653116,45.610523,13936495201,beauty,http://api.map.baidu.com/place/detail?uid=8f919f54e5642b6788f15d1c&output=html&source=placeapi_v2,,10:00-14:00,0,,,,,,,,1,,,,,,,,,0
643666aac965295b62685822,鸿博专业美颜会所,丽人,美容,黑龙江省,哈尔滨市,平房区,黑龙江省哈尔滨市平房区哈南十五路宇光万和城25号楼,,1,0,126.649641,45.576602,,beauty,http://api.map.baidu.com/place/detail?uid=643666aac965295b62685822&output=html&source=placeapi_v2,,,,,,,,,,,,,,,,,,126.6496754985,45.576433625907,0
29f1f171f997611436b06c97,美容纹绣,丽人,美容,黑龙江省,哈尔滨市,平房区,哈尔滨市平房区哈南十五路宇光万和城,,1,0,126.649686,45.576591,,beauty,http://api.map.baidu.com/place/detail?uid=29f1f171f997611436b06c97&output=html&source=placeapi_v2,,09:00-20:30,,,,,,,,,,,,,,,,126.64960854779,45.576451889664,0
45f5610c0f5693bfb5f42fe7,茶麸原浆养生馆,丽人,美容,黑龙江省,哈尔滨市,平房区,黑龙江省哈尔滨市平房区友协东四道街267楼5-2号,,1,0,126.642658,45.611001,15545184680,beauty,http://api.map.baidu.com/place/detail?uid=45f5610c0f5693bfb5f42fe7&output=html&source=placeapi_v2,,08:00-20:00,,,,,,,,,,,,,,,,126.64276507137,45.610784227059,0
e731bb925c284f83ab059df7,花思雨美容养生会馆,丽人,美容,黑龙江省,哈尔滨市,平房区,哈尔滨市平房区友协东四道街东平小区南侧约30米,,1,0,126.641476,45.610329,13674673407,beauty,http://api.map.baidu.com/place/detail?uid=e731bb925c284f83ab059df7&output=html&source=placeapi_v2,,,,,,,,,,,,,,,,,,126.64145833868,45.610378654987,0
237d7a9453db8f918e55ecab,天使美容减肥,丽人,美容,黑龙江省,哈尔滨市,平房区,黑龙江省哈尔滨市平房区东安名苑609楼4单元201室,237d7a9453db8f918e55ecab,1,0,126.675303,45.594371,18686791722,beauty,http://api.map.baidu.com/place/detail?uid=237d7a9453db8f918e55ecab&output=html&source=placeapi_v2,,,0.0,,,,,,,,,,,,,,,,,0
874c4aaaf033ee839222e089,黎姿美容院,丽人,美容,黑龙江省,哈尔滨市,平房区,哈尔滨市平房区南红街南郡豪庭,,1,0,126.671626,45.590644,,beauty,http://api.map.baidu.com/place/detail?uid=874c4aaaf033ee839222e089&output=html&source=placeapi_v2,,08:30-20:00,,,,,,,,,,,,,,,,126.67183710147,45.590748666775,0
c6f53fe891058f1ff3193723,予童美容院,丽人,美容,黑龙江省,哈尔滨市,平房区,黑龙江省哈尔滨市平房区新国街038号,,1,0,126.668512,45.591297,18345167516,beauty,http://api.map.baidu.com/place/detail?uid=c6f53fe891058f1ff3193723&output=html&source=placeapi_v2,,08:30-20:30,,,,,,,,,,,,,,,,126.66853914347,45.591554165522,0
9702126f2a6c92cde856fa3a,金粉之乡美容美体会馆,丽人,美容,黑龙江省,哈尔滨市,平房区,黑龙江省哈尔滨市平房区友协大街东安名苑267楼,9702126f2a6c92cde856fa3a,1,0,126.672567,45.5943,(0451)86517830,beauty,http://api.map.baidu.com/place/detail?uid=9702126f2a6c92cde856fa3a&output=html&source=placeapi_v2,,08:30-20:00,3.0,,,,,,,,,,,,,,,,,0
7f32fc647ccb2c7f2cb90887,欣鑫美容养生馆,丽人,美容,黑龙江省,哈尔滨市,道里区,哈尔滨市道里区中心大街百货大楼西北侧约60米,,1,0,126.200976,45.638786,,beauty,http://api.map.baidu.com/place/detail?uid=7f32fc647ccb2c7f2cb90887&output=html&source=placeapi_v2,,,,,,,,,,,,,,,,,,,,0
f9f63004c7a95945fa42b2bb,装饰美容,丽人,美容,黑龙江省,哈尔滨市,香坊区,黑龙江省哈尔滨市香坊区松花路37号,,1,0,126.607637,45.615116,,beauty,http://api.map.baidu.com/place/detail?uid=f9f63004c7a95945fa42b2bb&output=html&source=placeapi_v2,,08:30-20:30,,,,,,,,,,,,,,,,,,0
67fdade078c80fc8fd0eb0c1,助云堂美容养生馆,丽人,美容,黑龙江省,哈尔滨市,平房区,黑龙江省哈尔滨市平房区兴建街68-6宝融福园如意座,,1,0,126.647873,45.61282,18745833301,beauty,http://api.map.baidu.com/place/detail?uid=67fdade078c80fc8fd0eb0c1&output=html&source=placeapi_v2,,08:30-21:00,,,,,,,,,,,,,,,,126.6480289602,45.612909335622,0
44480b74d97823f55b109342,依之轩养生馆,丽人,美容,黑龙江省,哈尔滨市,平房区,黑龙江省哈尔滨市平房区新疆大街75号顺达商厦3楼,44480b74d97823f55b109342,1,0,126.639176,45.612484,,beauty,http://api.map.baidu.com/place/detail?uid=44480b74d97823f55b109342&output=html&source=placeapi_v2,,,,,,,,,,,,,,,,,,126.63917627887,45.612483840571,0
8f919f54e5642b6788f15d1c,庭美丽生活馆,丽人,美容,黑龙江省,哈尔滨市,平房区,黑龙江省哈尔滨市平房区建文街7723楼4~8号,,1,0,126.653116,45.610523,13936495201,beauty,http://api.map.baidu.com/place/detail?uid=8f919f54e5642b6788f15d1c&output=html&source=placeapi_v2,,10:00-14:00,0,,,,,,,,1,,,,,,,,,0
20899fbe306fa2a3a1046410,阿君理容中心,丽人,美容,黑龙江省,哈尔滨市,平房区,黑龙江省哈尔滨市平房区建文街722楼6号库,20899fbe306fa2a3a1046410,1,0,126.652525,45.610363,15046184975,beauty,http://api.map.baidu.com/place/detail?uid=20899fbe306fa2a3a1046410&output=html&source=placeapi_v2,91.0,,0,,,,,,,,2,,,,,,,126.65249569092,45.610381882847,0
d4f30d4f49bdf40bb23c81ce,本初生活馆,丽人,美容,黑龙江省,哈尔滨市,平房区,黑龙江省哈尔滨市平房区新疆大街54号,,1,0,126.641403,45.612066,18646334931,beauty,http://api.map.baidu.com/place/detail?uid=d4f30d4f49bdf40bb23c81ce&output=html&source=placeapi_v2,,09:00-20:00,,,,,,,,,,,,,,,,126.64129538696,45.612267578284,0
45f5610c0f5693bfb5f42fe7,茶麸原浆养生馆,丽人,美容,黑龙江省,哈尔滨市,平房区,黑龙江省哈尔滨市平房区友协东四道街267楼5-2号,,1,0,126.642658,45.611001,15545184680,beauty,http://api.map.baidu.com/place/detail?uid=45f5610c0f5693bfb5f42fe7&output=html&source=placeapi_v2,,08:00-20:00,,,,,,,,,,,,,,,,126.64276507137,45.610784227059,0
9e15665d853f70df49fc8d4b,美渡美妆美体养生,丽人,美容,黑龙江省,哈尔滨市,平房区,黑龙江省哈尔滨市平房区友协大街178号,,1,0,126.638693,45.612479,(0451)87071717,beauty,http://api.map.baidu.com/place/detail?uid=9e15665d853f70df49fc8d4b&output=html&source=placeapi_v2,,08:30-19:30,,,,,,,,,,,,,,,,126.63847932136,45.612586171367,0
6ec02c72d4120c114afd3fc1,觅美空间美容美体体验馆,丽人,美容,黑龙江省,哈尔滨市,香坊区,哈尔滨市香坊区金发街金发幼儿园东侧约180米,,1,0,126.673208,45.639384,,beauty,http://api.map.baidu.com/place/detail?uid=6ec02c72d4120c114afd3fc1&output=html&source=placeapi_v2,,08:00-20:30,,,,,,,,,,,,,,,,,,0
5d6f99ee9077bbdde115f98b,杰约韩式半永久祛斑痦子,丽人,美容,黑龙江省,哈尔滨市,道里区,哈尔滨市道里区机场路小树苗幼儿园南侧约60米,,1,0,126.489423,45.674434,,beauty,http://api.map.baidu.com/place/detail?uid=5d6f99ee9077bbdde115f98b&output=html&source=placeapi_v2,,,,,,,,,,,,,,,,,,126.48953543312,45.674469253014,0
f757f368a744a530f4e73be3,唯美纹绣抗衰,丽人,美容,黑龙江省,哈尔滨市,道里区,哈尔滨市道里区机场路小树苗幼儿园东南侧约110米,,1,0,126.490244,45.674317,,beauty,http://api.map.baidu.com/place/detail?uid=f757f368a744a530f4e73be3&output=html&source=placeapi_v2,,,,,,,,,,,,,,,,,,,,0
9e1b77a2f76dc10b85420e67,和美依美日韩双眼皮精雕抗衰,丽人,美容,黑龙江省,哈尔滨市,道里区,黑龙江省哈尔滨市道里区机场路605号,,1,0,126.490982,45.674667,,beauty,http://api.map.baidu.com/place/detail?uid=9e1b77a2f76dc10b85420e67&output=html&source=placeapi_v2,,,,,,,,,,,,,,,,,,,,0
2599ad5970be423a00ff2d10,花悦美容养生馆,丽人,美容,黑龙江省,哈尔滨市,南岗区,黑龙江省哈尔滨市南岗区农机街哈西华府二期c17栋,,1,0,126.564742,45.67493,,beauty,http://api.map.baidu.com/place/detail?uid=2599ad5970be423a00ff2d10&output=html&source=placeapi_v2,,,,,,,,,,,,,,,,,,,,0
5791af7716f48672badf8f55,丽美娜美容院,丽人,美容,黑龙江省,哈尔滨市,南岗区,黑龙江省哈尔滨市南岗区哈双路377号2楼,,1,0,126.556771,45.676534,18724590408,beauty,http://api.map.baidu.com/place/detail?uid=5791af7716f48672badf8f55&output=html&source=placeapi_v2,,08:00-21:00,,,,,,,,,,,,,,,,,,0
3896fa3f6f57e1af8bb988fc,尚雅专业美容,丽人,美容,黑龙江省,哈尔滨市,南岗区,黑龙江省哈尔滨市南岗区家合城3栋2楼15号,3896fa3f6f57e1af8bb988fc,1,0,126.558268,45.678363,15114533936,beauty,http://api.map.baidu.com/place/detail?uid=3896fa3f6f57e1af8bb988fc&output=html&source=placeapi_v2,,08:30-21:30,,,,,,,,,,,,,,,,126.55830698379,45.678361878395,0
aaeff66cc472d09e42d63e9b,碧缇芙女子会馆,丽人,美容,黑龙江省,哈尔滨市,南岗区,哈尔滨市南岗区王岗大街恒大B庭,,1,0,126.582083,45.703287,18545809555,beauty,http://api.map.baidu.com/place/detail?uid=aaeff66cc472d09e42d63e9b&output=html&source=placeapi_v2,,,,,,,,,,,,,,,,,,,,0
3d2b780c27e267b34f2fdf2a,Morning beauty韩国皮肤管理中心,丽人,美容,黑龙江省,哈尔滨市,南岗区,黑龙江省哈尔滨市南岗区汇龙北纬8-1-131度商服45度,3d2b780c27e267b34f2fdf2a,1,0,126.584571,45.701174,18346048220,beauty,http://api.map.baidu.com/place/detail?uid=3d2b780c27e267b34f2fdf2a&output=html&source=placeapi_v2,,10:00-19:00,0.0,,,,,,,,,,,,,,,,,0
a17e60c4e0441a39d72ce2e5,杰森美业,丽人,美容,黑龙江省,哈尔滨市,南岗区,黑龙江省哈尔滨市南岗区汇龙北纬45度8号楼24号,,1,0,126.584085,45.701481,15765585966,beauty,http://api.map.baidu.com/place/detail?uid=a17e60c4e0441a39d72ce2e5&output=html&source=placeapi_v2,,10:00-22:00,,,,,,,,,,,,,,,,126.58431542829,45.701712803022,0
09758cc5e9f88814ed74f8ed,启点美学韩式皮肤管理中心,丽人,美容,黑龙江省,哈尔滨市,南岗区,王岗大街恒大B庭5-18门市,,1,0,126.582133,45.703155,"18646045712,18646290197",beauty,http://api.map.baidu.com/place/detail?uid=09758cc5e9f88814ed74f8ed&output=html&source=placeapi_v2,,10:00-19:00,,,,,,,,,,,,,,,,,,0
354f2eb637dd243bc9c3db74,鑫钰美容美体,丽人,美容,黑龙江省,哈尔滨市,道里区,哈尔滨市道里区金城街鸿祥家园,354f2eb637dd243bc9c3db74,1,0,126.564062,45.710378,,beauty,http://api.map.baidu.com/place/detail?uid=354f2eb637dd243bc9c3db74&output=html&source=placeapi_v2,,,0.0,,,,,,,,,,,,,,,,,0
3f7416385d269bd87bb55c70,祛斑祛痘皮肤护理(王岗店),丽人,美容,黑龙江省,哈尔滨市,南岗区,黑龙江省哈尔滨市南岗区金海城12栋,,1,0,126.559804,45.681714,13796634294,beauty,http://api.map.baidu.com/place/detail?uid=3f7416385d269bd87bb55c70&output=html&source=placeapi_v2,,10:00-18:00,,,,,,,,,,,,,,,,126.55974596142,45.681645376975,0
5dd5a6b30a347ae6744ff176,Y・Beauty美颜定制中心,丽人,美容,黑龙江省,哈尔滨市,道里区,黑龙江省哈尔滨市道里区城乡路鸿翔家园3栋3单元102号,,1,0,126.564772,45.710713,15804668884,beauty,http://api.map.baidu.com/place/detail?uid=5dd5a6b30a347ae6744ff176&output=html&source=placeapi_v2,,,,,,,,,,,,,,,,,,,,0
1864c583e3e770bed518b767,春燕美容工作室,丽人,美容,黑龙江省,哈尔滨市,道里区,哈尔滨市道里区城清头道街城元阁小区北侧约50米,1864c583e3e770bed518b767,1,0,126.566126,45.711137,,beauty,http://api.map.baidu.com/place/detail?uid=1864c583e3e770bed518b767&output=html&source=placeapi_v2,,,,,,,,,,,,,,,,,,,,0
0148f56be591ab5fdc1e5273,DLP skin・DMK酶疗中心,丽人,美容,黑龙江省,哈尔滨市,南岗区,黑龙江省哈尔滨市南岗区东方大街华润置地公馆3号楼0902号,,1,0,126.575276,45.710251,"13009707253,15945182172",beauty,http://api.map.baidu.com/place/detail?uid=0148f56be591ab5fdc1e5273&output=html&source=placeapi_v2,,10:00-19:00,,,,,,,,,,,,,,,,126.57465099505,45.710904552415,0
cb4283046dd2095dc7f025dd,姐妹理容,丽人,美容,黑龙江省,哈尔滨市,道里区,哈尔滨市道里区金城街宝宝乐幼儿园(金城街)西北侧约200米,,1,0,126.563463,45.712398,13836142717,beauty,http://api.map.baidu.com/place/detail?uid=cb4283046dd2095dc7f025dd&output=html&source=placeapi_v2,,10:00-21:30,,,,,,,,,,,,,,,,126.56351190785,45.712414032964,0
354937c38dade10bf4eafc27,东方丽人美业连锁机构,丽人,美容,黑龙江省,哈尔滨市,南岗区,黑龙江省哈尔滨市南岗区王岗大街663号东方新天地写字楼10栋1楼,,1,0,126.591048,45.696757,,beauty,http://api.map.baidu.com/place/detail?uid=354937c38dade10bf4eafc27&output=html&source=placeapi_v2,,,,,,,,,,,,,,,,,,126.59154230421,45.696357126267,0
3896fa3f6f57e1af8bb988fc,尚雅专业美容,丽人,美容,黑龙江省,哈尔滨市,南岗区,黑龙江省哈尔滨市南岗区家合城3栋2楼15号,3896fa3f6f57e1af8bb988fc,1,0,126.558268,45.678363,15114533936,beauty,http://api.map.baidu.com/place/detail?uid=3896fa3f6f57e1af8bb988fc&output=html&source=placeapi_v2,,08:30-21:30,,,,,,,,,,,,,,,,126.55830698379,45.678361878395,0
1c594cd79e2be8fb4c3a59f8,美仁邦照护美容,丽人,美容,黑龙江省,哈尔滨市,南岗区,哈尔滨市南岗区哈尔滨大街与中兴左街交叉口真情达九溪s3栋9-12号,,1,0,126.587017,45.703876,(0451)82544776,beauty,http://api.map.baidu.com/place/detail?uid=1c594cd79e2be8fb4c3a59f8&output=html&source=placeapi_v2,,09:00-17:00,,,,,,,,,,,,,,,,,,0
e9e240e2e55ad997c61b75f6,匠人1 1美业,丽人,美容,黑龙江省,哈尔滨市,南岗区,黑龙江省哈尔滨市南岗区王岗大街东方新天地商业街内街二楼16208室,,1,0,126.590579,45.69689,13339308363,beauty,http://api.map.baidu.com/place/detail?uid=e9e240e2e55ad997c61b75f6&output=html&source=placeapi_v2,,09:00-21:00,,,,,,,,,,,,,,,,,,0
3a26f4a289e0df9294ec843e,天仙雅玉美容美体抗衰老中心,丽人,美容,黑龙江省,哈尔滨市,南岗区,黑龙江省哈尔滨市南岗区哈尔滨大街华润凯旋门3号楼6号门市,,1,0,126.585201,45.705536,,beauty,http://api.map.baidu.com/place/detail?uid=3a26f4a289e0df9294ec843e&output=html&source=placeapi_v2,,08:30-20:30,,,,,,,,,,,,,,,,126.58529071769,45.705574140701,0
7309e83c237862d295f08c4a,涵淇美学,丽人,美容,黑龙江省,哈尔滨市,南岗区,哈尔滨市南岗区哈尔滨大街爱达九溪北侧约170米,,1,0,126.585964,45.705563,18945695105,beauty,http://api.map.baidu.com/place/detail?uid=7309e83c237862d295f08c4a&output=html&source=placeapi_v2,,09:00-20:00,,,,,,,,,,,,,,,,126.58599758172,45.705519761688,0
4ec0062dd0b48afcb64f54be,玉妍美容养生抗衰(哈西分店),丽人,美容,黑龙江省,哈尔滨市,南岗区,黑龙江省哈尔滨市南岗区哈西大街与中兴左街交叉口华润凯旋门G36号门市,,1,0,126.586271,45.704746,19903609779,beauty,http://api.map.baidu.com/place/detail?uid=4ec0062dd0b48afcb64f54be&output=html&source=placeapi_v2,,09:30-18:30,,,,,,,,,,,,,,,,,,0
5ebb5c9ebd7f59194f3a59e7,美奇连锁机构哈尔滨院,丽人,美容,黑龙江省,哈尔滨市,南岗区,黑龙江省哈尔滨市南岗区哈西大街26-126-2号巴黎第五区26-2号,5ebb5c9ebd7f59194f3a59e7,1,0,126.605789,45.691794,18946112304,beauty,http://api.map.baidu.com/place/detail?uid=5ebb5c9ebd7f59194f3a59e7&output=html&source=placeapi_v2,,00:00-24:00,,,,,,,,,,,,,,,,126.60567696139,45.691820915272,0
826c53392e104a6b54bfff75,初萃日式美肌美体,丽人,美容,黑龙江省,哈尔滨市,南岗区,黑龙江省哈尔滨市南岗区东华街恒大翡翠华庭19号,,1,0,126.606293,45.692335,18345125413,beauty,http://api.map.baidu.com/place/detail?uid=826c53392e104a6b54bfff75&output=html&source=placeapi_v2,,09:00-20:00,0,,,,,,,,0,,,,,,,126.60626359477,45.692122155966,0
5fc88f03c95a68c6f1193784,丝颂全国连锁美时美刻店(哈西宜家店),丽人,美容,黑龙江省,哈尔滨市,南岗区,黑龙江省哈尔滨市南岗区哈西大街辰能溪树庭院南区22号5号,07362c39c29717d09d9d681a,1,0,126.60296,45.699052,"(0451)51089303,15045076879",beauty,http://api.map.baidu.com/place/detail?uid=5fc88f03c95a68c6f1193784&output=html&source=placeapi_v2,90.0,08:30-21:00,0,,,,,,,,0,,,,,,,,,0
8e2ae9d3d0aa8652ebe58232,木美未来美学,丽人,美容,黑龙江省,哈尔滨市,南岗区,黑龙江省哈尔滨市南岗区永丰大街123号,,1,0,126.599782,45.694027,"(0451)51528555,15145005373",beauty,http://api.map.baidu.com/place/detail?uid=8e2ae9d3d0aa8652ebe58232&output=html&source=placeapi_v2,,10:00-22:00,,,,,,,,,,,,,,,,126.59987873115,45.693932504707,0
b3c49c30862d71060a5cb32b,极美塑姿,丽人,美容,黑龙江省,哈尔滨市,南岗区,黑龙江省哈尔滨市南岗区哈西尤家街爱达壹号A区AS7栋1一2层3室,,1,0,126.607109,45.698602,15945150477,beauty,http://api.map.baidu.com/place/detail?uid=b3c49c30862d71060a5cb32b&output=html&source=placeapi_v2,,09:00-20:00,,,,,,,,,,,,,,,,,,0
43d66a643c7284234e776ed9,JM皮肤管理,丽人,美容,黑龙江省,哈尔滨市,南岗区,哈尔滨市南岗区东华街恒大翡翠华庭,,1,0,126.606223,45.692335,19904662820,beauty,http://api.map.baidu.com/place/detail?uid=43d66a643c7284234e776ed9&output=html&source=placeapi_v2,,,,,,,,,,,,,,,,,,,,0
6da1f36188eeda7c7702695e,瑞雪美睫,丽人,美容,黑龙江省,哈尔滨市,南岗区,学府路239号,,1,0,126.621362,45.691891,,beauty,http://api.map.baidu.com/place/detail?uid=6da1f36188eeda7c7702695e&output=html&source=placeapi_v2,,,,,,,,,,,,,,,,,,,,0
97ddd05e7a8c76f729fc482d,王妃美容会所,丽人,美容,黑龙江省,哈尔滨市,南岗区,黑龙江省哈尔滨市南岗区南兴街25号万达华府东区C7-12-1号(哈西万达溪树庭院对面),97ddd05e7a8c76f729fc482d,1,0,126.598318,45.705612,(0451)86602202,beauty,http://api.map.baidu.com/place/detail?uid=97ddd05e7a8c76f729fc482d&output=html&source=placeapi_v2,177.0,09:00-19:00,0,,,,,,,,0,,,,,,,126.59845600027,45.705202777129,0
427261c54f6bdb3454bfff4a,芳香世家皮肤管理中心(金爵万象店),丽人,美容,黑龙江省,哈尔滨市,南岗区,黑龙江省哈尔滨市南岗区南兴街金爵万象3期3栋10层1008号,,1,0,126.591928,45.703854,,beauty,http://api.map.baidu.com/place/detail?uid=427261c54f6bdb3454bfff4a&output=html&source=placeapi_v2,,09:00-19:00,,,,,,,,,,,,,,,,,,0
abbc4bde35fc732b873304f2,AMI美颜(哈西店),丽人,美容,黑龙江省,哈尔滨市,南岗区,哈尔滨市南岗区哈西大街复旦路辰能溪树庭院C16栋717室,,1,0,126.602388,45.702997,15004641591,beauty,http://api.map.baidu.com/place/detail?uid=abbc4bde35fc732b873304f2&output=html&source=placeapi_v2,,10:00-22:00,,,,,,,,,,,,,,,,,,0
0c393e2a7e0e6e4af4eafc73,艾蜜皮肤管理中心(哈西店),丽人,美容,黑龙江省,哈尔滨市,南岗区,黑龙江省哈尔滨市南岗区复旦路辰能溪树庭院南区s1-1-5号,,1,0,126.597701,45.699565,(0451)51672777,beauty,http://api.map.baidu.com/place/detail?uid=0c393e2a7e0e6e4af4eafc73&output=html&source=placeapi_v2,,10:00-20:00,0,,,,,,,,1,,,,,,,,,0
3bcf7d9429384fe2b817e7b5,靓颜祛痘皮肤管理中心(南岗店),丽人,美容,黑龙江省,哈尔滨市,南岗区,西宁南路金爵万象2期A栋1214,,1,0,126.590533,45.705021,,beauty,http://api.map.baidu.com/place/detail?uid=3bcf7d9429384fe2b817e7b5&output=html&source=placeapi_v2,,10:00-18:00,5.0,,,,,,,,20,,,,,,,,,0
a856a610302b902f00ff2db9,哈妮皮肤管理中心,丽人,美容,黑龙江省,哈尔滨市,南岗区,黑龙江省哈尔滨市南岗区南兴街111号,,1,0,126.595059,45.705152,17745117345,beauty,http://api.map.baidu.com/place/detail?uid=a856a610302b902f00ff2db9&output=html&source=placeapi_v2,,10:00-22:00,0,,,,,,,,0,,,,,,,126.5950800442,45.704994471422,0
8dc0753241a6369de50738a5,U・YOUNG,丽人,美容,黑龙江省,哈尔滨市,南岗区,黑龙江省哈尔滨市南岗区溪树庭院C13栋809室,8dc0753241a6369de50738a5,1,0,126.597863,45.704659,,beauty,http://api.map.baidu.com/place/detail?uid=8dc0753241a6369de50738a5&output=html&source=placeapi_v2,,08:00-19:00,,,,,,,,,,,,,,,,,,0
3092f909172453f5f33cbacc,西里美肤定制中心,丽人,美容,黑龙江省,哈尔滨市,南岗区,哈尔滨大街640号金爵万象一期2栋1311,,1,0,126.593567,45.702373,13351717161,beauty,http://api.map.baidu.com/place/detail?uid=3092f909172453f5f33cbacc&output=html&source=placeapi_v2,,10:00-20:00,,,,,,,,,,,,,,,,126.59376120146,45.70225293454,0
6bd8a8f6340cbdf53f9a5e40,玺美美业・皮肤管理美学研究中心,丽人,美容,黑龙江省,哈尔滨市,南岗区,哈尔滨市南岗区中兴大道哈西万达公寓A座3楼315室,,1,0,126.597973,45.707361,15204637329,beauty,http://api.map.baidu.com/place/detail?uid=6bd8a8f6340cbdf53f9a5e40&output=html&source=placeapi_v2,,09:30-19:30,,,,,,,,,3,,,,,,,,,0
72f47a17799f79f93ce2313b,伊贝姿美胸(哈西万达广场店),丽人,美容,黑龙江省,哈尔滨市,南岗区,黑龙江省哈尔滨市南岗区景阳物业F5-16,72f47a17799f79f93ce2313b,1,0,126.596586,45.705859,,beauty,http://api.map.baidu.com/place/detail?uid=72f47a17799f79f93ce2313b&output=html&source=placeapi_v2,,,,,,,,,,,,,,,,,,126.59696108247,45.705906172183,0
a74631d624b6fee43e9a5e6a,长风美塑哈西店,丽人,美容,黑龙江省,哈尔滨市,南岗区,黑龙江省哈尔滨市南岗区哈尔滨大街664-9号,,1,0,126.594998,45.700786,(0451)88882818,beauty,http://api.map.baidu.com/place/detail?uid=a74631d624b6fee43e9a5e6a&output=html&source=placeapi_v2,,09:00-18:30,,,,,,,,,,,,,,,,,,0
e2c3925ab9b5918e3fe23195,澜羽科技美肤中心,丽人,美容,黑龙江省,哈尔滨市,南岗区,黑龙江省哈尔滨市南岗区哈尔滨大街729号二楼,,1,0,126.598139,45.696554,"18545168767,18646156661",beauty,http://api.map.baidu.com/place/detail?uid=e2c3925ab9b5918e3fe23195&output=html&source=placeapi_v2,,09:30-20:00,,,,,,,,,,,,,,,,,,0
61a3438b50ef139679b55c01,美拉美业,丽人,美容,黑龙江省,哈尔滨市,南岗区,黑龙江省哈尔滨市南岗区永丰大街141号,,1,0,126.599238,45.693671,17614654353,beauty,http://api.map.baidu.com/place/detail?uid=61a3438b50ef139679b55c01&output=html&source=placeapi_v2,,09:00-20:00,,,,,,,,,,,,,,,,126.59934816227,45.693577940928,0
82ecbc350feec43479b55c9b,牙齿瓷贴面美学修复中心,丽人,美容,黑龙江省,哈尔滨市,南岗区,黑龙江省哈尔滨市南岗区西宁南路全季酒店(哈尔滨万达广场店),,1,0,126.590692,45.704945,,beauty,http://api.map.baidu.com/place/detail?uid=82ecbc350feec43479b55c9b&output=html&source=placeapi_v2,,,,,,,,,,,,,,,,,,,,0
d567e70e183a0564e8e5827e,喜奈日式脱毛嫩肤(哈西店),丽人,美容,黑龙江省,哈尔滨市,南岗区,哈尔滨市南岗区南兴街金爵万象3期3栋1719室,d567e70e183a0564e8e5827e,1,0,126.591797,45.703761,18249019916,beauty,http://api.map.baidu.com/place/detail?uid=d567e70e183a0564e8e5827e&output=html&source=placeapi_v2,106.0,10:00-20:00,0,,,,,,,,0,,,,,,,,,0
354937c38dade10bf4eafc27,东方丽人美业连锁机构,丽人,美容,黑龙江省,哈尔滨市,南岗区,黑龙江省哈尔滨市南岗区王岗大街663号东方新天地写字楼10栋1楼,,1,0,126.591048,45.696757,,beauty,http://api.map.baidu.com/place/detail?uid=354937c38dade10bf4eafc27&output=html&source=placeapi_v2,,,,,,,,,,,,,,,,,,126.59154230421,45.696357126267,0
4a08c4b41fe9d875a0acc43b,韫伊皮肤管理纹绣设计中心,丽人,美容,黑龙江省,哈尔滨市,南岗区,西宁南路哈西金爵万象二期A座721室,,1,0,126.590704,45.70478,,beauty,http://api.map.baidu.com/place/detail?uid=4a08c4b41fe9d875a0acc43b&output=html&source=placeapi_v2,,,,,,,,,,,1,,,,,,,,,0
f14a2f08c325c6733210af7b,尚晶美容馆,丽人,美容,黑龙江省,哈尔滨市,南岗区,黑龙江省哈尔滨市南岗区学府路334号家属楼小区,,1,0,126.624498,45.694587,13804607930,beauty,http://api.map.baidu.com/place/detail?uid=f14a2f08c325c6733210af7b&output=html&source=placeapi_v2,,08:30-20:30,,,,,,,,,,,,,,,,126.62424054392,45.694532775609,0
6b9fd6b2be7a619797ec8439,美容养生,丽人,美容,黑龙江省,哈尔滨市,南岗区,黑龙江省哈尔滨市南岗区南兴街二期f3栋,6b9fd6b2be7a619797ec8439,1,0,126.602698,45.705299,"(0451)86635308,18745182393",beauty,http://api.map.baidu.com/place/detail?uid=6b9fd6b2be7a619797ec8439&output=html&source=placeapi_v2,,09:30-21:00,5,,,,,,,,1,,,,,,,,,0
3d2b780c27e267b34f2fdf2a,Morning beauty韩国皮肤管理中心,丽人,美容,黑龙江省,哈尔滨市,南岗区,黑龙江省哈尔滨市南岗区汇龙北纬8-1-131度商服45度,3d2b780c27e267b34f2fdf2a,1,0,126.584571,45.701174,18346048220,beauty,http://api.map.baidu.com/place/detail?uid=3d2b780c27e267b34f2fdf2a&output=html&source=placeapi_v2,,10:00-19:00,0.0,,,,,,,,,,,,,,,,,0
8efd871d299269f5fb2213d0,博纳皮肤管理,丽人,美容,黑龙江省,哈尔滨市,南岗区,黑龙江省哈尔滨市南岗区王岗大街268号,,1,0,126.597486,45.693715,15804513584,beauty,http://api.map.baidu.com/place/detail?uid=8efd871d299269f5fb2213d0&output=html&source=placeapi_v2,,08:00-20:00,,,,,,,,,,,,,,,,,,0
2f0dbbf5da837d14f7b91687,半永久皮肤管理,丽人,美容,黑龙江省,哈尔滨市,南岗区,哈尔滨市南岗区中兴大道东辉明珠园,,1,0,126.59389,45.708678,,beauty,http://api.map.baidu.com/place/detail?uid=2f0dbbf5da837d14f7b91687&output=html&source=placeapi_v2,,10:00-19:00,,,,,,,,,,,,,,,,,,0
d967ed5bc7475693102935d9,奥幂美容工作室,丽人,美容,黑龙江省,哈尔滨市,南岗区,黑龙江省哈尔滨市南岗区王岗大街222号纳帕英郡2楼,d967ed5bc7475693102935d9,1,0,126.596018,45.694642,18686780366,beauty,http://api.map.baidu.com/place/detail?uid=d967ed5bc7475693102935d9&output=html&source=placeapi_v2,,08:00-20:00,,,,,,,,,,,,,,,,,,0
a17e60c4e0441a39d72ce2e5,杰森美业,丽人,美容,黑龙江省,哈尔滨市,南岗区,黑龙江省哈尔滨市南岗区汇龙北纬45度8号楼24号,,1,0,126.584085,45.701481,15765585966,beauty,http://api.map.baidu.com/place/detail?uid=a17e60c4e0441a39d72ce2e5&output=html&source=placeapi_v2,,10:00-22:00,,,,,,,,,,,,,,,,126.58431542829,45.701712803022,0
3b90046713c195b3c26c14f5,丽慧美容减肥养生馆,丽人,美容,黑龙江省,哈尔滨市,南岗区,哈尔滨市南岗区南兴街与西宁南路交叉口中交香颂D栋0720号,,1,0,126.593879,45.703697,"13936368706,13936542836",beauty,http://api.map.baidu.com/place/detail?uid=3b90046713c195b3c26c14f5&output=html&source=placeapi_v2,125.0,09:00-20:00,5.0,,,,,,,,2,,,,,,,,,0
6741f954bd112a745bf6be97,品后产康养生,丽人,美容,黑龙江省,哈尔滨市,南岗区,哈尔滨市南岗区哈西街道哈尔滨大街香缇雅诺二期38-3号2楼,6741f954bd112a745bf6be97,1,0,126.602719,45.705235,"(0451)85717330,15776651381",beauty,http://api.map.baidu.com/place/detail?uid=6741f954bd112a745bf6be97&output=html&source=placeapi_v2,,08:30-19:30,,,,,,,,,,,,,,,,,,0
6e64a7259c57be7014c8f6ff,纤纤玉蝶皮肤管理身材管理,丽人,美容,黑龙江省,哈尔滨市,南岗区,黑龙江省哈尔滨市南岗区哈尔滨大街664-13号,,1,0,126.595305,45.700536,,beauty,http://api.map.baidu.com/place/detail?uid=6e64a7259c57be7014c8f6ff&output=html&source=placeapi_v2,,09:00-20:00,,,,,,,,,,,,,,,,126.59465235825,45.700117138093,0
fdf78c71c36d5deb940319ad,壹柒多彩美容药浴养生会所,丽人,美容,黑龙江省,哈尔滨市,南岗区,黑龙江省哈尔滨市南岗区南兴街101号,fdf78c71c36d5deb940319ad,1,0,126.595286,45.705196,(0451)86623663,beauty,http://api.map.baidu.com/place/detail?uid=fdf78c71c36d5deb940319ad&output=html&source=placeapi_v2,,08:30-24:00,,,,,,,,,,,,,,,,126.59533019624,45.705026909475,0
1c594cd79e2be8fb4c3a59f8,美仁邦照护美容,丽人,美容,黑龙江省,哈尔滨市,南岗区,哈尔滨市南岗区哈尔滨大街与中兴左街交叉口真情达九溪s3栋9-12号,,1,0,126.587017,45.703876,(0451)82544776,beauty,http://api.map.baidu.com/place/detail?uid=1c594cd79e2be8fb4c3a59f8&output=html&source=placeapi_v2,,09:00-17:00,,,,,,,,,,,,,,,,,,0
58198a184ccb894a081cc708,初肌轻奢美学馆,丽人,美容,黑龙江省,哈尔滨市,南岗区,黑龙江省哈尔滨市南岗区南兴街11号,,1,0,126.598795,45.705637,"13091868918,13188978688",beauty,http://api.map.baidu.com/place/detail?uid=58198a184ccb894a081cc708&output=html&source=placeapi_v2,,09:00-19:00,,,,,,,,,,,,,,,,126.59890848035,45.705447191489,0
7797cc13f1f3065b077ce845,聚艺美业,丽人,美容,黑龙江省,哈尔滨市,南岗区,黑龙江省哈尔滨市南岗区哈西大街西城红场b栋1307室,,1,0,126.600039,45.709682,13936220369,beauty,http://api.map.baidu.com/place/detail?uid=7797cc13f1f3065b077ce845&output=html&source=placeapi_v2,,08:00-20:00,,,,,,,,,,,,,,,,,,0
6b92628f73d3591dafcb66be,摄氏度生活美学,丽人,美容,黑龙江省,哈尔滨市,南岗区,黑龙江省哈尔滨市南岗区和谐大道355号中交香颂f座,,1,0,126.596006,45.703312,15504662136,beauty,http://api.map.baidu.com/place/detail?uid=6b92628f73d3591dafcb66be&output=html&source=placeapi_v2,,,,,,,,,,,,,,,,,,126.59613496928,45.703290485697,0
e9e240e2e55ad997c61b75f6,匠人1 1美业,丽人,美容,黑龙江省,哈尔滨市,南岗区,黑龙江省哈尔滨市南岗区王岗大街东方新天地商业街内街二楼16208室,,1,0,126.590579,45.69689,13339308363,beauty,http://api.map.baidu.com/place/detail?uid=e9e240e2e55ad997c61b75f6&output=html&source=placeapi_v2,,09:00-21:00,,,,,,,,,,,,,,,,,,0
0e2107c7523ccbe0bfa822ca,米朵美容美甲(哈西轻奢店),丽人,美容,黑龙江省,哈尔滨市,南岗区,黑龙江省哈尔滨市南岗区万隆路18号,,1,0,126.599012,45.706669,13304640059,beauty,http://api.map.baidu.com/place/detail?uid=0e2107c7523ccbe0bfa822ca&output=html&source=placeapi_v2,,09:00-21:00,,,,,,,,,,,,,,,,,,0
397d80351bb657c7aa175a33,花永俊妍健康美肤,丽人,美容,黑龙江省,哈尔滨市,南岗区,黑龙江省哈尔滨市南岗区和谐大道335号,,1,0,126.596663,45.705794,,beauty,http://api.map.baidu.com/place/detail?uid=397d80351bb657c7aa175a33&output=html&source=placeapi_v2,,09:00-20:30,,,,,,,,,,,,,,,,126.59697972949,45.705833470879,0
a96bbf0aafc1f0704002450a,伶美肌―精准护肤,丽人,美容,黑龙江省,哈尔滨市,南岗区,黑龙江省哈尔滨市南岗区万隆路万达华府,,1,0,126.598053,45.707422,,beauty,http://api.map.baidu.com/place/detail?uid=a96bbf0aafc1f0704002450a&output=html&source=placeapi_v2,,,0,,,,,,,,0,,,,,,,126.59804116459,45.707469167411,0
07eb21eb18f69b92ca1b956f,希丽莎尔美胸,丽人,美容,黑龙江省,哈尔滨市,南岗区,黑龙江省哈尔滨市南岗区南兴街37号,,1,0,126.597931,45.705524,(0451)86631918,beauty,http://api.map.baidu.com/place/detail?uid=07eb21eb18f69b92ca1b956f&output=html&source=placeapi_v2,,09:00-19:00,,,,,,,,,,,,,,,,,,0
ff8ef4eb4ff5fc6b1b11d51b,和壹美学馆,丽人,美容,黑龙江省,哈尔滨市,南岗区,黑龙江省哈尔滨市南岗区兴达路42号2楼,,1,0,126.595232,45.705924,15164612120,beauty,http://api.map.baidu.com/place/detail?uid=ff8ef4eb4ff5fc6b1b11d51b&output=html&source=placeapi_v2,,10:00-23:00,,,,,,,,,,,,,,,,126.59522713903,45.706008979859,0
99904420064c80c408f5eb2a,春博专祛痘全国连锁(哈西店),丽人,美容,黑龙江省,哈尔滨市,南岗区,黑龙江省哈尔滨市南岗区南兴街117-28号,,1,0,126.593678,45.705249,15145550300,beauty,http://api.map.baidu.com/place/detail?uid=99904420064c80c408f5eb2a&output=html&source=placeapi_v2,,10:30-20:00,0,,,,,,,,0,,,,,,,126.59374506969,45.70535262616,0
5b71ee7db18a9f0df02d835e,瘦瘦堂美体,丽人,美容,黑龙江省,哈尔滨市,南岗区,黑龙江省哈尔滨市南岗区哈西大街中兴大道161号西典家园2号公寓楼305室,5b71ee7db18a9f0df02d835e,1,0,126.603313,45.709336,,beauty,http://api.map.baidu.com/place/detail?uid=5b71ee7db18a9f0df02d835e&output=html&source=placeapi_v2,,09:00-18:00,,,,,,,,,,,,,,,,,,0
73036c5f74fe0891a01de9e3,祛痘祛斑,丽人,美容,黑龙江省,哈尔滨市,南岗区,黑龙江省哈尔滨市南岗区兴达路15号2楼,,1,0,126.596138,45.706247,,beauty,http://api.map.baidu.com/place/detail?uid=73036c5f74fe0891a01de9e3&output=html&source=placeapi_v2,,,,,,,,,,,,,,,,,,,,0
f3dbabc6fa7cb509902ca3b6,柔本全效美肌抗衰中心(哈西店),丽人,美容,黑龙江省,哈尔滨市,南岗区,黑龙江省哈尔滨市南岗区南兴街73号万达华宅F5-37,,1,0,126.596113,45.705242,18745053789,beauty,http://api.map.baidu.com/place/detail?uid=f3dbabc6fa7cb509902ca3b6&output=html&source=placeapi_v2,,10:00-20:00,,,,,,,,,,,,,,,,126.59622961385,45.705143217898,0
aa88afcffb9cbd1fc3364450,锦朝光电美肤中心(西城红场店),丽人,美容,黑龙江省,哈尔滨市,南岗区,哈尔滨市南岗区和谐大道西城红场创意中心A座1012(哈西万达对面),aa88afcffb9cbd1fc3364450,1,0,126.60015,45.70921,13945005054,beauty,http://api.map.baidu.com/place/detail?uid=aa88afcffb9cbd1fc3364450&output=html&source=placeapi_v2,,09:30-19:00,0,,,,,,,,0,,,,,,,,,0
b3b11ec6ff67ef9c2102202e,魔术师理容工作室,丽人,美容,黑龙江省,哈尔滨市,南岗区,黑龙江省哈尔滨市南岗区西典家园南区b区b4栋,,1,0,126.603877,45.710474,13904800067,beauty,http://api.map.baidu.com/place/detail?uid=b3b11ec6ff67ef9c2102202e&output=html&source=placeapi_v2,,09:00-20:30,,,,,,,,,,,,,,,,,,0
5cf4cdac3aa216e4940319b4,这样美美颜舍,丽人,美容,黑龙江省,哈尔滨市,南岗区,黑龙江省哈尔滨市南岗区南兴街32号,,1,0,126.594181,45.704119,18145664518,beauty,http://api.map.baidu.com/place/detail?uid=5cf4cdac3aa216e4940319b4&output=html&source=placeapi_v2,,,,,,,,,,,,,,,,,,126.59419246266,45.704356155294,0
0a5931c6c3ca70b06168581d,SOR索尔专业祛痘,丽人,美容,黑龙江省,哈尔滨市,南岗区,哈尔滨市南岗区中兴大道红博・西城红场,,1,0,126.599924,45.709347,13244521580,beauty,http://api.map.baidu.com/place/detail?uid=0a5931c6c3ca70b06168581d&output=html&source=placeapi_v2,,09:30-19:00,,,,,,,,,,,,,,,,126.60007356194,45.708691704235,0
305cfa9fd8737d9f4e2fdf16,尚格国际纹绣美肤中心,丽人,美容,黑龙江省,哈尔滨市,南岗区,哈尔滨南岗区南兴街金爵万象三期,,1,0,126.59122,45.703548,,beauty,http://api.map.baidu.com/place/detail?uid=305cfa9fd8737d9f4e2fdf16&output=html&source=placeapi_v2,,,0,,,,,,,,0,,,,,,,,,0
81ab7dc45520eab64251c025,月澜私人订制美容会所,丽人,美容,黑龙江省,哈尔滨市,南岗区,黑龙江省哈尔滨市南岗区兴达路万达华宅,81ab7dc45520eab64251c025,1,0,126.592101,45.705576,,beauty,http://api.map.baidu.com/place/detail?uid=81ab7dc45520eab64251c025&output=html&source=placeapi_v2,,,,,,,,,,,,,,,,,,126.59209293135,45.705648296726,0
8994a43e41e205b01de999b0,完美一生纹绣美容院,丽人,美容,黑龙江省,哈尔滨市,南岗区,黑龙江省哈尔滨市南岗区哈西万达金街e5-19号2楼,,1,0,126.591121,45.705432,15146299767,beauty,http://api.map.baidu.com/place/detail?uid=8994a43e41e205b01de999b0&output=html&source=placeapi_v2,,10:00-18:30,,,,,,,,,,,,,,,,126.59111879089,45.705522672661,0
a0567c00de7f5946b05c6ae8,焱美美甲美肤养生馆,丽人,美容,黑龙江省,哈尔滨市,南岗区,黑龙江省哈尔滨市南岗区中兴大道西城红场创意港a座2517号,a0567c00de7f5946b05c6ae8,1,0,126.598357,45.708852,15004667763,beauty,http://api.map.baidu.com/place/detail?uid=a0567c00de7f5946b05c6ae8&output=html&source=placeapi_v2,,09:00-18:00,0,,,,,,,,0,,,,,,,,,0
a559921480e6f71687330424,无限极中草药美容健康养生馆,丽人,美容,黑龙江省,哈尔滨市,南岗区,哈尔滨市南岗区尤家街西典家园-南区,,1,0,126.603406,45.710883,,beauty,http://api.map.baidu.com/place/detail?uid=a559921480e6f71687330424&output=html&source=placeapi_v2,,,,,,,,,,,,,,,,,,126.60346600926,45.710887783122,0
5f2d3d458e96a83a4c3a59d8,圣缘美容养生会馆,丽人,美容,黑龙江省,哈尔滨市,南岗区,哈尔滨市南岗区尤家街博海大厦,,1,0,126.605393,45.71369,13329415827,beauty,http://api.map.baidu.com/place/detail?uid=5f2d3d458e96a83a4c3a59d8&output=html&source=placeapi_v2,,09:00-22:00,,,,,,,,,,,,,,,,126.60537151272,45.713754080118,0
4ec0062dd0b48afcb64f54be,玉妍美容养生抗衰(哈西分店),丽人,美容,黑龙江省,哈尔滨市,南岗区,黑龙江省哈尔滨市南岗区哈西大街与中兴左街交叉口华润凯旋门G36号门市,,1,0,126.586271,45.704746,19903609779,beauty,http://api.map.baidu.com/place/detail?uid=4ec0062dd0b48afcb64f54be&output=html&source=placeapi_v2,,09:30-18:30,,,,,,,,,,,,,,,,,,0
caf6be6799fdba79f942b2a6,美诺菲问题性肌肤管理,丽人,美容,黑龙江省,哈尔滨市,南岗区,黑龙江哈尔滨市南岗区哈西万达东辉明珠园g7栋1单元1803号,,1,0,126.590973,45.708419,15645002020,beauty,http://api.map.baidu.com/place/detail?uid=caf6be6799fdba79f942b2a6&output=html&source=placeapi_v2,,10:00-20:00,,,,,,,,,,,,,,,,,,0
8f2cfce96650cb4488f15d6e,帅典纹眉眼线美容院,丽人,美容,黑龙江省,哈尔滨市,南岗区,黑龙江省哈尔滨市南岗区征仪路征仪花园B区院内103栋,,1,0,126.644848,45.693242,15045851115,beauty,http://api.map.baidu.com/place/detail?uid=8f2cfce96650cb4488f15d6e&output=html&source=placeapi_v2,,,,,,,,,,,,,,,,,,126.64482427595,45.693222466189,0
573fc42b3d8f0c8e4354d760,风尚美业,丽人,美容,黑龙江省,哈尔滨市,香坊区,香坊区黑龙江省哈尔滨市三合路365-1号,f49b6a0d3e6ae633d618b76e,1,0,126.664377,45.706827,15504620946,beauty,http://api.map.baidu.com/place/detail?uid=573fc42b3d8f0c8e4354d760&output=html&source=placeapi_v2,,,5,,,,,,,,1,,,,,,,,,0
e9fd4a3b56a30ed0c72ba120,香兰雅韵养生抗衰专业会馆,丽人,美容,黑龙江省,哈尔滨市,香坊区,黑龙江省哈尔滨市香坊区三合路481号1楼,e9fd4a3b56a30ed0c72ba120,1,0,126.663749,45.701995,,beauty,http://api.map.baidu.com/place/detail?uid=e9fd4a3b56a30ed0c72ba120&output=html&source=placeapi_v2,,08:00-20:00,5,,,,,,,,4,,,,,,,126.66362760329,45.701887218319,0
14d3d829606d1028f72310ce,皮肤管理中心,丽人,美容,黑龙江省,哈尔滨市,南岗区,黑龙江哈尔滨市南岗区东万隆路c6-12号,,1,0,126.636245,45.689476,,beauty,http://api.map.baidu.com/place/detail?uid=14d3d829606d1028f72310ce&output=html&source=placeapi_v2,,,,,,,,,,,,,,,,,,126.6358643648,45.689403730764,0
118c0bef7603df132806cec3,欧曼q香女子美容养生会馆(大众新城店),丽人,美容,黑龙江省,哈尔滨市,南岗区,黑龙江省哈尔滨市南岗区征仪路377号大众新城三期307栋3号商服,,1,0,126.641869,45.70366,,beauty,http://api.map.baidu.com/place/detail?uid=118c0bef7603df132806cec3&output=html&source=placeapi_v2,,,,,,,,,,,,,,,,,,126.64179916204,45.703654271449,0
e00b974c8d0c6f4b04026f1c,浩鑫美业沙龙,丽人,美容,黑龙江省,哈尔滨市,香坊区,黑龙江省哈尔滨市香坊区旭升南街68-22号,,1,0,126.666693,45.707592,15776801120,beauty,http://api.map.baidu.com/place/detail?uid=e00b974c8d0c6f4b04026f1c&output=html&source=placeapi_v2,,09:00-19:00,,,,,,,,,,,,,,,,126.66668629134,45.707642550117,0
2ecab0dd3396b40d6f3e1b43,桉泊尔女子美容养生SPA会馆(哈平路店),丽人,美容,黑龙江省,哈尔滨市,香坊区,黑龙江省哈尔滨市香坊区哈平路远大都市绿洲1期十栋,,1,0,126.651992,45.708597,(0451)86610669,beauty,http://api.map.baidu.com/place/detail?uid=2ecab0dd3396b40d6f3e1b43&output=html&source=placeapi_v2,,09:00-19:00,4,,,,,,,,2,,,,,,,126.65188378497,45.708630820255,0
8713dcaf77394e8814948e52,瘦吧减肥美容会所(大众新城店),丽人,美容,黑龙江省,哈尔滨市,南岗区,哈尔滨市南岗区征仪路大众新城,,1,0,126.638547,45.702521,,beauty,http://api.map.baidu.com/place/detail?uid=8713dcaf77394e8814948e52&output=html&source=placeapi_v2,,,,,,,,,,,,,,,,,,,,0
edd13fbcec388aa55cbe8638,尚尚美业,丽人,美容,黑龙江省,哈尔滨市,南岗区,黑龙江省哈尔滨市南岗区保健路102号健康家园5号楼,edd13fbcec388aa55cbe8638,1,0,126.637016,45.703866,15045029567,beauty,http://api.map.baidu.com/place/detail?uid=edd13fbcec388aa55cbe8638&output=html&source=placeapi_v2,,,,,,,,,,,,,,,,,,,,0
0a96e6b9c5c6d6de940319f5,锦济康健康生活馆(田园店),丽人,美容,黑龙江省,哈尔滨市,香坊区,哈尔滨市香坊区旭升南街田园新城,,1,0,126.671408,45.695424,,beauty,http://api.map.baidu.com/place/detail?uid=0a96e6b9c5c6d6de940319f5&output=html&source=placeapi_v2,,,,,,,,,,,,,,,,,,126.6712490617,45.69528917299,0
f73900b3bca668b8c51e514c,跃莱筋骨养护调理店,丽人,美容,黑龙江省,哈尔滨市,香坊区,哈尔滨市香坊区三合路乐强小区,,1,0,126.665146,45.710039,,beauty,http://api.map.baidu.com/place/detail?uid=f73900b3bca668b8c51e514c&output=html&source=placeapi_v2,,,,,,,,,,,,,,,,,,126.6650752891,45.709937372889,0
6e92deb9c2b9e446901fc945,鸿源五轮定位美容中心,丽人,美容,黑龙江省,哈尔滨市,香坊区,哈尔滨市香坊区拥军路立汇美罗湾-2期,6e92deb9c2b9e446901fc945,1,0,126.697453,45.693427,,beauty,http://api.map.baidu.com/place/detail?uid=6e92deb9c2b9e446901fc945&output=html&source=placeapi_v2,,,,,,,,,,,,,,,,,,,,0
3dba0d1a78768c609c09f781,苗家养妍专业祛痘(立汇店),丽人,美容,黑龙江省,哈尔滨市,香坊区,黑龙江省哈尔滨市香坊区军民街104-5号,,1,0,126.700409,45.69375,15645038150,beauty,http://api.map.baidu.com/place/detail?uid=3dba0d1a78768c609c09f781&output=html&source=placeapi_v2,,09:00-19:00,,,,,,,,,,,,,,,,126.70074341217,45.69372285061,0
fc2fd34d56014b56343a7187,维朵美容美体美甲会馆,丽人,美容,黑龙江省,哈尔滨市,香坊区,黑龙江省哈尔滨市香坊区军民街汇龙十九街区19102号,,1,0,126.700944,45.69238,13059022057,beauty,http://api.map.baidu.com/place/detail?uid=fc2fd34d56014b56343a7187&output=html&source=placeapi_v2,,,,,,,,,,,,,,,,,,,,0
ecd2879d1f7d933631870aba,天香美容养生会馆,丽人,美容,黑龙江省,哈尔滨市,香坊区,黑龙江省哈尔滨市香坊区军民街立汇美罗湾一期20栋,ecd2879d1f7d933631870aba,1,0,126.69975,45.69692,(0451)82956234,beauty,http://api.map.baidu.com/place/detail?uid=ecd2879d1f7d933631870aba&output=html&source=placeapi_v2,260.0,08:00-19:00,0.0,,,,,,,,,,,,,,,,,0
8eb1381533cb996835b06c7d,伊人坊专业美容私人定制,丽人,美容,黑龙江省,哈尔滨市,香坊区,黑龙江省哈尔滨市香坊区通乡街香林名苑商业街36号,,1,0,126.687449,45.702642,18646026611,beauty,http://api.map.baidu.com/place/detail?uid=8eb1381533cb996835b06c7d&output=html&source=placeapi_v2,,08:30-20:30,,,,,,,,,,,,,,,,126.68750131503,45.702773698375,0
416fdc95845ad046eb56fac5,朵娅琪美容会馆,丽人,美容,黑龙江省,哈尔滨市,香坊区,黑龙江省哈尔滨市香坊区进乡街格兰云天二期8号楼3单元三101号,,1,0,126.696634,45.70329,"13614517875,18745088647",beauty,http://api.map.baidu.com/place/detail?uid=416fdc95845ad046eb56fac5&output=html&source=placeapi_v2,,09:00-20:00,,,,,,,,,,,,,,,,126.69641529416,45.703187972645,0
ee04d7afbf5aba69626858c1,鑫鑫美业,丽人,美容,黑龙江省,哈尔滨市,香坊区,黑龙江省哈尔滨市香坊区军民街19-2-11号,ee04d7afbf5aba69626858c1,1,0,126.70099,45.693243,15945195176,beauty,http://api.map.baidu.com/place/detail?uid=ee04d7afbf5aba69626858c1&output=html&source=placeapi_v2,,,,,,,,,,,,,,,,,,126.70077246786,45.693184136117,0
663c942738b9e355d0ff236b,萱妍理容,丽人,美容,黑龙江省,哈尔滨市,香坊区,黑龙江省哈尔滨市香坊区军民街19-5-21号汇龙十九街区2号楼,663c942738b9e355d0ff236b,1,0,126.701152,45.693806,13694518765,beauty,http://api.map.baidu.com/place/detail?uid=663c942738b9e355d0ff236b&output=html&source=placeapi_v2,,08:00-21:00,,,,,,,,,,,,,,,,126.70099365493,45.693832394629,0
e6b6706d20502e5c9868b45f,苗方清颜专业祛痘(军民街店),丽人,美容,黑龙江省,哈尔滨市,香坊区,黑龙江省哈尔滨市香坊区军民街19-8-2号,e6b6706d20502e5c9868b45f,1,0,126.700872,45.692835,"13045190222,15945690236",beauty,http://api.map.baidu.com/place/detail?uid=e6b6706d20502e5c9868b45f&output=html&source=placeapi_v2,,10:00-20:00,,,,,,,,,,,,,,,,,,0
00cb1c316beb77188bb988f2,加奈国际美容美体,丽人,美容,黑龙江省,哈尔滨市,香坊区,哈尔滨市香坊区格兰云天,,1,0,126.693758,45.702321,,beauty,http://api.map.baidu.com/place/detail?uid=00cb1c316beb77188bb988f2&output=html&source=placeapi_v2,,08:30-21:00,,,,,,,,,,,,,,,,,,0
46417b72301b80c8f5c59ce4,安琪美容养生会馆,丽人,美容,黑龙江省,哈尔滨市,香坊区,黑龙江省哈尔滨市香坊区松海路恒大御景湾一期f4109号,46417b72301b80c8f5c59ce4,1,0,126.683972,45.70672,(0451)82911662,beauty,http://api.map.baidu.com/place/detail?uid=46417b72301b80c8f5c59ce4&output=html&source=placeapi_v2,,09:30-19:00,,,,,,,,,,,,,,,,,,0
afd7a4ffa3a215ad990050dd,泊源康养生馆,丽人,美容,黑龙江省,哈尔滨市,香坊区,黑龙江省哈尔滨市香坊区进乡街东山聚宝a区4号楼,,1,0,126.711187,45.695619,,beauty,http://api.map.baidu.com/place/detail?uid=afd7a4ffa3a215ad990050dd&output=html&source=placeapi_v2,,,,,,,,,,,,,,,,,,126.71109952724,45.69556867645,0
ed017fa8de1bc7de2102207a,问题性皮肤管理(御景湾店),丽人,美容,黑龙江省,哈尔滨市,香坊区,哈尔滨市香坊区松景路恒大御景湾2期,,1,0,126.686743,45.708914,,beauty,http://api.map.baidu.com/place/detail?uid=ed017fa8de1bc7de2102207a&output=html&source=placeapi_v2,,08:30-20:00,,,,,,,,,,,,,,,,,,0
20e22e73dfc52e8a17b54b8b,鑫弘美容养生馆,丽人,美容,黑龙江省,哈尔滨市,香坊区,哈尔滨市香坊区松景路恒大御景湾二期正门F6栋二楼,,1,0,126.686888,45.708778,(0451)82910421,beauty,http://api.map.baidu.com/place/detail?uid=20e22e73dfc52e8a17b54b8b&output=html&source=placeapi_v2,,09:00-18:30,0,,,,,,,,0,,,,,,,,,0
86d925c4de1dcc08a8175a88,多彩佳人美容院,丽人,美容,黑龙江省,哈尔滨市,香坊区,黑龙江省哈尔滨市香坊区通乡街哈慈金瑞林城二期15号楼1单元104号,,1,0,126.69568,45.712441,18746016318,beauty,http://api.map.baidu.com/place/detail?uid=86d925c4de1dcc08a8175a88&output=html&source=placeapi_v2,,08:00-19:00,,,,,,,,,,,,,,,,,,0
e3bd53a733ca5f713fe23164,初颜美容美体,丽人,美容,黑龙江省,哈尔滨市,香坊区,哈尔滨市香坊区林机街金瑞林城-3期,,1,0,126.698363,45.71136,,beauty,http://api.map.baidu.com/place/detail?uid=e3bd53a733ca5f713fe23164&output=html&source=placeapi_v2,,,,,,,,,,,,,,,,,,126.69846253992,45.711679488806,0
ad93707eb378741ec1f1cfda,溢莹美容纹绣工作室,丽人,美容,黑龙江省,哈尔滨市,香坊区,哈尔滨市香坊区红星路红星村集资楼西南侧约30米,,1,0,126.712514,45.706803,,beauty,http://api.map.baidu.com/place/detail?uid=ad93707eb378741ec1f1cfda&output=html&source=placeapi_v2,,,,,,,,,,,,,,,,,,,,0
0a96e6b9c5c6d6de940319f5,锦济康健康生活馆(田园店),丽人,美容,黑龙江省,哈尔滨市,香坊区,哈尔滨市香坊区旭升南街田园新城,,1,0,126.671408,45.695424,,beauty,http://api.map.baidu.com/place/detail?uid=0a96e6b9c5c6d6de940319f5&output=html&source=placeapi_v2,,,,,,,,,,,,,,,,,,126.6712490617,45.69528917299,0
afd7a4ffa3a215ad990050dd,泊源康养生馆,丽人,美容,黑龙江省,哈尔滨市,香坊区,黑龙江省哈尔滨市香坊区进乡街东山聚宝a区4号楼,,1,0,126.711187,45.695619,,beauty,http://api.map.baidu.com/place/detail?uid=afd7a4ffa3a215ad990050dd&output=html&source=placeapi_v2,,,,,,,,,,,,,,,,,,126.71109952724,45.69556867645,0
12873db803f22c8e3a13fdfc,芸之秀美容美甲纹绣店,丽人,美容,黑龙江省,哈尔滨市,道里区,群力民生尚都福园二期B3-1门市,,1,0,126.507619,45.728389,"15244679931,17745104177",beauty,http://api.map.baidu.com/place/detail?uid=12873db803f22c8e3a13fdfc&output=html&source=placeapi_v2,,08:30-21:00,,,,,,,,,,,,,,,,,,0
0943d8202c6012c40b69d9ff,黛丝绮美容会馆,丽人,美容,黑龙江省,哈尔滨市,道里区,哈尔滨市道里区群力民生尚都和园23栋103号,0943d8202c6012c40b69d9ff,1,0,126.523007,45.727302,17044289333,beauty,http://api.map.baidu.com/place/detail?uid=0943d8202c6012c40b69d9ff&output=html&source=placeapi_v2,,08:30-20:00,,,,,,,,,,,,,,,,126.5230552927,45.727155730164,0
b7f68557efe758a5601c676a,唯娜思漫国际形体美学馆,丽人,美容,黑龙江省,哈尔滨市,道里区,黑龙江省哈尔滨市道里区群力第六大道4050号,,1,0,126.523007,45.726195,15663234111,beauty,http://api.map.baidu.com/place/detail?uid=b7f68557efe758a5601c676a&output=html&source=placeapi_v2,,08:30-17:30,,,,,,,,,,,,,,,,126.52294013712,45.726539149405,0
31d3506f12819cb67ec87675,沐溪儿皮肤管理会馆,丽人,美容,黑龙江省,哈尔滨市,道里区,黑龙江省哈尔滨市道里区群力第五大道恒祥空间9号楼1门市,,1,0,126.537225,45.730893,(0451)51901222,beauty,http://api.map.baidu.com/place/detail?uid=31d3506f12819cb67ec87675&output=html&source=placeapi_v2,,08:30-20:00,5,,,,,,,,2,,,,,,,,,0
4f151075cee7fcfe40e19219,焕秀美颜养生会馆,丽人,美容,黑龙江省,哈尔滨市,道里区,黑龙江省哈尔滨市道里区群力第六大道4416号熙郡印象18栋2单元101号,,1,0,126.518498,45.725075,"(0451)82161868,(0451)82169222",beauty,http://api.map.baidu.com/place/detail?uid=4f151075cee7fcfe40e19219&output=html&source=placeapi_v2,,09:00-18:00,,,,,,,,,,,,,,,,,,0
aebbaea0d32a9eb3d22dd6ad,雅丽姿养生美容馆,丽人,美容,黑龙江省,哈尔滨市,道里区,黑龙江哈尔滨市道里区民生尚都瑞园28栋2单元102号,,1,0,126.530553,45.724635,,beauty,http://api.map.baidu.com/place/detail?uid=aebbaea0d32a9eb3d22dd6ad&output=html&source=placeapi_v2,,,,,,,,,,,,,,,,,,,,0
1ca16bd8fab97c869ff7797c,中式养生养颜会所,丽人,美容,黑龙江省,哈尔滨市,道里区,黑龙江省哈尔滨市道里区群力第五大道保利上城,1ca16bd8fab97c869ff7797c,1,0,126.533846,45.732014,(0451)51173446,beauty,http://api.map.baidu.com/place/detail?uid=1ca16bd8fab97c869ff7797c&output=html&source=placeapi_v2,,,,,,,,,,,,,,,,,,,,0
035fad9e5aabbd58d12dd6ae,减肥祛痘,丽人,美容,黑龙江省,哈尔滨市,道里区,黑龙江省哈尔滨市道里区群力第五大道保利上城10-9号,,1,0,126.533837,45.731993,,beauty,http://api.map.baidu.com/place/detail?uid=035fad9e5aabbd58d12dd6ae&output=html&source=placeapi_v2,,09:30-20:00,,,,,,,,,,,,,,,,126.5338386814,45.73197233619,0
388987d57888552a81a12ee1,黑龙江省美发美容协会美容行业分会,丽人,美容,黑龙江省,哈尔滨市,道里区,哈尔滨市道里区群力第六大道中海寰宇天下,,1,0,126.544844,45.729405,,beauty,http://api.map.baidu.com/place/detail?uid=388987d57888552a81a12ee1&output=html&source=placeapi_v2,,,,,,,,,,,,,,,,,,,,0
680cb29ce2b69ef38bdb7302,金芙莱美容美体会所,丽人,美容,黑龙江省,哈尔滨市,道里区,黑龙江省哈尔滨市道里区群力第六大道中海寰宇天下7-15号,,1,0,126.543255,45.729589,15958720650,beauty,http://api.map.baidu.com/place/detail?uid=680cb29ce2b69ef38bdb7302&output=html&source=placeapi_v2,,08:30-21:00,,,,,,,,,,,,,,,,126.54322660638,45.729401770711,0
693c7ba50ed484fddb1318d6,大美医疗美容整形,丽人,美容,黑龙江省,哈尔滨市,道里区,黑龙江省哈尔滨市道里区朗江路822号,,1,0,126.538282,45.736501,,beauty,http://api.map.baidu.com/place/detail?uid=693c7ba50ed484fddb1318d6&output=html&source=placeapi_v2,,09:00-19:00,,,,,,,,,,,,,,,,126.53859929636,45.736541849934,0
4669d6026cf19aee3a13fdbc,植美私人美容会所,丽人,美容,黑龙江省,哈尔滨市,道里区,黑龙江省哈尔滨市道里区第六大道中海寰宇天下6~10门市,4669d6026cf19aee3a13fdbc,1,0,126.543893,45.729493,(0451)88888080,beauty,http://api.map.baidu.com/place/detail?uid=4669d6026cf19aee3a13fdbc&output=html&source=placeapi_v2,,08:30-19:00,,,,,,,,,,,,,,,,,,0
12873db803f22c8e3a13fdfc,芸之秀美容美甲纹绣店,丽人,美容,黑龙江省,哈尔滨市,道里区,群力民生尚都福园二期B3-1门市,,1,0,126.507619,45.728389,"15244679931,17745104177",beauty,http://api.map.baidu.com/place/detail?uid=12873db803f22c8e3a13fdfc&output=html&source=placeapi_v2,,08:30-21:00,,,,,,,,,,,,,,,,,,0
214bb894991a9a2b95f08ccc,哈尔滨易筋洗髓养生工作室,丽人,美容,黑龙江省,哈尔滨市,道里区,黑龙江省哈尔滨市道里区朗江路1039-3号星光耀广场星容寓17层,,1,0,126.539544,45.738736,13512693067,beauty,http://api.map.baidu.com/place/detail?uid=214bb894991a9a2b95f08ccc&output=html&source=placeapi_v2,,09:00-18:00,,,,,,,,,,,,,,,,,,0
2775355a6481ca7835b06c28,自美美育,丽人,美容,黑龙江省,哈尔滨市,道里区,群力第五大道中海寰宇天下二期28-45,,1,0,126.543767,45.732412,(0451)51098785,beauty,http://api.map.baidu.com/place/detail?uid=2775355a6481ca7835b06c28&output=html&source=placeapi_v2,,10:00-22:00,,,,,,,,,,,,,,,,,,0
ba34dad9dae6fc502ce67bcf,梵资皮肤管理中心,丽人,美容,黑龙江省,哈尔滨市,道里区,黑龙江省哈尔滨市道里区朗江路1759号,,1,0,126.537213,45.744316,(0451)84869972,beauty,http://api.map.baidu.com/place/detail?uid=ba34dad9dae6fc502ce67bcf&output=html&source=placeapi_v2,,09:00-20:00,0,,,,,,,,0,,,,,,,,,0
43799569208c46e409b93aac,蝶奥美容养生会所,丽人,美容,黑龙江省,哈尔滨市,道里区,黑龙江省哈尔滨市道里区朗江路1669号,,1,0,126.537332,45.743879,13303614013,beauty,http://api.map.baidu.com/place/detail?uid=43799569208c46e409b93aac&output=html&source=placeapi_v2,,09:00-20:00,,,,,,,,,,,,,,,,126.53720142699,45.743862440888,0
52ea7c94e872e22833f71d7c,雅蔓宝贝来美容养生会馆,丽人,美容,黑龙江省,哈尔滨市,道里区,黑龙江省哈尔滨市道里区群力第六大道哈尔滨市第三中学校群力校区北侧约80米,52ea7c94e872e22833f71d7c,1,0,126.544884,45.729404,,beauty,http://api.map.baidu.com/place/detail?uid=52ea7c94e872e22833f71d7c&output=html&source=placeapi_v2,,09:00-21:00,,,,,,,,,,,,,,,,,,0
9661f4270265fdb952e5c583,韩熙皮肤管理中心,丽人,美容,黑龙江省,哈尔滨市,道里区,黑龙江省哈尔滨市道里区群力第二大道星光耀广场一期二号楼0120门市(星光耀广场星字楼),,1,0,126.540794,45.739595,13089712339,beauty,http://api.map.baidu.com/place/detail?uid=9661f4270265fdb952e5c583&output=html&source=placeapi_v2,114.0,10:00-18:00,0,,,,,,,,0,,,,,,,,,0
9d61b81c3b0a5315d8d8918d,寇氏减肥美容养生会馆,丽人,美容,黑龙江省,哈尔滨市,道里区,黑龙江省哈尔滨市道里区群力第六大道中海寰宇天下3楼,,1,0,126.543825,45.729497,,beauty,http://api.map.baidu.com/place/detail?uid=9d61b81c3b0a5315d8d8918d&output=html&source=placeapi_v2,,09:00-21:00,,,,,,,,,,,,,,,,,,0
cc5fd14dc209aed5d0ff237d,银玛美丽工作室,丽人,美容,黑龙江省,哈尔滨市,道里区,黑龙江省哈尔滨市道里区四方台大道阳光颐养花园,,1,0,126.543041,45.724183,,beauty,http://api.map.baidu.com/place/detail?uid=cc5fd14dc209aed5d0ff237d&output=html&source=placeapi_v2,,,,,,,,,,,,,,,,,,126.54310616428,45.724365158144,0
71c8b9777d5f360e31870aa4,鑫羽美容养生馆,丽人,美容,黑龙江省,哈尔滨市,道里区,哈尔滨市道里区三环路阳光颐养花园,,1,0,126.542871,45.722651,15504632031,beauty,http://api.map.baidu.com/place/detail?uid=71c8b9777d5f360e31870aa4&output=html&source=placeapi_v2,,08:00-21:00,,,,,,,,,,,,,,,,,,0
aa5ccd0406a98d36b9df8f9b,M・L美容抗衰工作室,丽人,美容,黑龙江省,哈尔滨市,道里区,黑龙江省哈尔滨市道里区群力大道星光耀一期2号楼301室,,1,0,126.540593,45.739635,"17645162660,18545827685",beauty,http://api.map.baidu.com/place/detail?uid=aa5ccd0406a98d36b9df8f9b&output=html&source=placeapi_v2,,10:00-19:00,0.0,,,,,,,,1,,,,,,,,,0
e5f0c76f85cdf5096268588c,槿泉美容会所(群力店),丽人,美容,黑龙江省,哈尔滨市,道里区,黑龙江省哈尔滨市道里区群力第六大道中海寰宇天下2-18号,,1,0,126.547387,45.728978,13613605270,beauty,http://api.map.baidu.com/place/detail?uid=e5f0c76f85cdf5096268588c&output=html&source=placeapi_v2,,10:00-22:00,,,,,,,,,,,,,,,,126.54736715699,45.728850771557,0
78ee0fad05fb2cfd40ab9af9,蜂妆美容养生馆,丽人,美容,黑龙江省,哈尔滨市,道里区,黑龙江省哈尔滨市道里区滇池东路1620号b2栋1层2单元101室,78ee0fad05fb2cfd40ab9af9,1,0,126.541652,45.718424,13029879252,beauty,http://api.map.baidu.com/place/detail?uid=78ee0fad05fb2cfd40ab9af9&output=html&source=placeapi_v2,,09:00-21:00,0,,,,,,,,0,,,,,,,,,0
26ebd3d219fd5e214bfd3fa3,木兰・美肌沙龙,丽人,美容,黑龙江省,哈尔滨市,道里区,黑龙江省哈尔滨市道里区群力第七大道与丽江路交汇处海富御景写字楼D9栋820室,,1,0,126.561724,45.726637,18600323999,beauty,http://api.map.baidu.com/place/detail?uid=26ebd3d219fd5e214bfd3fa3&output=html&source=placeapi_v2,,09:30-19:00,,,,,,,,,,,,,,,,,,0
b427330af9fe2ee017948eae,丹瑞国际美容,丽人,美容,黑龙江省,哈尔滨市,道里区,黑龙江省哈尔滨市道里区工农大街230号2楼,,1,0,126.566912,45.724804,16564717999,beauty,http://api.map.baidu.com/place/detail?uid=b427330af9fe2ee017948eae&output=html&source=placeapi_v2,,10:00-22:00,,,,,,,,,,,,,,,,,,0
c3082e37a24e25a9077ce8fd,蜜享美肤生活馆(海富店),丽人,美容,黑龙江省,哈尔滨市,道里区,黑龙江省哈尔滨市道里区四方台大道71号,,1,0,126.562342,45.723256,"(0451)84361353,13284505287",beauty,http://api.map.baidu.com/place/detail?uid=c3082e37a24e25a9077ce8fd&output=html&source=placeapi_v2,,09:30-20:30,0,,,,,,,,1,,,,,,,126.56238802615,45.723193233586,0
202da32809f238ed5a3ac8d5,水漾韩国皮肤管理中心(万象上东店),丽人,美容,黑龙江省,哈尔滨市,道里区,黑龙江省哈尔滨市道里区兴江路(海富・第五大道),202da32809f238ed5a3ac8d5,1,0,126.563187,45.73652,(0451)51066249,beauty,http://api.map.baidu.com/place/detail?uid=202da32809f238ed5a3ac8d5&output=html&source=placeapi_v2,,09:00-19:00,0,,,,,,,,0,,,,,,,126.56293610839,45.736392290848,0
efd5ae31fef3c1a49d9d68bb,悠悦女子美容会所,丽人,美容,黑龙江省,哈尔滨市,道里区,黑龙江省哈尔滨市道里区丽江路2438号,efd5ae31fef3c1a49d9d68bb,1,0,126.554697,45.732701,(0451)84315611,beauty,http://api.map.baidu.com/place/detail?uid=efd5ae31fef3c1a49d9d68bb&output=html&source=placeapi_v2,302.0,09:00-19:30,0,,,,,,,,0,,,,,,,126.55480804431,45.732757111771,0
89225fb1fd2ea37bf8dc858b,美美国际会所(群力第七大道店),丽人,美容,黑龙江省,哈尔滨市,道里区,黑龙江省哈尔滨市道里区群力第七大道659号观复国际4号商服,89225fb1fd2ea37bf8dc858b,1,0,126.574696,45.736383,(0451)88306999,beauty,http://api.map.baidu.com/place/detail?uid=89225fb1fd2ea37bf8dc858b&output=html&source=placeapi_v2,,08:30-19:30,5,,,,,,,,4,,,,,,,126.57476661679,45.736333368537,0
d2798082c8e04917ab175ab3,名媛汇科技美容健康调理中心,丽人,美容,黑龙江省,哈尔滨市,道里区,黑龙江省哈尔滨市道里区景江西路718号,d2798082c8e04917ab175ab3,1,0,126.571021,45.736194,,beauty,http://api.map.baidu.com/place/detail?uid=d2798082c8e04917ab175ab3&output=html&source=placeapi_v2,,09:00-18:00,,,,,,,,,,,,,,,,,,0
3c35b1abdffe271eaf080f28,美艺轻奢发型连锁(漫步巴黎店),丽人,美容,黑龙江省,哈尔滨市,道里区,黑龙江省哈尔滨市道里区工农大街493号,3c35b1abdffe271eaf080f28,1,0,126.5789,45.733608,(0451)84307899,beauty,http://api.map.baidu.com/place/detail?uid=3c35b1abdffe271eaf080f28&output=html&source=placeapi_v2,68.0,08:30-21:30,0,,,,,,,,0,,,,,,,126.57896336539,45.733562397094,0
b523fd19224a6a350a5cb3ba,姿木问题皮肤修护中心,丽人,美容,黑龙江省,哈尔滨市,道里区,黑龙江省哈尔滨市道里区工农大街523号,,1,0,126.576056,45.73171,18249461113,beauty,http://api.map.baidu.com/place/detail?uid=b523fd19224a6a350a5cb3ba&output=html&source=placeapi_v2,,08:30-20:30,0,,,,,,,,1,,,,,,,126.57611365555,45.731667067897,0
3878fb19309166801df74dcb,伊琳蒂曼共享科技美容会所,丽人,美容,黑龙江省,哈尔滨市,道里区,黑龙江省哈尔滨市道里区景江西路718号2层201室,,1,0,126.570908,45.736225,,beauty,http://api.map.baidu.com/place/detail?uid=3878fb19309166801df74dcb&output=html&source=placeapi_v2,,09:00-21:00,,,,,,,,,,,,,,,,,,0
bc4e1c516242c6e694f08cb1,玲美姿美容会所,丽人,美容,黑龙江省,哈尔滨市,道里区,黑龙江省哈尔滨市道里区群力第六大道355号,,1,0,126.568125,45.737065,,beauty,http://api.map.baidu.com/place/detail?uid=bc4e1c516242c6e694f08cb1&output=html&source=placeapi_v2,,09:00-19:00,,,,,,,,,,,,,,,,126.56824529069,45.736927196927,0
3602ffcbc90e1961f02d8334,蓝依坊美容社区连锁(群力店),丽人,美容,黑龙江省,哈尔滨市,道里区,黑龙江省哈尔滨市道里区兴江路1209-32号,,1,0,126.563643,45.735908,13796735678,beauty,http://api.map.baidu.com/place/detail?uid=3602ffcbc90e1961f02d8334&output=html&source=placeapi_v2,,09:00-19:00,,,,,,,,,,,,,,,,126.56354601921,45.735803769228,0
b5ef287afaedac5240afe6fc,沐雅国际美学生活馆,丽人,美容,黑龙江省,哈尔滨市,道里区,黑龙江省哈尔滨市道里区内街628-51号观复国际1层s1,,1,0,126.573123,45.73772,"(0451)88969696,15603659565",beauty,http://api.map.baidu.com/place/detail?uid=b5ef287afaedac5240afe6fc&output=html&source=placeapi_v2,,10:00-19:00,0,,,,,,,,2,,,,,,,,,0
6db687994285cf604d776e32,德一堂经络养生身材管理,丽人,美容,黑龙江省,哈尔滨市,道里区,黑龙江省哈尔滨市道里区兴江路1209-30号,,1,0,126.563581,45.735977,18845161768,beauty,http://api.map.baidu.com/place/detail?uid=6db687994285cf604d776e32&output=html&source=placeapi_v2,,08:00-20:00,,,,,,,,,,,,,,,,126.563440789,45.735905402869,0
22185f8972d75a24e81e97fd,SOOYOU,丽人,美容,黑龙江省,哈尔滨市,道里区,黑龙江省哈尔滨市道里区丽江路2260号,,1,0,126.556062,45.731364,"(0451)84361866,18746066397",beauty,http://api.map.baidu.com/place/detail?uid=22185f8972d75a24e81e97fd&output=html&source=placeapi_v2,,09:30-20:30,,,,,,,,,,,,,,,,,,0
da31119dcd00202f9e9d68e8,冠姿美容会馆,丽人,美容,黑龙江省,哈尔滨市,道里区,黑龙江省哈尔滨市道里区景江西路840号,,1,0,126.57016,45.736994,15114567202,beauty,http://api.map.baidu.com/place/detail?uid=da31119dcd00202f9e9d68e8&output=html&source=placeapi_v2,,09:30-21:30,,,,,,,,,,,,,,,,126.57019437918,45.737091552847,0
d1b589932dde64007bf79604,初美国际肌肤管理,丽人,美容,黑龙江省,哈尔滨市,道里区,黑龙江省哈尔滨市道里区群力第六大道355-25号,,1,0,126.567246,45.736635,18004610131,beauty,http://api.map.baidu.com/place/detail?uid=d1b589932dde64007bf79604&output=html&source=placeapi_v2,,09:30-19:00,,,,,,,,,,,,,,,,126.5673955835,45.736498418877,0
808374b900a2355685420e81,制青春抗衰养生馆,丽人,美容,黑龙江省,哈尔滨市,道里区,黑龙江省哈尔滨市道里区群力第五大道1538号,,1,0,126.566853,45.740052,,beauty,http://api.map.baidu.com/place/detail?uid=808374b900a2355685420e81&output=html&source=placeapi_v2,,09:00-20:00,,,,,,,,,,,,,,,,126.56680237399,45.740168258359,0
52390e7b89e89c9ff92213b7,私荟逆龄抗衰皮肤管理(群力店),丽人,美容,黑龙江省,哈尔滨市,道里区,黑龙江省哈尔滨市道里区金江路185号,,1,0,126.58054,45.738028,(0451)84306611,beauty,http://api.map.baidu.com/place/detail?uid=52390e7b89e89c9ff92213b7&output=html&source=placeapi_v2,,08:30-20:30,0,,,,,,,,1,,,,,,,126.58054005554,45.737996968022,0
ea624bacf3f0487372210bfe,菁美美容养生会所,丽人,美容,黑龙江省,哈尔滨市,道里区,黑龙江省哈尔滨市道里区兴江路1209-5号,ea624bacf3f0487372210bfe,1,0,126.560992,45.738713,18145176444,beauty,http://api.map.baidu.com/place/detail?uid=ea624bacf3f0487372210bfe&output=html&source=placeapi_v2,,08:00-21:00,0,,,,,,,,2,,,,,,,126.56082592587,45.738643094174,0
3b1568eecbafd45504fef56f,沐琳美颜中心,丽人,美容,黑龙江省,哈尔滨市,道里区,黑龙江省哈尔滨市道里区四方台大道s1~3号,,1,0,126.557236,45.720803,18045655505,beauty,http://api.map.baidu.com/place/detail?uid=3b1568eecbafd45504fef56f&output=html&source=placeapi_v2,,09:00-20:00,,,,,,,,,,,,,,,,,,0
758f127e3d0414693ce23142,花山院日式脱毛美肤沙龙,丽人,美容,黑龙江省,哈尔滨市,道里区,哈尔滨市道里区景江东路群力金中环商业中心2期F座3层3139室,758f127e3d0414693ce23142,1,0,126.570555,45.743765,18345164106,beauty,http://api.map.baidu.com/place/detail?uid=758f127e3d0414693ce23142&output=html&source=placeapi_v2,184.0,10:00-18:00,0,,,,,,,,0,,,,,,,126.57043389169,45.74420854299,0
37d7bfe9557c4547593ac81c,小松形象(群力远大店),丽人,美容,黑龙江省,哈尔滨市,道里区,黑龙江省哈尔滨市道里区群力大道1176号远大购物中心F1,37d7bfe9557c4547593ac81c,1,0,126.562701,45.743528,(0451)51067611,beauty,http://api.map.baidu.com/place/detail?uid=37d7bfe9557c4547593ac81c&output=html&source=placeapi_v2,47.0,10:00-22:00,5,,,,,,,,1,,,,,,,126.56654426566,45.744687157339,0
025a8e4289aab3f9a4c756bb,易瘦美容养生连锁店,丽人,美容,黑龙江省,哈尔滨市,道里区,黑龙江省哈尔滨市道里区群力四方台大道桐楠格领誉喷泉广场9栋8号,,1,0,126.55692,45.720817,18945019650,beauty,http://api.map.baidu.com/place/detail?uid=025a8e4289aab3f9a4c756bb&output=html&source=placeapi_v2,,09:00-20:00,,,,,,,,,,,,,,,,,,0
2a968d2d3d69f59e1894c6ca,初原日式脱毛嫩肤沙龙,丽人,美容,黑龙江省,哈尔滨市,道里区,哈尔滨市道里区群力第四大道财富中心C座1312室(万达影城旁),2a968d2d3d69f59e1894c6ca,1,0,126.559966,45.742871,15545130715,beauty,http://api.map.baidu.com/place/detail?uid=2a968d2d3d69f59e1894c6ca&output=html&source=placeapi_v2,511.0,10:00-18:00,0,,,,,,,,0,,,,,,,,,0
f6241bd2a63ca2f015c905d0,蕾特恩专业祛痘(远大购物中心群力店),丽人,美容,黑龙江省,哈尔滨市,道里区,黑龙江省哈尔滨市道里区群力大道1176号远大购物中心F1,,1,0,126.563703,45.744178,4001548808,beauty,http://api.map.baidu.com/place/detail?uid=f6241bd2a63ca2f015c905d0&output=html&source=placeapi_v2,57.0,09:00-20:00,0,,,,,,,,0,,,,,,,126.56310767846,45.744450662845,0
63cb059064d85442077ce8f3,靓芙泉祛痘(国际)连锁王府井店,丽人,美容,黑龙江省,哈尔滨市,道里区,黑龙江省哈尔滨市道里区金江路167号,,1,0,126.580622,45.737856,15045108419,beauty,http://api.map.baidu.com/place/detail?uid=63cb059064d85442077ce8f3&output=html&source=placeapi_v2,,09:00-19:00,,,,,,,,,,,,,,,,126.58052887923,45.737674950477,0
14cfecc166e592757adbd269,舒颜皮肤管理,丽人,美容,黑龙江省,哈尔滨市,道里区,黑龙江省哈尔滨市道里区四方台大道桐楠格领域b4-9号,,1,0,126.554833,45.721554,18245151929,beauty,http://api.map.baidu.com/place/detail?uid=14cfecc166e592757adbd269&output=html&source=placeapi_v2,,,,,,,,,,,,,,,,,,126.55483827049,45.721654269897,0
709e29fad6449969f7eafcce,金小美中韩皮肤管理中心,丽人,美容,黑龙江省,哈尔滨市,道里区,哈尔滨市道里区群力第五大道汇智金融企业总部,,1,0,126.551439,45.734814,,beauty,http://api.map.baidu.com/place/detail?uid=709e29fad6449969f7eafcce&output=html&source=placeapi_v2,,09:30-18:00,,,,,,,,,,,,,,,,,,0
388987d57888552a81a12ee1,黑龙江省美发美容协会美容行业分会,丽人,美容,黑龙江省,哈尔滨市,道里区,哈尔滨市道里区群力第六大道中海寰宇天下,,1,0,126.544844,45.729405,,beauty,http://api.map.baidu.com/place/detail?uid=388987d57888552a81a12ee1&output=html&source=placeapi_v2,,,,,,,,,,,,,,,,,,,,0
5d5ad03c03f5af291c38940a,专业艾灸祛寒除湿,丽人,美容,黑龙江省,哈尔滨市,道里区,哈尔滨市道里区工农大街鑫都丽水雅居,,1,0,126.584591,45.736649,,beauty,http://api.map.baidu.com/place/detail?uid=5d5ad03c03f5af291c38940a&output=html&source=placeapi_v2,,,,,,,,,,,,,,,,,,126.5843672165,45.736811995362,0
d236c898f9682575d518b70f,谦和国际(群力店),丽人,美容,黑龙江省,哈尔滨市,道里区,黑龙江省哈尔滨市道里区群力金中环二期B座362室,d236c898f9682575d518b70f,1,0,126.570492,45.742942,"15645148986,17194511777",beauty,http://api.map.baidu.com/place/detail?uid=d236c898f9682575d518b70f&output=html&source=placeapi_v2,177.0,09:30-19:00,4.4,,,,,,,,6,,,,,,,,,0
72c44eeb1e4c3dda16c9053d,天公作美,丽人,美容,黑龙江省,哈尔滨市,道里区,黑龙江省哈尔滨市道里区城乡路迎宾小区一区110栋4单元101室,72c44eeb1e4c3dda16c9053d,1,0,126.585567,45.732796,18246040641,beauty,http://api.map.baidu.com/place/detail?uid=72c44eeb1e4c3dda16c9053d&output=html&source=placeapi_v2,107.0,09:00-21:00,,,,,,,,,,,,,,,,,,0
680cb29ce2b69ef38bdb7302,金芙莱美容美体会所,丽人,美容,黑龙江省,哈尔滨市,道里区,黑龙江省哈尔滨市道里区群力第六大道中海寰宇天下7-15号,,1,0,126.543255,45.729589,15958720650,beauty,http://api.map.baidu.com/place/detail?uid=680cb29ce2b69ef38bdb7302&output=html&source=placeapi_v2,,08:30-21:00,,,,,,,,,,,,,,,,126.54322660638,45.729401770711,0
ba9df31eccec300d6fc02c2e,克丽缇娜(漫步巴黎店),丽人,美容,黑龙江省,哈尔滨市,道里区,黑龙江省哈尔滨市道里区金江路136号,ba9df31eccec300d6fc02c2e,1,0,126.581029,45.736649,"(0451)84315006,18545140860",beauty,http://api.map.baidu.com/place/detail?uid=ba9df31eccec300d6fc02c2e&output=html&source=placeapi_v2,261.0,08:00-20:00,4,,,,,,,,5,,,,,,,126.58119411309,45.736753890581,0
da5eaaff635446d61ef74d37,新雨池祛痘不针清,丽人,美容,黑龙江省,哈尔滨市,道里区,黑龙江省哈尔滨市道里区群力第五大道金中环c5号楼325室,,1,0,126.572675,45.741583,(0451)51178325,beauty,http://api.map.baidu.com/place/detail?uid=da5eaaff635446d61ef74d37&output=html&source=placeapi_v2,,09:00-19:00,,,,,,,,,,,,,,,,,,0
e5f0c76f85cdf5096268588c,槿泉美容会所(群力店),丽人,美容,黑龙江省,哈尔滨市,道里区,黑龙江省哈尔滨市道里区群力第六大道中海寰宇天下2-18号,,1,0,126.547387,45.728978,13613605270,beauty,http://api.map.baidu.com/place/detail?uid=e5f0c76f85cdf5096268588c&output=html&source=placeapi_v2,,10:00-22:00,,,,,,,,,,,,,,,,126.54736715699,45.728850771557,0
52ea7c94e872e22833f71d7c,雅蔓宝贝来美容养生会馆,丽人,美容,黑龙江省,哈尔滨市,道里区,黑龙江省哈尔滨市道里区群力第六大道哈尔滨市第三中学校群力校区北侧约80米,52ea7c94e872e22833f71d7c,1,0,126.544884,45.729404,,beauty,http://api.map.baidu.com/place/detail?uid=52ea7c94e872e22833f71d7c&output=html&source=placeapi_v2,,09:00-21:00,,,,,,,,,,,,,,,,,,0
3c3ff6c5d477c14a081cc708,黛瑗馨科技皮肤管理中心,丽人,美容,黑龙江省,哈尔滨市,道里区,群力大道远大公寓A座1509室(近群力万达影城3号门),,1,0,126.560618,45.743741,,beauty,http://api.map.baidu.com/place/detail?uid=3c3ff6c5d477c14a081cc708&output=html&source=placeapi_v2,,,,,,,,,,,,,,,,,,,,0
4669d6026cf19aee3a13fdbc,植美私人美容会所,丽人,美容,黑龙江省,哈尔滨市,道里区,黑龙江省哈尔滨市道里区第六大道中海寰宇天下6~10门市,4669d6026cf19aee3a13fdbc,1,0,126.543893,45.729493,(0451)88888080,beauty,http://api.map.baidu.com/place/detail?uid=4669d6026cf19aee3a13fdbc&output=html&source=placeapi_v2,,08:30-19:00,,,,,,,,,,,,,,,,,,0
9d61b81c3b0a5315d8d8918d,寇氏减肥美容养生会馆,丽人,美容,黑龙江省,哈尔滨市,道里区,黑龙江省哈尔滨市道里区群力第六大道中海寰宇天下3楼,,1,0,126.543825,45.729497,,beauty,http://api.map.baidu.com/place/detail?uid=9d61b81c3b0a5315d8d8918d&output=html&source=placeapi_v2,,09:00-21:00,,,,,,,,,,,,,,,,,,0
9580a43d9b83b394ae31e5fb,樱花洛专业脱毛嫩肤机构,丽人,美容,黑龙江省,哈尔滨市,道里区,哈尔滨市道里区兴江路89号群力财富中心C座1120室,9580a43d9b83b394ae31e5fb,1,0,126.559928,45.743062,"13100807308,13845148988",beauty,http://api.map.baidu.com/place/detail?uid=9580a43d9b83b394ae31e5fb&output=html&source=placeapi_v2,,10:00-18:00,0.0,,,,,,,,1,,,,,,,126.56004392038,45.74266142247,0
2775355a6481ca7835b06c28,自美美育,丽人,美容,黑龙江省,哈尔滨市,道里区,群力第五大道中海寰宇天下二期28-45,,1,0,126.543767,45.732412,(0451)51098785,beauty,http://api.map.baidu.com/place/detail?uid=2775355a6481ca7835b06c28&output=html&source=placeapi_v2,,10:00-22:00,,,,,,,,,,,,,,,,,,0
9d8b0f7b9df1755f1b11d5f0,墨染皮肤管理(远大购物中心群力店),丽人,美容,黑龙江省,哈尔滨市,道里区,黑龙江省哈尔滨市道里区群力大道1176号远大购物中心F1,,1,0,126.564124,45.74417,15663777151,beauty,http://api.map.baidu.com/place/detail?uid=9d8b0f7b9df1755f1b11d5f0&output=html&source=placeapi_v2,,09:30-19:00,,,,,,,,,,,,,,,,,,0
d0cb41c130826fcdce04ef20,SSNOW美容美体养生丰胸美甲美睫,丽人,美容,黑龙江省,哈尔滨市,道里区,哈尔滨市道里区群力第四大道远大购物中心(群力店),,1,0,126.563742,45.743532,,beauty,http://api.map.baidu.com/place/detail?uid=d0cb41c130826fcdce04ef20&output=html&source=placeapi_v2,,,,,,,,,,,,,,,,,,,,0
a43b68a890dda53a14b54b4c,花皇美容美体会馆,丽人,美容,黑龙江省,哈尔滨市,道里区,黑龙江省哈尔滨市道里区工农大街453号漫步巴黎2楼,a43b68a890dda53a14b54b4c,1,0,126.580409,45.734655,"13766815123,17603670049",beauty,http://api.map.baidu.com/place/detail?uid=a43b68a890dda53a14b54b4c&output=html&source=placeapi_v2,,08:30-19:00,0,,,,,,,,0,,,,,,,,,0
02f7467e21a4ccc2f11937f0,美宫365°女子健康会所,丽人,美容,黑龙江省,哈尔滨市,道里区,黑龙江省哈尔滨市道里区工农大街117号,02f7467e21a4ccc2f11937f0,1,0,126.583098,45.736481,(0451)55533365,beauty,http://api.map.baidu.com/place/detail?uid=02f7467e21a4ccc2f11937f0&output=html&source=placeapi_v2,,09:00-18:00,4.6,,,,,,,,0,,,,,,,,,0
50a8bdc26bd4cbd01c580048,美容美体会馆,丽人,美容,黑龙江省,哈尔滨市,道里区,黑龙江省哈尔滨市道里区新富街b区52栋,,1,0,126.578416,45.742334,(0451)51942833,beauty,http://api.map.baidu.com/place/detail?uid=50a8bdc26bd4cbd01c580048&output=html&source=placeapi_v2,,00:00-24:00,,,,,,,,,,,,,,,,126.57836008497,45.742166422923,0
7bd3a43614cf05e7cac3db15,琳小闹美容美体,丽人,美容,黑龙江省,哈尔滨市,道里区,黑龙江省哈尔滨市道里区工农大街115号,,1,0,126.58324,45.73653,(0451)84321255,beauty,http://api.map.baidu.com/place/detail?uid=7bd3a43614cf05e7cac3db15&output=html&source=placeapi_v2,,10:00-22:00,,,,,,,,,,,,,,,,,,0
1dec7b78973fefd5250bd0e3,骨雕译美养生美容中心,丽人,美容,黑龙江省,哈尔滨市,道里区,群力大道与丽江路交叉口宏润・翠湖天地翠园9-1-301室,1dec7b78973fefd5250bd0e3,1,0,126.54958,45.739416,"(0451)84313298,13045145913",beauty,http://api.map.baidu.com/place/detail?uid=1dec7b78973fefd5250bd0e3&output=html&source=placeapi_v2,,,0,,,,,,,,0,,,,,,,,,0
cb4283046dd2095dc7f025dd,姐妹理容,丽人,美容,黑龙江省,哈尔滨市,道里区,哈尔滨市道里区金城街宝宝乐幼儿园(金城街)西北侧约200米,,1,0,126.563463,45.712398,13836142717,beauty,http://api.map.baidu.com/place/detail?uid=cb4283046dd2095dc7f025dd&output=html&source=placeapi_v2,,10:00-21:30,,,,,,,,,,,,,,,,126.56351190785,45.712414032964,0
cc5fd14dc209aed5d0ff237d,银玛美丽工作室,丽人,美容,黑龙江省,哈尔滨市,道里区,黑龙江省哈尔滨市道里区四方台大道阳光颐养花园,,1,0,126.543041,45.724183,,beauty,http://api.map.baidu.com/place/detail?uid=cc5fd14dc209aed5d0ff237d&output=html&source=placeapi_v2,,,,,,,,,,,,,,,,,,126.54310616428,45.724365158144,0
1864c583e3e770bed518b767,春燕美容工作室,丽人,美容,黑龙江省,哈尔滨市,道里区,哈尔滨市道里区城清头道街城元阁小区北侧约50米,1864c583e3e770bed518b767,1,0,126.566126,45.711137,,beauty,http://api.map.baidu.com/place/detail?uid=1864c583e3e770bed518b767&output=html&source=placeapi_v2,,,,,,,,,,,,,,,,,,,,0
71c8b9777d5f360e31870aa4,鑫羽美容养生馆,丽人,美容,黑龙江省,哈尔滨市,道里区,哈尔滨市道里区三环路阳光颐养花园,,1,0,126.542871,45.722651,15504632031,beauty,http://api.map.baidu.com/place/detail?uid=71c8b9777d5f360e31870aa4&output=html&source=placeapi_v2,,08:00-21:00,,,,,,,,,,,,,,,,,,0
b42d254958ba8ccd0f0e6bef,品味女人美容美体,丽人,美容,黑龙江省,哈尔滨市,道里区,融江路群力家园C4栋3门市(引领造型楼上),,1,0,126.548988,45.717211,13946029367,beauty,http://api.map.baidu.com/place/detail?uid=b42d254958ba8ccd0f0e6bef&output=html&source=placeapi_v2,,10:00-22:00,,,,,,,,,,,,,,,,,,0
c36bdbbbf41c2c68364aae62,欣颜美容美体养生馆(上江街店),丽人,美容,黑龙江省,哈尔滨市,道里区,黑龙江省哈尔滨市道里区建平路28-10号,,1,0,126.584522,45.740804,13339517109,beauty,http://api.map.baidu.com/place/detail?uid=c36bdbbbf41c2c68364aae62&output=html&source=placeapi_v2,,,,,,,,,,,,,,,,,,126.58456662146,45.740771112866,0
9966538032f617f9316212ab,雪儿印象美业,丽人,美容,黑龙江省,哈尔滨市,道里区,黑龙江省哈尔滨市道里区工农大街46号报达文化嘉园6栋6门市,,1,0,126.583409,45.734777,,beauty,http://api.map.baidu.com/place/detail?uid=9966538032f617f9316212ab&output=html&source=placeapi_v2,,,,,,,,,,,,,,,,,,126.58350132994,45.734726248904,0
5282b8edda24c4fac8e33cf0,花之媚美容,丽人,美容,黑龙江省,哈尔滨市,道里区,哈尔滨市道里区职工南街迎宾住宅小区-四区北侧,5282b8edda24c4fac8e33cf0,1,0,126.590322,45.733983,15152462666,beauty,http://api.map.baidu.com/place/detail?uid=5282b8edda24c4fac8e33cf0&output=html&source=placeapi_v2,,,,,,,,,,,,,,,,,,,,0
728b680318d1d1b714c8f6c9,悦鑫颜美容院,丽人,美容,黑龙江省,哈尔滨市,南岗区,黑龙江省哈尔滨市南岗区中国黑龙江保利清华颐园10号楼,,1,0,126.61096,45.72549,18945654495,beauty,http://api.map.baidu.com/place/detail?uid=728b680318d1d1b714c8f6c9&output=html&source=placeapi_v2,,,,,,,,,,,,,,,,,,,,0
146b1494df6d7c9c01294f7d,考氏专业祛痘(和兴路店),丽人,美容,黑龙江省,哈尔滨市,南岗区,黑龙江省哈尔滨市南岗区和兴十一道街35号,146b1494df6d7c9c01294f7d,1,0,126.614184,45.733725,(0451)86306016,beauty,http://api.map.baidu.com/place/detail?uid=146b1494df6d7c9c01294f7d&output=html&source=placeapi_v2,113.0,08:00-18:00,5,,,,,,,,2,,,,,,,126.61404575554,45.733598998919,0
0e1799155ab235a48af15dd1,千和若美整形美容,丽人,美容,黑龙江省,哈尔滨市,南岗区,黑龙江省哈尔滨市南岗区哈西大街29号,0e1799155ab235a48af15dd1,1,0,126.59921,45.719819,(0451)88267666,beauty,http://api.map.baidu.com/place/detail?uid=0e1799155ab235a48af15dd1&output=html&source=placeapi_v2,,08:30-17:30,5,,,,,,,,,,,,,,,126.59934637465,45.719818125819,0
091142d80ced22e943e19289,今时悦色美容养生会馆,丽人,美容,黑龙江省,哈尔滨市,南岗区,黑龙江省哈尔滨市南岗区和兴十一道街21号,091142d80ced22e943e19289,1,0,126.614808,45.733468,"(0451)55553477,13895741047,18304629738",beauty,http://api.map.baidu.com/place/detail?uid=091142d80ced22e943e19289&output=html&source=placeapi_v2,262.0,08:30-19:00,0,,,,,,,,1,,,,,,,126.61474270676,45.733362788241,0
54eae3a9f55d07d359f6bec6,爱丹减肥祛痘,丽人,美容,黑龙江省,哈尔滨市,南岗区,学府路1-4号附近,,1,0,126.614652,45.724555,,beauty,http://api.map.baidu.com/place/detail?uid=54eae3a9f55d07d359f6bec6&output=html&source=placeapi_v2,,,,,,,,,,,,,,,,,,,,0
242e8b4e2cf8923fb020a83f,知美集团,丽人,美容,黑龙江省,哈尔滨市,南岗区,黑龙江省哈尔滨市南岗区职工南街c-09柒零捌0号,,1,0,126.599246,45.72398,(0451)82451455,beauty,http://api.map.baidu.com/place/detail?uid=242e8b4e2cf8923fb020a83f&output=html&source=placeapi_v2,,,,,,,,,,,,,,,,,,,,0
809ba7471df061a7fea778f5,圣莉斯歌美容健康会员服务中心(自兴店),丽人,美容,黑龙江省,哈尔滨市,南岗区,黑龙江省哈尔滨市南岗区自兴街48号保利清华颐园15-6号,,1,0,126.611949,45.725378,"(0451)86239933,18645022333",beauty,http://api.map.baidu.com/place/detail?uid=809ba7471df061a7fea778f5&output=html&source=placeapi_v2,,10:00-21:00,,,,,,,,,,,,,,,,126.61197015508,45.725314934094,0
9fdf8d8992db1c71cae33c7f,梅轩美体美容,丽人,美容,黑龙江省,哈尔滨市,南岗区,黑龙江省哈尔滨市南岗区西大直街393号2楼201室,9fdf8d8992db1c71cae33c7f,1,0,126.619071,45.735241,"13136661875,15145061875",beauty,http://api.map.baidu.com/place/detail?uid=9fdf8d8992db1c71cae33c7f&output=html&source=placeapi_v2,,07:00-19:00,5,,,,,,,,3,,,,,,,,,0
629407f013e5768f9f09f7f6,百世玉芳肌肤管理(学府凯德店),丽人,美容,黑龙江省,哈尔滨市,南岗区,黑龙江省哈尔滨市南岗区自兴街32号保利清华颐园3号门平峰大药房楼上2楼(近学府凯德后门),,1,0,126.612163,45.725771,18746605876,beauty,http://api.map.baidu.com/place/detail?uid=629407f013e5768f9f09f7f6&output=html&source=placeapi_v2,,09:30-19:00,,,,,,,,,,,,,,,,126.61222553166,45.725746021987,0
1fd770c84a804adea8059dd9,靓芙泉祛痘国际连锁(学府凯德店),丽人,美容,黑龙江省,哈尔滨市,南岗区,黑龙江省哈尔滨市南岗区康宁路11号,,1,0,126.614478,45.730969,"(0451)84211112,13936521998",beauty,http://api.map.baidu.com/place/detail?uid=1fd770c84a804adea8059dd9&output=html&source=placeapi_v2,,09:00-19:00,,,,,,,,,,,,,,,,126.61438498175,45.730847151915,0
b8257463d6ad947076e5b64d,艾灸养生馆,丽人,美容,黑龙江省,哈尔滨市,南岗区,黑龙江哈尔滨市南岗区和兴十一道街32号402室,b8257463d6ad947076e5b64d,1,0,126.613714,45.733497,,beauty,http://api.map.baidu.com/place/detail?uid=b8257463d6ad947076e5b64d&output=html&source=placeapi_v2,,,,,,,,,,,,,,,,,,126.61382735142,45.733646694423,0
b27689bd3e0264d4c26c148d,头道美容养生坊,丽人,美容,黑龙江省,哈尔滨市,南岗区,学府路1号福顺尚都10栋4单元102（近自兴街六泰居）,,1,0,126.614188,45.724283,"15174556817,18646333106",beauty,http://api.map.baidu.com/place/detail?uid=b27689bd3e0264d4c26c148d&output=html&source=placeapi_v2,,08:30-21:00,,,,,,,,,,,,,,,,126.61370909039,45.724018876229,0
7a76a54430c51328ca2915b8,润姿美容院,丽人,美容,黑龙江省,哈尔滨市,南岗区,黑龙江省哈尔滨市南岗区和兴十一道街仪兴小区10栋,,1,0,126.613871,45.734482,18045651583,beauty,http://api.map.baidu.com/place/detail?uid=7a76a54430c51328ca2915b8&output=html&source=placeapi_v2,,08:30-05:00,,,,,,,,,,,,,,,,,,0
ebe9b3896f47b61e9222e006,艾美丽人坊减肥美容连锁(哈西店),丽人,美容,黑龙江省,哈尔滨市,南岗区,哈尔滨市南岗区哈西大街西城丽景小区4号楼1单元0801室(明达大厦),,1,0,126.599031,45.718274,,beauty,http://api.map.baidu.com/place/detail?uid=ebe9b3896f47b61e9222e006&output=html&source=placeapi_v2,,,,,,,,,,,,,,,,,,,,0
9a14d589d4d996e840afe615,瑶芳专业祛痘(西大直街店),丽人,美容,黑龙江省,哈尔滨市,南岗区,黑龙江省哈尔滨市南岗区西大直街387号,9a14d589d4d996e840afe615,1,0,126.619132,45.735372,"13946101116,15045627222",beauty,http://api.map.baidu.com/place/detail?uid=9a14d589d4d996e840afe615&output=html&source=placeapi_v2,,09:00-21:00,0,,,,,,,,0,,,,,,,126.61930432101,45.735229633504,0
13cdddbd69fa7c082bb97c55,卡姿专业祛痘皮肤管理中心,丽人,美容,黑龙江省,哈尔滨市,南岗区,哈尔滨市南岗区学府路1号顺尚都18号楼1单元蓝钻公寓2610室,,1,0,126.616311,45.726627,"13946179663,17766558545",beauty,http://api.map.baidu.com/place/detail?uid=13cdddbd69fa7c082bb97c55&output=html&source=placeapi_v2,134.0,08:30-20:30,0,,,,,,,,0,,,,,,,,,0
164c2a571139cbabdeee8b8b,禹・新派养生会所,丽人,美容,黑龙江省,哈尔滨市,南岗区,武威路爱达尊御s1栋-8号,,1,0,126.594577,45.71881,"13149606017,13936317759",beauty,http://api.map.baidu.com/place/detail?uid=164c2a571139cbabdeee8b8b&output=html&source=placeapi_v2,,11:00-01:00,,,,,,,,,,,,,,,,126.59493683095,45.719057543009,0
